     3.04           OBSERVATION DATA    M                   RINEX VERSION / TYPE
ssrcrin-15.6.1x                         20250101 004500 UTC PGM / RUN BY / DATE 
(00000000023479385599111004) Septentrio proprietary         COMMENT             
rref                                                        MARKER NAME         
01                                                          MARKER NUMBER       
geodetic                                                    MARKER TYPE         
NFB                 CLIMERS@TUW                             OBSERVER / AGENCY   
3297213             SEPT ASTERX SB3 PROB4.14.4              REC # / TYPE / VERS 
Unknown             Unknown                                 ANT # / TYPE        
  4127831.7521  1207193.1874  4695247.6717                  APPROX POSITION XYZ 
        0.0000        0.0000        0.0000                  ANTENNA: DELTA H/E/N
G   23 X1  C1C L1C D1C S1C C1W S1W C2W L2W D2W S2W C2L L2L  SYS / # / OBS TYPES 
       D2L S2L C5Q L5Q D5Q S5Q C1L L1L D1L S1L              SYS / # / OBS TYPES 
E   21 X1  C1C L1C D1C S1C C6C L6C D6C S6C C5Q L5Q D5Q S5Q  SYS / # / OBS TYPES 
       C7Q L7Q D7Q S7Q C8Q L8Q D8Q S8Q                      SYS / # / OBS TYPES 
S    9 X1  C1C L1C D1C S1C C5I L5I D5I S5I                  SYS / # / OBS TYPES 
R   17 X1  C1C L1C D1C S1C C2P L2P D2P S2P C2C L2C D2C S2C  SYS / # / OBS TYPES 
       C3Q L3Q D3Q S3Q                                      SYS / # / OBS TYPES 
C   25 X1  C1P L1P D1P S1P C5P L5P D5P S5P C2I L2I D2I S2I  SYS / # / OBS TYPES 
       C7I L7I D7I S7I C6I L6I D6I S6I C7D L7D D7D S7D      SYS / # / OBS TYPES 
J   17 X1  C1C L1C D1C S1C C2L L2L D2L S2L C5Q L5Q D5Q S5Q  SYS / # / OBS TYPES 
       C1L L1L D1L S1L                                      SYS / # / OBS TYPES 
I    5 X1  C5A L5A D5A S5A                                  SYS / # / OBS TYPES 
SEPTENTRIO RECEIVERS OUTPUT ALIGNED CARRIER PHASES.         COMMENT             
NO FURTHER PHASE SHIFT APPLIED IN THE RINEX ENCODER.        COMMENT             
G L1C                                                       SYS / PHASE SHIFT   
G L2W                                                       SYS / PHASE SHIFT   
G L2L  0.00000                                              SYS / PHASE SHIFT   
G L5Q  0.00000                                              SYS / PHASE SHIFT   
G L1L  0.00000                                              SYS / PHASE SHIFT   
E L1C  0.00000                                              SYS / PHASE SHIFT   
E L6C  0.00000                                              SYS / PHASE SHIFT   
E L5Q  0.00000                                              SYS / PHASE SHIFT   
E L7Q  0.00000                                              SYS / PHASE SHIFT   
E L8Q  0.00000                                              SYS / PHASE SHIFT   
S L1C                                                       SYS / PHASE SHIFT   
S L5I                                                       SYS / PHASE SHIFT   
R L1C                                                       SYS / PHASE SHIFT   
R L2P  0.00000                                              SYS / PHASE SHIFT   
R L2C                                                       SYS / PHASE SHIFT   
R L3Q  0.00000                                              SYS / PHASE SHIFT   
C L1P  0.00000                                              SYS / PHASE SHIFT   
C L5P  0.00000                                              SYS / PHASE SHIFT   
C L2I                                                       SYS / PHASE SHIFT   
C L7I                                                       SYS / PHASE SHIFT   
C L6I                                                       SYS / PHASE SHIFT   
C L7D                                                       SYS / PHASE SHIFT   
J L1C                                                       SYS / PHASE SHIFT   
J L2L  0.00000                                              SYS / PHASE SHIFT   
J L5Q  0.00000                                              SYS / PHASE SHIFT   
J L1L  0.00000                                              SYS / PHASE SHIFT   
I L5A                                                       SYS / PHASE SHIFT   
  2025     1     1     0    45    0.0000000     GPS         TIME OF FIRST OBS   
 C1C    0.000 C2C    0.000 C2P    0.000                     GLONASS COD/PHS/BIS 
DBHZ                                                        SIGNAL STRENGTH UNIT
    18                                                      LEAP SECONDS        
 24 R01  1 R02 -4 R03  5 R04  6 R05  1 R06 -4 R07  5 R08  6 GLONASS SLOT / FRQ #
    R09 -2 R10 -7 R11  0 R12 -1 R13 -2 R14 -7 R15  0 R16 -1 GLONASS SLOT / FRQ #
    R17  4 R18 -3 R19  3 R20  2 R21  4 R22 -3 R23  3 R24  2 GLONASS SLOT / FRQ #
                                                            END OF HEADER       
> 2025 01 01 00 45  0.0000000  0 56
G28         1.000    23380512.632 6 122865434.47806       643.065 6        41.859                                    23380508.833 4  95739280.35104       501.090 4        28.199    23380509.352 7  95739286.35807       501.191 7        42.044
G31         2.000    23493178.310 7 123457490.61907      2211.221 7        43.600                                    23493174.240 6  96200627.76506      1723.029 6        37.913    23493174.428 6  96200626.75306      1723.105 6        38.949
G09         3.000    25251788.923 5 132699055.62505      3424.210 5        35.500                                    25251787.937 4 103401863.88004      2668.207 4        27.413    25251788.028 5 103401864.89805      2668.100 5        33.605
E34         4.000    28488518.744 6 149708172.83006      2360.446 6        36.529                                                                    28488519.609 6 111795068.55106      1762.638 6        38.895    28488519.040 6 114711461.34906      1808.796 6        39.952
S21         5.000    38515051.390 6 202397811.83306      -426.241 6        41.924
R12         6.000    24744658.676 6 132181547.06506     -2967.193 6        41.478                                                                    24744660.620 6 102807885.03006     -2307.835 6        36.348
G21         7.000    21955114.196 7 115374965.55607     -2592.578 7        45.430                                    21955109.361 5  89902574.52105     -2020.191 5        34.314
E04         8.000    23833003.295 7 125243301.74207      -690.662 7        47.295                                                                    23833001.227 8  93525847.48308      -515.711 8        50.358    23833001.150 8  95965644.11208      -529.257 8        51.317
R14         9.000    24402058.538 6 130076709.76406      2344.365 6        41.745                                                                    24402058.745 6 101170764.39906      1823.390 6        37.807
G04        10.000    22861377.991 7 120137383.48407      3028.408 7        43.572                                    22861375.362 5  93613551.25705      2359.798 5        30.174    22861375.847 6  93613546.25706      2359.924 6        41.561
E09        11.000    24957616.675 7 131153202.91107      1937.128 7        46.337                                                                    24957616.256 8  97939095.35208      1446.551 8        48.430    24957615.933 8 100494027.71808      1484.311 8        49.087
S27        12.000    39161237.160 5 205793664.57405      -407.090 5        35.410
S36        14.000    38282646.669 7 201177174.05507      -426.002 7        43.609
E02        15.000    28554170.371 5 150053198.88805     -2816.653 5        34.981                                                                    28554170.123 6 112052729.62206     -2103.367 6        37.077    28554169.153 6 114975840.16906     -2158.277 6        37.289
E36        16.000    24308876.376 7 127744036.93007      1197.118 7        46.806                                                                    24308876.698 8  95393291.52108       894.025 8        49.599    24308876.567 8  97881806.90908       917.244 8        50.454
S45        17.000    63482713.176 6 333604453.17206      -467.975 6        37.108
G03        18.000    20296391.668 8 106658314.57908       699.976 8        49.961                                    20296389.663 8  83110394.44808       545.436 8        51.037    20296390.372 7  83110403.44707       545.419 7        44.748
R21        19.000    20482875.987 8 109608046.90708      2363.024 8        50.613                                                                    20482874.767 7  85250713.05407      1838.021 7        46.377
R20        20.000    19461873.996 6 104071430.06506     -1785.710 6        40.539                                                                    19461874.890 7  80944444.88907     -1388.857 7        47.146
R05        21.000    19299828.502 8 103168689.30608     -1497.138 8        51.762                                                                    19299827.559 7  80242319.88807     -1164.385 7        47.148
I06        22.000    38294889.293 6 150277601.08106      -216.947 6        41.819
S28        23.000    40957402.217 5 215232584.55505      -418.427 5        34.038
E10        24.000    25253766.235 7 132709559.30107     -2503.706 7        44.906                                                                    25253765.347 8  99101361.16008     -1869.658 8        48.320    25253765.467 8 101686604.57408     -1918.426 8        48.614
S23        25.000    38233440.433 7 200918051.83307      -422.635 7        44.615
E06        26.000    23804163.793 8 125091783.47108       817.246 8        48.215                                                                    23804163.531 8  93412694.33708       610.267 8        50.226    23804163.370 8  95849545.80808       626.193 8        50.683
E30        27.000    28650543.827 6 150559627.22406     -1171.251 6        36.896                                                                    28650545.531 6 112430891.46406      -874.820 6        39.670    28650544.742 6 115363869.01706      -897.648 6        40.703
E12        28.000    27489139.451 5 144456545.18205     -3064.231 5        35.414                                                                    27489137.056 6 107873466.61606     -2288.202 6        40.522    27489137.139 6 110687544.88306     -2347.901 6        41.392
E19        30.000    26999971.248 5 141885815.28205     -3140.578 5        34.733                                                                    26999970.293 6 105953690.71606     -2345.404 6        37.043    26999969.721 6 108717697.52406     -2406.547 6        37.263
G32        31.000    24164257.316 6 126984043.96006     -3558.911 6        41.373                                    24164255.431 5  98948601.70605     -2773.176 5        35.581    24164256.108 6  98948606.71806     -2773.302 6        37.939
G02        32.000    20941716.034 8 110049504.15008     -1381.872 8        49.277                                    20941709.344 6  85752857.32306     -1076.783 6        41.838
G19        33.000    23738610.600 6 124747267.03806      2473.256 6        40.596                                    23738604.586 4  97205682.71404      1927.215 4        26.635
G17        34.000    22448701.477 7 117968777.05107       535.135 7        45.159                                    22448696.653 7  91923733.44107       416.987 7        42.457    22448696.848 6  91923733.44406       417.038 6        41.433
E11        35.000    23571544.850 7 123869373.90607     -1325.588 7        44.533                                                                    23571540.566 7  92499876.18407      -989.895 7        46.953    23571540.272 7  94912908.85307     -1015.754 7        47.455
C32        36.000                                                                                                                                    23698673.639 7 123405239.54607     -2830.340 7        47.375                                                                    23698673.634 7 100276876.27207     -2299.901 7        47.995
C35        37.000                                                                                                                                    24482036.809 7 127484405.41907      2145.572 7        44.221                                                                    24482035.649 7 103591520.99807      1743.447 7        44.588
I09        38.000    37197351.199 7 145970393.43307      -349.606 7        42.610
C29        39.000                                                                                                                                    21916795.235 8 114126508.88908     -1086.157 8        50.641                                                                    21916792.708 8  92737131.85608      -882.566 8        48.978
G08        40.000    25527799.876 3                     -4057.965 3        22.609                                                                                                    25527799.387 3                     -3160.536 3        21.095
S44        42.000    40654730.137 6 213642231.91806      -494.787 6        38.901
C09        43.000                                                                                                                                    39484729.045 6 205607362.25106       846.888 6        40.462    39484725.732 7 158988644.56807       654.923 7        44.927    39484723.663 6 167072803.77006       688.136 6        40.920
C05        44.000                                                                                                                                    39197838.126 6 204113464.22806      -417.675 6        37.815    39197832.973 7 157833502.10207      -323.062 7        43.318    39197835.257 6 165859012.46406      -339.488 6        40.515
R06        45.000    21543801.815 6 114961898.69806      2881.450 6        41.108
R13        46.000    23862528.073 6 127424579.84906      -674.078 6        37.422
C39        47.000                                                                                                                                    39001385.880 7 203090459.46007      -135.162 7        42.919                                                                    39001381.734 7 165027623.03007      -109.795 7        43.308
C20        48.000                                                                                                                                    21909454.509 8 114088325.86508       112.170 8        51.785                                                                    21909448.633 8  92706102.08008        91.145 8        49.183
C06        49.000                                                                                                                                    38712225.210 6 201584735.14906       432.264 6        40.300    38712219.579 7 155878087.15107       334.279 7        43.560    38712219.022 6 163804088.50706       351.190 6        41.189
C16        50.000                                                                                                                                    39080747.769 6 203503725.69006       306.388 6        41.859    39080747.552 7 157361998.06407       236.823 7        43.084    39080745.267 6 165363444.95206       249.005 6        39.057
S48        51.000    77268947.920 6 406051251.84406      -429.875 6        37.176
C19        52.000                                                                                                                                    24590224.012 7 128047794.81307      2312.397 7        46.103                                                                    24590219.412 7 104049322.83807      1879.007 7        46.096
R04        53.000    22243605.738 7 119113521.19307     -4229.335 7        46.622                                                                    22243603.714 6  92643856.98706     -3289.480 6        41.497
C60        54.000                                                                                                                                    40654729.992 6 211700049.22906      -490.386 6        41.056                                                                    40654714.124 6 172023600.69006      -398.488 6        40.303
C30        55.000                                                                                                                                    24454627.707 7 127341653.49307     -3657.596 7        45.436                                                                    24454628.530 7 103475521.50607     -2972.113 7        44.623
R19        56.000    23923264.873 4 127973352.43604     -4731.401 4        28.645                                                                    23923263.533 4  99534865.10504     -3680.761 4        27.760
C02        57.000                                                                                                                                    40626025.623 5 211550428.28505      -463.152 5        33.796    40626019.736 6 163584204.13906      -357.970 6        40.088    40626022.888 6 171902054.92106      -376.266 6        36.106
I03        58.000   133547436.818 6 448283583.02906       967.307 6        40.589
C13        59.000                                                                                                                                    41303903.960 5 215080326.38205     -1099.431 5        35.133    41303907.074 6 166313791.98806      -850.058 6        39.384    41303904.123 5 174770412.19105      -893.272 5        35.771
> 2025 01 01 00 45  5.0000000  0 56
G28         1.000    23379901.867 7 122862226.17307       640.166 7        42.140                                    23379898.282 4  95736780.37404       498.826 4        28.436    23379899.022 6  95736786.37806       498.860 6        41.900
G31         2.000    23491075.105 7 123446439.17007      2209.356 7        43.247                                    23491071.191 6  96192016.24806      1721.576 6        38.087    23491071.404 6  96192015.25406      1721.632 6        39.129
G09         3.000    25248530.853 5 132681935.06205      3424.169 5        35.014                                    25248530.141 4 103388523.18804      2668.184 4        27.018    25248530.519 5 103388524.20205      2668.261 5        33.449
E34         4.000    28486272.729 6 149696369.25006      2360.815 6        36.919                                                                    28486273.387 6 111786254.17906      1762.949 6        38.910    28486272.935 6 114702417.05006      1809.002 6        39.685
S21         5.000    38515457.199 6 202399942.20906      -425.940 6        41.940
R12         6.000    24747437.861 6 132196389.50006     -2969.789 6        40.572                                                                    24747439.961 6 102819429.15906     -2309.820 6        36.189
G21         7.000    21957581.853 7 115387931.91307     -2594.041 7        45.273                                    21957576.784 5  89912678.17705     -2021.333 5        34.481
E04         8.000    23833661.325 7 125246760.07607      -692.676 7        47.426                                                                    23833659.340 8  93528430.01308      -517.257 8        50.278    23833659.250 8  95968294.00308      -530.728 8        51.350
R14         9.000    24399860.306 6 130064993.60906      2342.058 6        41.061                                                                    24399860.608 6 101161651.85306      1821.589 6        37.936
G04        10.000    22858497.285 7 120122244.16407      3027.290 7        43.264                                    22858494.528 5  93601754.39205      2358.923 5        30.294    22858495.049 6  93601749.39506      2358.837 6        41.630
E09        11.000    24955774.168 7 131143520.94607      1935.620 7        46.294                                                                    24955773.877 8  97931865.30808      1445.482 8        48.273    24955773.426 8 100486609.06908      1483.182 8        49.114
S27        12.000    39161620.369 5 205795699.22205      -406.528 5        35.581
S36        14.000    38283050.944 7 201179303.88407      -425.918 7        43.543
E02        15.000    28556850.890 5 150067284.03805     -2817.576 5        35.233                                                                    28556850.355 6 112063247.73406     -2103.853 6        36.711    28556849.605 6 114986632.66106     -2158.721 6        37.539
E36        16.000    24307738.010 7 127738053.69607      1196.168 7        46.684                                                                    24307738.143 8  95388823.53308       893.267 8        49.308    24307738.008 8  97877222.35708       916.561 8        50.460
S45        17.000    63483115.975 6 333606791.77806      -467.834 6        37.047
G03        18.000    20295726.464 8 106654819.36608       698.137 8        49.732                                    20295724.554 8  83107670.90108       544.004 8        51.231    20295725.376 7  83107679.90107       544.033 7        45.034
R21        19.000    20480669.213 8 109596238.18708      2360.381 8        50.960                                                                    20480668.181 7  85241528.49907      1835.838 7        46.196
R20        20.000    19463545.096 6 104080368.01806     -1789.518 6        40.350                                                                    19463546.618 7  80951396.63507     -1391.796 7        47.295
R05        21.000    19301230.520 8 103176182.81608     -1500.341 8        51.710                                                                    19301229.303 7  80248148.18307     -1166.969 7        47.016
I06        22.000    38295165.484 6 150278685.22206      -216.830 6        41.707
S28        23.000    40957795.518 5 215234676.63705      -418.376 5        33.784
E10        24.000    25256149.212 7 132722080.43207     -2504.821 7        44.933                                                                    25256148.036 8  99110711.36208     -1870.471 8        48.082    25256148.134 8 101696198.69208     -1919.259 8        48.634
S23        25.000    38233842.463 7 200920164.64307      -422.504 7        44.575
E06        26.000    23803387.276 8 125087702.21108       815.240 8        48.113                                                                    23803386.898 8  93409646.64308       608.835 8        50.015    23803386.747 8  95846418.61008       624.697 8        50.704
E30        27.000    28651659.106 6 150565489.59606     -1173.731 6        37.338                                                                    28651661.050 6 112435269.24206      -876.264 6        39.541    28651660.328 6 115368360.99606      -899.236 6        40.362
E12        28.000    27492055.133 5 144471868.23405     -3064.980 5        35.548                                                                    27492053.052 6 107884909.14106     -2288.587 6        40.219    27492053.210 6 110699285.91806     -2348.424 6        41.387
E19        30.000    27002959.643 5 141901520.13505     -3141.461 5        33.964                                                                    27002958.895 6 105965418.34006     -2345.806 6        37.006    27002958.193 6 108729731.08706     -2406.997 6        37.074
G32        31.000    24167644.300 6 127001840.83006     -3559.925 6        41.223                                    24167642.023 5  98962469.39605     -2773.965 5        35.919    24167642.880 6  98962474.39806     -2774.003 6        38.327
G02        32.000    20943031.876 8 110056418.85608     -1384.038 8        49.038                                    20943025.181 7  85758245.40507     -1078.471 7        42.027
G19        33.000    23736258.180 6 124734906.34906      2471.050 6        40.467                                    23736252.334 4  97196051.01704      1925.491 4        26.659
G17        34.000    22448193.576 7 117966108.32707       532.229 7        44.713                                    22448188.833 7  91921653.92007       414.724 7        42.700    22448188.970 6  91921653.92106       414.714 6        41.647
E11        35.000    23572806.970 7 123876005.59207     -1327.145 7        44.572                                                                    23572802.508 7  92504828.41607      -991.076 7        46.870    23572802.260 7  94917990.27207     -1016.925 7        47.460
C32        36.000                                                                                                                                    23701391.661 7 123419393.42107     -2831.255 7        47.564                                                                    23701391.700 8 100288377.46108     -2300.544 8        48.043
C35        37.000                                                                                                                                    24479977.658 7 127473681.44407      2144.025 7        44.405                                                                    24479976.141 7 103582806.89907      1742.238 7        44.724
I09        38.000    37197796.891 7 145972142.02807      -349.771 7        42.576
C29        39.000                                                                                                                                    21917839.406 8 114131945.96408     -1088.708 8        50.868                                                                    21917836.861 8  92741549.94408      -884.674 8        48.944
G08        40.000    25531659.767 3                     -4055.831 3        22.686                                                                                                    25531659.511 3                     -3160.069 3        21.595
S44        42.000    40655198.624 6 213644705.90006      -494.747 6        38.838
C09        43.000                                                                                                                                    39483916.063 6 205603129.63806       846.131 6        40.203    39483913.224 7 158985371.63907       654.495 7        44.775    39483910.833 6 167069364.42506       687.692 6        41.166
C05        44.000                                                                                                                                    39198238.931 6 204115553.47606      -417.777 6        37.592    39198234.251 7 157835117.64307      -323.169 7        43.109    39198236.348 6 165860710.17606      -339.575 6        40.391
R06        45.000    21541103.871 6 114947496.48006      2879.400 6        41.001
R13        46.000    23863160.758 6 127427959.76206      -678.233 6        37.637
C39        47.000                                                                                                                                    39001515.982 7 203091137.71607      -136.083 7        42.832                                                                    39001512.091 7 165028174.18407      -110.579 7        43.596
C20        48.000                                                                                                                                    21909347.823 8 114087770.09108       110.127 8        51.838                                                                    21909341.903 8  92705650.47808        89.522 8        49.309
C06        49.000                                                                                                                                    38711811.033 6 201582575.98006       431.441 6        40.434    38711804.741 7 155876417.54707       333.637 7        43.355    38711804.576 6 163802334.00506       350.645 6        41.049
C16        50.000                                                                                                                                    39080454.190 6 203502196.06406       305.525 6        41.762    39080453.977 7 157360815.24507       236.244 7        43.009    39080451.590 6 165362202.01706       248.226 6        39.132
S48        51.000    77269354.060 6 406053400.94906      -429.856 6        36.858
C19        52.000                                                                                                                                    24588003.812 7 128036235.63307      2311.359 7        45.973                                                                    24587999.588 7 104039930.06007      1878.208 7        46.132
R04        53.000    22247555.270 7 119134669.85607     -4230.088 7        47.457                                                                    22247553.292 6  92660305.95506     -3290.136 6        41.952
C60        54.000                                                                                                                                    40655200.979 6 211702500.73706      -490.329 6        40.930                                                                    40655184.878 6 172025592.74506      -398.354 6        40.291
C30        55.000                                                                                                                                    24458140.093 7 127359943.50207     -3658.481 7        45.150                                                                    24458140.789 7 103490383.64107     -2972.798 7        44.563
R19        56.000    23927686.833 4 127997010.52504     -4732.029 4        29.128                                                                    23927686.687 4  99553265.76804     -3680.663 4        27.102
C02        57.000                                                                                                                                    40626470.531 5 211552742.70905      -462.795 5        33.838    40626464.116 6 163585993.81306      -358.078 6        39.904    40626467.434 5 171903935.59605      -375.952 5        35.833
I03        58.000   133546204.410 6 448278745.77706       967.430 6        40.389
C13        59.000                                                                                                                                    41304959.856 5 215085822.73605     -1099.492 5        35.205    41304961.913 6 166318042.11606      -849.960 6        39.255    41304959.501 5 174774878.43705      -893.350 5        35.310
> 2025 01 01 00 45 10.0000000  0 56
G28         1.000    23379294.196 7 122859032.43607       637.217 7        42.315                                    23379290.499 4  95734291.75304       496.534 4        28.464    23379290.406 6  95734297.75206       496.621 6        41.425
G31         2.000    23488974.197 7 123435397.12107      2207.445 7        42.669                                    23488969.908 6  96183412.05506      1720.088 6        37.773    23488970.139 6  96183411.05306      1720.017 6        39.165
G09         3.000    25245272.610 5 132664814.72905      3424.193 5        35.395                                    25245272.233 4 103375182.69504      2668.192 4        26.766    25245272.482 5 103375183.72705      2667.856 5        33.731
E34         4.000    28484026.255 6 149684564.61806      2360.701 6        36.378                                                                    28484026.902 6 111777439.05306      1762.912 6        38.709    28484026.533 6 114693371.94406      1809.156 6        39.748
S21         5.000    38515863.580 7 202402071.98607      -426.061 7        42.136
R12         6.000    24750219.909 6 132211245.33006     -2972.446 6        40.381                                                                    24750221.634 6 102830983.64206     -2312.009 6        36.136
G21         7.000    21960050.589 7 115400905.86407     -2595.577 7        44.907                                    21960045.679 5  89922787.74805     -2022.528 5        34.443
E04         8.000    23834321.419 7 125250229.22007      -695.016 7        47.359                                                                    23834319.558 8  93531020.60508      -518.983 8        50.201    23834319.359 8  95970952.18208      -532.535 8        51.454
R14         9.000    24397663.690 6 130053288.68506      2339.787 6        41.125                                                                    24397665.292 6 101152548.01606      1819.899 6        37.452
G04        10.000    22855617.669 7 120107110.89707      3026.085 7        42.688                                    22855614.736 5  93589962.24705      2357.982 5        30.151    22855615.273 7  93589957.27007      2357.885 7        42.161
E09        11.000    24953933.325 7 131133846.36607      1934.176 7        46.341                                                                    24953932.914 8  97924640.79508      1444.338 8        48.249    24953932.464 8 100479196.08708      1482.009 8        49.262
S27        12.000    39162013.134 5 205797733.45805      -406.715 5        35.562
S36        14.000    38283457.678 7 201181433.50507      -425.937 7        43.746
E02        15.000    28559531.413 5 150081372.86405     -2818.396 5        34.586                                                                    28559531.070 6 112073768.60506     -2104.379 6        36.276    28559530.899 6 114997428.00706     -2159.533 6        37.270
E36        16.000    24306600.517 7 127732075.72207      1195.053 7        46.439                                                                    24306600.608 8  95384359.46408       892.318 8        49.421    24306600.387 8  97872641.83508       915.632 8        50.481
S45        17.000    63483515.313 6 333609130.02306      -467.756 6        37.187
G03        18.000    20295062.960 8 106651333.85108       696.129 8        49.494                                    20295061.283 8  83104954.91908       542.437 8        51.223    20295061.991 7  83104963.91607       542.501 7        45.220
R21        19.000    20478465.231 8 109584442.84708      2357.687 8        51.019                                                                    20478463.495 7  85232354.34407      1833.732 7        46.340
R20        20.000    19465221.159 6 104089324.93406     -1793.292 6        40.758                                                                    19465221.098 7  80958363.12107     -1394.846 7        46.822
R05        21.000    19302635.544 8 103183692.80808     -1503.592 8        52.203                                                                    19302634.479 7  80253989.28807     -1169.474 7        47.290
I06        22.000    38295441.804 6 150279769.13906      -216.839 6        41.866
S28        23.000    40958192.938 5 215236768.34005      -418.010 5        33.916
E10        24.000    25258532.901 7 132734607.31007     -2506.054 7        45.130                                                                    25258531.937 8  99120065.84008     -1871.382 8        48.049    25258531.864 8 101705797.19808     -1920.188 8        48.709
S23        25.000    38234244.221 7 200922277.01907      -422.425 7        44.646
E06        26.000    23802612.656 8 125083631.09808       813.161 8        48.269                                                                    23802612.204 8  93406606.53708       607.208 8        50.008    23802612.046 8  95843299.19308       623.051 8        50.728
E30        27.000    28652777.003 6 150571362.69106     -1175.675 6        37.361                                                                    28652778.663 6 112439655.03506      -878.112 6        39.171    28652778.018 6 115372861.19106      -900.891 6        40.462
E12        28.000    27494972.163 5 144487194.42805     -3065.656 5        35.290                                                                    27494969.470 6 107896354.02306     -2289.294 6        40.191    27494969.622 6 110711029.34506     -2348.813 6        41.392
E19        30.000    27005948.861 5 141917228.61105     -3142.090 5        33.928                                                                    27005947.983 6 105977148.71706     -2346.322 6        37.013    27005947.374 6 108741767.47406     -2407.736 6        36.960
G32        31.000    24171031.934 6 127019642.97106     -3561.021 6        41.032                                    24171029.773 5  98976341.18805     -2774.823 5        35.967    24171030.665 6  98976346.19206     -2774.868 6        38.925
G02        32.000    20944350.040 8 110063344.73008     -1386.346 8        49.083                                    20944343.125 7  85763642.19007     -1080.272 7        42.017
G19        33.000    23733907.471 6 124722556.36506      2468.859 6        40.579                                    23733902.107 4  97186427.65404      1923.787 4        26.647
G17        34.000    22447688.269 7 117963453.86407       529.385 7        44.649                                    22447683.714 7  91919585.51107       412.506 7        42.669    22447683.772 6  91919585.51106       412.599 6        41.788
E11        35.000    23574070.397 7 123882644.97007     -1328.739 7        44.603                                                                    23574065.925 7  92509786.39607      -992.284 7        46.629    23574065.694 7  94923077.58807     -1018.112 7        47.565
C32        36.000                                                                                                                                    23704110.708 7 123433552.03007     -2832.263 7        47.724                                                                    23704110.749 7 100299882.48807     -2301.366 7        47.833
C35        37.000                                                                                                                                    24477919.899 7 127462964.98007      2142.515 7        44.527                                                                    24477918.144 7 103574098.88107      1741.064 7        44.506
I09        38.000    37198242.447 7 145973891.26507      -349.964 7        42.684
C29        39.000                                                                                                                                    21918886.318 8 114137396.29408     -1091.477 8        50.908                                                                    21918883.527 8  92745978.76908      -886.845 8        48.860
G08        40.000    25535519.569 3                     -4055.489 3        22.190                                                                                                    25535520.028 3                     -3159.859 3        19.881
S44        42.000    40655673.757 6 213647179.60606      -494.738 6        38.793
C09        43.000                                                                                                                                    39483103.833 6 205598900.42206       845.474 6        40.267    39483100.809 7 158982101.35007       653.701 7        44.926    39483098.819 6 167065927.83506       687.167 6        40.989
C05        44.000                                                                                                                                    39198640.644 6 204117642.48806      -417.819 6        37.781    39198635.356 7 157836732.98507      -323.092 7        42.919    39198637.578 6 165862407.63906      -339.447 6        40.334
R06        45.000    21538405.386 6 114933104.53006      2877.437 6        40.722
R13        46.000    23863798.368 6 127431359.84806      -682.005 6        37.138
C39        47.000                                                                                                                                    39001646.788 7 203091820.54207      -136.988 7        42.720                                                                    39001643.208 7 165028729.03507      -111.435 7        43.435
C20        48.000                                                                                                                                    21909243.030 8 114087224.40908       108.104 8        51.715                                                                    21909237.164 8  92705207.06708        87.877 8        49.148
C06        49.000                                                                                                                                    38711397.533 6 201580421.10206       430.360 6        40.596    38711391.049 7 155874751.25707       332.902 7        43.151    38711390.689 6 163800582.98506       349.803 6        40.911
C16        50.000                                                                                                                                    39080161.225 6 203500670.72406       304.615 6        41.852    39080161.013 7 157359635.76907       235.455 7        42.828    39080158.621 6 165360962.56306       247.372 6        38.889
S48        51.000    77269752.271 6 406055549.59706      -429.827 6        37.028
C19        52.000                                                                                                                                    24585784.663 7 128024681.73707      2310.138 7        45.476                                                                    24585780.814 7 104030541.57207      1877.282 7        46.036
R04        53.000    22251505.427 7 119155822.45107     -4230.981 7        47.170                                                                    22251503.082 7  92676757.97107     -3290.727 7        42.275
C60        54.000                                                                                                                                    40655671.582 6 211704951.94706      -490.366 6        40.996                                                                    40655655.602 6 172027584.54906      -398.422 6        40.136
C30        55.000                                                                                                                                    24461653.395 7 127378238.18307     -3659.385 7        44.751                                                                    24461654.046 7 103505249.55307     -2973.571 7        44.466
R19        56.000    23932107.379 4 128020672.37104     -4732.736 4        29.772                                                                    23932106.957 4  99571669.44604     -3681.299 4        26.563
C02        57.000                                                                                                                                    40626915.028 5 211555056.92515      -463.014 5        33.868    40626908.694 6 163587783.30006      -357.935 6        39.850    40626912.030 5 171905816.07905      -376.214 5        35.595
I03        58.000   133544971.745 6 448273908.49506       967.343 6        40.551
C13        59.000                                                                                                                                    41306014.931 5 215091318.41105     -1098.886 5        35.600    41306016.999 6 166322291.73206      -850.011 6        39.036    41306014.919 5 174779344.12405      -893.047 5        35.595
> 2025 01 01 00 45 15.0000000  0 56
G28         1.000    23378689.515 6 122855853.70506       634.193 6        41.478                                    23378685.471 4  95731814.82204       494.174 4        28.531    23378686.241 7  95731820.82607       494.266 7        42.057
G31         2.000    23486874.525 6 123424364.93106      2205.419 6        41.926                                    23486870.464 6  96174815.54006      1718.511 6        37.357    23486870.715 6  96174814.54706      1718.332 6        39.189
G09         3.000    25242014.579 5 132647695.10205      3423.882 5        35.324                                    25242014.508 4 103361842.72404      2667.962 4        26.862    25242014.892 5 103361843.73305      2667.891 5        33.707
E34         4.000    28481779.393 6 149672759.27506      2361.011 6        36.321                                                                    28481780.254 6 111768623.35706      1763.203 6        38.426    28481779.865 6 114684326.29506      1809.335 6        39.483
S21         5.000    38516266.607 6 202404201.90206      -426.051 6        41.883
R12         6.000    24753002.532 6 132226114.90406     -2975.176 6        40.513                                                                    24753004.513 5 102842548.75805     -2314.165 5        35.457
G21         7.000    21962521.107 7 115413887.82307     -2597.215 7        44.743                                    21962516.058 5  89932903.55805     -2023.805 5        34.357
E04         8.000    23834983.673 7 125253709.60007      -697.230 7        47.468                                                                    23834981.806 8  93533619.59108      -520.643 8        50.305    23834981.641 8  95973618.96608      -534.213 8        51.403
R14         9.000    24395470.727 6 130041595.69606      2337.275 6        41.547                                                                    24395471.732 6 101143453.48406      1817.944 6        37.773
G04        10.000    22852739.568 7 120091984.17107      3024.621 7        43.293                                    22852736.205 5  93578175.19805      2356.846 5        30.136    22852736.440 6  93578170.19406      2356.891 6        41.859
E09        11.000    24952093.711 7 131124179.62707      1932.594 7        46.460                                                                    24952093.420 8  97917422.12408      1443.165 8        48.405    24952092.991 8 100471789.11408      1480.699 8        49.202
S27        12.000    39162402.209 5 205799767.59305      -406.975 5        35.571
S36        14.000    38283862.150 7 201183562.66107      -425.881 7        43.503
E02        15.000    28562213.373 5 150095465.81305     -2818.921 5        34.852                                                                    28562213.467 6 112084292.58806     -2105.140 6        36.590    28562212.605 6 115008226.51106     -2160.236 6        37.006
E36        16.000    24305463.965 7 127726103.44907      1193.846 7        46.457                                                                    24305464.171 8  95379899.64708       891.473 8        49.482    24305463.933 8  97868065.67608       914.738 8        50.472
S45        17.000    63483913.364 6 333611468.40606      -467.681 6        37.172
G03        18.000    20294401.775 8 106647858.46808       694.049 8        49.055                                    20294399.943 8  83102246.83108       540.819 8        51.193    20294400.452 7  83102255.83507       540.718 7        45.246
R21        19.000    20476263.712 8 109572661.45808      2354.789 8        51.353                                                                    20476262.138 7  85223191.03907      1831.547 7        46.069
R20        20.000    19466898.570 6 104098301.19406     -1797.174 6        40.508                                                                    19466900.141 7  80965344.64307     -1397.902 7        47.053
R05        21.000    19304043.697 8 103191219.45108     -1507.069 8        51.943                                                                    19304042.217 7  80259843.34007     -1172.163 7        46.958
I06        22.000    38295717.899 6 150280853.17406      -216.890 6        41.976
S28        23.000    40958594.226 5 215238860.07605      -418.398 5        33.826
E10        24.000    25260917.586 7 132747140.33407     -2507.177 7        45.144                                                                    25260917.000 8  99129424.91908     -1872.266 8        48.163    25260916.823 8 101715400.43008     -1921.141 8        48.701
S23        25.000    38234646.931 7 200924389.57407      -422.615 7        44.552
E06        26.000    23801839.735 8 125079570.58608       810.980 8        48.178                                                                    23801839.521 8  93403574.33808       605.599 8        50.108    23801839.332 8  95840187.89408       621.411 8        50.776
E30        27.000    28653896.628 6 150577246.91906     -1178.061 6        36.994                                                                    28653898.475 6 112444049.10606      -879.725 6        39.946    28653897.884 6 115377369.88906      -902.749 6        40.603
E12        28.000    27497889.347 6 144502524.17006     -3066.207 6        36.023                                                                    27497886.616 6 107907801.57106     -2289.898 6        40.210    27497887.016 6 110722775.53406     -2349.450 6        41.611
E19        30.000    27008939.094 5 141932941.22605     -3143.042 5        33.886                                                                    27008937.972 6 105988882.13806     -2347.085 6        36.828    27008937.281 6 108753806.99606     -2408.402 6        36.620
G32        31.000    24174420.167 6 127037450.83106     -3562.202 6        41.173                                    24174418.731 6  98990217.43506     -2775.739 6        36.117    24174419.554 6  98990222.42806     -2775.735 6        39.315
G02        32.000    20945670.042 8 110070282.23508     -1388.676 8        48.652                                    20945663.296 7  85769048.03707     -1082.083 7        42.006
G19        33.000    23731559.832 6 124710217.54506      2466.586 6        39.724                                    23731554.116 4  97176812.99804      1922.010 4        26.347
G17        34.000    22447186.004 7 117960814.19607       526.419 7        44.609                                    22447181.412 7  91917528.62607       410.197 7        42.679    22447181.601 6  91917528.62606       410.126 6        41.838
E11        35.000    23575335.489 7 123889292.49407     -1330.326 7        44.557                                                                    23575330.887 7  92514750.44707      -993.377 7        46.832    23575330.697 7  94928171.14807     -1019.383 7        47.522
C32        36.000                                                                                                                                    23706830.582 7 123447715.80907     -2833.354 7        47.880                                                                    23706830.792 7 100311391.72007     -2302.328 7        47.984
C35        37.000                                                                                                                                    24475863.496 7 127452256.45307      2140.846 7        44.688                                                                    24475861.669 7 103565397.34407      1739.588 7        44.682
I09        38.000    37198688.538 7 145975641.49607      -350.263 7        42.726
C29        39.000                                                                                                                                    21919935.426 8 114142860.29808     -1094.203 8        50.782                                                                    21919932.869 8  92750418.72108      -889.206 8        48.864
G08        40.000    25539373.817 3                     -4054.357 3        22.971                                                                                                    25539374.920 3                     -3159.997 3        21.429
S44        42.000    40656145.387 6 213649653.44606      -494.878 6        39.003
C09        43.000                                                                                                                                    39482292.530 6 205594675.03506       844.600 6        40.503    39482289.544 7 158978834.02707       653.092 7        45.052    39482287.418 6 167062494.37906       686.241 6        40.992
C05        44.000                                                                                                                                    39199041.060 6 204119731.66306      -417.834 6        37.667    39199036.492 7 157838348.48607      -323.241 7        43.062    39199038.794 6 165864105.27406      -339.533 6        40.391
R06        45.000    21535710.256 6 114918723.09406      2875.261 6        40.243
R13        46.000    23864437.483 6 127434780.67206      -686.472 6        36.117
C39        47.000                                                                                                                                    39001778.702 7 203092508.36807      -138.127 7        42.828                                                                    39001775.263 7 165029287.93607      -112.171 7        43.486
C20        48.000                                                                                                                                    21909140.154 8 114086689.29108       105.960 8        51.785                                                                    21909134.374 8  92704772.24208        86.072 8        49.167
C06        49.000                                                                                                                                    38710984.441 6 201578270.95106       429.503 6        40.753    38710978.263 7 155873088.61707       332.103 7        43.009    38710977.884 6 163798835.80906       348.990 6        41.077
C16        50.000                                                                                                                                    39079869.156 6 203499150.11206       303.656 6        41.909    39079868.951 7 157358459.93907       234.699 7        42.914    39079866.500 6 165359726.92806       246.749 6        38.988
S48        51.000    77270155.616 6 406057698.19606      -430.022 6        37.198
C19        52.000                                                                                                                                    24583567.058 7 128013133.57607      2309.026 7        45.193                                                                    24583563.055 7 104021157.74907      1876.282 7        46.118
R04        53.000    22255455.363 7 119176979.26607     -4231.833 7        45.866                                                                    22255454.242 7  92693213.26907     -3291.451 7        42.163
C60        54.000                                                                                                                                    40656142.345 6 211707403.29806      -490.347 6        40.877                                                                    40656126.499 6 172029576.47206      -398.463 6        40.148
C30        55.000                                                                                                                                    24465167.773 7 127396537.97807     -3660.479 7        44.281                                                                    24465168.306 7 103520119.64007     -2974.603 7        44.479
R19        56.000    23936533.847 4 128044338.38104     -4733.405 4        28.645                                                                    23936532.374 4  99590076.34104     -3681.141 4        27.425
C02        57.000                                                                                                                                    40627359.883 5 211557371.29905      -463.043 5        33.701    40627353.044 6 163589572.92206      -357.906 6        39.973    40627356.406 5 171907696.70505      -376.271 5        35.876
I03        58.000   133543739.264 6 448269071.45506       967.305 6        40.613
C13        59.000                                                                                                                                    41307070.374 5 215096814.04805     -1099.144 5        35.510    41307072.234 6 166326541.27606      -849.771 6        38.634    41307070.410 5 174783809.78005      -892.863 5        35.305
> 2025 01 01 00 45 20.0000000  0 56
G28         1.000    23378086.920 6 122852690.11106       631.138 6        41.182                                    23378083.407 4  95729349.67804       491.798 4        28.673    23378084.414 7  95729355.69307       491.864 7        42.093
G31         2.000    23484776.956 6 123413342.75106      2203.379 6        41.025                                    23484772.996 6  96166226.82906      1716.918 6        36.998    23484773.724 6  96166225.83106      1716.960 6        39.670
G09         3.000    25238756.819 5 132630576.28005      3423.636 5        35.914                                    25238756.927 4 103348503.39604      2667.770 4        27.102    25238757.209 5 103348504.41405      2667.775 5        33.737
E34         4.000    28479532.968 6 149660953.46006      2361.227 6        36.461                                                                    28479533.597 6 111759807.34206      1763.150 6        38.489    28479533.460 6 114675280.28506      1809.143 6        39.778
S21         5.000    38516673.811 6 202406331.91606      -425.985 6        41.886
R12         6.000    24755788.917 6 132240998.57006     -2978.302 6        39.622                                                                    24755791.710 5 102854124.87405     -2316.157 5        35.910
G21         7.000    21964992.888 7 115426877.94107     -2598.904 7        44.661                                    21964987.944 5  89943025.72505     -2025.121 5        34.348
E04         8.000    23835648.162 7 125257201.32207      -699.568 7        47.136                                                                    23835646.257 8  93536227.04208      -522.309 8        50.315    23835646.125 8  95976294.44008      -535.962 8        51.372
R14         9.000    24393279.432 6 130029914.68206      2335.001 6        41.428                                                                    24393279.807 6 101134368.28206      1815.996 6        37.803
G04        10.000    22849862.081 7 120076864.08507      3023.264 7        43.280                                    22849858.881 5  93566393.31505      2355.789 5        30.257    22849859.322 6  93566388.30706      2355.829 6        41.845
E09        11.000    24950255.757 7 131114520.85007      1930.859 7        46.267                                                                    24950255.362 8  97910209.40508      1441.912 8        48.438    24950254.988 8 100464388.22608      1479.556 8        49.186
S27        12.000    39162784.730 5 205801801.86905      -406.828 5        35.395
S36        14.000    38284266.469 7 201185691.69707      -425.806 7        43.494
E02        15.000    28564895.264 5 150109563.00705     -2819.943 5        34.476                                                                    28564896.157 6 112094819.69306     -2105.741 6        36.760    28564895.200 6 115019028.23306     -2160.693 6        37.085
E36        16.000    24304328.656 7 127720136.98407      1192.672 7        46.255                                                                    24304328.720 8  95375444.16708       890.662 8        49.529    24304328.548 8  97863493.96608       913.867 8        50.456
S45        17.000    63484316.762 6 333613806.99406      -467.570 6        37.365
G03        18.000    20293742.332 8 106644393.35908       691.913 8        49.172                                    20293740.567 8  83099546.74408       539.154 8        51.221    20293740.978 7  83099555.74507       539.171 7        45.308
R21        19.000    20474064.942 8 109560894.10308      2352.033 8        50.898                                                                    20474062.921 7  85214038.64507      1829.428 7        45.786
R20        20.000    19468580.794 6 104107296.93506     -1801.053 6        40.353                                                                    19468581.837 7  80972341.33807     -1400.862 7        47.013
R05        21.000    19305454.460 8 103198762.80608     -1510.411 8        51.998                                                                    19305453.629 7  80265710.40307     -1174.698 7        47.156
I06        22.000    38295994.229 6 150281937.41106      -216.837 6        41.936
S28        23.000    40958991.534 5 215240952.43605      -418.366 5        34.195
E10        24.000    25263303.688 7 132759679.64507     -2508.526 7        44.656                                                                    25263303.227 8  99138788.68308     -1873.216 8        48.198    25263302.933 8 101725008.47308     -1922.124 8        48.699
S23        25.000    38235047.955 7 200926502.41307      -422.622 7        44.566
E06        26.000    23801069.114 8 125075520.77408       808.925 8        48.026                                                                    23801068.887 8  93400550.12808       604.052 8        50.134    23801068.674 8  95837084.79208       619.797 8        50.708
E30        27.000    28655018.795 6 150583142.45506     -1180.416 6        36.987                                                                    28655020.209 6 112448451.62806      -881.291 6        39.634    28655019.727 6 115381887.25806      -904.346 6        40.150
E12        28.000    27500807.234 6 144517857.63206     -3067.010 6        36.185                                                                    27500804.397 6 107919251.87706     -2290.335 6        40.257    27500804.822 6 110734524.54506     -2350.082 6        41.476
E19        30.000    27011930.246 5 141948658.02405     -3143.810 5        34.057                                                                    27011928.869 6 106000618.71306     -2347.646 6        36.957    27011928.334 6 108765849.74306     -2408.950 6        36.813
G32        31.000    24177810.381 6 127055264.47606     -3563.336 6        41.440                                    24177808.762 6  99004098.18806     -2776.624 6        36.140    24177808.914 6  99004103.19606     -2776.674 6        38.895
G02        32.000    20946992.500 8 110077231.44508     -1391.037 8        48.761                                    20946985.689 7  85774463.00407     -1083.927 7        42.013
G19        33.000    23729214.474 6 124697890.09206      2464.257 6        39.937                                    23729208.321 4  97167207.19004      1920.197 4        26.563
G17        34.000    22446686.352 7 117958189.44607       523.442 7        44.328                                    22446681.945 7  91915483.36707       407.875 7        42.654    22446681.864 6  91915483.37206       407.820 6        41.659
E11        35.000    23576601.892 7 123895948.27507     -1331.988 7        44.503                                                                    23576597.468 7  92519720.67407      -994.663 7        46.797    23576597.244 7  94933271.02707     -1020.592 7        47.515
C32        36.000                                                                                                                                    23709551.643 8 123461884.84808     -2834.360 8        48.051                                                                    23709551.824 7 100322905.22807     -2303.177 7        47.828
C35        37.000                                                                                                                                    24473808.418 7 127441555.99007      2139.367 7        44.772                                                                    24473806.849 7 103556702.34407      1738.373 7        44.554
I09        38.000    37199135.052 7 145977392.79007      -350.308 7        42.705
C29        39.000                                                                                                                                    21920987.440 8 114148338.09308     -1096.967 8        50.748                                                                    21920984.799 8  92754869.87608      -891.370 8        48.807
G08        40.000    25543233.377 3                     -4052.944 3        22.248                                                                                                    25543232.571 3                     -3159.604 3        21.690
S44        42.000    40656616.442 6 213652127.54406      -494.831 6        38.706
C09        43.000                                                                                                                                    39481481.642 6 205590453.63106       843.900 6        40.677    39481478.686 7 158975569.76507       652.547 7        45.070    39481476.716 6 167059064.14206       685.691 6        40.799
C05        44.000                                                                                                                                    39199442.737 6 204121821.15706      -418.014 6        37.520    39199437.753 7 157839964.20507      -323.177 7        43.172    39199440.033 6 165865803.15806      -339.655 6        40.238
R06        45.000    21533018.083 6 114904352.38606      2873.083 6        41.485
R13        46.000    23865081.961 6 127438222.42206      -690.655 6        36.325
C39        47.000                                                                                                                                    39001912.039 7 203093201.30407      -139.171 7        42.760                                                                    39001908.437 7 165029851.00207      -112.968 7        43.257
C20        48.000                                                                                                                                    21909039.392 8 114086164.80608       103.786 8        51.793                                                                    21909033.652 8  92704346.05608        84.313 8        49.044
C06        49.000                                                                                                                                    38710572.200 6 201576125.64506       428.500 6        40.620    38710566.370 7 155871429.72307       331.378 7        43.143    38710565.918 6 163797092.57206       348.254 6        40.968
C16        50.000                                                                                                                                    39079578.346 6 203497634.34306       302.619 6        41.807    39079577.891 7 157357287.83707       234.074 7        42.995    39079575.531 6 165358495.25406       245.855 6        38.775
S48        51.000    77270557.709 6 406059846.96506      -429.777 6        37.263
C19        52.000                                                                                                                                    24581351.048 7 128001591.25407      2307.858 7        45.168                                                                    24581346.474 7 104011778.67207      1875.302 7        45.985
R04        53.000    22259406.647 7 119198140.26207     -4232.752 7        46.149                                                                    22259405.987 7  92709671.82107     -3292.052 7        42.197
C60        54.000                                                                                                                                    40656612.894 6 211709854.89306      -490.332 6        41.011                                                                    40656597.290 6 172031568.59406      -398.503 6        40.184
C30        55.000                                                                                                                                    24468683.109 7 127414842.97407     -3661.541 7        44.008                                                                    24468683.640 7 103534993.93007     -2975.344 7        44.336
R19        56.000    23940957.318 4 128068008.72004     -4734.088 4        29.090                                                                    23940957.982 4  99608486.60604     -3682.256 4        29.479
C02        57.000                                                                                                                                    40627803.969 5 211559685.95905      -463.159 5        33.856    40627797.550 6 163591362.76606      -357.981 6        39.901    40627800.791 5 171909577.54305      -376.219 5        35.733
I03        58.000   133542506.541 6 448264234.77606       967.333 6        40.608
C13        59.000                                                                                                                                    41308125.644 5 215102309.55605     -1098.970 5        35.943    41308127.410 6 166330790.76806      -849.875 6        38.234    41308125.313 5 174788275.32705      -893.120 5        34.948
> 2025 01 01 00 45 25.0000000  0 55
G28         1.000    23377488.359 6 122849541.38906       628.187 6        41.659                                    23377484.281 4  95726896.13704       489.491 4        28.720    23377484.871 7  95726902.15007       489.456 7        42.108
G31         2.000    23482681.532 6 123402330.30306      2201.313 6        41.104                                    23482677.464 6  96157645.70606      1715.310 6        36.684    23482678.157 6  96157644.71506      1715.331 6        39.513
G09         3.000    25235499.989 6 132613458.02506      3423.487 6        36.132                                    25235499.457 4 103335164.50604      2667.653 4        27.341    25235500.054 5 103335165.53705      2667.577 5        33.725
E34         4.000    28477286.184 6 149649146.86106      2361.188 6        36.650                                                                    28477286.963 6 111750990.72106      1763.258 6        38.339    28477286.886 6 114666233.67206      1809.302 6        39.649
S21         5.000    38517079.383 6 202408461.87106      -426.044 6        41.971
G21         7.000    21967466.491 7 115439875.87207     -2600.441 7        44.665                                    21967461.387 5  89953153.98105     -2026.315 5        34.471
E04         8.000    23836314.721 7 125260704.12107      -701.767 7        46.924                                                                    23836312.820 8  93538842.77908      -524.042 8        50.393    23836312.679 8  95978978.40508      -537.692 8        51.355
R14         9.000    24391090.218 7 130018245.46107      2332.549 7        42.135                                                                    24391090.179 6 101125292.20606      1814.209 6        36.926
G04        10.000    22846985.828 7 120061750.35807      3021.916 7        42.597                                    22846982.903 5  93554616.39205      2354.734 5        30.385    22846983.332 7  93554611.40707      2354.637 7        42.392
E09        11.000    24948419.282 7 131104869.76007      1929.264 7        46.453                                                                    24948418.744 8  97903002.42608      1440.707 8        48.517    24948418.517 8 100456993.24408      1478.235 8        49.159
S27        12.000    39163171.972 5 205803836.51505      -406.834 5        35.671
S36        14.000    38284671.786 7 201187819.85607      -425.665 7        43.492
E02        15.000    28567578.575 5 150123664.15705     -2820.795 5        34.538                                                                    28567579.561 6 112105349.77206     -2106.452 6        36.896    28567578.731 6 115029833.00106     -2161.285 6        37.074
E36        16.000    24303194.053 7 127714176.06207      1191.535 7        46.440                                                                    24303194.424 8  95370992.83508       889.734 8        49.579    24303194.220 8  97858926.51008       912.982 8        50.419
S45        17.000    63484717.169 6 333614445.28616      -467.766 6        37.077
G03        18.000    20293085.123 8 106640938.22908       689.863 8        49.387                                    20293083.091 8  83096854.44108       537.557 8        51.313    20293083.581 7  83096863.44407       537.577 7        45.085
R21        19.000    20471868.132 8 109549140.46108      2349.232 8        50.878                                                                    20471866.205 7  85204896.92707      1827.180 7        46.067
R20        20.000    19470267.266 6 104116311.92406     -1805.133 6        40.360                                                                    19470268.166 7  80979352.99807     -1404.010 7        46.720
R05        21.000    19306868.553 8 103206322.82108     -1513.830 8        51.601                                                                    19306867.627 7  80271590.40007     -1177.384 7        46.874
I06        22.000    38296270.976 7 150283021.66007      -216.861 7        42.085
S28        23.000    40959387.635 5 215243044.70305      -418.499 5        34.024
E10        24.000    25265691.035 7 132772224.97307     -2509.785 7        44.640                                                                    25265690.587 8  99148156.93808     -1874.181 8        48.273    25265690.280 8 101734621.11408     -1923.090 8        48.668
S23        25.000    38235449.708 7 200928615.32007      -422.661 7        44.614
E06        26.000    23800300.341 7 125071481.40807       806.640 7        47.730                                                                    23800300.229 8  93397533.71908       602.382 8        50.216    23800299.953 8  95833989.69308       618.131 8        50.659
E30        27.000    28656142.650 6 150589048.86706     -1182.456 6        36.284                                                                    28656144.218 6 112452862.27206      -883.069 6        39.580    28656143.673 6 115386412.96106      -906.006 6        40.167
E12        28.000    27503725.651 6 144533194.47406     -3067.695 6        36.132                                                                    27503722.953 6 107930704.71706     -2290.864 6        40.222    27503723.442 6 110746276.15206     -2350.714 6        41.521
E19        30.000    27014921.671 5 141964378.90205     -3144.789 5        34.176                                                                    27014920.337 6 106012358.32006     -2348.461 6        36.771    27014920.074 6 108777895.61006     -2409.566 6        36.722
G32        31.000    24181200.854 6 127073083.66506     -3564.532 6        41.483                                    24181199.692 6  99017983.26406     -2777.556 6        36.212    24181199.780 6  99017988.26506     -2777.620 6        38.553
G02        32.000    20948317.080 8 110084192.08808     -1393.427 8        48.896                                    20948310.246 7  85779886.88007     -1085.786 7        42.083
G19        33.000    23726870.622 6 124685573.68706      2461.994 6        39.517                                    23726864.565 4  97157609.97904      1918.439 4        26.443
G17        34.000    22446189.571 7 117955579.22407       520.410 7        44.829                                    22446185.229 7  91913449.43107       405.513 7        42.734    22446185.344 6  91913449.42906       405.556 6        41.652
E11        35.000    23577869.969 7 123902612.06507     -1333.660 7        44.453                                                                    23577865.524 7  92524696.88507      -995.973 7        46.913    23577865.261 7  94938377.04407     -1021.814 7        47.400
C32        36.000                                                                                                                                    23712273.831 8 123476058.88408     -2835.476 8        48.028                                                                    23712273.779 7 100334422.77607     -2304.031 7        47.647
C35        37.000                                                                                                                                    24471754.615 7 127430863.35207      2137.550 7        44.680                                                                    24471753.446 7 103548013.68707      1737.008 7        44.406
I09        38.000    37199581.415 7 145979144.95207      -350.695 7        42.707
C29        39.000                                                                                                                                    21922042.155 8 114153829.41108     -1099.758 8        50.692                                                                    21922039.343 8  92759332.00208      -893.605 8        48.682
G08        40.000    25547088.882 3                     -4053.122 3        22.609                                                                                                    25547090.056 3                     -3158.782 3        21.500
S44        42.000    40657084.428 6 213654601.62706      -495.012 6        38.739
C09        43.000                                                                                                                                    39480672.301 6 205586235.90606       842.975 6        40.660    39480668.989 7 158972308.35707       651.750 7        44.996    39480666.641 6 167055636.88306       684.956 6        40.749
C05        44.000                                                                                                                                    39199843.712 6 204123910.66406      -418.026 6        37.388    39199839.135 7 157841579.94907      -323.265 7        43.120    39199841.290 6 165867501.04106      -339.667 6        40.312
R06        45.000    21530327.455 6 114889992.02606      2870.808 6        41.104
R13        46.000    23865731.063 6 127441684.79106      -694.699 6        36.253
C39        47.000                                                                                                                                    39002046.173 7 203093899.08407      -140.150 7        42.516                                                                    39002042.330 7 165030418.00007      -113.900 7        43.228
C20        48.000                                                                                                                                    21908940.721 8 114085650.69908       101.657 8        51.827                                                                    21908934.880 8  92703928.28208        82.650 8        48.892
C06        49.000                                                                                                                                    38710161.415 6 201573984.88706       427.568 6        40.548    38710154.818 7 155869774.36007       330.670 7        43.101    38710154.826 6 163795353.03406       347.430 6        40.920
C16        50.000                                                                                                                                    39079287.999 6 203496123.14206       301.617 6        41.924    39079287.386 7 157356119.28707       233.319 7        42.904    39079285.184 6 165357267.26106       245.147 6        38.910
S48        51.000    77270962.722 6 406061995.69306      -430.015 6        37.070
C19        52.000                                                                                                                                    24579135.850 7 127990054.51407      2306.635 7        45.479                                                                    24579130.921 7 104002404.11307      1874.379 7        45.919
R04        53.000    22263359.688 7 119219305.37107     -4233.561 7        46.218                                                                    22263358.127 6  92726133.57806     -3292.728 6        41.990
C60        54.000                                                                                                                                    40657083.966 6 211712306.47806      -490.272 6        41.015                                                                    40657067.964 6 172033560.69906      -398.546 6        40.045
C30        55.000                                                                                                                                    24472199.400 7 127433152.89107     -3662.563 7        43.994                                                                    24472199.835 7 103549872.21807     -2976.164 7        44.235
R19        56.000    23945384.970 4 128091683.06404     -4734.648 4        28.218                                                                    23945385.573 4  99626899.98504     -3683.319 4        29.109
C02        57.000                                                                                                                                    40628248.028 5 211562000.70405      -463.099 5        33.611    40628242.051 6 163593152.68906      -358.045 6        40.050    40628245.378 5 171911458.47305      -376.462 5        35.510
I03        58.000   133541273.872 6 448259398.25106       967.209 6        40.610
C13        59.000                                                                                                                                    41309180.724 5 215107804.75905     -1099.148 5        35.724    41309182.982 6 166335040.00906      -849.943 6        38.108    41309180.476 5 174792740.61205      -893.300 5        34.767
> 2025 01 01 00 45 30.0000000  0 55
G28         1.000    23376891.986 7 122846407.35007       625.266 7        42.718                                    23376887.999 4  95724454.03304       487.221 4        28.853    23376888.723 7  95724460.03507       487.410 7        42.512
G31         2.000    23480587.530 6 123391327.37906      2199.671 6        40.996                                    23480583.787 6  96149072.00906      1714.025 6        36.552    23480584.123 6  96149071.02106      1714.023 6        39.814
G09         3.000    25232243.085 6 132596340.11506      3423.758 6        36.469                                    25232242.086 4 103321825.88104      2667.861 4        27.665    25232242.281 5 103321826.90005      2667.755 5        33.653
E34         4.000    28475039.567 6 149637339.24506      2361.741 6        36.601                                                                    28475040.201 6 111742173.37806      1763.704 6        38.796    28475039.887 6 114657186.32606      1809.519 6        39.967
S21         5.000    38517484.413 6 202410591.62506      -425.976 6        41.981
G21         7.000    21969941.407 7 115452881.41907     -2601.840 7        44.620                                    21969936.233 5  89963288.17205     -2027.410 5        34.448
E04         8.000    23836983.254 7 125264217.76607      -703.795 7        47.052                                                                    23836981.382 8  93541466.60208      -525.477 8        50.547    23836981.295 8  95981670.68308      -539.228 8        51.371
R14         9.000    24388903.741 7 130006587.79307      2330.343 7        42.694                                                                    24388903.738 6 101116225.12006      1812.546 6        36.465
G04        10.000    22844110.848 7 120046642.81507      3020.973 7        43.619                                    22844108.222 5  93542844.29405      2354.006 5        30.566    22844108.628 7  93542839.30107      2354.005 7        42.775
E09        11.000    24946583.956 7 131095226.16107      1928.013 7        46.503                                                                    24946583.671 8  97895801.03808      1439.793 8        48.644    24946583.355 8 100449603.99008      1477.343 8        49.173
S27        12.000    39163560.418 5 205805870.69105      -406.828 5        35.543
S36        14.000    38285075.726 7 201189947.83107      -425.564 7        43.427
E02        15.000    28570263.123 5 150137769.04705     -2821.356 5        35.381                                                                    28570263.180 6 112115882.62906     -2106.819 6        37.013    28570262.769 6 115040640.63606     -2161.833 6        37.338
E36        16.000    24302060.843 7 127708220.47807      1190.674 7        46.409                                                                    24302061.110 8  95366545.49208       889.091 8        49.781    24302060.913 8  97854363.15008       912.325 8        50.433
S45        17.000    63485118.126 6 333616783.31606      -467.487 6        37.274
G03        18.000    20292429.350 8 106637492.85508       688.098 8        49.444                                    20292427.457 8  83094169.73508       536.182 8        51.283    20292428.051 7  83094178.73707       536.212 7        45.378
R21        19.000    20469673.700 8 109537400.41508      2346.682 8        50.828                                                                    20469673.001 7  85195765.80207      1825.193 7        45.925
R20        20.000    19471956.518 6 104125345.90006     -1808.538 6        40.114                                                                    19471957.531 7  80986379.44007     -1406.752 7        46.910
R05        21.000    19308285.873 8 103213899.09908     -1516.814 8        51.784                                                                    19308284.816 7  80277483.07407     -1179.690 7        47.142
I06        22.000    38296546.922 7 150284105.77507      -216.669 7        42.064
S28        23.000    40959788.136 5 215245136.49405      -418.514 5        33.784
E10        24.000    25268079.690 7 132784776.07307     -2510.692 7        44.778                                                                    25268078.986 8  99157529.51908     -1874.968 8        48.407    25268078.629 8 101744238.19608     -1923.806 8        48.594
S23        25.000    38235851.787 7 200930727.86007      -422.467 7        44.646
E06        26.000    23799533.693 7 125067452.25807       804.836 7        47.817                                                                    23799533.521 8  93394524.94108       601.058 8        50.361    23799533.271 8  95830902.42908       616.687 8        50.722
E30        27.000    28657268.349 5 150594966.14005     -1184.461 5        35.905                                                                    28657270.309 6 112457281.03606      -884.276 6        39.354    28657269.779 6 115390946.99806      -907.442 6        39.820
E12        28.000    27506644.775 6 144548534.53206     -3068.267 6        36.000                                                                    27506641.975 6 107942159.96406     -2291.267 6        40.369    27506642.540 6 110758030.23706     -2351.079 6        41.671
E19        30.000    27017914.286 5 141980103.43105     -3145.306 5        34.519                                                                    27017912.628 6 106024100.64106     -2348.604 6        36.839    27017912.354 6 108789944.26406     -2409.768 6        36.960
G32        31.000    24184592.897 6 127090908.14406     -3565.304 6        41.526                                    24184591.467 6  99031872.47006     -2778.159 6        36.023    24184592.346 6  99031877.47306     -2778.097 6        38.486
G02        32.000    20949643.746 8 110091163.97508     -1395.498 8        48.948                                    20949636.972 7  85785319.51907     -1087.399 7        42.023
G19        33.000    23724528.584 6 124673268.14906      2460.028 6        39.631                                    23724522.964 4  97148021.26004      1916.901 4        26.467
G17        34.000    22445696.093 7 117952983.35007       517.737 7        45.123                                    22445691.248 7  91911426.67407       403.432 7        42.694    22445691.947 6  91911426.67406       403.415 6        41.735
E11        35.000    23579139.491 7 123909283.63207     -1335.008 7        44.453                                                                    23579135.079 7  92529678.89307      -996.898 7        47.014    23579134.873 7  94943489.02907     -1022.968 7        47.447
C32        36.000                                                                                                                                    23714996.724 7 123490237.70207     -2836.232 7        47.780                                                                    23714996.641 7 100345944.22307     -2304.523 7        47.874
C35        37.000                                                                                                                                    24469702.968 7 127420178.32307      2136.254 7        44.865                                                                    24469701.397 7 103539331.23007      1735.995 7        44.612
I09        38.000    37200028.129 7 145980897.83107      -350.526 7        42.804
C29        39.000                                                                                                                                    21923099.278 8 114159334.04008     -1102.224 8        50.549                                                                    21923096.460 8  92763804.96508      -895.496 8        48.774
G08        40.000    25550946.940 3                     -4053.539 3        22.210                                                                                                    25550944.434 3                     -3155.712 3        20.762
S44        42.000    40657554.906 6 213657075.48806      -494.729 6        38.589
C09        43.000                                                                                                                                    39479863.038 6 205582021.69206       842.534 6        40.963    39479859.702 7 158969049.64507       651.590 7        44.778    39479857.319 6 167052212.48406       684.718 6        40.763
C05        44.000                                                                                                                                    39200245.040 6 204125999.99206      -417.729 6        37.747    39200240.378 7 157843195.55507      -323.132 7        43.270    39200242.631 6 165869198.80106      -339.403 6        40.353
R06        45.000    21527637.171 6 114875641.90906      2869.167 6        40.532
R13        46.000    23866383.725 6 127445167.50306      -698.591 6        36.352
C39        47.000                                                                                                                                    39002181.446 7 203094601.51007      -140.889 7        42.402                                                                    39002177.286 7 165030988.77807      -114.368 7        43.420
C20        48.000                                                                                                                                    21908843.933 8 114085146.77108        99.774 8        51.805                                                                    21908838.054 8  92703518.80808        81.180 8        49.108
C06        49.000                                                                                                                                    38709751.059 6 201571848.52806       426.876 6        40.632    38709744.548 7 155868122.39107       330.068 7        43.263    38709744.683 6 163793617.05806       347.011 6        41.015
C16        50.000                                                                                                                                    39078998.539 6 203494616.30006       301.042 6        41.864    39078998.213 7 157354954.10907       232.715 7        43.029    39078995.888 6 165356042.82606       244.752 6        38.970
S48        51.000    77271359.144 6 406064144.03406      -429.563 6        37.013
C19        52.000                                                                                                                                    24576921.212 7 127978523.14707      2305.822 7        45.750                                                                    24576916.416 7 103993033.95007      1873.721 7        46.037
R04        53.000    22267312.943 7 119240474.26707     -4234.172 7        46.502                                                                    22267311.184 7  92742598.25107     -3293.110 7        42.207
C60        54.000                                                                                                                                    40657554.591 6 211714757.86206      -490.191 6        41.111                                                                    40657538.875 6 172035552.64806      -398.250 6        40.172
C30        55.000                                                                                                                                    24475716.340 7 127451467.53907     -3663.466 7        43.774                                                                    24475716.976 7 103564754.36407     -2976.715 7        44.387
R19        56.000    23949810.809 4 128115361.01604     -4735.910 4        28.777                                                                    23949812.032 4  99645316.13304     -3683.359 4        29.261
C02        57.000                                                                                                                                    40628692.865 5 211564315.32705      -462.948 5        33.826    40628686.665 6 163594942.48106      -357.976 6        40.179    40628689.893 5 171913339.28605      -376.196 5        35.690
I03        58.000   133540041.393 6 448254561.71906       967.353 6        40.749
C13        59.000                                                                                                                                    41310236.042 5 215113299.51105     -1099.021 5        35.505    41310238.307 6 166339288.88206      -849.537 6        37.894    41310235.761 5 174797205.56305      -892.871 5        35.119
> 2025 01 01 00 45 35.0000000  0 55
G28         1.000    23376298.443 7 122843287.81607       622.420 7        43.035                                    23376294.494 4  95722023.23204       485.008 4        29.156    23376294.844 7  95722029.23707       485.004 7        42.518
G31         2.000    23478495.724 7 123380333.88307      2197.721 7        42.080                                    23478491.824 6  96140505.65306      1712.507 6        36.590    23478491.714 6  96140504.65706      1712.480 6        39.282
G09         3.000    25228985.505 6 132579222.43706      3423.697 6        36.548                                    25228984.692 4 103308487.44404      2667.818 4        27.940    25228985.640 5 103308488.45705      2667.702 5        33.922
E34         4.000    28472792.494 6 149625530.50406      2361.863 6        36.836                                                                    28472793.217 6 111733355.14506      1763.664 6        38.628    28472792.716 6 114648138.03906      1809.695 6        39.802
S21         5.000    38517890.164 6 202412720.92306      -425.880 6        41.948
G21         7.000    21972417.449 7 115465894.50807     -2603.422 7        44.283                                    21972412.479 5  89973428.24005     -2028.639 5        34.376
E04         8.000    23837654.030 7 125267742.13807      -705.974 7        47.107                                                                    23837652.072 8  93544098.43708      -527.134 8        50.551    23837651.986 8  95984371.17108      -540.887 8        51.319
R14         9.000    24386718.754 7 129994941.43507      2328.016 7        42.819                                                                    24386718.279 6 101107166.82606      1810.811 6        36.295
G04        10.000    22841237.213 7 120031541.32507      3019.652 7        43.848                                    22841234.664 5  93531076.91305      2352.976 5        30.574    22841234.718 7  93531071.90607      2352.956 7        42.557
E09        11.000    24944750.234 7 131085589.89107      1926.490 7        46.484                                                                    24944749.944 8  97888605.12508      1438.630 8        48.689    24944749.593 8 100442220.35808      1476.168 8        49.234
S27        12.000    39163949.610 5 205807904.16605      -406.583 5        35.667
S36        14.000    38285481.919 7 201192075.14307      -425.522 7        43.579
E02        15.000    28572948.633 5 150151877.48805     -2821.957 5        35.038                                                                    28572947.857 6 112126418.15706     -2107.229 6        37.017    28572948.067 6 115051451.01306     -2162.366 6        37.524
E36        16.000    24300928.612 7 127702270.10307      1189.511 7        46.414                                                                    24300928.783 8  95362102.02408       888.289 8        49.726    24300928.603 8  97849803.76208       911.485 8        50.402
S45        17.000    63485515.783 6 333619120.94706      -467.541 6        37.233
G03        18.000    20291775.496 8 106634057.11908       686.132 8        49.235                                    20291773.661 8  83091492.54108       534.648 8        51.276    20291774.187 7  83091501.54607       534.596 7        45.555
R21        19.000    20467482.951 8 109525673.88208      2343.927 8        51.198                                                                    20467481.406 7  85186645.16507      1823.001 7        46.108
R20        20.000    19473648.092 6 104134398.81606     -1812.586 6        40.112                                                                    19473651.135 7  80993420.57907     -1409.773 7        47.635
R05        21.000    19309706.687 8 103221491.45108     -1520.149 8        51.635                                                                    19309705.462 7  80283388.23507     -1182.345 7        47.223
I06        22.000    38296822.929 7 150285189.60807      -216.766 7        42.129
S28        23.000    40960185.574 5 215247227.69805      -417.903 5        34.238
E10        24.000    25270469.322 7 132797332.83507     -2512.024 7        44.778                                                                    25270468.422 8  99166906.30708     -1875.796 8        48.466    25270468.121 8 101753859.59408     -1924.680 8        48.575
S23        25.000    38236254.510 7 200932839.83207      -422.338 7        44.653
E06        26.000    23798768.877 7 125063433.19207       802.831 7        47.774                                                                    23798768.703 8  93391523.69608       599.495 8        50.370    23798768.454 8  95827822.88508       615.100 8        50.696
E30        27.000    28658396.678 5 150600894.02305     -1186.527 5        35.857                                                                    28658398.135 6 112461707.69306      -885.955 6        38.835    28658397.861 6 115395489.14206      -909.200 6        39.468
E12        28.000    27509564.496 5 144563877.68105     -3069.040 5        35.714                                                                    27509561.845 6 107953617.49606     -2291.800 6        40.486    27509562.140 6 110769786.64806     -2351.518 6        41.707
E19        30.000    27020907.254 5 141995831.50305     -3145.987 5        34.181                                                                    27020905.241 6 106035845.64206     -2349.203 6        36.503    27020905.455 6 108801995.63606     -2410.542 6        36.983
G32        31.000    24187985.754 6 127108737.78106     -3566.408 6        41.328                                    24187984.234 5  99045765.69305     -2779.021 5        35.714    24187984.331 6  99045770.69806     -2778.917 6        38.631
G02        32.000    20950972.689 8 110098146.94308     -1397.739 8        48.953                                    20950965.781 6  85790760.79406     -1089.146 6        41.976
G19        33.000    23722189.270 6 124660973.32406      2457.889 6        39.453                                    23722183.313 4  97138440.88904      1915.240 4        26.539
G17        34.000    22445204.355 7 117950401.66907       514.874 7        45.007                                    22445199.969 7  91909414.97407       401.200 7        42.614    22445199.620 6  91909414.98906       401.196 6        41.766
E11        35.000    23580410.533 7 123915962.83807     -1336.726 7        44.262                                                                    23580406.084 7  92534666.59807      -998.102 7        46.936    23580405.872 7  94948606.84807     -1024.192 7        47.432
C32        36.000                                                                                                                                    23717720.549 7 123504421.13807     -2837.177 7        47.732                                                                    23717720.416 7 100357469.41407     -2305.343 7        47.793
C35        37.000                                                                                                                                    24467652.313 7 127409500.74007      2134.735 7        44.862                                                                    24467650.946 7 103530654.81607      1734.702 7        44.617
I09        38.000    37200475.153 7 145982651.29707      -350.707 7        42.840
C29        39.000                                                                                                                                    21924158.708 8 114164851.82808     -1104.886 8        50.435                                                                    21924156.138 8  92768288.60408      -897.736 8        48.684
G08        40.000    25554801.787 3                     -4053.404 3        20.762                                                                                                    25554802.622 3                     -3158.133 3        20.595
S44        42.000    40658027.104 6 213659548.96606      -494.747 6        38.898
C09        43.000                                                                                                                                    39479054.189 6 205577810.77706       841.716 6        40.822    39479050.924 7 158965793.50007       650.974 7        44.474    39479048.515 6 167048790.76306       684.101 6        40.696
C05        44.000                                                                                                                                    39200646.265 6 204128089.02206      -417.842 6        37.743    39200641.697 7 157844810.91407      -323.064 7        43.225    39200643.754 6 165870896.29606      -339.432 6        40.284
R06        45.000    21524949.501 6 114861301.89606      2866.903 6        40.098
R13        46.000    23867040.580 6 127448670.43006      -702.688 6        36.934
C39        47.000                                                                                                                                    39002317.396 7 203095308.39707      -141.808 7        42.354                                                                    39002313.002 7 165031563.18507      -115.248 7        43.327
C20        48.000                                                                                                                                    21908748.972 8 114084652.85508        97.753 8        51.746                                                                    21908743.268 8  92703117.44408        79.519 8        49.009
C06        49.000                                                                                                                                    38709341.042 6 201569716.34506       426.009 6        40.448    38709334.868 7 155866473.65207       329.442 7        43.323    38709335.133 6 163791884.47606       346.181 6        41.020
C16        50.000                                                                                                                                    39078710.271 6 203493113.67206       300.100 6        41.940    39078709.810 7 157353792.18707       231.972 7        42.950    39078707.353 6 165354821.81306       243.904 6        38.859
S48        51.000    77271766.657 6 406066291.96206      -429.464 6        37.282
C19        52.000                                                                                                                                    24574707.119 7 127966997.02107      2304.653 7        45.500                                                                    24574702.947 7 103983668.01807      1872.848 7        45.982
R04        53.000    22271267.661 7 119261646.68907     -4234.946 7        47.338                                                                    22271265.254 7  92759065.68007     -3293.811 7        42.313
C60        54.000                                                                                                                                    40658025.555 6 211717208.85206      -490.200 6        40.851                                                                    40658009.441 6 172037544.25006      -398.254 6        40.091
C30        55.000                                                                                                                                    24479234.003 7 127469786.71307     -3664.276 7        44.056                                                                    24479235.155 7 103579640.18807     -2977.461 7        44.561
R19        56.000    23954240.236 4 128139042.57104     -4737.112 4        29.507                                                                    23954237.090 4  99663735.05204     -3683.555 4        29.185
C02        57.000                                                                                                                                    40629137.702 5 211566629.58405      -463.030 5        33.814    40629131.126 6 163596732.01606      -357.863 6        40.072    40629134.444 5 171915219.78705      -375.957 5        35.800
I03        58.000   133538808.876 6 448249725.06206       967.278 6        40.956
C13        59.000                                                                                                                                    41311290.652 5 215118793.54205     -1098.574 5        35.752    41311293.165 6 166343537.24406      -849.606 6        37.656    41311291.263 5 174801669.88805      -892.611 5        35.014
> 2025 01 01 00 45 40.0000000  0 55
G28         1.000    23375707.112 7 122840183.44807       619.525 7        42.552                                    23375703.860 4  95719604.25604       482.746 4        29.109    23375704.022 7  95719610.24707       482.779 7        42.271
G31         2.000    23476405.811 7 123369350.47407      2195.832 7        42.787                                    23476401.716 6  96131947.16206      1711.039 6        36.873    23476401.917 6  96131946.14706      1711.286 6        38.916
G09         3.000    25225728.284 6 132562105.61306      3423.486 6        36.658                                    25225727.482 4 103295149.66204      2667.650 4        28.171    25225728.820 5 103295150.68405      2667.534 5        33.647
E34         4.000    28470545.025 6 149613721.26106      2362.118 6        36.408                                                                    28470545.896 6 111724536.57606      1763.814 6        38.622    28470545.449 6 114639089.41706      1809.934 6        40.086
S21         5.000    38518296.764 6 202414850.42306      -425.821 6        41.931
G21         7.000    21974895.328 7 115478915.74707     -2604.902 7        44.351                                    21974890.299 5  89983574.65505     -2029.792 5        34.190
E04         8.000    23838326.958 7 125271277.83807      -708.151 7        47.005                                                                    23838324.917 8  93546738.73908      -528.811 8        50.383    23838324.791 8  95987080.34908      -542.600 8        51.410
R14         9.000    24384535.585 6 129983307.27206      2325.848 6        41.917                                                                    24384536.247 6 101098118.06506      1808.736 6        36.904
G04        10.000    22838364.579 7 120016446.51407      3018.466 7        44.092                                    22838362.214 5  93519314.72505      2352.050 5        30.513    22838362.147 7  93519309.72107      2352.060 7        42.453
E09        11.000    24942917.912 7 131075961.61207      1925.022 7        46.350                                                                    24942917.805 8  97881415.17308      1437.565 8        48.475    24942917.453 8 100434842.84808      1475.018 8        49.239
S27        12.000    39164328.580 5 205809938.16105      -406.695 5        35.567
S36        14.000    38285886.238 7 201194202.40707      -425.136 7        43.587
E02        15.000    28575633.858 5 150165990.15205     -2822.834 5        34.338                                                                    28575633.556 6 112136956.81806     -2107.862 6        37.225    28575633.604 6 115062264.59306     -2162.974 6        37.860
E36        16.000    24299797.466 7 127696325.57907      1188.488 7        46.325                                                                    24299797.559 8  95357662.93108       887.469 8        49.596    24299797.364 8  97845248.86908       910.602 8        50.445
S45        17.000    63485917.697 6 333621458.81006      -467.295 6        37.278
G03        18.000    20291123.509 8 106630631.64808       684.295 8        49.338                                    20291121.810 8  83088823.34208       533.216 8        51.157    20291122.240 7  83088832.34507       533.192 7        45.699
R21        19.000    20465294.045 8 109513961.40708      2341.216 8        50.693                                                                    20465293.184 7  85177535.47007      1820.911 7        46.280
R20        20.000    19475345.704 6 104143471.22606     -1816.256 6        40.122                                                                    19475346.902 7  81000476.89907     -1412.675 7        46.898
R05        21.000    19311129.858 8 103229100.59108     -1523.326 8        51.769                                                                    19311128.743 7  80289306.45507     -1184.820 7        47.155
I06        22.000    38297099.395 7 150286273.64507      -216.691 7        42.180
S28        23.000    40960581.804 5 215249319.43205      -418.174 5        34.248
E10        24.000    25272859.748 7 132809895.85507     -2513.004 7        44.855                                                                    25272859.051 8  99176287.78608     -1876.610 8        48.227    25272858.719 8 101763485.81208     -1925.601 8        48.736
S23        25.000    38236656.013 7 200934951.87407      -422.230 7        44.769
E06        26.000    23798006.058 7 125059424.85007       800.759 7        47.776                                                                    23798005.923 8  93388530.44708       598.015 8        50.177    23798005.714 8  95824751.55208       613.602 8        50.764
E30        27.000    28659527.050 6 150606833.14706     -1188.870 6        36.771                                                                    28659528.313 6 112466142.72406      -887.702 6        40.217    28659527.979 6 115400039.86906      -910.854 6        40.896
E12        28.000    27512484.623 5 144579224.49605     -3069.674 5        35.595                                                                    27512482.292 6 107965077.77606     -2292.119 6        40.355    27512482.447 6 110781545.90106     -2351.999 6        41.535
E19        30.000    27023900.674 5 142011563.92005     -3146.755 5        34.014                                                                    27023899.244 6 106047593.85106     -2349.664 6        36.624    27023899.261 6 108814050.32906     -2411.218 6        37.508
G32        31.000    24191379.363 6 127126573.18306     -3567.437 6        41.173                                    24191378.200 5  99059663.40405     -2779.825 5        35.448    24191378.368 6  99059668.40906     -2779.967 6        38.667
G02        32.000    20952303.590 8 110105141.62708     -1399.916 8        49.420                                    20952296.827 7  85796211.19407     -1090.844 7        42.009
G19        33.000    23719851.710 6 124648689.88406      2455.751 6        40.036                                    23719845.803 4  97128869.38604      1913.557 4        26.539
G17        34.000    22444715.865 7 117947834.82207       512.114 7        45.314                                    22444711.489 7  91907414.83307       399.051 7        42.711    22444711.623 6  91907414.84506       398.906 6        41.507
E11        35.000    23581682.898 7 123922650.30807     -1338.134 7        44.147                                                                    23581678.696 7  92539660.49907      -999.304 7        46.887    23581678.458 7  94953731.02107     -1025.400 7        47.492
C32        36.000                                                                                                                                    23720445.218 7 123518609.82507     -2838.054 7        47.637                                                                    23720445.265 7 100368998.91307     -2306.163 7        47.884
C35        37.000                                                                                                                                    24465603.624 7 127398831.26707      2133.227 7        45.157                                                                    24465601.907 7 103521985.03007      1733.390 7        44.643
I09        38.000    37200921.933 7 145984405.84307      -350.972 7        42.940
C29        39.000                                                                                                                                    21925220.963 8 114170383.40408     -1107.522 8        50.490                                                                    21925218.379 8  92772783.49708      -900.006 8        48.779
G08        40.000    25558656.961 3                     -4050.051 3        21.929                                                                                                    25558656.208 3                     -3155.317 3        19.731
S44        42.000    40658498.454 6 213662022.70606      -494.616 6        38.883
C09        43.000                                                                                                                                    39478246.608 6 205573603.82006       841.150 6        40.896    39478242.866 7 158962540.41407       650.413 7        44.340    39478240.625 6 167045372.29806       683.479 6        40.658
C05        44.000                                                                                                                                    39201047.553 6 204130178.34906      -417.833 6        37.694    39201042.802 7 157846426.51407      -322.965 7        43.198    39201044.974 6 165872594.06406      -339.434 6        40.365
R06        45.000    21522264.716 6 114846972.62406      2865.058 6        40.133
R13        46.000    23867700.854 6 127452194.20506      -706.806 6        37.939
C39        47.000                                                                                                                                    39002454.188 7 203096020.42707      -142.745 7        42.341                                                                    39002449.750 7 165032141.78007      -116.061 7        43.486
C20        48.000                                                                                                                                    21908656.391 8 114084169.57408        95.781 8        51.940                                                                    21908650.444 8  92702724.78108        77.781 8        49.060
C06        49.000                                                                                                                                    38708932.524 6 201567588.99006       425.125 6        40.424    38708926.309 7 155864828.65007       328.796 7        43.482    38708926.694 6 163790155.85106       345.538 6        41.282
C16        50.000                                                                                                                                    39078422.713 7 203491615.88707       299.193 7        42.271    39078422.157 7 157352634.00007       231.336 7        43.005    39078419.679 6 165353604.78206       243.047 6        39.168
S48        51.000    77272169.715 6 406068440.13306      -429.532 6        37.622
C19        52.000                                                                                                                                    24572494.855 7 127955476.75607      2303.656 7        45.676                                                                    24572490.654 7 103974306.90407      1871.851 7        46.035
R04        53.000    22275221.414 7 119282823.58607     -4235.622 7        46.930                                                                    22275219.333 7  92775536.59607     -3294.399 7        42.167
C60        54.000                                                                                                                                    40658496.189 6 211719660.10206      -490.061 6        40.942                                                                    40658480.209 6 172039536.12306      -398.131 6        40.119
C30        55.000                                                                                                                                    24482753.066 7 127488111.06907     -3665.187 7        44.597                                                                    24482754.429 7 103594530.26807     -2978.305 7        44.789
R19        56.000    23958665.927 4 128162728.24704     -4737.625 4        28.313                                                                    23958663.392 4  99682157.23204     -3684.463 4        29.735
C02        57.000                                                                                                                                    40629582.575 5 211568944.15705      -462.604 5        33.671    40629575.440 6 163598521.78906      -357.906 6        40.219    40629578.856 5 171917100.61205      -376.064 5        35.810
I03        58.000   133537576.869 6 448244888.77106       967.279 6        40.913
C13        59.000                                                                                                                                    41312346.765 5 215124287.62305     -1098.579 5        35.557    41312348.015 6 166347785.59206      -849.375 6        37.698    41312346.399 5 174806134.30505      -892.830 5        35.148
> 2025 01 01 00 45 45.0000000  0 55
G28         1.000    23375119.136 7 122837094.08707       616.486 7        42.013                                    23375116.132 4  95717196.95404       480.378 4        29.308    23375116.044 7  95717202.93507       480.455 7        42.011
G31         2.000    23474317.488 7 123358376.92807      2193.943 7        42.231                                    23474313.396 6  96123396.34706      1709.562 6        37.077    23474313.886 6  96123395.33406      1709.625 6        38.820
G09         3.000    25222470.956 6 132544989.45206      3423.281 6        36.854                                    25222470.396 4 103281812.39904      2667.492 4        28.502    25222470.264 5 103281813.43405      2667.189 5        33.365
E34         4.000    28468297.144 6 149601911.33606      2362.165 6        36.930                                                                    28468298.741 6 111715717.49606      1763.900 6        38.808    28468298.112 6 114630040.26806      1809.992 6        40.353
S21         5.000    38518701.361 7 202416980.10707      -425.849 7        42.174
G21         7.000    21977375.018 7 115491944.91507     -2606.561 7        44.605                                    21977369.621 5  89993727.24805     -2031.087 5        34.329
E04         8.000    23839001.829 7 125274824.68607      -710.350 7        47.084                                                                    23838999.873 8  93549387.35708      -530.450 8        50.369    23838999.704 8  95989798.06108      -544.303 8        51.453
R14         9.000    24382355.299 7 129971684.86607      2323.423 7        42.470                                                                    24382355.589 6 101089078.40506      1806.968 6        37.429
G04        10.000    22835493.402 7 120001358.19507      3017.141 7        43.666                                    22835490.945 5  93507557.60205      2351.021 5        30.551    22835490.884 7  93507552.61007      2350.910 7        42.087
E09        11.000    24941086.962 7 131066341.12207      1923.459 7        45.907                                                                    24941087.135 8  97874231.04508      1436.357 8        48.436    24941086.727 8 100427471.30208      1473.830 8        49.313
S27        12.000    39164721.814 5 205811972.42505      -406.805 5        35.614
S36        14.000    38286292.745 7 201196329.29007      -424.912 7        43.761
E02        15.000    28578319.068 5 150180106.77405     -2823.422 5        34.414                                                                    28578320.257 6 112147498.46006     -2108.468 6        37.127    28578319.778 6 115073081.23806     -2163.669 6        37.766
E36        16.000    24298667.336 7 127690386.67807      1187.420 7        46.353                                                                    24298667.452 8  95353228.04008       886.675 8        49.572    24298667.288 8  97840698.28508       909.815 8        50.549
S45        17.000    63486319.289 6 333623796.63506      -467.309 6        37.210
G03        18.000    20290473.929 8 106627216.24408       682.137 8        49.380                                    20290471.878 8  83086161.99208       531.536 8        51.340    20290472.336 7  83086170.99707       531.490 7        45.791
R21        19.000    20463107.587 8 109502262.85808      2338.493 8        50.819                                                                    20463106.570 7  85168436.60407      1818.768 7        46.410
R20        20.000    19477046.666 6 104152562.97306     -1820.302 6        40.322                                                                    19477047.118 7  81007548.25107     -1415.719 7        46.745
R05        21.000    19312556.374 8 103236726.40908     -1526.665 8        51.848                                                                    19312555.302 7  80295237.64607     -1187.433 7        47.389
I06        22.000    38297375.643 7 150287357.75207      -216.742 7        42.320
S28        23.000    40960980.445 5 215251411.08705      -417.740 5        34.148
E10        24.000    25275251.460 7 132822464.96207     -2514.205 7        44.691                                                                    25275250.875 8  99185673.80408     -1877.539 8        48.236    25275250.585 8 101773116.68008     -1926.524 8        48.736
S23        25.000    38237056.782 7 200937063.76207      -422.184 7        44.683
E06        26.000    23797245.352 7 125055427.03307       798.683 7        47.754                                                                    23797245.168 8  93385545.07008       596.377 8        50.173    23797244.928 8  95821688.29408       611.952 8        50.816
E30        27.000    28660659.202 6 150612783.35706     -1191.304 6        36.801                                                                    28660660.660 6 112470586.07606      -889.477 6        38.880    28660660.242 6 115404599.12506      -912.711 6        40.262
E12        28.000    27515405.920 5 144594574.78005     -3070.387 5        35.490                                                                    27515403.267 6 107976540.66006     -2292.604 6        40.539    27515403.301 6 110793307.80706     -2352.513 6        41.385
E19        30.000    27026894.688 5 142027300.26805     -3147.395 5        33.587                                                                    27026893.742 6 106059345.02606     -2350.544 6        36.359    27026893.776 6 108826108.03606     -2411.648 6        37.614
G32        31.000    24194774.925 6 127144414.15006     -3568.667 6        40.644                                    24194773.177 5  99073565.44505     -2780.780 5        35.505    24194773.598 6  99073570.43406     -2780.783 6        38.192
G02        32.000    20953636.845 8 110112147.84508     -1402.232 8        49.160                                    20953630.095 7  85801670.58207     -1092.650 7        42.021
G19        33.000    23717516.565 6 124636417.63806      2453.505 6        39.829                                    23717510.418 4  97119306.60804      1911.825 4        26.659
G17        34.000    22444230.164 7 117945282.64807       509.149 7        44.921                                    22444225.817 7  91905426.12707       396.737 7        42.766    22444225.718 6  91905426.12906       396.709 6        41.185
E11        35.000    23582957.240 7 123929345.85207     -1339.909 7        44.208                                                                    23582952.781 7  92544660.41407     -1000.612 7        46.845    23582952.561 7  94958861.36507     -1026.643 7        47.539
C32        36.000                                                                                                                                    23723170.976 7 123532803.55207     -2839.112 7        47.658                                                                    23723170.937 7 100380532.46507     -2306.919 7        47.888
C35        37.000                                                                                                                                    24463555.541 7 127388169.72107      2131.629 7        44.676                                                                    24463554.543 7 103513321.64007      1732.198 7        44.652
I09        38.000    37201369.357 7 145986161.29707      -351.061 7        43.005
C29        39.000                                                                                                                                    21926286.076 8 114175928.57608     -1110.298 8        50.645                                                                    21926283.297 8  92777289.39208      -902.111 8        48.791
G08        40.000    25562513.900 3                     -4051.206 3        21.619                                                                                                    25562512.177 3                     -3155.371 3        20.810
S44        42.000    40658969.204 6 213664496.50606      -494.706 6        38.904
C09        43.000                                                                                                                                    39477439.418 6 205569400.65806       840.380 6        40.815    39477435.462 7 158959290.26107       649.733 7        44.215    39477433.485 6 167041956.87206       682.925 6        40.610
C05        44.000                                                                                                                                    39201448.564 6 204132267.77706      -417.747 6        37.849    39201444.192 7 157848042.19807      -323.056 7        43.319    39201446.195 6 165874291.90206      -339.437 6        40.315
R06        45.000    21519581.930 6 114832653.99606      2862.800 6        40.627
R13        46.000    23868364.087 6 127455738.74506      -710.945 6        38.556
C39        47.000                                                                                                                                    39002591.915 7 203096737.35307      -143.770 7        42.425                                                                    39002587.483 7 165032724.32607      -116.651 7        43.467
C20        48.000                                                                                                                                    21908565.564 8 114083696.75908        93.649 8        51.905                                                                    21908559.648 8  92702340.56508        76.158 8        49.081
C06        49.000                                                                                                                                    38708524.659 6 201565466.29006       424.305 6        40.193    38708518.989 7 155863187.24607       328.022 7        43.719    38708518.998 6 163788430.97106       344.761 6        41.216
C16        50.000                                                                                                                                    39078136.349 7 203490122.75507       298.253 7        42.417    39078135.477 7 157351479.41907       230.631 7        42.893    39078133.061 6 165352391.48006       242.454 6        39.222
S48        51.000    77272569.595 6 406070588.23706      -429.545 6        37.629
C19        52.000                                                                                                                                    24570283.705 7 127943962.16207      2302.510 7        45.732                                                                    24570279.357 7 103964950.34707      1871.008 7        46.103
R04        53.000    22279175.294 7 119304004.42507     -4236.506 7        45.303                                                                    22279175.089 7  92792010.60207     -3295.015 7        42.072
C60        54.000                                                                                                                                    40658966.828 6 211722111.41306      -490.245 6        41.058                                                                    40658951.053 6 172041528.01706      -398.252 6        40.205
C30        55.000                                                                                                                                    24486273.084 7 127506440.39707     -3666.168 7        44.795                                                                    24486274.361 7 103609424.33507     -2979.074 7        44.758
R19        56.000    23963091.641 4 128186417.95904     -4738.459 4        27.976                                                                    23963093.724 4  99700582.58904     -3684.828 4        28.900
C02        57.000                                                                                                                                    40630026.723 5 211571258.89405      -462.836 5        34.019    40630019.888 6 163600311.67206      -357.662 6        40.150    40630023.478 5 171918981.50805      -376.194 5        35.938
I03        58.000   133536344.374 6 448240052.68506       967.161 6        41.035
C13        59.000                                                                                                                                    41313401.484 5 215129781.47105     -1098.638 5        35.057    41313402.974 6 166352033.80606      -849.435 6        37.611    41313401.627 5 174810598.52505      -892.718 5        35.190
> 2025 01 01 00 45 50.0000000  0 55
G28         1.000    23374534.371 7 122834019.64307       613.343 7        42.229                                    23374531.048 4  95714801.29104       477.926 4        29.308    23374531.258 6  95714807.27806       477.987 6        41.735
G31         2.000    23472231.007 7 123347413.26807      2191.742 7        42.459                                    23472226.915 6  96114853.23406      1707.852 6        37.157    23472227.613 6  96114852.22506      1707.832 6        38.787
G09         3.000    25219213.730 6 132527873.92606      3423.159 6        36.836                                    25219213.396 4 103268475.63904      2667.393 4        28.872    25219213.441 5 103268476.62005      2667.352 5        34.019
E34         4.000    28466049.372 6 149590100.65706      2362.227 6        36.510                                                                    28466051.210 6 111706897.84406      1764.057 6        39.087    28466050.617 6 114620990.54906      1809.992 6        40.234
S21         5.000    38519105.828 7 202419109.81707      -425.988 7        42.239
G21         7.000    21979856.265 7 115504981.99207     -2608.214 7        44.709                                    21979850.509 5  90003886.01105     -2032.375 5        34.367
E04         8.000    23839678.822 7 125278382.62807      -712.642 7        47.059                                                                    23839676.895 8  93552044.27208      -532.183 8        50.321    23839676.797 8  95992524.28608      -546.107 8        51.394
R14         9.000    24380177.962 7 129960074.34807      2320.971 7        42.709                                                                    24380177.519 6 101080048.01106      1805.070 6        37.977
G04        10.000    22832623.597 7 119986276.35407      3015.705 7        43.187                                    22832620.879 5  93495805.52305      2349.902 5        30.475    22832620.505 7  93495800.52707      2349.871 7        42.042
E09        11.000    24939258.140 7 131056728.38707      1921.755 7        46.149                                                                    24939257.827 8  97867052.70608      1435.122 8        48.363    24939257.512 8 100420105.70908      1472.522 8        49.225
S27        12.000    39165109.799 5 205814006.61905      -406.803 5        35.767
S36        14.000    38286697.686 7 201198456.07007      -425.301 7        43.805
E02        15.000    28581006.979 5 150194227.34705     -2824.361 5        34.524                                                                    28581007.121 6 112158043.06306     -2109.169 6        36.881    28581006.513 6 115083900.89506     -2164.217 6        37.508
E36        16.000    24297538.023 7 127684453.41507      1186.085 7        46.591                                                                    24297538.322 8  95348797.35408       885.751 8        49.379    24297538.192 8  97836152.01508       908.839 8        50.459
S45        17.000    63486718.958 6 333626134.32606      -467.735 6        37.410
G03        18.000    20289825.834 8 106623810.85008       680.046 8        49.346                                    20289823.855 8  83083508.44108       529.905 8        51.375    20289824.394 7  83083517.44607       529.931 7        45.666
R21        19.000    20460924.231 8 109490578.18408      2335.551 8        51.023                                                                    20460922.814 7  85159348.51307      1816.505 7        45.753
R20        20.000    19478749.811 6 104161673.95406     -1824.179 6        40.231                                                                    19478751.255 7  81014634.57007     -1418.727 7        46.594
R05        21.000    19313985.962 8 103244368.58108     -1530.096 8        51.863                                                                    19313984.998 7  80301181.55007     -1190.076 7        47.219
I06        22.000    38297651.847 7 150288441.89807      -216.785 7        42.237
S28        23.000    40961379.506 5 215253502.49505      -418.360 5        33.904
E10        24.000    25277644.380 7 132835040.10607     -2515.618 7        44.906                                                                    25277643.791 8  99195064.33808     -1878.603 8        48.189    25277643.633 8 101782752.18308     -1927.571 8        48.738
S23        25.000    38237458.673 7 200939175.68707      -422.321 7        44.793
E06        26.000    23796486.535 7 125051439.69807       796.416 7        47.757                                                                    23796486.374 8  93382567.52208       594.712 8        50.129    23796486.174 8  95818633.06808       610.258 8        50.736
E30        27.000    28661793.542 6 150618744.54506     -1193.355 6        36.801                                                                    28661794.927 6 112475037.61106      -891.116 6        39.135    28661794.758 6 115409166.78806      -914.254 6        40.470
E12        28.000    27518327.838 5 144609928.55405     -3071.107 5        35.324                                                                    27518325.192 6 107988006.12806     -2293.355 6        40.276    27518324.917 6 110805072.38306     -2353.271 6        41.135
E19        30.000    27029890.367 5 142043040.54605     -3148.560 5        32.850                                                                    27029888.841 6 106071099.13506     -2351.072 6        36.355    27029889.086 6 108838168.77406     -2412.613 6        37.217
G32        31.000    24198171.152 6 127162260.63406     -3569.811 6        40.276                                    24198169.258 5  99087471.78905     -2781.666 5        35.448    24198169.745 6  99087476.79006     -2781.558 6        37.807
G02        32.000    20954972.073 8 110119165.54308     -1404.685 8        49.345                                    20954965.509 7  85807138.91707     -1094.561 7        42.036
G19        33.000    23715183.502 6 124624156.53606      2451.036 6        39.312                                    23715177.255 4  97109752.49504      1909.896 4        26.383
G17        34.000    22443747.445 7 117942745.17007       506.029 7        44.956                                    22443742.958 7  91903448.87107       394.308 7        42.796    22443743.453 6  91903448.87606       394.294 6        41.447
E11        35.000    23584232.887 7 123936049.41807     -1341.573 7        44.381                                                                    23584228.474 7  92549666.32807     -1001.774 7        46.782    23584228.198 7  94963997.86807     -1027.896 7        47.503
C32        36.000                                                                                                                                    23725897.566 7 123547002.25807     -2840.179 7        47.880                                                                    23725897.617 7 100392070.08807     -2307.944 7        47.755
C35        37.000                                                                                                                                    24461509.655 7 127377516.07007      2129.904 7        44.793                                                                    24461508.577 7 103504664.69307      1730.600 7        44.528
I09        38.000    37201816.839 7 145987917.66807      -351.349 7        42.965
C29        39.000                                                                                                                                    21927353.588 8 114181487.29508     -1113.069 8        50.730                                                                    21927350.766 8  92781806.31808      -904.576 8        48.605
G08        40.000    25566366.069 3                     -4049.790 3        22.019                                                                                                    25566366.626 3                     -3151.199 3        19.642
S44        42.000    40659439.381 6 213666970.33506      -494.724 6        38.967
C09        43.000                                                                                                                                    39476632.306 6 205565201.22206       839.483 6        40.768    39476629.180 7 158956042.99307       649.098 7        43.892    39476627.105 6 167038544.49606       682.224 6        40.429
C05        44.000                                                                                                                                    39201850.129 6 204134357.27206      -417.720 6        37.970    39201845.279 7 157849657.93107      -323.139 7        43.107    39201847.398 6 165875989.80006      -339.726 6        40.169
R06        45.000    21516900.320 6 114818345.83106      2860.594 6        40.145
R13        46.000    23869031.223 6 127459303.83706      -715.030 6        37.781
C39        47.000                                                                                                                                    39002730.447 7 203097459.15707      -144.824 7        42.415                                                                    39002726.072 7 165033310.86507      -117.802 7        43.236
C20        48.000                                                                                                                                    21908476.527 8 114083234.34008        91.480 8        51.895                                                                    21908470.840 8  92701964.81908        74.235 8        48.939
C06        49.000                                                                                                                                    38708117.717 6 201563348.20806       423.076 6        40.114    38708112.325 7 155861549.41407       327.179 7        43.549    38708112.243 6 163786709.85806       343.882 6        41.151
C16        50.000                                                                                                                                    39077849.975 7 203488634.23407       297.167 7        42.370    39077849.716 7 157350328.41207       229.784 7        42.781    39077847.153 6 165351181.94306       241.476 6        38.916
S48        51.000    77272973.221 6 406072736.23406      -429.854 6        37.660
C19        52.000                                                                                                                                    24568073.455 7 127932453.20207      2301.274 7        45.327                                                                    24568069.071 7 103955598.39107      1869.803 7        46.027
R04        53.000    22283132.483 7 119325189.28607     -4237.447 7        45.213                                                                    22283131.095 6  92808487.69206     -3295.679 6        41.790
C60        54.000                                                                                                                                    40659437.587 6 211724562.75806      -490.295 6        41.018                                                                    40659421.656 6 172043519.94306      -398.625 6        40.036
C30        55.000                                                                                                                                    24489793.607 7 127524774.65907     -3667.277 7        44.891                                                                    24489795.011 7 103624322.42307     -2980.142 7        44.539
R19        56.000    23967520.733 4 128210111.72304     -4739.249 4        27.533                                                                    23967524.143 4  99719011.05404     -3685.939 4        27.832
C02        57.000                                                                                                                                    40630471.453 5 211573573.70205      -463.113 5        33.814    40630464.743 6 163602101.64306      -357.827 6        40.026    40630467.743 5 171920862.47005      -376.241 5        35.686
I03        58.000   133535111.695 6 448235216.77006       967.194 6        41.068
C13        59.000                                                                                                                                    41314455.867 5 215135275.14405     -1098.655 5        35.319    41314458.548 6 166356281.83706      -849.588 6        37.183    41314456.612 5 174815062.56205      -893.009 5        35.052
> 2025 01 01 00 45 55.0000000  0 55
G28         1.000    23373952.748 7 122830960.65307       610.257 7        42.607                                    23373948.959 4  95712417.66104       475.525 4        29.355    23373949.339 7  95712423.67607       475.469 7        42.373
G31         2.000    23470147.135 7 123336459.91807      2189.639 7        42.893                                    23470142.423 6  96106318.15206      1706.211 6        37.308    23470142.806 6  96106317.16306      1706.112 6        38.634
G09         3.000    25215957.168 6 132510759.57606      3422.707 6        37.180                                    25215956.709 4 103255139.78404      2667.040 4        29.213    25215956.851 5 103255140.80405      2666.879 5        34.171
E34         4.000    28463802.028 6 149578289.71206      2362.155 6        36.423                                                                    28463803.482 6 111698077.96406      1763.913 6        39.078    28463803.119 6 114611940.57906      1809.920 6        39.691
S21         5.000    38519510.497 7 202421239.79807      -426.016 7        42.123
G21         7.000    21982338.475 7 115518027.49107     -2610.000 7        44.767                                    21982333.042 5  90014051.33205     -2033.767 5        34.495
E04         8.000    23840358.138 7 125281952.16807      -715.137 7        46.921                                                                    23840356.130 8  93554709.83608      -534.020 8        50.310    23840356.025 8  95995259.38508      -547.934 8        51.323
R14         9.000    24378002.255 7 129948476.11207      2318.313 7        42.294                                                                    24378002.368 6 101071027.16506      1803.168 6        38.526
G04        10.000    22829754.897 7 119971201.47907      3014.241 7        43.048                                    22829752.186 5  93484058.87405      2348.759 5        30.664    22829752.170 7  93484053.88707      2348.643 7        42.893
E09        11.000    24937430.806 7 131047123.91607      1919.966 7        46.201                                                                    24937430.089 8  97859880.54108      1433.805 8        48.407    24937429.824 8 100412746.43408      1471.170 8        49.156
S27        12.000    39165500.181 5 205816040.92105      -406.953 5        35.757
S36        14.000    38287102.368 7 201200583.38607      -426.035 7        43.630
E02        15.000    28583695.188 5 150208352.36305     -2825.513 5        33.934                                                                    28583694.875 6 112168590.95106     -2110.069 6        36.488    28583694.612 6 115094723.96506     -2165.006 6        37.202
E36        16.000    24296410.171 7 127678526.25307      1184.782 7        46.330                                                                    24296410.477 8  95344371.23808       884.686 8        49.515    24296410.236 8  97831610.43208       907.790 8        50.436
S45        17.000    63487117.961 6 333628472.60106      -467.926 6        37.255
G03        18.000    20289179.592 8 106620416.00008       677.858 8        49.899                                    20289177.848 8  83080863.10208       528.202 8        51.484    20289178.164 7  83080872.10207       528.220 7        45.505
R21        19.000    20458743.489 8 109478907.91308      2332.509 8        50.585                                                                    20458741.490 7  85150271.64207      1814.126 7        45.871
R20        20.000    19480456.753 6 104170804.59406     -1828.077 6        40.257                                                                    19480458.825 7  81021736.17907     -1421.921 7        47.027
R05        21.000    19315419.089 8 103252027.89108     -1533.643 8        52.010                                                                    19315417.683 7  80307138.80507     -1192.818 7        47.408
I06        22.000    38297928.131 7 150289526.44607      -216.987 7        42.385
S28        23.000    40961777.055 5 215255594.71905      -418.590 5        34.138
E10        24.000    25280038.665 7 132847621.78407     -2517.067 7        45.053                                                                    25280038.045 8  99204459.74408     -1879.650 8        48.209    25280037.843 8 101792392.68808     -1928.679 8        48.620
S23        25.000    38237863.226 7 200941288.11707      -422.616 7        44.795
E06        26.000    23795729.888 7 125047463.36407       794.101 7        47.755                                                                    23795729.657 8  93379598.18008       593.005 8        50.118    23795729.465 8  95815586.26808       608.488 8        50.680
E30        27.000    28662930.358 6 150624717.27106     -1195.949 6        37.225                                                                    28662931.708 6 112479497.75006      -892.959 6        39.508    28662931.322 6 115413743.28806      -916.289 6        40.529
E12        28.000    27521250.091 5 144625286.23505     -3072.045 5        34.938                                                                    27521247.611 6 107999474.54006     -2294.016 6        40.448    27521247.490 6 110816839.95106     -2353.765 6        40.849
E19        30.000    27032886.455 5 142058785.29705     -3149.526 5        33.156                                                                    27032884.948 6 106082856.56006     -2351.800 6        36.389    27032884.916 6 108850232.91706     -2413.231 6        37.323
G32        31.000    24201568.586 6 127180113.13806     -3571.158 6        40.269                                    24201566.359 5  99101382.82305     -2782.720 5        35.486    24201566.931 6  99101387.81706     -2782.728 6        37.743
G02        32.000    20956310.035 8 110126195.22308     -1407.145 8        49.280                                    20956303.235 7  85812616.59107     -1096.479 7        42.087
G19        33.000    23712852.398 6 124611907.12706      2448.632 6        40.164                                    23712846.220 4  97100207.50104      1908.025 4        26.503
G17        34.000    22443267.654 7 117940222.79007       502.982 7        45.109                                    22443262.983 7  91901483.38207       391.935 7        42.827    22443263.254 6  91901483.39306       391.799 6        41.411
E11        35.000    23585510.184 7 123942761.53607     -1343.333 7        44.408                                                                    23585505.777 7  92554678.61907     -1003.104 7        46.775    23585505.447 7  94969140.91807     -1029.314 7        47.462
C32        36.000                                                                                                                                    23728625.560 7 123561206.45007     -2841.431 7        47.983                                                                    23728625.374 7 100403612.15707     -2309.001 7        47.731
C35        37.000                                                                                                                                    24459465.309 7 127366870.83607      2128.110 7        44.655                                                                    24459464.336 7 103496014.55307      1729.249 7        44.673
I09        38.000    37202264.631 7 145989675.29407      -351.638 7        43.079
C29        39.000                                                                                                                                    21928423.577 8 114187060.07508     -1116.016 8        50.705                                                                    21928420.966 8  92786334.64408      -906.916 8        48.671
G08        40.000    25570220.831 3                     -4049.113 3        21.571                                                                                                    25570214.686 3                     -3154.533 3        19.701
S44        42.000    40659910.494 6 213669444.69006      -494.934 6        38.928
C09        43.000                                                                                                                                    39475825.961 6 205561006.02206       838.480 6        40.358    39475823.741 7 158952799.00607       648.469 7        44.156    39475821.394 6 167035135.54906       681.366 6        40.503
C05        44.000                                                                                                                                    39202251.761 6 204136447.39006      -418.397 6        37.698    39202246.683 7 157851274.13807      -323.407 7        43.327    39202248.838 6 165877688.15306      -339.904 6        40.315
R06        45.000    21514221.062 6 114804048.79106      2858.246 6        39.946
R13        46.000    23869703.214 6 127462890.01306      -719.452 6        37.758
C39        47.000                                                                                                                                    39002870.302 7 203098186.34107      -146.030 7        42.502                                                                    39002865.711 7 165033901.75607      -118.678 7        43.363
C20        48.000                                                                                                                                    21908389.867 8 114082782.82108        89.111 8        51.814                                                                    21908384.139 8  92701597.91508        72.380 8        48.998
C06        49.000                                                                                                                                    38707710.984 6 201561235.21406       421.955 6        39.604    38707706.420 7 155859915.51607       326.362 7        43.687    38707706.412 6 163784992.88706       342.779 6        41.240
C16        50.000                                                                                                                                    39077564.772 7 203487150.82407       296.126 7        42.190    39077564.547 7 157349181.33707       228.935 7        42.817    39077562.488 6 165349976.53406       240.451 6        39.321
S48        51.000    77273371.884 6 406074884.60506      -429.900 6        37.459
C19        52.000                                                                                                                                    24565864.475 7 127920950.39007      2299.938 7        45.067                                                                    24565860.197 7 103946251.39307      1868.835 7        46.025
R04        53.000    22287089.979 7 119346378.63407     -4238.392 7        45.862                                                                    22287088.169 6  92824968.29206     -3296.431 6        41.759
C60        54.000                                                                                                                                    40659908.587 6 211727014.61206      -490.467 6        40.987                                                                    40659892.495 6 172045512.26206      -398.615 6        40.212
C30        55.000                                                                                                                                    24493315.577 7 127543114.33407     -3668.609 7        45.157                                                                    24493316.762 7 103639224.90107     -2981.169 7        44.400
R19        56.000    23971955.409 4 128233809.79204     -4739.090 4        26.946                                                                    23971952.940 4  99737442.94904     -3686.200 4        27.617
C02        57.000                                                                                                                                    40630915.427 5 211575889.10505      -463.206 5        33.748    40630909.334 6 163603892.06406      -358.213 6        40.238    40630912.459 5 171922743.93005      -376.651 5        35.795
I03        58.000   133533879.486 6 448230381.39706       967.020 6        41.056
C13        59.000                                                                                                                                    41315510.937 5 215140768.93705     -1099.110 5        35.238    41315513.512 6 166360529.99006      -849.691 6        37.781    41315511.361 5 174819526.69805      -892.673 5        35.043
> 2025 01 01 00 46  0.0000000  0 55
G28         1.000    23373372.809 6 122827916.62406       607.472 6        41.928                                    23373369.807 4  95710045.69504       473.354 4        29.185    23373369.772 7  95710051.69507       473.269 7        42.212
G31         2.000    23468064.605 7 123325516.39807      2187.745 7        42.637                                    23468059.850 6  96097790.73606      1704.738 6        37.391    23468060.414 6  96097789.73906      1704.816 6        38.736
G09         3.000    25212700.693 6 132493645.83106      3422.739 6        37.096                                    25212700.040 4 103241804.41204      2667.073 4        29.450    25212699.856 5 103241805.42205      2667.017 5        34.248
E34         4.000    28461554.782 6 149566478.01706      2362.396 6        36.828                                                                    28461555.967 6 111689257.53106      1764.110 6        39.087    28461555.255 6 114602890.04406      1810.243 6        39.769
S21         5.000    38519918.841 6 202423369.69406      -425.917 6        41.764
G21         7.000    21984822.303 7 115531080.74607     -2611.337 7        44.202                                    21984817.042 5  90024222.69705     -2034.805 5        34.457
E04         8.000    23841039.469 7 125285532.77207      -717.217 7        46.889                                                                    23841037.513 8  93557383.66608      -535.601 8        50.272    23841037.369 8  95998002.97008      -549.562 8        51.276
R14         9.000    24375827.761 6 129936889.99306      2316.132 6        41.845                                                                    24375829.063 6 101062015.76706      1801.357 6        38.249
G04        10.000    22826887.211 7 119956133.08507      3013.065 7        43.280                                    22826884.802 5  93472317.27405      2347.835 5        30.641    22826884.743 7  93472312.27907      2347.926 7        42.734
E09        11.000    24935604.495 7 131037527.17607      1918.662 7        46.048                                                                    24935603.853 8  97852714.15208      1432.733 8        48.402    24935603.609 8 100405393.09508      1470.116 8        49.101
S27        12.000    39165879.871 5 205818075.38705      -406.869 5        35.800
S36        14.000    38287507.318 7 201202711.70107      -425.723 7        43.371
E02        15.000    28586383.148 5 150222481.30105     -2826.069 5        33.970                                                                    28586383.317 6 112179141.77906     -2110.453 6        36.355    28586383.395 6 115105550.02206     -2165.448 6        37.289
E36        16.000    24295283.166 7 127672604.69807      1183.796 7        46.463                                                                    24295283.654 8  95339949.29408       883.990 8        49.557    24295283.415 8  97827073.13408       907.083 8        50.355
S45        17.000    63487519.275 6 333630810.84406      -467.607 6        37.206
G03        18.000    20288535.698 8 106617031.15508       675.982 8        49.557                                    20288533.742 8  83078225.56208       526.739 8        51.474    20288533.732 7  83078234.56007       526.836 7        45.481
R21        19.000    20456565.115 8 109467251.58008      2329.926 8        50.712                                                                    20456563.810 7  85141205.60207      1812.227 7        45.353
R20        20.000    19482168.220 6 104179954.44606     -1831.802 6        40.367                                                                    19482169.797 7  81028852.71907     -1424.738 7        47.168
R05        21.000    19316854.986 8 103259703.55808     -1536.730 8        52.270                                                                    19316853.615 7  80313108.75407     -1195.211 7        47.313
I06        22.000    38298204.756 7 150290611.01307      -216.931 7        42.317
S28        23.000    40962174.672 5 215257686.44005      -418.416 5        34.271
E10        24.000    25282433.928 7 132860209.47507     -2518.081 7        44.766                                                                    25282433.395 8  99213859.64108     -1880.388 8        48.211    25282433.282 8 101802037.79908     -1929.425 8        48.581
S23        25.000    38238263.905 7 200943400.51807      -422.420 7        44.749
E06        26.000    23794975.246 7 125043497.49507       792.132 7        47.939                                                                    23794975.036 8  93376636.65108       591.570 8        50.146    23794974.801 8  95812547.48308       606.998 8        50.625
E30        27.000    28664068.498 6 150630700.95706     -1197.859 6        37.142                                                                    28664070.432 6 112483966.08806      -894.490 6        39.264    28664069.942 6 115418328.19206      -917.804 6        40.286
E12        28.000    27524172.930 5 144640647.35305     -3072.706 5        34.648                                                                    27524170.822 6 108010945.48106     -2294.391 6        40.415    27524170.649 6 110828610.15406     -2354.197 6        40.629
E19        30.000    27035882.917 5 142074533.94805     -3149.917 5        33.126                                                                    27035882.115 6 106094616.91706     -2352.312 6        36.480    27035881.511 6 108862300.05606     -2413.736 6        36.783
G32        31.000    24204966.793 6 127197971.08806     -3572.087 6        40.610                                    24204964.510 5  99115298.10805     -2783.438 5        35.329    24204965.061 6  99115303.11106     -2783.574 6        37.875
G02        32.000    20957649.582 8 110133236.37708     -1409.359 8        49.175                                    20957643.112 7  85818103.20107     -1098.200 7        42.142
G19        33.000    23710523.899 6 124599668.94406      2446.606 6        40.274                                    23710517.440 4  97090671.25904      1906.454 4        26.731
G17        34.000    22442790.437 7 117937715.04807       500.053 7        44.980                                    22442785.758 7  91899529.29607       389.652 7        42.849    22442785.801 6  91899529.30506       389.724 6        41.833
E11        35.000    23586788.989 7 123949481.65307     -1344.698 7        44.194                                                                    23586784.585 7  92559696.89107     -1004.159 7        46.833    23586784.306 7  94974290.09807     -1030.366 7        47.429
C32        36.000                                                                                                                                    23731354.286 7 123575415.61807     -2842.257 7        47.760                                                                    23731354.178 7 100415158.26907     -2309.569 7        47.766
C35        37.000                                                                                                                                    24457422.711 7 127356233.46307      2126.776 7        44.557                                                                    24457421.576 7 103487370.81907      1728.104 7        44.609
I09        38.000    37202712.938 7 145991433.79707      -351.723 7        43.077
C29        39.000                                                                                                                                    21929496.299 8 114192646.37608     -1118.570 8        50.631                                                                    21929493.728 8  92790873.97508      -908.955 8        48.669
G08        40.000    25574073.474 3                     -4049.591 3        21.095
S44        42.000    40660380.086 6 213671919.03706      -494.565 6        38.772
C09        43.000                                                                                                                                    39475021.367 6 205556814.55106       837.963 6        40.327    39475018.566 7 158949557.88807       647.936 7        44.215    39475016.482 6 167031729.63906       680.841 6        40.527
C05        44.000                                                                                                                                    39202652.991 6 204138537.48306      -417.997 6        37.758    39202648.141 7 157852890.33707      -323.194 7        43.314    39202650.238 6 165879386.54306      -339.529 6        40.479
R06        45.000    21511544.066 6 114789762.18006      2856.228 6        40.000
R13        46.000    23870378.576 6 127466496.93006      -723.313 6        37.735
C39        47.000                                                                                                                                    39003010.673 7 203098918.39007      -146.926 7        42.362                                                                    39003006.266 7 165034496.59907      -119.245 7        43.473
C20        48.000                                                                                                                                    21908305.188 8 114082341.68408        87.230 8        51.782                                                                    21908299.399 8  92701239.46108        70.858 8        49.058
C06        49.000                                                                                                                                    38707305.964 6 201559126.83506       421.229 6        39.210    38707301.524 7 155858285.19707       325.644 7        43.714    38707301.447 6 163783279.66806       342.162 6        41.421
C16        50.000                                                                                                                                    39077280.350 6 203485671.99906       295.235 6        41.864    39077280.753 7 157348037.81307       228.405 7        42.838    39077278.453 6 165348774.87506       239.847 6        39.375
S48        51.000    77273778.051 6 406077032.77906      -429.620 6        37.490
C19        52.000                                                                                                                                    24563657.175 7 127909453.20207      2298.849 7        45.472                                                                    24563652.397 7 103936908.98907      1868.051 7        46.145
R04        53.000    22291048.410 7 119367571.93407     -4238.975 7        46.561                                                                    22291046.115 7  92841451.96507     -3297.069 7        42.184
C60        54.000                                                                                                                                    40660379.386 6 211729466.47706      -490.368 6        40.927                                                                    40660363.438 6 172047504.60806      -398.525 6        40.188
C30        55.000                                                                                                                                    24496838.963 7 127561458.88007     -3669.346 7        45.059                                                                    24496839.542 7 103654131.34607     -2981.673 7        44.321
R19        56.000    23976387.223 4 128257511.79804     -4740.159 4        25.564                                                                    23976384.648 4  99755877.79804     -3686.913 4        28.085
C02        57.000                                                                                                                                    40631359.951 5 211578204.59905      -463.315 5        33.844    40631353.849 6 163605682.54306      -357.979 6        40.122    40631357.386 5 171924625.42705      -376.343 5        35.762
I03        58.000   133532647.704 6 448225546.20506       967.058 6        41.128
C13        59.000                                                                                                                                    41316565.558 5 215146262.44005     -1098.487 5        35.567    41316568.028 6 166364777.94106      -849.458 6        37.395    41316566.087 5 174823990.66805      -893.043 5        34.890
> 2025 01 01 00 46  5.0000000  0 55
G28         1.000    23372796.232 6 122824887.56606       604.390 6        41.805                                    23372793.379 4  95707685.39304       470.953 4        28.872    23372793.303 7  95707691.40607       470.848 7        42.389
G31         2.000    23465984.066 7 123314582.82407      2185.795 7        42.250                                    23465979.195 6  96089271.06606      1703.218 6        37.259    23465980.097 6  96089270.07706      1703.141 6        39.045
G09         3.000    25209443.886 6 132476532.78406      3422.454 6        37.021                                    25209443.536 4 103228469.57604      2666.852 4        29.441    25209444.203 5 103228470.57805      2666.962 5        34.238
E34         4.000    28459307.064 6 149554665.60306      2362.498 6        37.403                                                                    28459308.020 6 111680436.56406      1764.119 6        38.931    28459307.517 6 114593838.95806      1810.222 6        39.538
S21         5.000    38520321.591 7 202425499.70907      -425.918 7        42.336
G21         7.000    21987307.795 7 115544141.92207     -2612.967 7        44.141                                    21987302.629 5  90034400.23305     -2036.076 5        34.333
E04         8.000    23841722.908 7 125289124.47807      -719.442 7        47.058                                                                    23841721.030 8  93560065.78108      -537.222 8        50.338    23841720.894 8  96000755.05908      -551.340 8        51.420
R14         9.000    24373657.113 6 129925315.58606      2313.621 6        41.933                                                                    24373657.415 6 101053013.41306      1799.598 6        37.614
G04        10.000    22824021.122 7 119941071.19507      3011.810 7        43.736                                    22824018.577 5  93460580.74805      2346.864 5        30.483    22824018.359 7  93460575.74807      2346.776 7        42.427
E09        11.000    24933779.670 7 131027938.22607      1917.048 7        46.236                                                                    24933779.131 8  97845553.57508      1431.593 8        48.395    24933778.781 8 100398045.72308      1468.923 8        49.284
S27        12.000    39166270.315 5 205820110.14905      -406.894 5        35.629
S36        14.000    38287912.925 7 201204840.16807      -425.613 7        43.699
E02        15.000    28589072.513 5 150236614.14705     -2826.906 5        32.898                                                                    28589073.062 6 112189695.52206     -2111.066 6        36.696    28589072.636 6 115116379.07406     -2166.112 6        37.595
E36        16.000    24294157.651 7 127666688.78807      1182.634 7        46.555                                                                    24294157.889 8  95335531.56608       883.147 8        49.553    24294157.668 8  97822540.16608       906.177 8        50.447
S45        17.000    63487919.718 6 333631549.05816      -467.325 6        37.096
G03        18.000    20287893.163 8 106613656.35308       674.039 8        49.665                                    20287891.541 8  83075595.84308       525.224 8        51.392    20287891.951 7  83075604.84507       525.258 7        45.607
R21        19.000    20454389.375 8 109455609.13508      2327.104 8        50.816                                                                    20454388.188 7  85132150.37207      1809.942 7        45.753
R20        20.000    19483883.236 6 104189123.56006     -1835.638 6        40.126                                                                    19483884.112 7  81035984.25907     -1427.785 7        46.746
R05        21.000    19318294.086 8 103267395.65408     -1539.988 8        51.823                                                                    19318292.682 7  80319091.49607     -1197.734 7        47.604
I06        22.000    38298481.177 7 150291695.61907      -216.908 7        42.231
S28        23.000    40962572.418 5 215259778.46905      -418.841 5        34.448
E10        24.000    25284830.423 7 132872803.20507     -2519.274 7        45.076                                                                    25284829.866 8  99223264.04608     -1881.289 8        48.283    25284829.760 8 101811687.54108     -1930.392 8        48.673
S23        25.000    38238667.147 7 200945512.95507      -422.441 7        44.646
E06        26.000    23794222.681 8 125039542.12408       790.022 8        48.110                                                                    23794222.348 8  93373682.97608       589.933 8        50.118    23794222.113 8  95809516.75608       605.370 8        50.771
E30        27.000    28665209.753 6 150636695.70906     -1200.036 6        37.112                                                                    28665211.201 6 112488442.74806      -896.140 6        39.321    28665210.734 6 115422921.62706      -919.573 6        40.460
E12        28.000    27527096.922 5 144656011.88505     -3073.174 5        34.929                                                                    27527094.576 6 108022418.99506     -2294.833 6        40.563    27527094.440 6 110840382.99706     -2354.880 6        40.989
E19        30.000    27038880.838 5 142090286.57105     -3151.080 5        33.790                                                                    27038879.890 6 106106380.23806     -2352.851 6        36.775    27038879.310 6 108874370.27306     -2414.424 6        36.730
G32        31.000    24208365.988 6 127215834.53806     -3573.392 6        41.108                                    24208363.703 5  99129217.67205     -2784.462 5        35.295    24208364.879 6  99129222.67306     -2784.354 6        38.342
G02        32.000    20958991.828 8 110140289.02908     -1411.706 8        49.257                                    20958985.212 7  85823598.77207     -1100.030 7        42.034
G19        33.000    23708196.973 6 124587441.93706      2444.407 6        40.205                                    23708190.568 4  97081143.72904      1904.736 4        26.707
G17        34.000    22442315.680 7 117935221.96807       497.281 7        44.846                                    22442311.341 7  91897586.63807       387.491 7        42.753    22442311.566 6  91897586.65106       387.492 6        41.840
E11        35.000    23588069.486 7 123956209.82407     -1346.332 7        44.588                                                                    23588064.903 7  92564721.18107     -1005.459 7        46.821    23588064.610 7  94979445.45107     -1031.616 7        47.467
C32        36.000                                                                                                                                    23734083.839 7 123589629.77107     -2843.251 7        47.700                                                                    23734083.871 7 100426708.43707     -2310.471 7        47.872
C35        37.000                                                                                                                                    24455381.759 7 127345604.01807      2125.033 7        44.650                                                                    24455380.187 7 103478733.54207      1726.569 7        44.808
I09        38.000    37203160.963 7 145993193.19307      -351.983 7        43.247
C29        39.000                                                                                                                                    21930571.715 8 114198246.23408     -1121.279 8        50.613                                                                    21930569.081 8  92795424.32908      -911.299 8        48.756
G08        40.000    25577926.108 3                     -4050.022 3        20.905                                                                                                    25577932.688 3                     -3151.572 3        20.357
S44        42.000    40660852.271 6 213674393.43406      -494.905 6        39.021
C09        43.000                                                                                                                                    39474217.760 6 205552626.80306       837.210 6        40.510    39474214.307 7 158946319.66407       647.301 7        44.363    39474212.177 6 167028326.75406       680.321 6        40.698
C05        44.000                                                                                                                                    39203054.515 6 204140627.69006      -417.949 6        37.811    39203049.397 7 157854506.60607      -323.251 7        43.346    39203051.664 6 165881085.02206      -339.821 6        40.386
R06        45.000    21508868.412 6 114775486.10106      2854.283 6        39.781
R13        46.000    23871056.687 6 127470124.61706      -727.603 6        39.075
C39        47.000                                                                                                                                    39003152.153 7 203099655.31207      -147.810 7        42.525                                                                    39003147.720 7 165035095.43607      -120.345 7        43.439
C20        48.000                                                                                                                                    21908222.580 8 114081910.95508        85.155 8        51.808                                                                    21908216.700 8  92700889.46608        69.073 8        49.170
C06        49.000                                                                                                                                    38706902.227 6 201557023.06006       420.361 6        39.435    38706897.439 7 155856658.41107       325.016 7        43.674    38706897.539 6 163781570.17806       341.354 6        41.452
C16        50.000                                                                                                                                    39076997.166 6 203484197.78006       294.394 6        41.580    39076997.441 7 157346897.85807       227.624 7        42.819    39076995.401 6 165347576.96106       238.964 6        39.423
S48        51.000    77274178.265 6 406079180.74606      -429.454 6        37.501
C19        52.000                                                                                                                                    24561450.352 7 127897961.65507      2297.802 7        45.514                                                                    24561445.500 7 103927571.19707      1866.955 7        46.182
R04        53.000    22295006.557 7 119388769.17107     -4239.836 7        46.433                                                                    22295004.809 7  92857938.68807     -3297.589 7        42.370
C60        54.000                                                                                                                                    40660850.118 6 211731918.36806      -490.328 6        40.925                                                                    40660834.255 6 172049496.97106      -398.506 6        40.310
C30        55.000                                                                                                                                    24500362.941 7 127579808.34707     -3670.348 7        44.763                                                                    24500363.623 7 103669041.79907     -2982.566 7        44.536
R19        56.000    23980817.218 4 128281217.72104     -4741.927 4        25.744                                                                    23980817.581 4  99774315.68604     -3687.748 4        28.095
C02        57.000                                                                                                                                    40631804.761 5 211580520.12805      -462.958 5        33.635    40631798.691 6 163607473.06906      -358.009 6        40.255    40631802.057 6 171926507.04606      -376.463 6        36.015
I03        58.000   133531415.523 6 448220711.18506       967.018 6        40.958
C13        59.000                                                                                                                                    41317621.326 5 215151755.77205     -1098.685 5        35.576    41317622.479 6 166369025.70506      -849.601 6        37.622    41317621.011 5 174828454.40705      -892.503 5        35.314
> 2025 01 01 00 46 10.0000000  0 55
G28         1.000    23372222.967 6 122821872.95606       601.484 6        41.664                                    23372219.496 4  95705336.34904       468.687 4        28.749    23372219.501 7  95705342.35607       468.698 7        42.138
G31         2.000    23463904.730 7 123303658.61207      2184.052 7        42.076                                    23463900.374 6  96080758.69106      1701.858 6        37.108    23463900.698 6  96080757.70106      1701.766 6        39.036
G09         3.000    25206187.751 6 132459419.85206      3422.611 6        37.198                                    25206187.054 4 103215134.82904      2666.971 4        29.526    25206187.901 5 103215135.82805      2667.185 5        34.357
E34         4.000    28457058.912 6 149542851.92606      2362.841 6        37.293                                                                    28457059.798 6 111671614.64106      1764.520 6        38.967    28457059.345 6 114584786.90706      1810.576 6        39.715
S21         5.000    38520726.384 7 202427629.32007      -425.554 7        42.205
G21         7.000    21989794.591 7 115557210.45607     -2614.316 7        44.795                                    21989789.486 5  90044583.50205     -2037.128 5        34.357
E04         8.000    23842408.423 7 125292726.73407      -721.417 7        47.406                                                                    23842406.502 8  93562755.77808      -538.777 8        50.314    23842406.369 8  96003515.22608      -552.870 8        51.276
R14         9.000    24371487.649 7 129913752.65707      2311.646 7        43.132                                                                    24371488.241 6 101044020.07206      1797.755 6        37.841
G04        10.000    22821156.215 7 119926015.26607      3010.734 7        43.270                                    22821153.457 5  93448848.86005      2346.021 5        30.611    22821153.604 7  93448843.87907      2345.879 7        42.480
E09        11.000    24931956.424 7 131018356.51107      1915.759 7        46.699                                                                    24931955.916 8  97838398.40008      1430.568 8        48.315    24931955.478 8 100390703.89108      1467.861 8        49.161
S27        12.000    39166658.277 5 205822144.27105      -406.781 5        35.524
S36        14.000    38288316.950 7 201206967.80207      -425.398 7        43.780
E02        15.000    28591763.481 5 150250750.36805     -2827.658 5        34.505                                                                    28591762.910 6 112200251.78306     -2111.607 6        36.594    28591762.347 6 115127210.71906     -2166.565 6        37.849
E36        16.000    24293032.919 7 127660777.97507      1181.758 7        46.990                                                                    24293033.108 8  95331117.64708       882.465 8        49.502    24293032.881 8  97818011.09908       905.479 8        50.381
S45        17.000    63488320.917 6 333633886.63106      -467.401 6        37.263
G03        18.000    20287252.888 8 106610291.02408       672.295 8        49.632                                    20287251.143 8  83072973.51508       523.866 8        51.423    20287251.703 7  83072982.52107       523.864 7        45.460
R21        19.000    20452216.411 8 109443980.13308      2324.531 8        51.130                                                                    20452214.892 7  85123105.59707      1807.957 7        45.956
R20        20.000    19485600.941 6 104198311.34306     -1839.349 6        40.412                                                                    19485602.887 7  81043130.30307     -1430.496 7        46.652
R05        21.000    19319735.661 8 103275103.70808     -1543.164 8        51.883                                                                    19319734.526 7  80325086.65707     -1200.211 7        47.421
I06        22.000    38298757.108 7 150292779.87007      -216.809 7        42.265
S28        23.000    40962972.110 5 215261869.45305      -418.335 5        33.898
E10        24.000    25287228.228 7 132885402.43707     -2520.269 7        45.278                                                                    25287227.357 8  99232672.55508     -1882.035 8        48.244    25287227.207 8 101821341.48808     -1931.130 8        48.611
S23        25.000    38239067.295 7 200947624.87907      -422.243 7        44.764
E06        26.000    23793471.643 8 125035596.70708       788.106 8        48.140                                                                    23793471.537 8  93370736.71808       588.579 8        50.178    23793471.331 8  95806493.64008       603.901 8        50.691
E30        27.000    28666352.191 6 150642700.93406     -1202.075 6        37.418                                                                    28666353.832 6 112492927.16306      -897.702 6        39.501    28666353.596 6 115427523.01706      -921.056 6        40.973
E12        28.000    27530021.616 5 144671379.33105     -3073.774 5        35.057                                                                    27530018.880 6 108033894.68606     -2295.344 6        40.429    27530018.924 6 110852158.03906     -2355.186 6        40.803
E19        30.000    27041879.333 5 142106042.54005     -3151.303 5        34.662                                                                    27041878.049 6 106118146.06606     -2353.385 6        37.040    27041877.707 6 108886443.01406     -2414.683 6        36.801
G32        31.000    24211765.972 6 127233702.89806     -3574.146 6        41.397                                    24211764.015 5  99143141.06905     -2785.049 5        35.590    24211764.848 6  99143146.07306     -2784.982 6        38.544
G02        32.000    20960336.158 8 110147352.63608     -1413.757 8        49.190                                    20960329.377 7  85829102.88607     -1101.628 7        42.044
G19        33.000    23705871.715 6 124575225.65106      2442.182 6        38.850                                    23705865.901 4  97071624.54904      1903.000 4        26.515
G17        34.000    22441844.037 7 117932742.99807       494.454 7        44.730                                    22441839.608 7  91895654.97607       385.289 7        42.745    22441840.017 6  91895654.98006       385.385 6        41.914
E11        35.000    23589351.172 7 123962945.51607     -1347.736 7        44.658                                                                    23589346.625 7  92569751.06407     -1006.431 7        46.880    23589346.361 7  94984606.55707     -1032.665 7        47.426
C32        36.000                                                                                                                                    23736814.355 7 123603848.35107     -2844.052 7        47.871                                                                    23736814.428 7 100438262.20407     -2311.086 7        47.866
C35        37.000                                                                                                                                    24453342.032 7 127334981.95707      2123.703 7        44.658                                                                    24453340.314 7 103470102.25607      1725.632 7        44.751
I09        38.000    37203609.745 7 145994953.08307      -351.940 7        42.925
C29        39.000                                                                                                                                    21931649.738 8 114203859.11308     -1123.815 8        50.647                                                                    21931647.043 8  92799985.25508      -913.227 8        48.765
G08        40.000    25581775.316 3                     -4046.728 3        20.214                                                                                                    25581776.079 3                     -3153.990 3        19.970
S44        42.000    40661321.684 6 213676867.29806      -494.535 6        38.730
C09        43.000                                                                                                                                    39473414.695 6 205548442.27206       836.657 6        40.698    39473410.579 7 158943083.91807       646.923 7        44.494    39473408.746 6 167024926.50206       679.744 6        40.570
C05        44.000                                                                                                                                    39203455.517 6 204142717.41006      -417.825 6        37.694    39203450.900 7 157856122.52007      -323.043 7        43.333    39203452.997 6 165882783.09006      -339.537 6        40.453
R06        45.000    21506193.992 6 114761220.04306      2852.260 6        40.045
R13        46.000    23871741.682 6 127473772.28106      -731.600 6        37.633
C39        47.000                                                                                                                                    39003294.822 7 203100396.58607      -148.602 7        42.372                                                                    39003290.009 7 165035697.77907      -120.791 7        43.515
C20        48.000                                                                                                                                    21908141.764 8 114081490.09708        83.274 8        51.797                                                                    21908135.894 8  92700547.48908        67.667 8        49.117
C06        49.000                                                                                                                                    38706499.970 6 201554923.35206       419.773 6        39.399    38706494.414 7 155855034.80507       324.469 7        43.735    38706494.368 6 163779864.01706       340.856 6        41.421
C16        50.000                                                                                                                                    39076714.649 6 203482727.65206       293.655 6        41.442    39076715.256 7 157345761.07207       226.993 7        42.912    39076713.051 6 165346382.36806       238.642 6        39.453
S48        51.000    77274580.913 6 406081328.18706      -429.181 6        37.285
C19        52.000                                                                                                                                    24559244.573 7 127886475.21807      2296.938 7        45.920                                                                    24559239.651 7 103918237.54107      1866.341 7        46.096
R04        53.000    22298965.024 7 119409969.88907     -4240.354 7        46.127                                                                    22298963.187 7  92874428.12707     -3297.979 7        42.292
C60        54.000                                                                                                                                    40661320.936 6 211734369.75006      -490.110 6        40.903                                                                    40661305.041 6 172051488.92706      -398.226 6        40.255
C30        55.000                                                                                                                                    24503887.611 7 127598162.18207     -3671.141 7        44.173                                                                    24503888.471 7 103683955.78207     -2983.043 7        44.558
R19        56.000    23985249.085 4 128304926.89504     -4742.453 4        26.132                                                                    23985248.092 4  99792756.24504     -3689.124 4        28.351
C02        57.000                                                                                                                                    40632249.437 5 211582835.21305      -462.873 5        33.928    40632242.987 6 163609263.23806      -357.907 6        40.086    40632246.622 5 171928388.24005      -376.165 5        35.814
I03        58.000   133530183.149 6 448215875.94706       967.125 6        40.901
C13        59.000                                                                                                                                    41318676.482 5 215157248.32105     -1098.385 5        35.471    41318677.676 6 166373272.88506      -849.322 6        37.289    41318675.856 5 174832917.55405      -892.461 5        34.919
> 2025 01 01 00 46 15.0000000  0 55
G28         1.000    23371652.265 6 122818873.89906       598.217 6        41.590                                    23371648.720 4  95702999.43204       466.150 4        28.844    23371648.963 6  95703005.42106       466.236 6        41.857
G31         2.000    23461828.315 7 123292744.93807      2181.859 7        42.557                                    23461823.582 6  96072254.52906      1700.148 6        36.983    23461824.228 6  96072253.53106      1700.135 6        38.796
G09         3.000    25202931.527 6 132442308.19306      3422.310 6        37.225                                    25202930.779 4 103201801.08504      2666.734 4        29.422    25202930.014 5 103201802.07305      2666.837 5        34.295
E34         4.000    28454810.655 6 149531038.12006      2362.767 6        36.662                                                                    28454811.793 6 111662792.64006      1764.401 6        39.018    28454811.415 6 114575734.77706      1810.514 6        39.580
S21         5.000    38521131.759 6 202429759.59306      -425.925 6        41.988
G21         7.000    21992283.249 7 115570287.42807     -2616.084 7        45.347                                    21992277.957 5  90054773.35405     -2038.510 5        34.333
E04         8.000    23843096.073 7 125296340.63407      -723.851 7        47.443                                                                    23843094.168 8  93565454.47408      -540.520 8        50.309    23843094.082 8  96006284.31908      -554.594 8        51.244
R14         9.000    24369321.492 7 129902202.17807      2308.954 7        43.211                                                                    24369321.014 6 101035036.36906      1795.961 6        37.595
G04        10.000    22818292.287 7 119910966.43007      3009.265 7        43.676                                    22818289.713 5  93437122.50005      2344.877 5        30.574    22818289.868 7  93437117.50907      2344.788 7        42.447
E09        11.000    24930134.812 7 131008783.15207      1913.938 7        46.856                                                                    24930134.212 8  97831249.46208      1429.305 8        48.405    24930133.685 8 100383368.46108      1466.540 8        49.131
S27        12.000    39167043.199 5 205824178.90705      -406.689 5        35.776
S36        14.000    38288722.410 7 201209095.54707      -425.391 7        43.530
E02        15.000    28594453.971 5 150264891.05105     -2828.428 5        34.890                                                                    28594453.867 6 112210811.36306     -2112.114 6        37.043    28594453.223 6 115138045.76406     -2167.040 6        37.841
E36        16.000    24291909.476 7 127654873.36307      1180.441 7        46.663                                                                    24291909.498 8  95326708.36908       881.481 8        49.566    24291909.253 8  97813486.79308       904.530 8        50.310
S45        17.000    63488719.844 6 333636224.75606      -467.559 6        36.949
G03        18.000    20286614.581 8 106606936.32008       669.977 8        49.684                                    20286612.765 8  83070359.46108       522.059 8        51.412    20286613.231 7  83070368.46607       522.094 7        45.579
R21        19.000    20450045.732 8 109432365.73008      2321.535 8        50.772                                                                    20450044.476 7  85114072.18007      1805.665 7        45.899
R20        20.000    19487323.430 6 104207518.84106     -1843.314 6        40.496                                                                    19487324.432 7  81050291.70107     -1433.750 7        46.881
R05        21.000    19321180.947 8 103282828.82708     -1546.563 8        52.071                                                                    19321179.597 7  80331095.08307     -1202.927 7        47.585
I06        22.000    38299033.662 7 150293864.56507      -216.814 7        42.392
S28        23.000    40963370.366 5 215263961.22905      -417.848 5        33.677
E10        24.000    25289627.030 7 132898008.24807     -2521.621 7        45.246                                                                    25289626.239 8  99242085.99708     -1883.044 8        48.196    25289625.986 8 101831000.49708     -1932.195 8        48.589
S23        25.000    38239468.833 7 200949737.39507      -422.353 7        44.430
E06        26.000    23792723.163 8 125031662.35308       785.972 8        48.155                                                                    23792722.841 8  93367798.73608       586.923 8        50.144    23792722.692 8  95803479.01608       602.160 8        50.653
E30        27.000    28667497.259 6 150648717.73006     -1204.499 6        36.851                                                                    28667498.685 6 112497420.26606      -899.348 6        40.143    28667498.558 6 115432133.33506      -922.846 6        41.492
E12        28.000    27532946.353 5 144686750.78005     -3074.390 5        35.495                                                                    27532944.089 6 108045373.38106     -2295.832 6        40.546    27532943.845 6 110863936.18006     -2355.849 6        40.903
E19        30.000    27044878.404 5 142121802.96705     -3152.225 5        34.938                                                                    27044877.076 6 106129915.24906     -2354.020 6        37.028    27044876.749 6 108898519.23206     -2415.566 6        36.858
G32        31.000    24215167.320 6 127251577.31306     -3575.233 6        41.235                                    24215165.573 5  99157069.18305     -2785.897 5        35.800    24215165.994 6  99157074.17906     -2785.803 6        38.655
G02        32.000    20961682.296 8 110154428.29408     -1416.159 8        49.559                                    20961675.814 6  85834616.38006     -1103.504 6        41.964
G19        33.000    23703549.030 6 124563021.14106      2440.121 6        38.751                                    23703543.502 4  97062114.55204      1901.384 4        26.515
G17        34.000    22441375.331 7 117930279.24607       491.372 7        45.234                                    22441370.758 7  91893735.16907       382.886 7        42.707    22441371.069 6  91893735.16506       382.921 6        41.821
E11        35.000    23590634.394 7 123969689.79007     -1349.569 7        44.643                                                                    23590630.013 7  92574787.37907     -1007.763 7        46.830    23590629.868 7  94989774.25607     -1034.095 7        47.264
C32        36.000                                                                                                                                    23739546.048 7 123618072.45207     -2845.194 7        47.821                                                                    23739545.989 7 100449820.43307     -2311.965 7        47.802
C35        37.000                                                                                                                                    24451303.811 7 127324368.41007      2122.068 7        45.046                                                                    24451302.169 7 103461477.86207      1724.343 7        44.870
I09        38.000    37204058.525 7 145996714.29307      -352.221 7        43.149
C29        39.000                                                                                                                                    21932730.371 8 114209486.09708     -1126.613 8        50.674                                                                    21932727.631 8  92804557.62908      -915.514 8        48.693
G08        40.000    25585625.191 3                     -4046.621 3        20.690                                                                                                    25585627.206 3                     -3151.667 3        19.522
S44        42.000    40661793.279 6 213679341.76806      -494.881 6        38.607
C09        43.000                                                                                                                                    39472612.148 6 205544262.03406       835.684 6        40.760    39472607.990 7 158939851.50007       646.311 7        44.625    39472605.940 6 167021529.69606       679.115 6        40.536
C05        44.000                                                                                                                                    39203856.881 6 204144807.79706      -417.985 6        37.592    39203852.250 7 157857738.93307      -323.157 7        43.401    39203854.464 6 165884481.67206      -339.521 6        40.374
R06        45.000    21503523.475 6 114746965.14806      2850.045 6        40.157
R13        46.000    23872428.611 6 127477441.21506      -735.589 6        38.565
C39        47.000                                                                                                                                    39003437.715 7 203101143.30007      -149.755 7        42.652                                                                    39003433.356 7 165036304.53007      -121.626 7        43.382
C20        48.000                                                                                                                                    21908062.932 8 114081080.20008        81.055 8        51.720                                                                    21908057.116 8  92700214.39908        65.824 8        49.051
C06        49.000                                                                                                                                    38706097.498 6 201552828.82506       418.570 6        39.727    38706092.312 7 155853415.18407       323.637 7        43.778    38706092.064 6 163778162.01606       340.023 6        41.235
C16        50.000                                                                                                                                    39076433.338 6 203481262.69106       292.588 6        41.397    39076433.950 7 157344628.26107       226.298 7        42.821    39076431.784 6 165345191.94206       237.810 6        39.390
S48        51.000    77274984.964 6 406083476.22706      -429.557 6        37.009
C19        52.000                                                                                                                                    24557039.543 7 127874995.01507      2295.525 7        46.006                                                                    24557034.880 7 103908908.91507      1865.340 7        46.096
R04        53.000    22302924.986 7 119431175.05907     -4241.369 7        46.282                                                                    22302923.015 7  92890921.03807     -3298.886 7        42.082
C60        54.000                                                                                                                                    40661792.034 6 211736821.71806      -490.164 6        40.727                                                                    40661775.943 6 172053481.35006      -398.486 6        40.284
C30        55.000                                                                                                                                    24507412.951 7 127616521.44507     -3672.235 7        43.803                                                                    24507414.151 7 103698874.16507     -2984.018 7        44.476
R19        56.000    23989679.637 4 128328640.61904     -4742.627 4        26.144                                                                    23989681.528 4  99811200.16504     -3688.410 4        28.341
C02        57.000                                                                                                                                    40632694.350 5 211585150.97705      -463.189 5        33.707    40632687.971 6 163611053.92906      -358.051 6        40.243    40632691.257 5 171930269.94905      -376.382 5        35.776
I03        58.000   133528951.138 6 448211041.30406       966.975 6        41.077
C13        59.000                                                                                                                                    41319731.038 5 215162741.14005     -1098.514 5        35.233    41319733.493 6 166377520.28706      -849.304 6        38.141    41319730.637 5 174837380.91105      -892.590 5        34.648
> 2025 01 01 00 46 20.0000000  0 55
G28         1.000    23371084.599 7 122815889.55307       595.459 7        42.199                                    23371080.587 4  95700673.96904       463.998 4        28.663    23371080.781 6  95700679.96806       464.031 6        41.890
G31         2.000    23459753.221 7 123281840.92207      2179.932 7        42.402                                    23459748.691 6  96063757.90106      1698.648 6        37.062    23459749.585 6  96063756.90706      1698.718 6        39.495
G09         3.000    25199674.992 6 132425196.93106      3422.214 6        37.297                                    25199674.583 4 103188467.63604      2666.664 4        29.346    25199674.384 5 103188468.65405      2666.658 5        34.076
E34         4.000    28452562.526 6 149519223.31406      2363.159 6        36.166                                                                    28452563.543 6 111653969.90206      1764.527 6        39.126    28452563.201 6 114566681.87706      1810.767 6        39.655
S21         5.000    38521538.176 6 202431889.35006      -425.983 6        41.924
G21         7.000    21994773.080 7 115583371.92407     -2617.567 7        45.121                                    21994767.846 5  90064969.05905     -2039.661 5        34.276
E04         8.000    23843785.879 7 125299965.34607      -725.992 7        47.139                                                                    23843783.953 8  93568161.24208      -542.118 8        50.368    23843783.823 8  96009061.69808      -556.249 8        51.240
R14         9.000    24367156.218 7 129890663.49107      2306.670 7        43.016                                                                    24367156.892 6 101026061.85406      1793.933 6        37.577
G04        10.000    22815430.022 7 119895923.84907      3007.953 7        43.579                                    22815427.106 5  93425401.01505      2343.863 5        30.491    22815427.274 7  93425396.01607      2343.883 7        42.108
E09        11.000    24928314.276 7 130999217.28807      1912.577 7        46.618                                                                    24928313.892 8  97824106.12808      1428.217 8        48.474    24928313.372 8 100376038.77808      1465.475 8        49.100
S27        12.000    39167433.384 5 205826212.84005      -406.877 5        35.467
S36        14.000    38289128.934 7 201211223.59107      -425.507 7        43.663
E02        15.000    28597145.218 5 150279035.31305     -2829.073 5        35.310                                                                    28597145.517 6 112221373.66306     -2112.772 6        37.595    28597144.861 6 115148883.60906     -2167.839 6        38.267
E36        16.000    24290786.585 7 127648974.12907      1179.424 7        46.467                                                                    24290786.909 8  95322303.10308       880.686 8        49.612    24290786.699 8  97808966.60708       903.668 8        50.341
S45        17.000    63489122.799 6 333638562.65806      -467.336 6        36.998
G03        18.000    20285977.975 8 106603591.36108       668.070 8        49.766                                    20285976.243 8  83067752.99808       520.572 8        51.319    20285976.757 7  83067762.00207       520.581 7        45.552
R21        19.000    20447877.951 8 109420765.00108      2318.861 8        51.173                                                                    20447876.526 7  85105049.38707      1803.598 7        45.594
R20        20.000    19489048.084 6 104216745.32106     -1847.032 6        40.470                                                                    19489050.019 7  81057467.83107     -1436.593 7        47.271
R05        21.000    19322629.239 8 103290570.20508     -1549.789 8        51.634                                                                    19322627.914 7  80337116.16007     -1205.363 7        47.261
I06        22.000    38299310.262 7 150294949.08407      -216.823 7        42.296
S28        23.000    40963769.338 5 215266052.85605      -418.107 5        33.910
E10        24.000    25292026.716 7 132910619.83507     -2522.787 7        44.754                                                                    25292026.098 8  99251503.72808     -1883.883 8        48.214    25292025.935 8 101840663.90808     -1933.054 8        48.503
S23        25.000    38239871.319 7 200951849.48607      -422.253 7        44.587
E06        26.000    23791976.334 8 125027738.23308       783.917 8        48.030                                                                    23791976.119 8  93364868.38808       585.384 8        50.155    23791975.921 8  95800472.21908       600.680 8        50.584
E30        27.000    28668644.565 6 150654745.24606     -1206.352 6        37.603                                                                    28668645.729 6 112501921.37806      -901.039 6        39.604    28668645.393 6 115436751.86206      -924.386 6        41.271
E12        28.000    27535871.897 5 144702125.39805     -3075.120 5        35.652                                                                    27535869.846 6 108056854.40506     -2296.428 6        40.572    27535869.535 6 110875716.70906     -2356.272 6        40.870
E19        30.000    27047878.149 5 142137567.11405     -3153.129 5        34.962                                                                    27047877.011 6 106141687.13206     -2354.472 6        37.006    27047876.647 6 108910598.23106     -2416.048 6        37.036
G32        31.000    24218569.689 6 127269456.90306     -3576.321 6        40.810                                    24218568.165 5  99171001.32505     -2786.743 5        35.957    24218568.885 6  99171006.31806     -2786.735 6        38.691
G02        32.000    20963031.061 8 110161515.16508     -1418.371 8        49.283                                    20963024.379 6  85840138.61606     -1105.225 6        41.981
G19        33.000    23701229.366 6 124550827.60706      2437.731 6        39.772                                    23701223.105 4  97052613.11004      1899.535 4        26.503
G17        34.000    22440909.194 7 117927829.89607       488.569 7        45.296                                    22440904.649 7  91891826.58407       380.701 7        42.722    22440904.807 7  91891826.59107       380.660 7        42.072
E11        35.000    23591919.192 7 123976441.86007     -1351.191 7        44.522                                                                    23591914.857 7  92579829.50507     -1008.951 7        46.936    23591914.655 7  94994947.91807     -1035.310 7        47.329
C32        36.000                                                                                                                                    23742278.604 7 123632301.23807     -2846.124 7        47.926                                                                    23742278.487 7 100461382.48707     -2312.478 7        47.708
C35        37.000                                                                                                                                    24449266.913 7 127313762.52907      2120.506 7        44.840                                                                    24449265.486 7 103452859.72607      1723.156 7        44.733
I09        38.000    37204507.516 7 145998476.21107      -352.385 7        43.058
C29        39.000                                                                                                                                    21933813.388 8 114215126.35908     -1129.248 8        50.862                                                                    21933810.760 8  92809140.80608      -917.497 8        48.614
G08        40.000    25589478.585 3                     -4047.579 3        19.224                                                                                                    25589479.572 3                     -3155.277 3        19.582
S44        42.000    40662263.166 6 213681815.98306      -494.673 6        38.796
C09        43.000                                                                                                                                    39471809.740 6 205540085.29106       835.018 6        40.918    39471805.691 7 158936621.77607       645.823 7        44.564    39471803.781 6 167018135.75906       678.756 6        40.582
C05        44.000                                                                                                                                    39204258.205 6 204146897.94406      -417.773 6        37.826    39204253.673 7 157859355.18707      -323.259 7        43.122    39204255.756 6 165886180.12606      -339.466 6        40.224
R06        45.000    21500853.363 6 114732720.49306      2848.137 6        40.019
R13        46.000    23873119.627 6 127481130.21306      -739.885 6        36.817
C39        47.000                                                                                                                                    39003582.254 7 203101894.61407      -150.636 7        42.775                                                                    39003577.726 7 165036915.04407      -122.214 7        43.263
C20        48.000                                                                                                                                    21907986.068 8 114080680.42008        79.033 8        51.811                                                                    21907980.360 8  92699889.55308        64.304 8        49.033
C06        49.000                                                                                                                                    38705696.391 6 201550738.65506       417.597 6        40.141    38705690.749 7 155851798.91807       322.977 7        43.481    38705690.618 6 163776463.57306       339.565 6        41.223
C16        50.000                                                                                                                                    39076153.277 6 203479802.07006       291.768 6        41.864    39076153.583 7 157343498.82207       225.655 7        42.792    39076151.162 6 165344005.08006       237.243 6        39.339
S48        51.000    77275385.908 6 406085623.93206      -429.642 6        37.096
C19        52.000                                                                                                                                    24554835.246 7 127863520.18707      2294.500 7        45.625                                                                    24554831.179 7 103899584.69407      1864.602 7        46.075
R04        53.000    22306886.203 7 119452383.98907     -4241.992 7        46.524                                                                    22306884.187 7  92907416.86807     -3299.420 7        42.074
C60        54.000                                                                                                                                    40662262.731 6 211739273.43106      -490.117 6        40.942                                                                    40662246.782 6 172055473.57106      -398.307 6        40.167
C30        55.000                                                                                                                                    24510939.392 7 127634885.32307     -3673.229 7        44.104                                                                    24510940.701 7 103713796.32207     -2984.614 7        44.497
R19        56.000    23994116.397 4 128352357.97104     -4744.076 4        26.000                                                                    23994116.656 4  99829646.97804     -3689.838 4        28.607
C02        57.000                                                                                                                                    40633138.874 5 211587466.55305      -463.284 5        33.778    40633132.678 6 163612844.48706      -358.107 6        40.222    40633135.866 5 171932151.55405      -375.858 5        35.971
I03        58.000   133527719.543 6 448206206.63106       966.989 6        40.937
C13        59.000                                                                                                                                    41320785.253 5 215168233.43405     -1098.201 5        35.010    41320788.120 6 166381767.29806      -849.317 6        38.504    41320785.236 5 174841843.85705      -892.319 5        34.790
> 2025 01 01 00 46 25.0000000  0 54
G28         1.000    23370519.701 7 122812920.41007       592.138 7        42.633                                    23370515.414 4  95698360.34604       461.410 4        28.626    23370515.894 6  95698366.34706       461.521 6        41.635
G31         2.000    23457679.778 7 123270947.08407      2177.814 7        42.610                                    23457675.750 6  96055269.19606      1697.000 6        37.433    23457676.379 6  96055268.21206      1696.918 6        39.673
G09         3.000    25196418.722 6 132408086.55806      3421.914 6        36.854                                    25196418.629 4 103175134.88804      2666.427 4        29.005    25196419.058 5 103175135.89805      2666.609 5        34.029
E34         4.000    28450314.261 6 149507408.03006      2363.052 6        36.113                                                                    28450315.108 6 111645146.82006      1764.563 6        39.315    28450314.791 6 114557628.62606      1810.470 6        40.095
S21         5.000    38521943.417 7 202434019.08907      -426.144 7        42.051
G21         7.000    21997264.340 7 115596464.49207     -2619.335 7        44.874                                    21997259.314 5  90075171.05905     -2041.038 5        34.233
E04         8.000    23844477.786 7 125303601.33607      -728.411 7        47.168                                                                    23844475.813 8  93570876.42408      -543.882 8        50.490    23844475.736 8  96011847.71108      -558.046 8        51.340
R14         9.000    24364993.108 7 129879136.81907      2303.979 7        43.048                                                                    24364993.537 6 101017096.67406      1792.012 6        37.463
G04        10.000    22812568.611 7 119880887.99907      3006.443 7        42.773                                    22812565.875 5  93413684.77405      2342.678 5        30.453    22812566.118 7  93413679.77807      2342.697 7        42.430
E09        11.000    24926495.323 7 130989659.43307      1910.746 7        46.375                                                                    24926495.030 8  97816968.76808      1426.860 8        48.606    24926494.615 8 100368715.22508      1464.025 8        49.188
S27        12.000    39167815.176 5 205828247.58805      -406.779 5        35.767
S36        14.000    38289534.054 7 201213352.10207      -425.842 7        43.568
E02        15.000    28599838.129 5 150293183.68105     -2830.074 5        34.781                                                                    28599837.709 6 112231938.99606     -2113.484 6        37.849    28599837.296 6 115159724.56206     -2168.519 6        38.270
E36        16.000    24289665.141 7 127643080.75407      1177.987 7        46.506                                                                    24289665.400 8  95317902.20408       879.673 8        49.766    24289665.192 8  97804450.90308       902.649 8        50.415
S45        17.000    63489518.681 6 333640900.88306      -467.788 6        37.236
G03        18.000    20285343.443 8 106600256.63608       665.849 8        49.852                                    20285341.661 8  83065154.51408       518.844 8        51.277    20285341.992 7  83065163.51507       518.802 7        45.171
R21        19.000    20445713.126 8 109409178.48508      2315.847 8        51.346                                                                    20445711.797 7  85096037.65707      1801.139 7        46.158
R20        20.000    19490777.260 6 104225991.18706     -1851.157 6        40.739                                                                    19490778.860 7  81064659.07207     -1439.769 7        47.164
R05        21.000    19324080.108 8 103298328.15008     -1553.321 8        51.697                                                                    19324078.880 7  80343150.11507     -1208.134 7        47.085
I06        22.000    38299586.497 7 150296033.79407      -216.976 7        42.358
S28        23.000    40964162.460 5 215268144.55505      -418.308 5        33.964
E10        24.000    25294427.782 7 132923237.63407     -2524.241 7        44.789                                                                    25294427.207 8  99260926.10908     -1884.996 8        48.291    25294426.974 8 101850332.09208     -1934.154 8        48.550
S23        25.000    38240272.952 7 200953961.63407      -422.458 7        44.682
E06        26.000    23791231.643 8 125023824.80408       781.565 8        48.135                                                                    23791231.398 8  93361946.02108       583.649 8        50.330    23791231.219 8  95797473.62208       598.850 8        50.733
E30        27.000    28669793.483 6 150660783.91606     -1208.878 6        36.873                                                                    28669794.842 6 112506430.77606      -902.771 6        39.763    28669794.238 6 115441378.89706      -926.345 6        41.213
E12        28.000    27538798.516 5 144717503.60905     -3075.997 5        35.562                                                                    27538796.148 6 108068338.13606     -2297.055 6        40.605    27538795.700 6 110887500.01706     -2357.045 6        40.825
E19        30.000    27050878.548 5 142153335.30005     -3154.333 5        34.938                                                                    27050877.616 6 106153462.06606     -2355.199 6        37.025    27050877.299 6 108922680.32406     -2416.836 6        37.066
G32        31.000    24221973.120 6 127287342.11606     -3577.510 6        40.429                                    24221971.772 5  99184937.85005     -2787.667 5        35.748    24221972.050 6  99184942.86006     -2787.750 6        38.342
G02        32.000    20964381.944 8 110168613.71408     -1420.944 8        49.333                                    20964375.171 7  85845669.95207     -1107.229 7        42.004
G19        33.000    23698911.698 6 124538645.51206      2435.171 6        39.243                                    23698904.940 4  97043120.56804      1897.537 4        26.515
G17        34.000    22440445.830 7 117925395.42907       485.401 7        45.394                                    22440441.398 7  91889929.59707       378.237 7        42.754    22440441.449 6  91889929.60206       378.219 6        41.657
E11        35.000    23593205.724 7 123983202.14107     -1353.035 7        44.524                                                                    23593201.313 7  92584877.76807     -1010.311 7        47.004    23593201.086 7  95000127.86907     -1036.666 7        47.480
C32        36.000                                                                                                                                    23745012.009 7 123646535.17707     -2847.374 7        47.772                                                                    23745012.015 7 100472948.73007     -2313.775 7        47.487
C35        37.000                                                                                                                                    24447231.480 7 127303164.81507      2118.687 7        44.745                                                                    24447230.305 7 103444248.20507      1721.593 7        44.531
I09        38.000    37204956.655 7 146000239.15907      -352.870 7        43.158
C29        39.000                                                                                                                                    21934899.308 8 114220780.37608     -1132.245 8        50.656                                                                    21934896.581 8  92813735.15008      -920.097 8        48.396
S44        42.000    40662735.991 6 213684290.41706      -494.849 6        38.664
C09        43.000                                                                                                                                    39471008.204 6 205535912.49006       834.068 6        40.758    39471004.170 7 158933395.10407       645.093 7        44.787    39471002.384 6 167014745.01106       677.687 6        40.427
C05        44.000                                                                                                                                    39204659.698 6 204148988.38506      -417.940 6        37.467    39204655.099 7 157860971.64507      -323.373 7        43.403    39204657.326 6 165887878.77106      -339.898 6        40.007
R06        45.000    21498186.850 6 114718486.67706      2845.764 6        39.562
R13        46.000    23873814.147 6 127484840.51906      -744.096 6        38.138
C39        47.000                                                                                                                                    39003727.521 7 203102651.00407      -151.887 7        42.828                                                                    39003723.003 7 165037529.67007      -123.461 7        43.045
C20        48.000                                                                                                                                    21907911.342 8 114080291.23408        76.758 8        51.810                                                                    21907905.684 8  92699573.30008        62.314 8        48.859
C06        49.000                                                                                                                                    38705296.466 6 201548653.27506       416.576 6        40.324    38705290.288 7 155850186.37607       322.078 7        43.382    38705290.027 6 163774769.04306       338.432 6        40.851
C16        50.000                                                                                                                                    39075874.368 7 203478346.25407       290.713 7        42.091    39075874.041 7 157342373.09807       224.790 7        42.800    39075871.568 6 165342822.12406       236.006 6        39.222
S48        51.000    77275789.132 6 406087771.77606      -429.619 6        37.191
C19        52.000                                                                                                                                    24552632.988 7 127852051.23007      2293.159 7        45.466                                                                    24552628.669 7 103890265.21807      1863.333 7        45.806
R04        53.000    22310847.398 7 119473596.94907     -4243.055 7        46.438                                                                    22310845.793 7  92923915.83307     -3300.168 7        42.451
C60        54.000                                                                                                                                    40662733.351 6 211741725.38806      -490.568 6        40.749                                                                    40662717.550 6 172057465.96706      -398.562 6        40.124
C30        55.000                                                                                                                                    24514467.023 7 127653254.24907     -3674.388 7        44.411                                                                    24514468.164 7 103728722.57507     -2985.776 7        44.292
R19        56.000    23998549.131 4 128376079.11804     -4744.515 4        25.263                                                                    23998551.130 4  99848096.79704     -3689.969 4        27.964
C02        57.000                                                                                                                                    40633584.364 5 211589782.43105      -463.336 5        33.892    40633577.368 6 163614635.26206      -358.203 6        40.236    40633580.574 5 171934033.41005      -376.700 5        35.481
I03        58.000   133526486.952 6 448201372.30506       966.649 6        40.963
C13        59.000                                                                                                                                    41321839.887 5 215173725.70605     -1098.248 5        34.995    41321843.099 6 166386014.24906      -849.415 6        38.844    41321840.414 5 174846306.74905      -892.322 5        34.757
> 2025 01 01 00 46 30.0000000  0 54
G28         1.000    23369957.316 7 122809966.62907       589.520 7        42.487                                    23369953.242 4  95696058.70304       459.370 4        28.768    23369954.088 7  95696064.70607       459.243 7        42.040
G31         2.000    23455609.059 7 123260063.59107      2175.836 7        42.201                                    23455604.910 6  96046788.55906      1695.453 6        37.747    23455605.585 6  96046787.57606      1695.486 6        40.348
G09         3.000    25193163.069 6 132390977.28806      3421.800 6        36.960                                    25193162.814 4 103161803.00104      2666.335 4        29.109    25193162.783 5 103161804.02705      2666.231 5        33.910
E34         4.000    28448065.727 6 149495592.38206      2363.273 6        36.779                                                                    28448066.612 6 111636323.40706      1764.831 6        39.453    28448066.214 6 114548575.04806      1810.700 6        40.329
S21         5.000    38522348.948 7 202436149.19607      -425.943 7        42.008
G21         7.000    21999757.202 7 115609565.30407     -2620.828 7        44.694                                    21999752.297 5  90085379.48705     -2042.204 5        34.262
E04         8.000    23845171.838 7 125307248.76207      -730.464 7        47.338                                                                    23845169.916 8  93573600.15708      -545.488 8        50.327    23845169.798 8  96014642.49808      -559.734 8        51.310
R14         9.000    24362834.505 7 129867622.65607      2301.837 7        43.994                                                                    24362833.677 6 101008141.19206      1790.364 6        37.830
G04        10.000    22809708.768 7 119865859.05507      3005.282 7        43.500                                    22809706.121 5  93401973.92005      2341.785 5        30.536    22809706.245 7  93401968.93507      2341.729 7        42.432
E09        11.000    24924678.013 7 130980109.72807      1909.302 7        46.290                                                                    24924677.727 8  97809837.50008      1425.725 8        48.369    24924677.371 8 100361397.91808      1462.914 8        49.131
S27        12.000    39168207.328 5 205830282.77005      -406.933 5        35.476
S36        14.000    38289937.573 7 201215480.67107      -425.584 7        43.638
E02        15.000    28602531.431 5 150307336.26005     -2830.814 5        35.095                                                                    28602531.032 6 112242507.48106     -2114.000 6        37.316    28602530.449 6 115170568.73806     -2168.974 6        38.003
E36        16.000    24288544.843 7 127637193.39107      1177.043 7        46.452                                                                    24288545.058 8  95313505.79708       878.996 8        49.570    24288544.846 8  97799939.81208       901.857 8        50.333
S45        17.000    63489920.644 6 333643239.22806      -467.499 6        37.248
G03        18.000    20284710.868 8 106596932.30408       663.882 8        49.692                                    20284709.065 8  83062564.12908       517.309 8        51.429    20284709.559 7  83062573.13407       517.254 7        45.329
R21        19.000    20443550.850 8 109397606.36508      2313.166 8        51.173                                                                    20443549.039 7  85087037.12607      1799.149 7        46.802
R20        20.000    19492508.806 6 104235256.60106     -1854.828 6        40.222                                                                    19492511.406 7  81071865.51407     -1442.694 7        47.335
R05        21.000    19325534.996 8 103306102.98808     -1556.481 8        52.124                                                                    19325533.677 7  80349197.19807     -1210.574 7        47.475
I06        22.000    38299862.977 7 150297118.81007      -216.800 7        42.364
S28        23.000    40964564.066 5 215270236.57205      -418.442 5        34.200
E10        24.000    25296830.384 7 132935861.81807     -2525.337 7        44.956                                                                    25296829.637 8  99270353.26708     -1885.816 8        48.164    25296829.120 8 101860005.17108     -1934.934 8        48.543
S23        25.000    38240675.420 7 200956074.16507      -422.332 7        44.656
E06        26.000    23790489.020 7 125019922.24907       779.571 7        47.907                                                                    23790488.786 8  93359031.78208       582.138 8        50.164    23790488.593 8  95794483.35508       597.273 8        50.658
E30        27.000    28670944.442 6 150666833.88306     -1210.743 6        36.174                                                                    28670945.955 6 112510948.63306      -904.293 6        39.183    28670945.343 6 115446014.60106      -927.896 6        40.827
E12        28.000    27541725.458 5 144732885.63505     -3076.642 5        35.367                                                                    27541723.000 6 108079824.70306     -2297.535 6        40.360    27541722.784 6 110899286.22406     -2357.415 6        40.610
E19        30.000    27053879.946 5 142169107.74605     -3154.790 5        34.538                                                                    27053878.853 6 106165240.21106     -2355.919 6        36.405    27053878.742 6 108934765.72406     -2417.321 6        37.293
G32        31.000    24225377.745 6 127305233.15006     -3578.538 6        40.513                                    24225376.412 5  99198878.90905     -2788.472 5        35.486    24225376.646 6  99198883.91606     -2788.492 6        38.447
G02        32.000    20965734.947 8 110175724.09308     -1423.105 8        49.237                                    20965728.226 7  85851210.50407     -1108.912 7        42.078
G19        33.000    23696595.601 6 124526475.08106      2433.043 6        39.949                                    23696588.961 4  97033637.12304      1895.875 4        26.575
G17        34.000    22439985.358 7 117922975.97307       482.499 7        45.220                                    22439980.987 7  91888044.30807       375.973 7        42.849    22439981.398 6  91888044.30906       375.968 6        41.907
E11        35.000    23594493.658 7 123989970.84307     -1354.477 7        44.334                                                                    23594489.328 7  92589932.31707     -1011.476 7        46.991    23594489.088 7  95005314.28207     -1037.901 7        47.402
C32        36.000                                                                                                                                    23747746.525 7 123660774.41107     -2848.284 7        47.929                                                                    23747746.532 7 100484519.28007     -2314.499 7        47.713
C35        37.000                                                                                                                                    24445197.956 7 127292575.41907      2117.174 7        45.005                                                                    24445196.685 7 103435643.46607      1720.279 7        44.783
I09        38.000    37205406.579 7 146002003.25407      -352.790 7        43.194
C29        39.000                                                                                                                                    21935987.686 8 114226448.29708     -1134.836 8        50.588                                                                    21935984.972 8  92818340.79808      -922.185 8        48.573
S44        42.000    40663206.562 6 213686765.24706      -494.848 6        38.667
C09        43.000                                                                                                                                    39470206.853 6 205531743.77706       833.559 6        40.403    39470203.544 7 158930171.61007       644.569 7        44.695    39470201.826 6 167011357.61506       677.097 6        40.777
C05        44.000                                                                                                                                    39205061.541 6 204151079.27106      -418.202 6        37.679    39205056.619 7 157862588.43507      -323.227 7        43.175    39205058.685 6 165889577.76906      -339.713 6        40.210
R06        45.000    21495521.339 6 114704263.79106      2843.613 6        39.997
R13        46.000    23874511.822 6 127488571.47506      -747.910 6        37.471
C39        47.000                                                                                                                                    39003873.516 7 203103412.61607      -152.634 7        43.219                                                                    39003869.225 7 165038148.55707      -124.070 7        43.209
C20        48.000                                                                                                                                    21907838.748 8 114079912.81008        74.746 8        51.746                                                                    21907833.019 8  92699265.80708        60.676 8        49.068
C06        49.000                                                                                                                                    38704896.853 6 201546572.85506       415.641 6        40.603    38704890.732 7 155848577.67207       321.435 7        43.227    38704890.490 6 163773078.54706       337.700 6        41.247
C16        50.000                                                                                                                                    39075595.793 7 203476895.42507       289.841 7        42.243    39075595.248 7 157341251.23607       224.069 7        42.781    39075592.982 6 165341643.21106       235.382 6        39.258
S48        51.000    77276192.485 6 406089919.88306      -429.645 6        37.244
C19        52.000                                                                                                                                    24550431.988 7 127840588.28407      2292.166 7        45.658                                                                    24550427.397 7 103880950.65907      1862.495 7        46.060
R04        53.000    22314808.492 7 119494814.05107     -4243.687 7        46.053                                                                    22314807.439 7  92940418.02807     -3300.593 7        42.718
C60        54.000                                                                                                                                    40663204.303 6 211744177.70806      -490.367 6        40.925                                                                    40663188.627 6 172059458.68406      -398.485 6        40.095
C30        55.000                                                                                                                                    24517995.726 7 127671628.40607     -3675.347 7        44.560                                                                    24517996.767 7 103743653.08707     -2986.526 7        44.500
R19        56.000    24002988.271 4 128399804.66204     -4744.960 4        25.023                                                                    24002984.024 4  99866550.00804     -3691.113 4        27.389
C02        57.000                                                                                                                                    40634028.857 5 211592098.72305      -463.115 5        33.862    40634022.147 6 163616426.36906      -358.140 6        40.055    40634025.469 6 171935915.58706      -376.555 6        36.057
I03        58.000   133525255.173 6 448196538.41406       966.865 6        41.089
C13        59.000                                                                                                                                    41322894.732 5 215179218.12305     -1098.365 5        35.052    41322897.732 6 166390261.32606      -849.408 6        38.634    41322895.309 5 174850769.80405      -892.474 5        34.886
> 2025 01 01 00 46 35.0000000  0 54
G28         1.000    23369398.208 7 122807027.75007       586.371 7        42.074                                    23369394.057 4  95693768.67204       456.912 4        28.711    23369394.704 6  95693774.66406       456.974 6        41.268
G31         2.000    23453539.800 7 123249189.94607      2173.927 7        42.557                                    23453535.967 6  96038315.60306      1693.965 6        37.894    23453536.550 6  96038314.62606      1693.862 6        40.238
G09         3.000    25189907.761 6 132373868.58606      3421.789 6        37.157                                    25189907.084 4 103148471.54404      2666.332 4        28.844    25189906.908 5 103148472.54705      2666.283 5        34.095
E34         4.000    28445817.661 6 149483775.84606      2363.572 6        37.093                                                                    28445817.937 6 111627499.37506      1764.940 6        38.901    28445817.730 6 114539520.82506      1810.934 6        40.105
S21         5.000    38522754.140 7 202438278.90007      -425.850 7        42.070
G21         7.000    22002251.585 7 115622673.88907     -2622.317 7        44.746                                    22002246.724 5  90095593.95905     -2043.363 5        34.200
E04         8.000    23845868.131 7 125310907.11507      -732.634 7        47.272                                                                    23845866.038 8  93576332.04208      -547.087 8        50.216    23845865.995 8  96017445.65408      -561.406 8        51.224
R14         9.000    24360676.450 7 129856120.43607      2299.239 7        42.954                                                                    24360676.596 6 100999195.02406      1788.419 6        38.339
G04        10.000    22806850.379 7 119850836.55107      3003.983 7        43.429                                    22806847.444 5  93390268.08405      2340.765 5        30.626    22806847.575 6  93390263.07606      2340.818 6        41.821
E09        11.000    24922862.202 7 130970567.68307      1907.715 7        46.351                                                                    24922861.889 8  97802711.95008      1424.631 8        48.318    24922861.626 8 100354086.49008      1461.778 8        49.143
S27        12.000    39168591.946 5 205832317.56405      -407.208 5        35.424
S36        14.000    38290342.022 7 201217608.57907      -425.435 7        43.644
E02        15.000    28605224.845 5 150321492.54505     -2831.390 5        34.719                                                                    28605224.937 6 112253078.74706     -2114.510 6        36.949    28605224.132 6 115181415.78506     -2169.636 6        37.440
E36        16.000    24287425.650 7 127631311.55307      1175.943 7        46.561                                                                    24287425.808 8  95309113.51508       878.168 8        49.486    24287425.593 8  97795432.94608       901.016 8        50.294
S45        17.000    63490323.519 6 333643977.31416      -467.665 6        37.104
G03        18.000    20284080.077 8 106593617.88208       661.982 8        49.337                                    20284078.348 8  83059981.46008       515.829 8        51.419    20284078.832 7  83059990.46107       515.825 7        45.240
R21        19.000    20441390.456 8 109386048.20108      2310.382 8        50.859                                                                    20441388.985 7  85078047.44207      1796.964 7        46.399
R20        20.000    19494245.785 6 104244541.10106     -1858.788 6        40.639                                                                    19494247.778 7  81079086.79607     -1445.694 7        47.378
R05        21.000    19326992.523 8 103313893.94308     -1559.749 8        51.875                                                                    19326991.042 7  80355256.84107     -1213.134 7        47.376
I06        22.000    38300139.294 7 150298203.75707      -216.824 7        42.400
S28        23.000    40964966.243 5 215272328.25505      -418.355 5        34.057
E10        24.000    25299233.815 7 132948491.90507     -2526.440 7        45.070                                                                    25299232.993 8  99279784.81408     -1886.638 8        48.178    25299232.531 8 101869682.76408     -1935.830 8        48.462
S23        25.000    38241077.218 7 200958186.56107      -422.348 7        44.734
E06        26.000    23789748.454 7 125016030.04407       777.547 7        47.867                                                                    23789748.094 8  93356125.26808       580.633 8        50.070    23789747.933 8  95791501.01808       595.760 8        50.610
E30        27.000    28672097.449 6 150672894.70306     -1212.973 6        36.431                                                                    28672099.205 6 112515474.54506      -905.910 6        39.252    28672098.678 6 115450658.57806      -929.521 6        40.479
E12        28.000    27544652.765 5 144748270.90305     -3077.424 5        34.914                                                                    27544650.655 6 108091313.70006     -2297.872 6        40.217    27544650.581 6 110911074.94906     -2357.878 6        40.687
E19        30.000    27056882.065 5 142184883.91905     -3155.518 5        34.348                                                                    27056880.892 6 106177021.12406     -2356.324 6        36.219    27056880.815 6 108946853.96106     -2417.781 6        37.157
G32        31.000    24228783.063 6 127323129.45706     -3579.796 6        40.515                                    24228782.013 5  99212824.07505     -2789.448 5        35.362    24228782.195 6  99212829.06906     -2789.295 6        38.111
G02        32.000    20967090.211 8 110182845.82608     -1425.365 8        49.437                                    20967083.459 6  85856759.90806     -1110.676 6        41.990
G19        33.000    23694281.883 6 124514315.73006      2430.874 6        39.408                                    23694275.143 4  97024162.30904      1894.191 4        26.695
G17        34.000    22439527.680 7 117920571.05407       479.658 7        45.243                                    22439523.347 7  91886170.34207       373.757 7        42.743    22439523.613 6  91886170.34606       373.772 6        41.800
E11        35.000    23595783.311 7 123996747.45807     -1356.000 7        44.283                                                                    23595778.896 7  92594992.77407     -1012.501 7        46.751    23595778.653 7  95010506.74607     -1038.935 7        47.415
C32        36.000                                                                                                                                    23750481.829 7 123675018.43707     -2849.129 7        47.802                                                                    23750481.961 7 100496093.72507     -2315.159 7        47.541
C35        37.000                                                                                                                                    24443165.724 7 127281993.84407      2115.636 7        44.453                                                                    24443164.636 7 103427045.07507      1719.165 7        44.640
I09        38.000    37205855.914 7 146003768.15907      -352.943 7        43.103
C29        39.000                                                                                                                                    21937078.687 8 114232129.61208     -1137.517 8        50.410                                                                    21937076.092 8  92822957.33908      -924.248 8        48.456
S44        42.000    40663677.746 6 213689239.96106      -494.742 6        38.736
C09        43.000                                                                                                                                    39469406.678 6 205527578.72306       832.791 6        40.331    39469403.941 7 158926950.91207       643.886 7        44.953    39469402.069 6 167007973.14606       676.754 6        40.491
C05        44.000                                                                                                                                    39205462.632 6 204153170.07006      -417.979 6        37.474    39205458.024 7 157864205.18207      -323.276 7        43.234    39205460.286 6 165891276.72706      -339.510 6        40.231
R06        45.000    21492857.761 6 114690051.33506      2841.576 6        40.000
R13        46.000    23875214.546 6 127492322.84706      -752.284 6        37.777
C39        47.000                                                                                                                                    39004020.355 7 203104178.98507      -153.626 7        43.164                                                                    39004016.466 7 165038771.30307      -124.742 7        43.007
C20        48.000                                                                                                                                    21907767.859 8 114079544.62408        72.731 8        51.520                                                                    21907762.249 8  92698966.62908        59.170 8        48.852
C06        49.000                                                                                                                                    38704498.889 6 201544496.92106       414.780 6        40.913    38704492.117 7 155846972.42907       320.841 7        43.200    38704491.975 6 163771391.68106       337.234 6        41.077
C16        50.000                                                                                                                                    39075318.233 7 203475449.07907       288.963 7        42.140    39075317.672 7 157340132.82007       223.423 7        42.882    39075315.189 6 165340467.94306       234.632 6        39.132
S48        51.000    77276591.699 6 406092067.68406      -429.547 6        37.289
C19        52.000                                                                                                                                    24548231.659 7 127829130.88407      2291.040 7        45.558                                                                    24548227.213 7 103871640.59007      1861.688 7        45.866
R04        53.000    22318771.718 7 119516034.99007     -4244.502 7        46.361                                                                    22318770.702 7  92956923.19807     -3301.299 7        42.360
C60        54.000                                                                                                                                    40663675.437 6 211746629.93106      -490.442 6        40.865                                                                    40663659.444 6 172061451.30806      -398.399 6        40.226
C30        55.000                                                                                                                                    24521524.825 7 127690007.25107     -3676.105 7        44.403                                                                    24521526.262 7 103758587.41107     -2987.119 7        44.364
R19        56.000    24007419.649 3 128423533.68903     -4746.352 3        23.790                                                                    24007419.235 4  99885005.94004     -3691.798 4        26.551
C02        57.000                                                                                                                                    40634472.679 5 211594415.02505      -463.000 5        33.671    40634466.800 6 163618217.47306      -358.075 6        40.131    40634470.275 5 171937797.76805      -376.290 5        35.514
I03        58.000   133524023.895 6 448191704.59206       966.903 6        40.920
C13        59.000                                                                                                                                    41323948.564 5 215184710.07605     -1098.248 5        35.200    41323951.985 6 166394508.06306      -849.229 6        38.520    41323949.951 5 174855232.47605      -892.248 5        35.438
> 2025 01 01 00 46 40.0000000  0 54
G28         1.000    23368841.572 6 122804103.81806       583.175 6        41.569                                    23368837.751 4  95691490.29204       454.421 4        28.635    23368838.511 6  95691496.29006       454.371 6        41.395
G31         2.000    23451472.644 7 123238326.25707      2171.621 7        42.713                                    23451468.887 6  96029850.40006      1692.171 6        38.045    23451469.213 6  96029849.41006      1692.133 6        40.191
G09         3.000    25186652.088 6 132356760.55706      3421.451 6        36.476                                    25186651.519 4 103135140.62904      2666.067 4        28.408    25186651.435 5 103135141.61905      2666.431 5        33.748
E34         4.000    28443568.694 6 149471958.59806      2363.562 6        36.926                                                                    28443569.369 6 111618674.80306      1764.829 6        38.757    28443568.926 6 114530466.03406      1810.947 6        39.928
S21         5.000    38523159.372 7 202440408.65507      -426.009 7        42.027
G21         7.000    22004747.816 7 115635790.31707     -2624.109 7        45.132                                    22004742.704 5  90105814.55405     -2044.760 5        34.100
E04         8.000    23846566.458 7 125314576.49007      -735.074 7        47.421                                                                    23846564.355 8  93579072.17108      -548.989 8        50.173    23846564.252 8  96020257.25608      -563.268 8        51.360
R14         9.000    24358520.711 7 129844630.14507      2296.664 7        42.737                                                                    24358521.349 6 100990258.14606      1786.347 6        38.508
G04        10.000    22803992.855 7 119835820.53007      3002.459 7        42.009                                    22803990.064 5  93378567.29805      2339.567 5        30.408    22803990.200 7  93378562.31707      2339.504 7        42.459
E09        11.000    24921048.084 7 130961033.41207      1905.976 7        46.689                                                                    24921047.616 8  97795592.20408      1423.276 8        48.375    24921047.322 8 100346781.00408      1460.444 8        49.219
S27        12.000    39168978.754 5 205834351.86505      -406.743 5        35.624
S36        14.000    38290748.605 7 201219735.65407      -425.484 7        43.776
E02        15.000    28607919.428 5 150335652.64905     -2832.236 5        34.971                                                                    28607919.486 6 112263652.82006     -2114.927 6        36.665    28607918.722 6 115192265.71506     -2170.345 6        37.202
E36        16.000    24286307.335 7 127625435.33807      1174.585 7        46.563                                                                    24286307.593 8  95304725.42808       877.142 8        49.468    24286307.404 8  97790930.38808       900.028 8        50.386
S45        17.000    63490721.480 6 333646315.33506      -467.721 6        37.206
G03        18.000    20283451.186 8 106590313.43208       659.910 8        49.240                                    20283449.526 8  83057406.56708       514.215 8        51.292    20283450.108 7  83057415.57407       514.176 7        45.377
R21        19.000    20439232.739 8 109374503.97708      2307.350 8        50.932                                                                    20439231.788 7  85069068.60907      1794.607 7        46.650
R20        20.000    19495985.931 6 104253844.87006     -1862.709 6        40.129                                                                    19495987.691 7  81086323.06007     -1448.812 7        47.237
R05        21.000    19328452.795 8 103321701.22508     -1563.144 8        51.998                                                                    19328451.397 7  80361329.16407     -1215.734 7        47.328
I06        22.000    38300415.923 7 150299288.70407      -217.054 7        42.419
S28        23.000    40965362.013 5 215274420.08405      -418.411 5        34.014
E10        24.000    25301638.424 7 132961127.95807     -2527.922 7        45.007                                                                    25301637.652 8  99289220.82808     -1887.760 8        48.211    25301637.189 8 101879364.93208     -1936.926 8        48.664
S23        25.000    38241478.380 7 200960298.94707      -422.492 7        44.751
E06        26.000    23789009.748 8 125012148.31608       775.149 8        48.089                                                                    23789009.484 8  93353226.57508       578.871 8        50.078    23789009.253 8  95788526.70708       593.966 8        50.686
E30        27.000    28673253.259 6 150678966.47306     -1215.474 6        36.998                                                                    28673254.723 6 112520008.67706      -907.798 6        39.075    28673254.072 6 115455310.99506      -931.384 6        40.296
E12        28.000    27547581.426 5 144763659.57305     -3077.984 5        34.824                                                                    27547578.957 6 108102805.23206     -2298.684 6        39.889    27547579.131 6 110922866.26106     -2358.561 6        40.749
E19        30.000    27059885.146 5 142200663.96105     -3156.503 5        34.224                                                                    27059883.526 5 106188804.91905     -2357.149 5        35.662    27059883.574 6 108958945.15306     -2418.598 6        37.206
G32        31.000    24232189.590 6 127341031.10006     -3580.911 6        40.596                                    24232188.567 5  99226773.40505     -2790.318 5        35.090    24232188.485 6  99226778.41206     -2790.399 6        37.629
G02        32.000    20968447.620 8 110189979.00108     -1427.853 8        49.122                                    20968440.865 6  85862318.22506     -1112.614 6        41.864
G19        33.000    23691970.034 6 124502167.63706      2428.330 6        40.191                                    23691963.390 4  97014696.25804      1892.197 4        26.479
G17        34.000    22439072.861 7 117918180.76407       476.480 7        45.237                                    22439068.476 7  91884307.78207       371.283 7        42.686    22439068.365 6  91884307.78106       371.325 6        41.561
E11        35.000    23597074.543 7 124003532.05107     -1357.714 7        44.489                                                                    23597070.023 7  92600059.19607     -1013.943 7        46.675    23597069.740 7  95015705.33307     -1040.374 7        47.454
C32        36.000                                                                                                                                    23753218.436 7 123689267.35407     -2850.368 7        47.547                                                                    23753218.268 7 100507672.11907     -2316.205 7        47.511
C35        37.000                                                                                                                                    24441135.343 7 127271420.23507      2113.845 7        44.552                                                                    24441134.063 7 103418453.13507      1717.642 7        44.625
I09        38.000    37206305.989 7 146005533.92007      -353.299 7        43.124
C29        39.000                                                                                                                                    21938172.419 8 114237824.41908     -1140.375 8        50.371                                                                    21938169.704 8  92827584.82508      -926.695 8        48.394
S44        42.000    40664150.629 6 213691714.64206      -495.030 6        38.688
C09        43.000                                                                                                                                    39468607.616 6 205523417.32606       831.897 6        40.000    39468604.886 7 158923733.07407       643.162 7        45.127    39468603.012 6 167004591.67706       675.802 6        40.429
C05        44.000                                                                                                                                    39205864.590 6 204155260.88806      -418.186 6        37.422    39205859.669 7 157865821.93707      -323.435 7        43.325    39205861.815 6 165892975.67906      -339.796 6        40.131
R06        45.000    21490197.196 6 114675849.45406      2839.242 6        40.229
R13        46.000    23875922.554 6 127496094.90606      -756.407 6        38.405
C39        47.000                                                                                                                                    39004168.441 7 203104950.16807      -154.702 7        43.308                                                                    39004164.540 7 165039397.95107      -125.840 7        43.001
C20        48.000                                                                                                                                    21907699.150 8 114079186.78508        70.460 8        51.454                                                                    21907693.542 8  92698675.84508        57.207 8        48.797
C06        49.000                                                                                                                                    38704101.399 6 201542425.56506       413.632 6        40.868    38704094.492 7 155845370.73407       320.009 7        43.050    38704094.150 6 163769708.54006       336.112 6        40.882
C16        50.000                                                                                                                                    39075040.796 6 203474007.30506       287.693 6        41.874    39075040.581 7 157339017.93707       222.527 7        42.876    39075038.285 6 165339296.35206       233.816 6        39.129
S48        51.000    77276995.204 6 406094215.28706      -429.505 6        37.229
C19        52.000                                                                                                                                    24546032.255 7 127817679.10107      2289.715 7        45.282                                                                    24546028.068 7 103862335.07307      1860.550 7        45.989
R04        53.000    22322735.618 7 119537259.72007     -4245.421 7        46.464                                                                    22322733.632 7  92973431.31107     -3302.018 7        42.246
C60        54.000                                                                                                                                    40664146.277 6 211749082.11006      -490.530 6        40.615                                                                    40664130.422 6 172063443.90506      -398.672 6        40.007
C30        55.000                                                                                                                                    24525055.211 7 127708390.91407     -3677.318 7        44.722                                                                    24525056.557 7 103773525.63107     -2988.167 7        44.173
R19        56.000    24011858.881 3                     -4748.218 3        23.886                                                                    24011858.221 4  99903464.78804     -3691.893 4        27.090
C02        57.000                                                                                                                                    40634917.878 5 211596731.33105      -463.363 5        33.551    40634911.924 6 163620008.59806      -358.395 6        40.305    40634915.335 5 171939679.95305      -376.526 5        35.567
I03        58.000   133522792.072 6 448186870.93406       966.603 6        41.068
C13        59.000                                                                                                                                    41325003.926 5 215190201.75905     -1098.154 5        35.214    41325006.614 6 166398754.58006      -849.331 6        38.529    41325004.791 5 174859694.91305      -892.545 5        35.357
> 2025 01 01 00 46 45.0000000  0 55
G28         1.000    23368287.948 6 122801195.14106       580.221 6        41.633                                    23368284.374 4  95689223.78804       452.115 4        28.408    23368285.001 7  95689229.79707       452.165 7        42.135
G31         2.000    23449407.041 7 123227472.78907      2169.660 7        42.677                                    23449403.624 6  96021393.16006      1690.643 6        37.955    23449404.043 6  96021392.14206      1690.660 6        40.110
G09         3.000    25183396.621 6 132339653.44606      3421.726 6        36.098                                    25183396.044 4 103121810.40904      2666.279 4        28.275    25183396.651 5 103121811.43105      2666.042 5        33.635
E34         4.000    28441319.341 6 149460140.90606      2363.520 6        37.380                                                                    28441320.419 6 111609849.87506      1765.152 6        38.489    28441319.886 6 114521410.89306      1811.189 6        39.679
S21         5.000    38523564.031 6 202442538.90206      -426.176 6        41.919
G21         7.000    22007245.337 7 115648914.82607     -2625.743 7        44.621                                    22007240.194 5  90116041.44505     -2046.036 5        33.952
E04         8.000    23847266.724 7 125318257.14507      -737.182 7        47.399                                                                    23847264.760 8  93581820.71008      -550.488 8        50.163    23847264.643 8  96023077.50308      -564.907 8        51.385
R14         9.000    24356367.282 7 129833152.08907      2294.462 7        42.667                                                                    24356367.526 6 100981330.77006      1784.546 6        38.303
G04        10.000    22801136.506 7 119820811.33207      3001.166 7        43.101                                    22801133.967 5  93366871.83205      2338.570 5        30.257    22801133.862 7  93366866.83907      2338.521 7        42.563
E09        11.000    24919235.335 7 130951507.15307      1904.467 7        46.864                                                                    24919234.784 8  97788478.44408      1422.119 8        48.268    24919234.494 8 100339481.66808      1459.240 8        49.233
S27        12.000    39169366.305 5 205836386.66205      -406.892 5        35.257
S36        14.000    38291153.246 7 201221862.93307      -425.410 7        43.556
E02        15.000    28610614.353 5 150349816.76705     -2833.314 5        35.024                                                                    28610615.023 6 112274229.95106     -2115.799 6        36.594    28610613.814 6 115203118.75106     -2170.849 6        36.779
E36        16.000    24285190.138 7 127619565.01507      1173.475 7        46.699                                                                    24285190.524 8  95300341.74708       876.329 8        49.438    24285190.274 8  97786432.34908       899.168 8        50.397
S45        17.000    63491121.628 6 333648653.61206      -467.569 6        36.998
G03        18.000    20282824.546 8 106587019.24808       657.866 8        49.322                                    20282822.662 8  83054839.67008       512.622 8        51.111    20282823.131 7  83054848.67107       512.662 7        45.384
R21        19.000    20437078.423 8 109362974.01708      2304.568 8        50.825                                                                    20437077.017 7  85060100.84907      1792.446 7        46.285
R20        20.000    19497729.494 6 104263168.16606     -1866.669 6        40.315                                                                    19497731.079 7  81093574.49307     -1451.755 7        47.462
R05        21.000    19329916.497 8 103329525.00508     -1566.423 8        52.049                                                                    19329915.051 7  80367414.33707     -1218.358 7        47.521
I06        22.000    38300692.733 7 150300373.85607      -217.123 7        42.525
S28        23.000    40965757.130 5 215276512.15105      -418.357 5        34.029
E10        24.000    25304044.172 7 132973770.24607     -2529.128 7        44.904                                                                    25304043.383 8  99298661.49108     -1888.580 8        48.109    25304043.148 8 101889051.87808     -1937.889 8        48.593
S23        25.000    38241881.622 7 200962411.59607      -422.518 7        44.476
E06        26.000    23788273.017 8 125008277.30108       773.149 8        48.075                                                                    23788272.799 8  93350335.88508       577.354 8        50.013    23788272.603 8  95785560.60508       592.401 8        50.753
E30        27.000    28674411.480 6 150685049.43806     -1217.702 6        36.972                                                                    28674412.514 6 112524551.18206      -909.377 6        39.532    28674411.674 6 115459971.99406      -932.999 6        40.522
E12        28.000    27550510.473 5 144779051.86205     -3078.689 5        34.814                                                                    27550507.925 6 108114299.48006     -2299.104 6        39.796    27550508.178 6 110934660.34106     -2359.010 6        40.820
E19        30.000    27062888.345 5 142216447.99505     -3157.073 5        34.071                                                                    27062887.107 5 106200591.73305     -2357.846 5        35.681    27062887.346 6 108971039.41706     -2419.002 6        37.546
G32        31.000    24235597.881 6 127358938.36506     -3582.048 6        40.687                                    24235596.104 5  99240727.11405     -2791.207 5        34.905    24235596.320 6  99240732.11106     -2791.087 6        37.342
G02        32.000    20969807.042 8 110197123.86808     -1430.127 8        48.760                                    20969800.502 6  85867885.65306     -1114.382 6        41.676
G19        33.000    23689660.379 6 124490031.07906      2426.208 6        40.098                                    23689653.944 4  97005239.20204      1890.556 4        26.240
G17        34.000    22438620.684 7 117915805.35107       473.587 7        44.963                                    22438616.458 7  91882456.81307       369.027 7        42.536    22438616.799 6  91882456.80106       369.094 6        41.886
E11        35.000    23598367.049 7 124010324.91807     -1359.326 7        44.498                                                                    23598362.617 7  92605131.78007     -1015.045 7        46.661    23598362.383 7  95020910.24907     -1041.494 7        47.417
C32        36.000                                                                                                                                    23755955.695 7 123703521.39807     -2851.256 7        47.328                                                                    23755955.627 7 100519254.70907     -2316.928 7        47.622
C35        37.000                                                                                                                                    24439106.455 7 127260854.81007      2112.280 7        44.551                                                                    24439104.984 7 103409867.87407      1716.409 7        44.764
I09        38.000    37206756.283 7 146007300.70307      -353.461 7        43.276
C29        39.000                                                                                                                                    21939268.451 8 114243532.97808     -1143.044 8        50.501                                                                    21939266.022 8  92832223.50808      -928.876 8        48.545
G08        40.000                                                                                                                                                                    25608728.355 3                     -3149.051 3        18.358
S44        42.000    40664620.288 6 213694189.55406      -494.855 6        38.664
C09        43.000                                                                                                                                    39467809.715 6 205519259.90406       831.077 6        40.272    39467806.743 7 158920518.28307       642.668 7        45.141    39467804.594 6 167001213.42806       675.324 6        40.548
C05        44.000                                                                                                                                    39206266.048 6 204157351.98806      -418.218 6        37.709    39206261.342 7 157867438.91007      -323.483 7        43.223    39206263.394 6 165894674.88506      -339.886 6        40.253
R06        45.000    21487538.303 6 114661658.29806      2837.049 6        39.733
R13        46.000    23876632.361 6 127499887.96306      -760.710 6        37.637
C39        47.000                                                                                                                                    39004317.175 7 203105726.44707      -155.794 7        43.333                                                                    39004313.622 7 165040028.73607      -126.607 7        43.107
C20        48.000                                                                                                                                    21907632.608 8 114078839.53708        68.425 8        51.636                                                                    21907626.786 8  92698393.69108        55.551 8        48.968
C06        49.000                                                                                                                                    38703704.074 6 201540359.03206       412.801 6        40.896    38703697.132 7 155843772.76807       319.195 7        42.986    38703697.371 6 163768029.32106       335.480 6        41.120
C16        50.000                                                                                                                                    39074764.293 6 203472570.33606       287.014 6        41.683    39074764.536 7 157337906.79907       221.812 7        42.770    39074762.332 6 165338128.71106       233.164 6        39.096
S48        51.000    77277396.416 6 406096362.98506      -429.460 6        36.858
C19        52.000                                                                                                                                    24543834.280 7 127806233.21407      2288.651 7        45.159                                                                    24543829.959 7 103853034.36607      1859.652 7        46.134
R04        53.000    22326699.187 7 119558488.64307     -4246.190 7        46.044                                                                    22326698.084 7  92989942.69207     -3302.533 7        42.106
C60        54.000                                                                                                                                    40664617.362 6 211751534.52906      -490.477 6        40.806                                                                    40664601.346 6 172065436.70306      -398.560 6        40.126
C30        55.000                                                                                                                                    24528587.265 7 127726779.62007     -3678.312 7        44.877                                                                    24528587.908 7 103788467.96207     -2988.850 7        44.292
R19        56.000    24016287.902 3                     -4747.699 3        21.762                                                                    24016293.883 4  99921926.87204     -3692.374 4        25.158
C02        57.000                                                                                                                                    40635363.654 5 211599047.91705      -463.366 5        33.850    40635356.403 6 163621799.91606      -358.202 6        40.262    40635359.989 5 171941562.36705      -376.536 5        35.905
I03        58.000   133521560.459 6 448182037.61106       966.565 6        41.020
C13        59.000                                                                                                                                    41326059.189 5 215195693.43605     -1098.269 5        35.005    41326060.962 6 166403001.07006      -849.316 6        38.486    41326059.212 5 174864157.35505      -892.618 5        35.595
> 2025 01 01 00 46 50.0000000  0 54
G28         1.000    23367737.205 6 122798301.45806       577.078 6        41.650                                    23367733.716 4  95686968.97304       449.665 4        28.578    23367734.354 7  95686974.98507       449.640 7        42.457
G31         2.000    23447344.043 7 123216629.26207      2167.623 7        42.497                                    23447340.127 6  96012943.66506      1689.057 6        37.735    23447339.974 6  96012942.66606      1688.997 6        39.477
G09         3.000    25180141.474 5 132322547.11105      3420.976 5        35.786                                    25180140.698 4 103108480.80804      2665.689 4        28.227    25180140.971 5 103108481.82905      2665.643 5        33.671
E34         4.000    28439070.032 6 149448322.46006      2363.609 6        36.779                                                                    28439071.212 6 111601024.42006      1765.249 6        38.327    28439070.984 6 114512355.22006      1811.155 6        39.673
S21         5.000    38523970.117 7 202444669.11807      -426.084 7        42.123
G21         7.000    22009744.040 7 115662047.11107     -2627.306 7        44.485                                    22009739.205 5  90126274.39105     -2047.252 5        34.043
E04         8.000    23847969.197 7 125321948.82907      -739.490 7        47.218                                                                    23847967.286 8  93584577.48308      -552.201 8        50.327    23847967.127 8  96025906.19208      -566.632 8        51.284
R14         9.000    24354216.117 6 129821686.15506      2291.903 6        41.957                                                                    24354216.554 6 100972412.83006      1782.589 6        37.251
G04        10.000    22798282.224 7 119805808.66907      2999.829 7        43.306                                    22798278.943 5  93355181.45105      2337.529 5        30.468    22798278.898 6  93355176.45506      2337.438 6        41.976
E09        11.000    24917423.962 7 130941988.67707      1902.759 7        46.644                                                                    24917423.497 8  97781370.49308      1420.920 8        48.394    24917423.117 8 100332188.29308      1458.046 8        49.204
S27        12.000    39169755.583 5 205838421.61005      -407.171 5        35.524
S36        14.000    38291557.575 7 201223990.33507      -425.669 7        43.790
E02        15.000    28613310.198 5 150363984.71105     -2833.908 5        34.486                                                                    28613310.892 6 112284809.90306     -2116.251 6        36.374    28613310.164 6 115213974.70706     -2171.487 6        36.854
E36        16.000    24284074.277 7 127613700.31707      1172.367 7        46.525                                                                    24284074.517 8  95295962.27108       875.433 8        49.615    24284074.241 8  97781938.62108       898.271 8        50.378
S45        17.000    63491523.207 6 333650991.70306      -467.649 6        37.319
G03        18.000    20282199.413 8 106583735.04708       655.805 8        49.464                                    20282197.704 8  83052280.55208       511.015 8        51.158    20282198.024 7  83052289.55407       511.003 7        45.332
R21        19.000    20434926.555 8 109351458.20208      2301.681 8        51.174                                                                    20434925.154 7  85051144.11407      1790.168 7        46.053
R20        20.000    19499477.069 6 104272510.59306     -1870.476 6        40.265                                                                    19499477.880 7  81100840.81907     -1454.797 7        47.185
R05        21.000    19331383.107 8 103337365.34508     -1569.789 8        52.005                                                                    19331381.764 7  80373512.38007     -1220.918 7        47.142
I06        22.000    38300969.054 7 150301458.99807      -216.995 7        42.445
S28        23.000    40966156.232 5 215278603.92505      -418.516 5        34.071
E10        24.000    25306450.893 7 132986418.50907     -2530.348 7        44.718                                                                    25306450.155 8  99308106.62308     -1889.547 8        48.238    25306450.098 8 101898743.40108     -1938.802 8        48.620
S23        25.000    38242284.842 7 200964524.21507      -422.762 7        44.677
E06        26.000    23787538.587 8 125004416.75708       771.007 8        48.041                                                                    23787538.166 8  93347453.01508       575.770 8        50.169    23787537.960 8  95782602.53408       590.759 8        50.688
E30        27.000    28675570.744 6 150691143.36906     -1219.937 6        37.244                                                                    28675572.085 6 112529101.87606      -910.970 6        39.850    28675571.333 6 115464641.41106      -934.784 6        40.217
E12        28.000    27553440.205 5 144794447.54605     -3079.635 5        34.624                                                                    27553437.812 6 108125796.24506     -2299.713 6        40.062    27553438.129 6 110946457.02906     -2359.619 6        40.746
E19        30.000    27065893.096 5 142232235.94705     -3157.900 5        34.014                                                                    27065891.622 5 106212381.42505     -2358.277 5        35.662    27065891.809 6 108983136.70306     -2419.802 6        37.448
G32        31.000    24239006.725 6 127376850.96806     -3583.195 6        41.354                                    24239004.607 5  99254684.98305     -2792.106 5        35.195    24239005.099 6  99254689.99106     -2792.152 6        37.180
G02        32.000    20971168.897 8 110204280.17008     -1432.519 8        49.231                                    20971162.290 6  85873461.98906     -1116.248 6        41.683
G19        33.000    23687352.457 6 124477905.76406      2424.021 6        39.294                                    23687346.587 4  96995790.90304      1888.839 4        26.479
G17        34.000    22438171.741 7 117913444.58507       470.616 7        45.126                                    22438167.225 7  91880617.25207       366.714 7        42.591    22438168.071 6  91880617.25606       366.815 6        41.897
E11        35.000    23599661.095 7 124017125.78507     -1361.018 7        44.424                                                                    23599656.803 7  92610210.35607     -1016.315 7        46.783    23599656.533 7  95026121.31607     -1042.922 7        47.417
C32        36.000                                                                                                                                    23758693.980 7 123717780.32907     -2852.357 7        47.309                                                                    23758693.850 7 100530841.25107     -2317.799 7        47.567
C35        37.000                                                                                                                                    24437078.972 7 127250297.36207      2110.556 7        44.894                                                                    24437077.592 7 103401289.07907      1715.113 7        44.689
I09        38.000    37207206.609 7 146009068.37807      -353.652 7        43.122
C29        39.000                                                                                                                                    21940367.384 8 114249255.04208     -1145.856 8        50.662                                                                    21940364.843 8  92836873.14808      -931.102 8        48.454
S44        42.000    40665088.838 6 213696664.45406      -495.051 6        38.994
C09        43.000                                                                                                                                    39467012.144 6 205515106.16006       830.327 6        40.605    39467008.922 7 158917306.34607       642.072 7        44.993    39467006.828 6 166997838.18806       674.623 6        40.591
C05        44.000                                                                                                                                    39206667.649 6 204159443.12506      -418.293 6        37.739    39206662.692 7 157869055.90807      -323.521 7        43.247    39206664.999 6 165896374.10106      -339.895 6        40.157
R06        45.000    21484879.671 6 114647477.79206      2835.072 6        39.471
R13        46.000    23877346.053 6 127503701.74706      -764.830 6        37.667
C39        47.000                                                                                                                                    39004467.043 7 203106507.55007      -156.790 7        43.280                                                                    39004463.603 7 165040663.44507      -127.425 7        43.153
C20        48.000                                                                                                                                    21907568.104 8 114078502.63508        66.221 8        51.692                                                                    21907562.099 8  92698119.93208        53.822 8        48.915
C06        49.000                                                                                                                                    38703307.143 6 201538297.09406       411.902 6        40.915    38703301.096 7 155842178.33907       318.467 7        42.806    38703301.387 6 163766353.81406       334.674 6        40.958
C16        50.000                                                                                                                                    39074489.153 6 203471137.94006       285.953 6        41.642    39074489.477 7 157336799.17807       221.050 7        42.736    39074487.259 6 165336964.79506       232.277 6        39.198
S48        51.000    77277802.015 6 406098510.68806      -429.582 6        37.112
C19        52.000                                                                                                                                    24541637.707 7 127794792.95107      2287.433 7        45.812                                                                    24541632.997 7 103843738.22207      1858.733 7        46.090
R04        53.000    22330664.687 7 119579721.28307     -4247.005 7        46.553                                                                    22330663.251 7  93006456.96607     -3303.280 7        42.059
C60        54.000                                                                                                                                    40665088.278 6 211753986.93606      -490.537 6        40.949                                                                    40665072.374 6 172067429.48206      -398.604 6        40.145
C30        55.000                                                                                                                                    24532119.738 7 127745173.10407     -3679.190 7        44.361                                                                    24532120.201 7 103803414.17507     -2989.737 7        44.178
R19        56.000    24020730.182 3                     -4748.329 3        21.643                                                                    24020730.251 4  99940391.90004     -3692.953 4        24.917
C02        57.000                                                                                                                                    40635807.623 5 211601364.53305      -463.289 5        33.820    40635801.589 6 163623591.29906      -358.388 6        40.145    40635804.884 5 171943444.84305      -376.665 5        35.729
I03        58.000   133520328.645 6 448177204.42606       966.545 6        41.030
C13        59.000                                                                                                                                    41327113.712 5 215201184.77605     -1098.431 5        35.238    41327115.658 6 166407247.31806      -849.214 6        38.027    41327113.849 5 174868619.50305      -892.400 5        35.567
