     3.04           OBSERVATION DATA    M                   RINEX VERSION / TYPE
ssrcrin-15.6.1x                         20250101 021500 UTC PGM / RUN BY / DATE 
(00000000023479385599111004) Septentrio proprietary         COMMENT             
rref                                                        MARKER NAME         
01                                                          MARKER NUMBER       
geodetic                                                    MARKER TYPE         
NFB                 CLIMERS@TUW                             OBSERVER / AGENCY   
3297213             SEPT ASTERX SB3 PROB4.14.4              REC # / TYPE / VERS 
Unknown             Unknown                                 ANT # / TYPE        
  4127831.7146  1207193.1457  4695247.4587                  APPROX POSITION XYZ 
        0.0000        0.0000        0.0000                  ANTENNA: DELTA H/E/N
G   23 X1  C1C L1C D1C S1C C1W S1W C2W L2W D2W S2W C2L L2L  SYS / # / OBS TYPES 
       D2L S2L C5Q L5Q D5Q S5Q C1L L1L D1L S1L              SYS / # / OBS TYPES 
E   21 X1  C1C L1C D1C S1C C6C L6C D6C S6C C5Q L5Q D5Q S5Q  SYS / # / OBS TYPES 
       C7Q L7Q D7Q S7Q C8Q L8Q D8Q S8Q                      SYS / # / OBS TYPES 
S    9 X1  C1C L1C D1C S1C C5I L5I D5I S5I                  SYS / # / OBS TYPES 
R   17 X1  C1C L1C D1C S1C C2P L2P D2P S2P C2C L2C D2C S2C  SYS / # / OBS TYPES 
       C3Q L3Q D3Q S3Q                                      SYS / # / OBS TYPES 
C   25 X1  C1P L1P D1P S1P C5P L5P D5P S5P C2I L2I D2I S2I  SYS / # / OBS TYPES 
       C7I L7I D7I S7I C6I L6I D6I S6I C7D L7D D7D S7D      SYS / # / OBS TYPES 
J   17 X1  C1C L1C D1C S1C C2L L2L D2L S2L C5Q L5Q D5Q S5Q  SYS / # / OBS TYPES 
       C1L L1L D1L S1L                                      SYS / # / OBS TYPES 
I    5 X1  C5A L5A D5A S5A                                  SYS / # / OBS TYPES 
SEPTENTRIO RECEIVERS OUTPUT ALIGNED CARRIER PHASES.         COMMENT             
NO FURTHER PHASE SHIFT APPLIED IN THE RINEX ENCODER.        COMMENT             
G L1C                                                       SYS / PHASE SHIFT   
G L2W                                                       SYS / PHASE SHIFT   
G L2L  0.00000                                              SYS / PHASE SHIFT   
G L5Q  0.00000                                              SYS / PHASE SHIFT   
G L1L  0.00000                                              SYS / PHASE SHIFT   
E L1C  0.00000                                              SYS / PHASE SHIFT   
E L6C  0.00000                                              SYS / PHASE SHIFT   
E L5Q  0.00000                                              SYS / PHASE SHIFT   
E L7Q  0.00000                                              SYS / PHASE SHIFT   
E L8Q  0.00000                                              SYS / PHASE SHIFT   
S L1C                                                       SYS / PHASE SHIFT   
S L5I                                                       SYS / PHASE SHIFT   
R L1C                                                       SYS / PHASE SHIFT   
R L2P  0.00000                                              SYS / PHASE SHIFT   
R L2C                                                       SYS / PHASE SHIFT   
R L3Q  0.00000                                              SYS / PHASE SHIFT   
C L1P  0.00000                                              SYS / PHASE SHIFT   
C L5P  0.00000                                              SYS / PHASE SHIFT   
C L2I                                                       SYS / PHASE SHIFT   
C L7I                                                       SYS / PHASE SHIFT   
C L6I                                                       SYS / PHASE SHIFT   
C L7D                                                       SYS / PHASE SHIFT   
J L1C                                                       SYS / PHASE SHIFT   
J L2L  0.00000                                              SYS / PHASE SHIFT   
J L5Q  0.00000                                              SYS / PHASE SHIFT   
J L1L  0.00000                                              SYS / PHASE SHIFT   
I L5A                                                       SYS / PHASE SHIFT   
  2025     1     1     2    15    0.0000000     GPS         TIME OF FIRST OBS   
 C1C    0.000 C2C    0.000 C2P    0.000                     GLONASS COD/PHS/BIS 
DBHZ                                                        SIGNAL STRENGTH UNIT
    18                                                      LEAP SECONDS        
 24 R01  1 R02 -4 R03  5 R04  6 R05  1 R06 -4 R07  5 R08  6 GLONASS SLOT / FRQ #
    R09 -2 R10 -7 R11  0 R12 -1 R13 -2 R14 -7 R15  0 R16 -1 GLONASS SLOT / FRQ #
    R17  4 R18 -3 R19  3 R20  2 R21  4 R22 -3 R23  3 R24  2 GLONASS SLOT / FRQ #
                                                            END OF HEADER       
> 2025 01 01 02 15  0.0000000  0 53
G28         1.000    23875636.527 6 125467328.04106     -2673.693 6        40.219                                    23875632.321 4  97766730.80204     -2083.393 4        24.917    23875631.769 6  97766736.81106     -2083.291 6        40.079
G31         2.000    22177912.270 7 116545729.33007     -1110.286 7        45.254                                    22177906.923 7  90814842.27907      -865.158 7        42.362    22177907.809 6  90814841.28906      -865.284 6        40.975
G09         3.000    21534075.074 7 113162366.11707      2345.934 7        46.555                                    21534073.044 7  88178476.42207      1828.000 7        47.205    21534073.336 7  88178477.42707      1828.060 7        43.316
E34         4.000    25555304.745 7 134294041.01107      1975.468 7        43.706                                                                    25555304.732 7 100284518.71907      1475.257 7        46.250    25555304.452 7 102900635.95407      1513.683 7        46.846
S21         5.000    38342509.831 7 201491107.97407      -390.748 7        42.590
E05         6.000    24335865.636 7 127885871.12407      2211.978 7        42.489                                                                    24335866.396 7  95499215.92707      1651.752 7        45.577    24335865.977 7  97990492.26007      1694.797 7        46.110
G21         7.000    24705181.633 6 129826652.92506     -3686.500 6        36.155                                    24705177.641 3 101163626.07703     -2872.594 3        18.925
E04         8.000    24990415.902 7 131325545.28207     -2495.448 7        44.823                                                                    24990414.290 7  98067782.09107     -1863.550 7        47.782    24990413.768 8 100626064.02808     -1912.193 8        48.132
R14         9.000    23263160.110 7 124005720.74907     -1585.313 7        44.864                                                                    23263161.067 6  96448879.69806     -1233.078 6        39.973
G04        10.000    20191826.147 8 106108807.75808       762.127 8        48.170                                    20191823.063 6  82682196.99206       593.866 6        40.534    20191823.286 7  82682191.98807       593.862 7        47.810
E09        11.000    23355745.724 8 122735321.16408       -36.498 8        48.392                                                                    23355745.052 8  91653016.74508       -27.287 8        50.508    23355744.611 8  94043964.23208       -27.994 8        50.851
S27        12.000    38974129.737 6 204810387.42606      -381.994 6        36.514
G06        13.000    22923522.160 7 120463948.17307      2633.200 7        42.021                                    22923521.044 6  93868015.51506      2051.840 6        40.045    22923521.928 7  93868026.52407      2051.906 7        42.049
S36        14.000    38109941.292 7 200269569.67507      -390.814 7        44.244
E36        16.000    23303994.694 8 122463346.19408      -581.187 8        48.212                                                                    23303994.758 8  91449918.55408      -434.035 8        50.635    23303994.367 8  93835563.33908      -445.373 8        50.990
S45        17.000    63304856.830 6 332670551.34706      -430.419 6        37.743
G03        18.000    20092683.124 8 105587819.88108     -1442.637 8        49.527                                    20092681.206 8  82276242.73308     -1124.134 8        51.789    20092682.063 7  82276251.74007     -1124.160 7        45.834
R21        19.000    19529074.273 8 104504058.26908     -1963.401 8        52.584                                                                    19529072.701 7  81280943.57807     -1527.019 7        46.230
R20        20.000    22447853.392 5 120038786.55405     -4821.533 5        34.500                                                                    22447855.154 7  93363496.13007     -3750.092 7        42.700
R05        21.000    21538805.524 8 115137297.92708     -3633.758 8        48.140                                                                    21538805.149 7  89551236.41907     -2826.206 7        44.606
I06        22.000    37995449.534 7 149102532.47607      -210.923 7        42.792
S28        23.000    40777676.884 5 214288132.60905      -384.540 5        34.614
E10        24.000    27794337.328 6 146060338.98406     -3460.096 6        37.667                                                                    27794337.709 7 109071095.47907     -2583.895 7        42.519    27794337.797 7 111916419.36407     -2651.327 7        44.309
S23        25.000    38056954.984 7 199990655.76007      -386.691 7        44.348
E06        26.000    23518260.300 7 123589353.56007     -1335.078 7        47.943                                                                    23518259.814 8  92290750.77008      -996.979 8        50.346    23518259.810 8  94698334.05608     -1022.987 8        51.300
R15        27.000    22657003.346 7 121072161.99507      1669.648 7        45.719                                                                    22657003.435 6  94167249.20406      1298.609 6        41.392
C22        30.000                                                                                                                                    25901620.473 6 134876534.54406      2445.351 6        41.661                                                                    25901614.690 6 109598214.48606      1987.105 6        40.598
I01        31.000   334018673.984 7   7620210.53007     -2610.371 7        42.999
G02        32.000    22941235.506 7 120557039.68707     -3484.892 7        44.336                                    22941230.015 5  93940544.59005     -2715.500 5        32.413
G19        33.000    22226710.825 7 116802183.42807      -923.685 7        44.032                                    22226704.756 5  91014709.01305      -719.753 5        32.204
G17        34.000    22923300.698 7 120462805.86707     -2453.364 7        44.439                                    22923296.675 6  93867130.50206     -1911.712 6        39.835    22923296.729 6  93867130.52106     -1911.840 6        39.321
E11        35.000    25211100.090 6 132485285.69406     -2957.114 6        41.347                                                                    25211096.397 7  98933833.64107     -2208.255 7        43.676    25211096.061 7 101514708.99107     -2265.884 7        43.757
C32        36.000                                                                                                                                    26356380.649 6 137244608.73906     -3253.225 6        40.386                                                                    26356381.258 6 111522495.09006     -2643.299 6        39.892
C35        37.000                                                                                                                                    22859481.698 8 119035337.71908      -404.616 8        48.420                                                                    22859480.346 7  96725961.97507      -328.673 7        47.449
I09        38.000    37191434.700 7 145947173.86107      -493.231 7        42.758
C29        39.000                                                                                                                                    23788673.147 7 123873857.85507     -3398.537 7        46.329                                                                    23788671.059 7 100657649.09807     -2761.531 7        45.242
R22        40.000    21035191.346 8 112287314.53008      2485.673 8        50.421                                                                    21035189.833 7  87334592.66307      1933.358 7        46.084
S44        42.000    40558160.462 6 213134778.08806      -468.178 6        37.066
C09        43.000                                                                                                                                    38450122.823 7 200219903.93607        -6.849 7        42.214    38450119.583 7 154822721.38307        -5.273 7        46.666    38450117.633 6 162695053.63906        -5.527 6        41.940
C05        44.000                                                                                                                                    39033094.925 6 203255599.13706      -406.505 6        39.138    39033089.669 7 157170145.63407      -314.411 7        43.206    39033092.199 6 165161926.14606      -330.050 6        40.040
R06        45.000    19371395.523 6 103369534.58306       149.990 6        40.856
C44        46.000                                                                                                                                    25116556.504 6 130788533.75206      1984.469 6        40.546                                                                    25116555.458 6 106276400.24406      1612.554 6        41.402
C39        47.000                                                                                                                                    39043568.321 6 203310114.68006     -1034.148 6        41.752                                                                    39043563.880 7 165206111.12207      -840.261 7        42.059
C20        48.000                                                                                                                                    22232104.265 8 115768448.04608     -1729.037 8        51.305                                                                    22232098.536 8  94071338.95108     -1404.944 8        49.705
C06        49.000                                                                                                                                    38174754.417 6 198785988.80706      -519.635 6        41.321    38174749.120 7 153713919.65207      -401.897 7        44.760    38174748.672 6 161529878.41106      -422.213 6        41.521
C16        50.000                                                                                                                                    38665437.076 7 201341095.63207      -621.278 7        42.584    38665436.908 7 155689715.82307      -480.551 7        44.129    38665434.384 6 163606131.28506      -504.767 6        39.219
S48        51.000    77091588.349 6 405119660.82806      -385.686 6        37.788
C19        52.000                                                                                                                                    22316051.449 8 116205596.21708       869.918 8        50.505                                                                    22316046.661 8  94426568.99408       706.963 8        49.485
C60        54.000                                                                                                                                    40558164.940 6 211197208.61606      -464.136 6        38.664                                                                    40558150.177 6 171615000.44806      -376.944 6        39.907
C37        56.000                                                                                                                                    25239102.744 7 131426635.37907      1368.865 7        42.768                                                                    25239106.105 7 106794923.46307      1112.447 7        43.755
C02        57.000                                                                                                                                    40508619.260 5 210939053.24805      -451.864 5        34.686    40508613.095 6 163111449.30906      -349.280 6        40.710    40508616.583 5 171405261.89805      -366.714 5        35.886
I03        58.000   131634719.903 6 440777668.17406       953.414 6        39.937
R07        59.000    21909690.789 8 117284304.04608      2671.677 8        48.121                                                                    21909688.947 7  91221124.90607      2077.857 7        42.322
> 2025 01 01 02 15  5.0000000  0 53
G28         1.000    23878180.818 6 125480701.88906     -2675.711 6        41.139                                    23878177.050 4  97777151.99104     -2084.978 4        25.113    23878177.126 6  97777158.00506     -2084.960 6        39.456
G31         2.000    22178970.058 7 116551289.17107     -1113.410 7        45.705                                    22178964.865 7  90819174.62607      -867.591 7        42.436    22178965.926 6  90819173.62906      -867.606 6        40.946
G09         3.000    21531843.637 7 113150640.52507      2344.597 7        46.915                                    21531841.763 7  88169339.60307      1826.957 7        47.333    21531842.011 7  88169340.60907      1826.888 7        43.242
E34         4.000    25553424.996 7 134284165.26407      1974.956 7        43.426                                                                    25553425.436 7 100277143.97907      1474.759 7        46.231    25553425.176 7 102893068.81807      1513.308 7        46.802
S21         5.000    38342889.517 7 201493060.82207      -390.319 7        42.787
E05         6.000    24333761.955 7 127874813.20307      2211.475 7        42.741                                                                    24333762.223 7  95490958.39707      1651.451 7        45.609    24333761.699 7  97982019.31007      1694.487 7        46.114
G21         7.000    24708689.432 6 129845086.55406     -3686.558 6        36.023                                    24708685.423 3 101177989.94303     -2872.649 3        18.955
E04         8.000    24992790.826 7 131338024.96607     -2496.281 7        44.646                                                                    24992789.113 7  98077101.33007     -1863.994 7        47.779    24992788.652 8 100635626.37708     -1912.662 8        48.150
R14         9.000    23264647.581 7 124013657.03707     -1589.054 7        43.843                                                                    23264649.454 6  96455052.30606     -1235.839 6        38.832
G04        10.000    20191102.442 8 106105003.03908       759.975 8        48.204                                    20191099.027 6  82679232.28106       592.188 6        40.601    20191099.471 8  82679227.28408       592.154 8        48.012
E09        11.000    23355781.337 8 122735507.80308       -37.903 8        48.400                                                                    23355780.591 8  91653156.11508       -28.307 8        50.511    23355780.138 8  94044107.23808       -29.055 8        50.857
S27        12.000    38974491.545 6 204812296.51706      -381.496 6        36.197
G06        13.000    22921017.297 7 120450785.23307      2632.181 7        42.368                                    22921016.256 6  93857758.68706      2051.053 6        40.145    22921016.282 6  93857769.68006      2051.141 6        41.478
S36        14.000    38110308.506 7 200271522.94507      -390.267 7        44.238
E36        16.000    23304548.585 8 122466257.10708      -582.938 8        48.272                                                                    23304548.688 8  91452092.28508      -435.275 8        50.610    23304548.341 8  93837793.77008      -446.619 8        50.978
S45        17.000    63305222.434 6 332672702.71306      -429.856 6        37.406
G03        18.000    20094056.488 8 105595037.38708     -1444.142 8        49.303                                    20094054.656 8  82281866.76808     -1125.306 8        51.906    20094055.126 7  82281875.77307     -1125.318 7        45.803
R21        19.000    19530910.708 8 104513885.54408     -1967.343 8        52.725                                                                    19530909.321 7  81288587.01307     -1530.164 7        45.750
R20        20.000    22452361.899 5 120062896.73305     -4822.340 5        34.048                                                                    22452363.335 7  93382248.49307     -3750.732 7        42.389
R05        21.000    21542204.135 7 115155467.90807     -3634.078 7        47.347                                                                    21542203.718 7  89565368.63007     -2826.520 7        44.370
I06        22.000    37995717.979 7 149103586.65207      -210.543 7        42.533
S28        23.000    40778042.851 5 214290055.20205      -383.938 5        34.129
E10        24.000    27797629.631 6 146077640.39106     -3460.156 6        37.690                                                                    27797630.099 7 109084015.34607     -2583.912 7        42.574    27797630.035 7 111929676.26507     -2651.257 7        44.265
S23        25.000    38057321.786 7 199992588.63207      -386.128 7        44.304
E06        26.000    23519531.265 7 123596032.49107     -1336.323 7        47.725                                                                    23519530.815 8  92295738.27708      -997.892 8        50.404    23519530.776 8  94703451.67008     -1023.863 8        51.257
R15        27.000    22655442.373 7 121063821.41107      1666.756 7        45.884                                                                    22655442.607 6  94160762.08206      1296.315 6        41.561
C22        30.000                                                                                                                                    25899271.957 6 134864308.52906      2445.455 6        41.218                                                                    25899267.009 6 109588279.86306      1987.149 6        40.813
I01        31.000   334021999.984 7   7633262.52707     -2610.185 7        43.056
G02        32.000    22944552.128 7 120574466.90407     -3485.725 7        44.262                                    22944546.211 5  93954124.22805     -2716.151 5        32.251
G19        33.000    22227591.129 7 116806809.86607      -926.686 7        44.072                                    22227585.182 5  91018314.02305      -722.095 5        32.389
G17        34.000    22925635.999 7 120475077.43107     -2454.999 7        44.128                                    22925631.832 6  93876692.76106     -1912.991 6        39.955    22925631.755 6  93876692.75206     -1912.910 6        39.432
E11        35.000    25213914.147 6 132500073.88406     -2957.960 6        41.046                                                                    25213910.403 7  98944876.76407     -2208.877 7        43.831    25213910.199 7 101526040.19507     -2266.459 7        43.784
C32        36.000                                                                                                                                    26359504.094 6 137260873.28006     -3252.534 6        40.644                                                                    26359504.759 6 111535711.38506     -2642.928 6        40.272
C35        37.000                                                                                                                                    22859871.343 8 119037367.35008      -407.025 8        48.280                                                                    22859870.144 7  96727611.23107      -330.800 7        47.596
I09        38.000    37192062.538 7 145949639.24207      -492.943 7        42.667
C29        39.000                                                                                                                                    23791937.095 7 123890853.20607     -3399.312 7        46.830                                                                    23791934.914 7 100671459.23207     -2762.315 7        45.404
R22        40.000    21032864.334 8 112274893.23508      2483.088 8        50.278                                                                    21032862.834 7  87324931.66207      1931.342 7        46.013
S44        42.000    40558607.253 6 213137118.53106      -467.827 6        37.248
C09        43.000                                                                                                                                    38450129.682 7 200219939.56507        -7.161 7        42.322    38450126.447 7 154822748.92207        -5.479 7        46.729    38450124.515 7 162695082.60407        -5.911 7        42.053
C05        44.000                                                                                                                                    39033485.553 6 203257630.90606      -405.995 6        39.393    39033480.229 7 157171716.72007      -313.979 7        43.291    39033482.308 6 165163577.15606      -330.031 6        40.157
R06        45.000    19371256.440 6 103368790.50406       147.765 6        41.139
C44        46.000                                                                                                                                    25114651.728 6 130778615.70506      1982.955 6        40.696                                                                    25114650.691 6 106268341.03806      1611.285 6        41.847
C39        47.000                                                                                                                                    39044561.454 6 203315287.03106     -1034.499 6        41.945                                                                    39044557.157 7 165210314.07507      -840.561 7        42.286
C20        48.000                                                                                                                                    22233765.115 8 115777096.14608     -1729.923 8        51.509                                                                    22233759.309 8  94078366.25908     -1405.773 8        49.736
C06        49.000                                                                                                                                    38175254.001 6 198788588.70106      -520.049 6        41.509    38175248.220 7 153715930.04407      -402.125 7        44.625    38175247.922 6 161531991.04906      -422.547 6        41.661
C16        50.000                                                                                                                                    38666033.697 7 201344203.70507      -621.704 7        42.432    38666033.630 7 155692119.16407      -480.634 7        44.125    38666031.319 6 163608656.86706      -505.197 6        39.279
S48        51.000    77091949.911 6 405121589.59706      -385.474 6        37.191
C19        52.000                                                                                                                                    22315216.756 8 116201250.00108       868.896 8        50.521                                                                    22315212.008 8  94423037.35108       705.990 8        49.571
C60        54.000                                                                                                                                    40558610.086 6 211199527.77806      -463.508 6        38.862                                                                    40558595.586 6 171616884.98306      -376.774 6        40.095
C37        56.000                                                                                                                                    25237788.871 7 131419795.67607      1367.246 7        42.650                                                                    25237792.778 7 106789365.66807      1110.976 7        44.092
C02        57.000                                                                                                                                    40509053.065 5 210941310.66505      -451.093 5        34.652    40509046.342 6 163113194.89606      -348.953 6        40.257    40509049.968 6 171407096.25206      -366.623 6        36.095
I03        58.000   131633504.912 6 440772900.45506       953.855 6        39.721
R07        59.000    21907195.230 8 117270948.75308      2670.685 8        48.034                                                                    21907194.273 7  91210737.48007      2077.223 7        43.344
> 2025 01 01 02 15 10.0000000  0 53
G28         1.000    23880728.231 6 125494088.42606     -2678.807 6        41.313                                    23880724.269 4  97787583.06104     -2087.377 4        25.188    23880724.079 6  97787589.06906     -2087.393 6        39.384
G31         2.000    22180031.650 7 116556866.87707     -1117.557 7        45.979                                    22180026.267 7  90823520.89107      -870.822 7        42.571    22180027.311 6  90823519.89606      -870.870 6        41.430
G09         3.000    21529614.226 7 113138924.08507      2342.176 7        46.432                                    21529612.216 7  88160209.91007      1825.070 7        47.383    21529612.386 7  88160210.92507      1825.025 7        43.238
E34         4.000    25551546.923 7 134274294.84507      1973.290 7        43.518                                                                    25551547.198 7 100269773.20707      1473.604 7        46.202    25551546.892 7 102885505.77507      1511.996 7        46.807
S21         5.000    38343260.389 7 201495013.66707      -390.793 7        42.442
E05         6.000    24331658.500 7 127863760.26307      2209.908 7        42.510                                                                    24331658.984 7  95482704.59307      1650.212 7        45.743    24331658.429 7  97973550.18207      1693.288 7        46.182
G21         7.000    24712197.383 5 129863521.93005     -3687.373 5        35.871                                    24712193.813 3 101192355.17203     -2873.264 3        18.716
E04         8.000    24995166.405 7 131350509.89707     -2497.748 7        44.415                                                                    24995164.919 7  98086424.49707     -1865.139 7        47.762    24995164.522 8 100645192.75008     -1913.794 8        48.182
R14         9.000    23266140.289 7 124021613.62607     -1593.563 7        43.613                                                                    23266142.521 6  96461240.75106     -1239.512 6        39.504
G04        10.000    20190380.836 8 106101211.56308       756.769 8        48.011                                    20190377.513 6  82676277.88306       589.692 6        40.684    20190377.639 7  82676272.89007       589.651 7        47.974
E09        11.000    23355818.487 8 122735703.96408       -40.437 8        48.204                                                                    23355817.905 8  91653302.60008       -30.204 8        50.514    23355817.438 8  94044257.54608       -30.983 8        50.929
S27        12.000    38974852.539 5 204814206.12005      -382.000 5        35.938
G06        13.000    22918513.916 7 120437629.73507      2630.060 7        42.629                                    22918512.867 6  93847507.65306      2049.397 6        40.184    22918513.119 6  93847518.64506      2049.403 6        41.661
S36        14.000    38110679.995 7 200273475.84707      -390.750 7        44.150
E36        16.000    23305104.512 8 122469178.62508      -585.581 8        48.016                                                                    23305104.621 8  91454273.94008      -437.280 8        50.653    23305104.315 8  93840032.34008      -448.742 8        51.014
S45        17.000    63305589.751 6 332673254.11316      -430.428 6        37.342
G03        18.000    20095431.777 8 105602264.60408     -1446.713 8        49.684                                    20095429.966 8  82287498.36508     -1127.310 8        51.955    20095430.522 7  82287507.36407     -1127.311 7        45.839
R21        19.000    19532751.163 8 104523734.74808     -1972.277 8        52.563                                                                    19532749.913 7  81296247.50507     -1533.991 7        45.591
R20        20.000    22456871.196 5 120087013.42405     -4824.287 5        33.323                                                                    22456873.690 6  93401005.91706     -3752.190 6        41.883
R05        21.000    21545604.064 7 115173641.86807     -3635.399 7        47.320                                                                    21545603.382 7  89579503.92107     -2827.449 7        44.188
I06        22.000    37995986.925 7 149104640.94307      -211.018 7        42.493
S28        23.000    40778408.867 5 214291978.00905      -384.899 5        34.181
E10        24.000    27800922.868 6 146094944.18806     -3461.087 6        37.577                                                                    27800922.756 7 109096937.01407     -2584.742 7        42.493    27800922.684 7 111942935.01807     -2652.143 7        43.996
S23        25.000    38057690.391 7 199994521.65807      -386.811 7        44.101
E06        26.000    23520803.696 7 123602719.84107     -1338.557 7        47.621                                                                    23520803.342 8  92300732.08208      -999.582 8        50.368    23520803.326 8  94708575.74708     -1025.627 8        51.325
R15        27.000    22653884.819 7 121055498.07907      1662.770 7        46.041                                                                    22653884.539 6  94154288.39206      1293.170 6        41.235
C22        30.000                                                                                                                                    25896924.443 6 134852084.62206      2444.380 6        41.306                                                                    25896919.124 6 109578346.94906      1986.206 6        40.477
I01        31.000   334025326.400 7   7646315.07307     -2610.787 7        43.111
G02        32.000    22947869.577 7 120591900.76407     -3487.638 7        44.500                                    22947863.520 5  93967709.05705     -2717.641 5        32.186
G19        33.000    22228475.042 7 116811453.68107      -930.751 7        44.193                                    22228468.909 5  91021932.58005      -725.262 5        32.419
G17        34.000    22927972.942 7 120487359.34307     -2457.676 7        44.987                                    22927968.997 6  93886263.07706     -1915.074 6        39.985    22927969.149 6  93886263.08706     -1915.081 6        39.270
E11        35.000    25216729.426 6 132514868.41806     -2959.756 6        41.406                                                                    25216725.821 7  98955924.62407     -2210.201 7        43.888    25216725.558 7 101537376.26507     -2267.816 7        43.820
C32        36.000                                                                                                                                    26362627.407 6 137277137.77506     -3253.079 6        40.958                                                                    26362628.323 6 111548927.61606     -2643.355 6        40.458
C35        37.000                                                                                                                                    22860263.897 8 119039411.35808      -410.545 8        48.333                                                                    22860262.657 7  96729272.14107      -333.473 7        47.509
I09        38.000    37192691.264 7 145952105.27707      -493.415 7        42.599
C29        39.000                                                                                                                                    23795202.570 7 123907854.93207     -3401.208 7        46.338                                                                    23795199.935 7 100685274.51207     -2763.715 7        45.344
R22        40.000    21030540.585 8 112262487.63508      2479.316 8        50.611                                                                    21030538.667 7  87315282.86207      1928.420 7        45.190
S44        42.000    40559053.118 6 213139458.98306      -468.275 6        36.994
C09        43.000                                                                                                                                    38450137.490 7 200219979.32607        -8.578 7        42.425    38450134.062 7 154822779.67507        -6.659 7        46.846    38450132.063 6 162695114.90206        -6.949 6        41.819
C05        44.000                                                                                                                                    39033876.100 6 203259662.74606      -406.564 6        39.180    39033870.526 7 157173287.88507      -314.469 7        43.534    39033872.484 6 165165228.18706      -330.279 6        40.010
R06        45.000    19371119.454 6 103368059.36906       144.787 6        41.235
C44        46.000                                                                                                                                    25112749.481 6 130768707.03206      1980.604 6        41.661                                                                    25112747.937 6 106260289.42506      1609.377 6        41.681
C39        47.000                                                                                                                                    39045555.344 6 203320462.77506     -1035.702 6        41.831                                                                    39045551.159 7 165214519.78107      -841.569 7        42.123
C20        48.000                                                                                                                                    22235427.151 8 115785750.75108     -1731.793 8        51.320                                                                    22235421.374 8  94085398.82008     -1407.182 8        49.611
C06        49.000                                                                                                                                    38175754.579 6 198791192.71806      -521.477 6        41.518    38175748.395 7 153717943.64107      -403.182 7        44.667    38175748.085 6 161534107.02406      -423.751 6        41.590
C16        50.000                                                                                                                                    38666631.314 7 201347315.67907      -623.054 7        42.610    38666631.353 7 155694525.54107      -481.774 7        44.296    38666629.030 6 163611185.57706      -506.096 6        39.312
S48        51.000    77092314.147 6 405123518.26106      -386.244 6        37.410
C19        52.000                                                                                                                                    22314383.754 8 116196911.15908       866.788 8        50.598                                                                    22314378.816 8  94419511.67908       704.374 8        49.412
C60        54.000                                                                                                                                    40559055.719 6 211201846.95106      -464.186 6        39.003                                                                    40559040.709 6 171618769.47806      -377.076 6        39.889
C37        56.000                                                                                                                                    25236477.235 7 131412966.00607      1364.730 7        42.292                                                                    25236481.101 7 106783815.99707      1109.001 7        43.882
C02        57.000                                                                                                                                    40509486.240 5 210943568.17305      -451.636 5        34.638    40509480.067 6 163114940.54606      -349.372 6        40.524    40509483.608 6 171408930.64906      -366.870 6        36.060
I03        58.000   131632289.660 6 440768132.88506       953.390 6        39.694
R07        59.000    21904702.352 8 117257600.95308      2668.616 8        48.136                                                                    21904701.050 7  91200355.84307      2075.621 7        42.146
> 2025 01 01 02 15 15.0000000  0 53
G28         1.000    23883278.012 6 125507487.83406     -2680.831 6        40.198                                    23883273.971 4  97798024.17004     -2088.949 4        24.602    23883274.156 6  97798030.16406     -2089.021 6        39.799
G31         2.000    22181096.227 7 116562462.67007     -1120.892 7        45.893                                    22181091.130 7  90827881.24907      -873.421 7        42.565    22181091.783 6  90827880.25106      -873.335 6        40.832
G09         3.000    21527385.873 7 113127217.02407      2340.580 7        46.698                                    21527384.458 7  88151087.53007      1823.828 7        47.284    21527384.649 7  88151088.53807      1823.888 7        43.372
E34         4.000    25549669.646 7 134264429.99107      1972.465 7        43.319                                                                    25549670.005 7 100262406.61007      1472.948 7        46.316    25549669.741 7 102877947.00307      1511.304 7        46.860
S21         5.000    38343632.638 7 201496966.83107      -390.493 7        42.519
E05         6.000    24329556.257 7 127852712.55607      2209.129 7        42.718                                                                    24329556.679 7  95474454.69307      1649.559 7        45.901    24329556.120 7  97965085.06307      1692.669 7        46.188
G21         7.000    24715705.543 5 129881959.29205     -3687.549 5        35.833                                    24715702.051 3 101206721.92803     -2873.406 3        18.060
E04         8.000    24997543.320 7 131363000.30107     -2498.462 7        44.327                                                                    24997541.694 7  98095751.74607     -1865.765 7        47.903    24997541.375 8 100654763.32008     -1914.449 8        48.272
R14         9.000    23267637.604 7 124029590.38007     -1597.286 7        44.969                                                                    23267638.723 6  96467444.87806     -1242.353 6        39.243
G04        10.000    20189661.911 8 106097433.56608       754.386 8        48.133                                    20189658.601 6  82673333.99206       587.832 6        40.651    20189658.813 8  82673328.99008       587.779 8        48.071
E09        11.000    23355857.877 8 122735909.86208       -42.026 8        48.119                                                                    23355857.066 8  91653456.36108       -31.421 8        50.577    23355856.646 8  94044415.31108       -32.172 8        50.933
S27        12.000    38975213.842 5 204816115.76305      -381.796 5        35.933
G06        13.000    22916012.130 7 120424481.95507      2628.913 7        42.700                                    22916010.896 6  93837262.62906      2048.504 6        40.014    22916011.374 7  93837273.61307      2048.629 7        42.190
S36        14.000    38111051.864 7 200275429.00407      -390.770 7        44.265
E36        16.000    23305662.514 7 122472110.98307      -587.327 7        47.926                                                                    23305662.647 8  91456463.69008      -438.638 8        50.745    23305662.302 8  93842279.21408      -450.098 8        51.018
S45        17.000    63305953.338 6 332675405.60506      -430.167 6        37.214
G03        18.000    20096809.282 8 105609501.73008     -1448.325 8        49.551                                    20096807.141 8  82293137.68408     -1128.565 8        51.890    20096807.766 7  82293146.68607     -1128.623 7        46.084
R21        19.000    19534596.146 8 104533606.11608     -1976.345 8        52.364                                                                    19534595.233 7  81303925.24107     -1537.154 7        46.629
R20        20.000    22461380.414 5 120111136.82605     -4825.258 5        34.014                                                                    22461384.507 7  93419768.57107     -3752.923 7        42.093
R05        21.000    21549005.399 7 115191819.83207     -3635.900 7        47.823                                                                    21549004.250 7  89593642.34207     -2827.940 7        44.512
I06        22.000    37996255.591 7 149105695.52207      -210.885 7        42.612
S28        23.000    40778774.167 5 214293901.33205      -384.504 5        34.424
E10        24.000    27804216.076 6 146112250.60706     -3461.441 6        37.422                                                                    27804216.099 7 109109860.63007     -2584.892 7        42.519    27804215.926 7 111956195.77107     -2652.224 7        43.992
S23        25.000    38058057.574 7 199996454.91407      -386.761 7        44.290
E06        26.000    23522078.200 7 123609415.84307     -1340.044 7        47.521                                                                    23522077.568 8  92305732.34108     -1000.621 8        50.402    23522077.576 8  94713706.45108     -1026.743 8        51.287
R15        27.000    22652329.733 7 121047192.04607      1659.599 7        45.141                                                                    22652330.248 6  94147828.15006      1290.842 6        41.175
C22        30.000                                                                                                                                    25894577.260 6 134839863.06606      2444.216 6        41.375                                                                    25894571.922 6 109568415.93906      1986.017 6        40.589
I01        31.000   334028652.759 7   7659368.28907     -2610.703 7        43.130
G02        32.000    22951188.667 7 120609341.48107     -3488.735 7        45.115                                    22951182.166 5  93981299.22705     -2718.495 5        32.371
G19        33.000    22229361.692 7 116816115.05807      -933.956 7        44.655                                    22229355.923 5  91025564.81905      -727.758 5        32.437
G17        34.000    22930312.416 7 120499651.67207     -2459.422 7        44.537                                    22930308.166 6  93895841.51106     -1916.430 6        39.946    22930308.685 6  93895841.50806     -1916.389 6        39.652
E11        35.000    25219546.073 6 132529669.50506     -2960.680 6        41.280                                                                    25219542.473 7  98966977.39007     -2210.911 7        43.987    25219542.066 7 101548717.35607     -2268.547 7        43.892
C32        36.000                                                                                                                                    26365751.344 6 137293402.46106     -3252.870 6        41.344                                                                    26365751.937 6 111562143.99406     -2643.168 6        40.603
C35        37.000                                                                                                                                    22860659.393 8 119041469.96408      -413.065 8        48.449                                                                    22860658.009 7  96730944.91807      -335.570 7        47.595
I09        38.000    37193320.004 7 145954572.15607      -493.429 7        42.656
C29        39.000                                                                                                                                    23798468.096 7 123924863.26307     -3402.301 7        46.130                                                                    23798466.354 7 100699095.13807     -2764.560 7        45.421
R22        40.000    21028220.011 8 112250097.89008      2476.502 8        50.671                                                                    21028217.579 7  87305646.39807      1926.087 7        45.568
S44        42.000    40559495.447 6 213141799.67306      -468.249 6        36.994
C09        43.000                                                                                                                                    38450145.923 7 200220023.41207        -9.022 7        42.499    38450142.469 7 154822813.77307        -6.949 7        46.699    38450140.496 6 162695150.71906        -7.435 6        41.990
C05        44.000                                                                                                                                    39034265.279 6 203261694.93906      -406.519 6        39.066    39034260.590 7 157174859.28007      -314.263 7        43.380    39034262.584 6 165166879.48906      -330.256 6        40.124
R06        45.000    19370984.744 6 103367341.59306       142.447 6        41.082
C44        46.000                                                                                                                                    25110848.228 6 130758807.96406      1978.880 6        41.371                                                                    25110846.961 7 106252245.62407      1608.140 7        42.051
C39        47.000                                                                                                                                    39046549.940 6 203325642.18006     -1036.073 6        41.640                                                                    39046545.785 7 165218728.47407      -842.053 7        42.216
C20        48.000                                                                                                                                    22237090.376 8 115794412.08208     -1732.815 8        51.374                                                                    22237084.719 8  94092436.85508     -1408.043 8        49.786
C06        49.000                                                                                                                                    38176255.536 6 198793801.08106      -521.857 6        41.573    38176249.348 7 153719960.61107      -403.748 7        44.667    38176248.952 6 161536226.52706      -424.135 6        41.497
C16        50.000                                                                                                                                    38667229.979 7 201350431.78907      -623.511 7        42.845    38667229.657 7 155696935.12707      -482.207 7        44.209    38667227.395 6 163613717.68206      -506.666 6        39.354
S48        51.000    77092685.167 6 405125447.00706      -385.937 6        37.357
C19        52.000                                                                                                                                    22313551.865 8 116192579.93208       865.523 8        50.816                                                                    22313547.046 8  94415992.19108       703.384 8        49.531
C60        54.000                                                                                                                                    40559500.896 6 211204166.34306      -463.793 6        39.033                                                                    40559486.079 6 171620654.16306      -376.785 6        39.790
C37        56.000                                                                                                                                    25235168.069 7 131406146.62507      1362.911 7        42.332                                                                    25235171.323 7 106778274.68307      1107.509 7        43.975
C02        57.000                                                                                                                                    40509920.296 5 210945826.00505      -451.272 5        34.829    40509913.680 6 163116686.46106      -349.153 6        40.412    40509917.185 6 171410765.33606      -366.929 6        36.166
I03        58.000   131631075.202 6 440763365.65706       953.430 6        39.742
R07        59.000    21902209.872 7 117244260.76107      2667.384 7        47.886                                                                    21902208.137 7  91189980.15607      2074.634 7        42.790
> 2025 01 01 02 15 20.0000000  0 53
G28         1.000    23885829.820 6 125520899.42906     -2683.447 6        39.435                                    23885826.020 4  97808474.76404     -2090.997 4        24.632    23885826.126 6  97808480.74506     -2090.930 6        40.026
G31         2.000    22182164.234 7 116568075.83707     -1124.275 7        46.066                                    22182159.356 7  90832255.14407      -876.061 7        42.643    22182160.377 6  90832254.16006      -876.114 6        41.456
G09         3.000    21525160.160 7 113115518.64107      2338.885 7        46.779                                    21525158.310 7  88141971.91107      1822.508 7        47.307    21525158.606 7  88141972.92007      1822.426 7        43.295
E34         4.000    25547793.261 7 134254569.97207      1971.535 7        43.297                                                                    25547793.687 7 100255043.60807      1472.314 7        46.363    25547793.463 7 102870391.92307      1510.694 7        46.887
S21         5.000    38343998.698 7 201498919.48907      -390.458 7        42.597
E05         6.000    24327454.217 7 127841669.32307      2208.280 7        42.265                                                                    24327455.190 7  95466208.12407      1649.043 7        46.054    24327454.672 7  97956623.37207      1691.975 7        46.087
G21         7.000    24719215.107 5 129900397.83605     -3687.813 5        35.971                                    24719211.005 2 101221089.62102     -2873.600 2        17.962
E04         8.000    24999921.344 7 131375495.41407     -2499.340 7        44.328                                                                    24999919.385 8  98105082.51608     -1866.427 8        48.017    24999919.137 8 100664337.50308     -1915.137 8        48.198
R14         9.000    23269138.206 7 124037586.94707     -1601.283 7        44.730                                                                    23269138.906 6  96473664.38006     -1245.462 6        38.799
G04        10.000    20188945.551 8 106093668.31308       751.829 8        48.360                                    20188942.091 6  82670400.03306       585.840 6        40.644    20188942.299 8  82670395.02508       585.846 8        48.000
E09        11.000    23355898.589 8 122736124.76208       -43.837 8        48.286                                                                    23355897.998 8  91653616.83508       -32.760 8        50.736    23355897.526 8  94044579.98008       -33.616 8        50.875
S27        12.000    38975578.753 5 204818025.03005      -381.786 5        35.857
G06        13.000    22913511.231 7 120411341.13307      2627.521 7        42.203                                    22913510.266 6  93827023.02006      2047.417 6        40.172    22913511.140 6  93827034.02306      2047.398 6        41.387
S36        14.000    38111425.924 7 200277382.12507      -390.356 7        44.129
E36        16.000    23306222.488 8 122475053.47108      -589.438 8        48.005                                                                    23306222.592 8  91458660.99208      -440.169 8        50.884    23306222.237 8  93844533.83608      -451.633 8        50.966
S45        17.000    63306324.564 6 332677556.51706      -430.225 6        37.490
G03        18.000    20098187.952 8 105616748.03208     -1450.138 8        49.613                                    20098186.064 8  82298784.15408     -1129.976 8        51.899    20098186.783 7  82298793.15207     -1129.929 7        46.221
R21        19.000    19536444.757 8 104543498.90908     -1980.631 8        52.721                                                                    19536443.875 7  81311619.62707     -1540.470 7        46.513
R20        20.000    22465895.554 5 120135266.19505     -4826.470 5        33.623                                                                    22465896.897 6  93438535.82506     -3753.811 6        41.664
R05        21.000    21552405.939 7 115210001.17207     -3636.436 7        47.567                                                                    21552405.065 7  89607783.38107     -2828.461 7        44.560
I06        22.000    37996524.214 7 149106749.83007      -210.784 7        42.468
S28        23.000    40779139.463 5 214295823.87805      -384.390 5        34.124
E10        24.000    27807509.644 6 146129558.90206     -3461.805 6        37.573                                                                    27807509.774 7 109122785.64607     -2585.147 7        42.673    27807509.657 7 111969457.95807     -2652.452 7        43.676
S23        25.000    38058424.055 7 199998387.71207      -386.496 7        44.104
E06        26.000    23523353.836 7 123616119.74407     -1341.498 7        47.554                                                                    23523353.264 8  92310738.50408     -1001.762 8        50.557    23523353.268 8  94718843.20708     -1027.909 8        51.304
R15        27.000    22650778.645 7 121038902.83107      1656.179 7        45.857                                                                    22650779.390 6  94141380.99706      1288.112 6        40.973
C22        30.000                                                                                                                                    25892230.297 6 134827643.12306      2443.893 6        40.725                                                                    25892225.589 6 109558486.24906      1985.954 6        40.782
I01        31.000   334031978.835 7   7672421.66207     -2610.656 7        43.081
G02        32.000    22954508.589 7 120626788.33307     -3489.899 7        45.135                                    22954502.117 5  93994894.17905     -2719.405 5        32.653
G19        33.000    22230251.983 7 116820793.26107      -937.223 7        44.405                                    22230246.160 5  91029210.17605      -730.306 5        32.473
G17        34.000    22932653.273 7 120511953.76107     -2461.288 7        44.722                                    22932649.190 6  93905427.55006     -1917.887 6        39.973    22932649.531 6  93905427.57006     -1917.946 6        39.030
E11        35.000    25222363.517 6 132544476.44706     -2961.901 6        41.602                                                                    25222360.104 7  98978034.51007     -2211.687 7        44.020    25222359.594 7 101560062.93107     -2269.471 7        43.865
C32        36.000                                                                                                                                    26368874.935 6 137309666.58006     -3252.732 6        41.168                                                                    26368875.228 6 111575359.94106     -2642.930 6        40.887
C35        37.000                                                                                                                                    22861057.385 8 119043542.45708      -415.854 8        48.390                                                                    22861055.954 7  96732629.00207      -337.862 7        47.742
I09        38.000    37193948.631 7 145957039.30607      -493.466 7        42.707
C29        39.000                                                                                                                                    23801735.515 7 123941877.39507     -3403.397 7        46.023                                                                    23801733.828 7 100712920.52507     -2765.466 7        45.494
R22        40.000    21025901.863 8 112237723.34208      2473.433 8        50.679                                                                    21025899.811 7  87296021.76907      1923.776 7        45.603
S44        42.000    40559944.053 6 213144139.82706      -467.905 6        37.399
C09        43.000                                                                                                                                    38450154.983 7 200220071.13607        -9.942 7        42.324    38450151.765 7 154822850.66907        -7.655 7        46.634    38450149.708 6 162695189.50506        -7.971 6        41.983
C05        44.000                                                                                                                                    39034655.642 6 203263726.69906      -406.086 6        39.072    39034650.498 7 157176430.38207      -314.146 7        43.219    39034652.590 6 165168530.48006      -329.997 6        39.913
R06        45.000    19370852.779 6 103366636.26706       139.814 6        40.937
C44        46.000                                                                                                                                    25108948.756 6 130748917.75106      1977.275 6        41.104                                                                    25108947.636 7 106244209.02707      1606.717 7        42.093
C39        47.000                                                                                                                                    39047544.792 6 203330824.51606     -1036.685 6        41.652                                                                    39047540.922 7 165222939.54607      -842.303 7        42.250
C20        48.000                                                                                                                                    22238754.716 8 115803079.42108     -1734.055 8        51.261                                                                    22238749.172 8  94099479.77808     -1408.956 8        49.769
C06        49.000                                                                                                                                    38176756.991 6 198796413.09506      -522.710 6        41.714    38176750.735 7 153721980.37807      -404.165 7        44.585    38176750.417 6 161538349.00806      -424.580 6        41.704
C16        50.000                                                                                                                                    38667829.017 7 201353551.33207      -624.213 7        42.758    38667829.072 7 155699347.33807      -482.615 7        44.370    38667826.421 6 163616252.55906      -507.056 6        39.441
S48        51.000    77093050.230 6 405127375.39806      -385.733 6        37.225
C19        52.000                                                                                                                                    22312721.492 8 116188255.57608       864.291 8        50.814                                                                    22312716.527 8  94412478.31408       702.290 8        49.582
C60        54.000                                                                                                                                    40559946.305 6 211206485.23906      -463.640 6        39.069                                                                    40559931.479 6 171622538.46606      -376.700 6        39.946
C37        56.000                                                                                                                                    25233861.010 7 131399336.79007      1360.953 7        42.626                                                                    25233863.436 7 106772741.15107      1106.000 7        43.666
C02        57.000                                                                                                                                    40510354.272 5 210948083.40105      -451.359 5        34.929    40510347.222 6 163118432.00406      -348.962 6        40.660    40510350.468 6 171412599.64606      -366.541 6        36.268
I03        58.000   131629860.207 6 440758598.19406       953.364 6        39.871
R07        59.000    21899719.050 7 117230927.53907      2666.014 7        47.573                                                                    21899718.047 7  91179609.88307      2073.522 7        42.337
> 2025 01 01 02 15 25.0000000  0 53
G28         1.000    23888384.511 6 125534323.34006     -2685.947 6        39.802                                    23888380.559 4  97818934.94304     -2092.943 4        24.391    23888380.902 6  97818940.93706     -2092.968 6        39.925
G31         2.000    22183235.858 7 116573706.55007     -1127.741 7        45.190                                    22183230.949 7  90836642.72007      -878.759 7        42.618    22183231.764 6  90836641.72806      -878.902 6        41.859
G09         3.000    21522935.597 7 113103829.10007      2337.069 7        46.516                                    21522933.853 7  88132863.17907      1821.091 7        47.256    21522934.008 7  88132864.18807      1821.010 7        42.808
E34         4.000    25545917.953 7 134244715.00307      1970.509 7        43.655                                                                    25545918.279 7 100247684.38107      1471.524 7        46.374    25545918.031 7 102862840.71507      1509.830 7        46.867
S21         5.000    38344380.047 7 201500872.05707      -390.596 7        43.058
E05         6.000    24325353.627 7 127830630.77207      2207.364 7        42.413                                                                    24325354.562 7  95457965.05607      1648.302 7        45.992    24325354.107 7  97948165.27107      1691.315 7        46.214
G21         7.000    24722723.962 6 129918837.73706     -3687.798 6        36.034                                    24722720.147 3 101235458.38003     -2873.603 3        18.149
E04         8.000    25002299.815 7 131387995.45807     -2500.312 7        44.318                                                                    25002298.067 8  98114416.95908     -1867.183 8        48.010    25002297.870 8 100673915.46108     -1915.939 8        48.294
R14         9.000    23270640.998 7 124045603.14607     -1605.031 7        44.665                                                                    23270643.004 6  96479899.17006     -1248.457 6        39.634
G04        10.000    20188231.456 8 106089915.97508       749.252 8        48.223                                    20188228.062 6  82667476.13506       583.832 6        40.615    20188228.256 8  82667471.13308       583.849 8        48.033
E09        11.000    23355941.313 8 122736348.85408       -45.693 8        48.522                                                                    23355940.643 8  91653784.18008       -34.128 8        50.736    23355940.182 8  94044751.68508       -35.016 8        50.929
S27        12.000    38975940.709 5 204819934.13105      -381.612 5        35.976
G06        13.000    22911012.018 6 120398207.50506      2626.246 6        41.995                                    22911010.969 6  93816789.02306      2046.426 6        40.133    22911011.650 6  93816800.03606      2046.262 6        41.924
S36        14.000    38111793.881 7 200279335.22307      -390.633 7        44.378
E36        16.000    23306784.216 8 122478006.24708      -591.532 8        48.122                                                                    23306784.463 8  91460865.99308      -441.789 8        50.828    23306784.136 8  93846796.35708      -453.280 8        51.015
S45        17.000    63306691.657 6 332679707.24606      -430.014 6        37.486
G03        18.000    20099568.657 8 105624003.69908     -1452.006 8        49.697                                    20099566.776 8  82304437.92308     -1131.434 8        51.835    20099567.279 7  82304446.93007     -1131.493 7        46.100
R21        19.000    19538297.603 8 104553413.24208     -1984.979 8        52.684                                                                    19538296.142 7  81319330.77107     -1543.942 7        46.622
R20        20.000    22470408.567 5 120159401.52805     -4827.519 5        33.737                                                                    22470410.502 6  93457307.75406     -3754.809 6        41.528
R05        21.000    21555807.505 7 115228185.90807     -3637.312 7        47.136                                                                    21555807.126 7  89621927.07707     -2829.041 7        44.309
I06        22.000    37996792.762 7 149107804.02907      -210.964 7        42.518
S28        23.000    40779507.097 5 214297746.03305      -384.268 5        34.348
E10        24.000    27810803.706 6 146146869.23306     -3462.112 6        38.165                                                                    27810803.850 7 109135712.18507     -2585.341 7        42.813    27810803.616 7 111982721.72007     -2652.804 7        43.680
S23        25.000    38058794.658 7 200000320.05507      -386.351 7        44.336
E06        26.000    23524631.039 7 123622831.74407     -1343.175 7        47.798                                                                    23524630.525 8  92315750.71408     -1003.008 8        50.504    23524630.491 8  94723986.17208     -1029.198 8        51.334
R15        27.000    22649231.590 7 121030630.49807      1652.773 7        46.380                                                                    22649231.515 6  94134946.97206      1285.463 6        41.538
C22        30.000                                                                                                                                    25889884.454 6 134815424.97906      2443.715 6        40.739                                                                    25889879.285 6 109548558.05206      1985.376 6        40.713
I01        31.000   334035304.985 7   7685475.34707     -2610.697 7        43.263
G02        32.000    22957829.391 7 120644241.50307     -3491.173 7        44.695                                    22957823.442 5  94008494.04705     -2720.396 5        32.796
G19        33.000    22231145.309 7 116825488.51107      -940.543 7        44.506                                    22231139.635 5  91032868.80605      -732.890 5        32.341
G17        34.000    22934996.273 7 120524265.97607     -2463.393 7        44.462                                    22934992.150 6  93915021.48506     -1919.527 6        39.943    22934992.717 6  93915021.47506     -1919.435 6        39.727
E11        35.000    25225182.480 6 132559289.38506     -2963.078 6        41.063                                                                    25225178.791 7  98989096.13007     -2212.655 7        43.852    25225178.369 7 101571413.11507     -2270.453 7        43.793
C32        36.000                                                                                                                                    26371997.895 6 137325930.32606     -3252.502 6        40.641                                                                    26371998.653 6 111588575.59206     -2643.213 6        41.070
C35        37.000                                                                                                                                    22861458.049 8 119045628.99608      -418.588 8        48.456                                                                    22861456.630 7  96734324.50107      -340.277 7        47.666
I09        38.000    37194577.514 7 145959506.86207      -493.468 7        42.809
C29        39.000                                                                                                                                    23805004.346 7 123958897.52907     -3404.492 7        45.484                                                                    23805002.299 7 100726750.79307     -2766.589 7        45.502
R22        40.000    21023586.537 8 112225364.20208      2470.308 8        51.043                                                                    21023584.380 7  87286409.11107      1921.318 7        45.959
S44        42.000    40560393.268 6 213146479.69506      -467.991 6        37.233
C09        43.000                                                                                                                                    38450165.062 7 200220122.62007       -10.476 7        42.186    38450161.616 7 154822890.49907        -8.271 7        46.665    38450159.496 7 162695231.37407        -8.729 7        42.042
C05        44.000                                                                                                                                    39035046.395 6 203265758.23606      -406.128 6        39.102    39035040.642 7 157178001.29707      -314.060 7        43.179    39035042.819 6 165170181.30706      -330.526 6        39.937
R06        45.000    19370723.358 6 103365943.72506       137.461 6        40.789
C44        46.000                                                                                                                                    25107051.545 6 130739036.62306      1975.410 6        41.769                                                                    25107050.021 7 106236179.82207      1604.992 7        42.171
C39        47.000                                                                                                                                    39048540.587 6 203336009.96206     -1037.315 6        41.659                                                                    39048536.790 7 165227153.16607      -843.005 7        42.330
C20        48.000                                                                                                                                    22240420.466 8 115811752.92908     -1735.256 8        51.280                                                                    22240414.824 8  94106527.73508     -1410.182 8        49.747
C06        49.000                                                                                                                                    38177258.780 6 198799028.93306      -523.580 6        41.650    38177253.099 7 153724003.10407      -404.746 7        44.521    38177252.807 6 161540474.60206      -425.563 6        41.616
C16        50.000                                                                                                                                    38668429.511 7 201356674.46807      -625.012 7        42.654    38668428.915 7 155701762.35607      -483.319 7        44.283    38668426.223 6 163618790.37006      -507.860 6        39.321
S48        51.000    77093414.779 6 405129303.49006      -385.314 6        37.728
C19        52.000                                                                                                                                    22311892.356 8 116183938.29808       862.831 8        50.672                                                                    22311887.503 8  94408970.19108       700.973 8        49.589
C60        54.000                                                                                                                                    40560391.379 6 211208803.81806      -463.548 6        38.856                                                                    40560376.674 6 171624422.52706      -376.854 6        40.038
C37        56.000                                                                                                                                    25232554.988 7 131392536.70407      1359.137 7        43.520                                                                    25232557.552 7 106767215.55407      1104.230 7        43.554
C02        57.000                                                                                                                                    40510787.017 5 210950340.58905      -451.301 5        34.586    40510780.549 6 163120177.41006      -349.114 6        40.400    40510783.965 6 171414433.80506      -366.788 6        36.204
I03        58.000   131628645.283 6 440753830.64006       953.539 6        39.763
R07        59.000    21897230.089 8 117217601.60008      2664.593 8        48.202                                                                    21897228.905 7  91169245.26407      2072.568 7        43.164
> 2025 01 01 02 15 30.0000000  0 53
G28         1.000    23890941.752 6 125547759.75206     -2688.364 6        40.412                                    23890937.496 4  97829404.86404     -2094.830 4        24.692    23890937.805 6  97829410.87206     -2094.905 6        39.883
G31         2.000    22184310.603 7 116579355.01107     -1131.234 7        45.529                                    22184305.905 7  90841044.11707      -881.479 7        42.648    22184306.443 6  90841043.12906      -881.542 6        41.287
G09         3.000    21520712.961 7 113092148.61507      2335.323 7        46.261                                    21520711.112 7  88123761.50407      1819.732 7        47.302    21520711.287 7  88123762.50407      1819.775 7        42.787
E34         4.000    25544043.884 7 134234865.26707      1969.596 7        43.634                                                                    25544043.923 7 100240329.06307      1470.779 7        46.372    25544043.703 7 102855293.51507      1509.190 7        46.718
S21         5.000    38344751.898 7 201502824.74107      -390.285 7        42.882
E05         6.000    24323254.359 7 127819597.09307      2206.507 7        42.527                                                                    24323254.861 7  95449725.63207      1647.658 7        45.935    24323254.437 7  97939710.89907      1690.692 7        45.949
G21         7.000    24726233.286 5 129937279.24805     -3688.207 5        35.805                                    24726229.575 3 101249828.37503     -2873.929 3        18.119
E04         8.000    25004679.525 7 131400500.61407     -2501.398 7        44.221                                                                    25004677.874 7  98123755.22407     -1867.970 7        47.877    25004677.463 8 100683497.32408     -1916.665 8        48.103
R14         9.000    23272148.469 7 124053639.44807     -1609.044 7        44.378                                                                    23272150.323 6  96486149.63506     -1251.549 6        39.961
G04        10.000    20187519.945 8 106086176.76808       746.721 8        48.275                                    20187516.511 6  82664562.46806       581.863 6        40.634    20187516.837 8  82664557.46708       581.856 8        48.434
E09        11.000    23355985.862 8 122736582.33108       -47.396 8        48.168                                                                    23355985.058 8  91653958.52908       -35.420 8        50.613    23355984.629 8  94044930.58708       -36.373 8        50.773
S27        12.000    38976306.841 6 204821843.36006      -381.300 6        36.242
G06        13.000    22908514.276 7 120385081.25507      2624.722 7        42.265                                    22908513.112 6  93806560.78206      2045.237 6        40.160    22908513.846 6  93806571.78906      2045.273 6        41.793
S36        14.000    38112167.409 7 200281288.50107      -390.197 7        44.000
E36        16.000    23307348.098 7 122480969.52307      -593.530 7        47.973                                                                    23307348.419 8  91463078.82908      -443.215 8        50.709    23307348.019 8  93849066.92108      -454.786 8        50.858
S45        17.000    63307054.373 6 332681857.83006      -429.832 6        37.444
G03        18.000    20100951.359 8 105631268.92108     -1453.807 8        49.872                                    20100949.290 8  82310099.13308     -1132.837 8        51.888    20100949.467 7  82310108.13307     -1132.778 7        45.959
R21        19.000    19540154.288 8 104563349.31508     -1989.210 8        52.504                                                                    19540152.905 7  81327058.82607     -1547.235 7        46.728
R20        20.000    22474922.701 5 120183543.15205     -4828.777 5        32.994                                                                    22474925.504 7  93476084.56207     -3755.635 7        42.061
R05        21.000    21559209.973 7 115246374.42507     -3637.856 7        46.551                                                                    21559209.027 7  89636073.69007     -2829.436 7        44.095
I06        22.000    37997061.439 7 149108858.21407      -210.649 7        42.550
S28        23.000    40779874.128 5 214299667.99105      -384.098 5        34.310
E10        24.000    27814098.277 6 146164181.83306     -3462.495 6        38.189                                                                    27814098.329 7 109148640.41407     -2585.665 7        42.751    27814098.245 7 111995987.20407     -2653.073 7        43.329
S23        25.000    38059159.905 7 200002252.28807      -386.316 7        44.239
E06        26.000    23525909.812 7 123629552.03307     -1344.685 7        47.586                                                                    23525909.410 8  92320769.10808     -1004.124 8        50.439    23525909.351 8  94729135.48308     -1030.338 8        51.134
R15        27.000    22647687.080 7 121022375.43807      1649.523 7        46.555                                                                    22647686.967 6  94128526.37906      1282.906 6        41.387
C22        30.000                                                                                                                                    25887538.390 6 134803208.89006      2443.214 6        41.099                                                                    25887533.368 6 109538631.46906      1985.075 6        40.975
I01        31.000   334038631.995 7   7698529.47107     -2610.693 7        43.225
G02        32.000    22961151.721 7 120661701.19207     -3492.373 7        44.676                                    22961146.085 5  94022098.99205     -2721.330 5        32.653
G19        33.000    22232041.966 7 116830201.01807      -943.968 7        44.298                                    22232036.401 5  91036540.88405      -735.556 5        32.275
G17        34.000    22937341.068 7 120536588.37207     -2465.255 7        43.841                                    22937337.038 6  93924623.34806     -1920.976 6        39.916    22937337.146 6  93924623.34806     -1921.029 6        40.093
E11        35.000    25228002.370 6 132574108.54606     -2964.242 6        40.312                                                                    25227998.833 7  99000162.38207     -2213.629 7        43.869    25227998.310 7 101582768.05007     -2271.258 7        43.608
C32        36.000                                                                                                                                    26375121.087 6 137342193.92206     -3252.545 6        40.262                                                                    26375122.056 6 111601791.07406     -2643.017 6        41.347
C35        37.000                                                                                                                                    22861861.695 8 119047729.81208      -421.410 8        48.330                                                                    22861860.125 7  96736031.57507      -342.554 7        47.739
I09        38.000    37195206.495 7 145961974.98507      -493.382 7        42.834
C29        39.000                                                                                                                                    23808273.929 7 123975923.88107     -3405.656 7        45.681                                                                    23808271.889 7 100740586.08007     -2767.532 7        45.485
R22        40.000    21021274.103 8 112213020.65008      2467.267 8        50.445                                                                    21021271.771 7  87276808.55207      1919.088 7        45.400
S44        42.000    40560837.524 6 213148819.40306      -467.555 6        37.270
C09        43.000                                                                                                                                    38450175.277 7 200220178.13707       -11.281 7        42.036    38450172.125 7 154822933.42007        -8.675 7        46.531    38450170.170 7 162695276.47007        -9.360 7        42.047
C05        44.000                                                                                                                                    39035436.446 6 203267789.77506      -406.086 6        38.871    39035431.010 7 157179572.20407      -314.000 7        43.401    39035432.969 6 165171832.06306      -330.144 6        40.167
R06        45.000    19370595.295 6 103365263.98606       134.974 6        40.594
C44        46.000                                                                                                                                    25105155.591 6 130729164.74906      1973.762 6        41.440                                                                    25105154.157 6 106228158.10006      1603.582 6        41.943
C39        47.000                                                                                                                                    39049536.916 6 203341198.67706     -1037.892 6        41.626                                                                    39049533.127 7 165231369.42307      -843.448 7        42.229
C20        48.000                                                                                                                                    22242087.406 8 115820432.81308     -1736.388 8        51.191                                                                    22242081.743 8  94113580.84208     -1411.117 8        49.773
C06        49.000                                                                                                                                    38177762.092 6 198801648.73706      -524.187 6        41.437    38177756.351 7 153726028.91207      -405.382 7        44.564    38177756.047 6 161542603.40806      -426.194 6        41.759
C16        50.000                                                                                                                                    38669030.019 7 201359801.38107      -625.635 7        42.663    38669029.265 7 155704180.28707      -483.755 7        44.250    38669026.733 6 163621331.24706      -508.358 6        39.453
S48        51.000    77093781.448 6 405131231.36606      -385.621 6        37.713
C19        52.000                                                                                                                                    22311064.525 8 116179628.28308       861.477 8        50.481                                                                    22311059.772 8  94405467.93408       699.915 8        49.591
C60        54.000                                                                                                                                    40560837.021 6 211211122.27806      -463.480 6        38.874                                                                    40560821.980 6 171626306.46006      -376.902 6        40.072
C37        56.000                                                                                                                                    25231250.920 7 131385746.58507      1357.197 7        43.619                                                                    25231253.558 7 106761698.01607      1102.698 7        43.627
C02        57.000                                                                                                                                    40511220.170 5 210952597.64805      -450.913 5        34.467    40511214.207 6 163121922.71306      -348.854 6        40.691    40511217.614 6 171416267.84706      -366.819 6        36.106
I03        58.000   131627430.094 6 440749063.13406       953.556 6        40.117
R07        59.000    21894741.724 7 117204282.58907      2663.201 7        47.969                                                                    21894740.423 7  91158886.04407      2071.405 7        42.648
> 2025 01 01 02 15 35.0000000  0 53
G28         1.000    23893501.254 6 125561208.75406     -2690.975 6        40.815                                    23893496.891 4  97839884.60904     -2096.867 4        24.977    23893496.722 6  97839890.61806     -2096.790 6        39.844
G31         2.000    22185389.029 7 116585021.27407     -1134.854 7        45.568                                    22185384.255 7  90845459.39107      -884.301 7        42.622    22185384.652 6  90845458.39606      -884.322 6        41.256
G09         3.000    21518491.966 7 113080477.27207      2333.558 7        46.406                                    21518490.088 7  88114666.95407      1818.358 7        47.264    21518490.213 7  88114667.96007      1818.249 7        42.736
E34         4.000    25542170.751 7 134225020.85607      1968.455 7        43.238                                                                    25542170.567 7 100232977.71707      1469.997 7        46.421    25542170.325 7 102847750.39207      1508.374 7        46.692
S21         5.000    38345118.241 7 201504777.25307      -390.393 7        42.959
E05         6.000    24321155.615 7 127808568.38707      2205.473 7        42.434                                                                    24321156.042 7  95441489.91407      1646.893 7        45.959    24321155.780 7  97931260.33307      1689.924 7        46.022
G21         7.000    24729743.670 6 129955722.37506     -3688.504 6        36.310                                    24729739.190 3 101264199.65403     -2874.159 3        18.328
E04         8.000    25007060.216 7 131413010.92107     -2502.415 7        44.205                                                                    25007058.494 8  98133097.33408     -1868.677 8        48.015    25007058.143 8 100693083.14208     -1917.387 8        48.066
R14         9.000    23273660.049 7 124061695.88907     -1613.135 7        44.695                                                                    23273661.268 6  96492415.76406     -1254.634 6        39.282
G04        10.000    20186810.932 8 106082450.77208       744.029 8        48.122                                    20186807.495 6  82661659.09506       579.764 6        40.594    20186807.572 8  82661654.09308       579.753 8        48.477
E09        11.000    23356031.961 8 122736825.27308       -49.378 8        48.113                                                                    23356031.264 8  91654139.94408       -36.880 8        50.722    23356030.849 8  94045116.73608       -37.837 8        50.693
S27        12.000    38976666.963 5 204823752.14305      -381.495 5        35.719
G06        13.000    22906018.327 7 120371962.50907      2623.144 7        42.760                                    22906016.690 6  93796338.39006      2044.008 6        40.231    22906017.031 6  93796349.38806      2044.022 6        41.621
S36        14.000    38112542.037 7 200283240.58907      -389.972 7        44.018
E36        16.000    23307914.036 7 122483943.39007      -595.658 7        47.870                                                                    23307914.287 8  91465299.57208      -444.786 8        50.865    23307913.940 8  93851345.59808      -456.439 8        50.791
S45        17.000    63307422.857 6 332684008.41606      -429.908 6        37.603
G03        18.000    20102335.678 8 105638543.79908     -1455.809 8        49.847                                    20102333.659 8  82315767.86808     -1134.397 8        51.826    20102334.096 7  82315776.86807     -1134.353 7        45.824
R21        19.000    19542015.184 8 104573307.14608     -1993.586 8        52.566                                                                    19542013.807 7  81334803.80307     -1550.516 7        46.398
R20        20.000    22479439.032 5 120207691.21005     -4830.097 5        34.138                                                                    22479441.487 7  93494866.35607     -3756.708 7        42.203
R05        21.000    21562613.297 7 115264566.67907     -3638.618 7        46.925                                                                    21562612.923 7  89650223.22007     -2829.969 7        44.098
I06        22.000    37997330.215 7 149109912.50707      -210.794 7        42.595
S28        23.000    40780235.408 5 214301590.07405      -384.316 5        34.005
E10        24.000    27817393.223 6 146181496.75206     -3463.057 6        38.222                                                                    27817393.351 7 109161570.38207     -2586.020 7        42.919    27817393.160 7 112009254.47407     -2653.585 7        43.244
S23        25.000    38059527.401 7 200004184.37307      -386.301 7        44.245
E06        26.000    23527190.250 7 123636280.67607     -1346.402 7        47.539                                                                    23527189.744 8  92325793.74608     -1005.420 8        50.521    23527189.753 8  94734291.19508     -1031.631 8        51.089
R15        27.000    22646144.968 7 121014137.48407      1646.062 7        45.953                                                                    22646144.603 6  94122119.06506      1280.319 6        40.870
C22        30.000                                                                                                                                    25885192.760 6 134790994.85806      2442.827 6        41.128                                                                    25885187.675 6 109528706.56806      1984.911 6        40.808
I01        31.000   334041958.731 7   7711584.10207     -2610.807 7        43.274
G02        32.000    22964475.698 7 120679167.45307     -3493.746 7        44.861                                    22964469.793 5  94035709.06205     -2722.396 5        32.485
G19        33.000    22232942.528 7 116834930.81807      -947.485 7        44.558                                    22232936.400 5  91040226.44405      -738.298 5        32.263
G17        34.000    22939687.607 7 120548921.06307     -2467.425 7        44.141                                    22939683.879 6  93934233.23106     -1922.668 6        39.796    22939683.941 6  93934233.22006     -1922.657 6        39.817
E11        35.000    25230823.937 6 132588933.98306     -2965.486 6        40.591                                                                    25230819.902 7  99011233.31007     -2214.581 7        43.793    25230819.539 7 101594127.78907     -2272.254 7        43.509
C32        36.000                                                                                                                                    26378244.435 6 137358457.39706     -3252.386 6        40.136                                                                    26378245.255 6 111615006.48106     -2642.989 6        41.178
C35        37.000                                                                                                                                    22862267.845 8 119049844.94008      -424.269 8        48.295                                                                    22862266.293 7  96737750.28107      -344.834 7        47.622
I09        38.000    37195835.633 7 145964443.73507      -493.618 7        42.827
C29        39.000                                                                                                                                    23811545.104 7 123992956.50607     -3407.065 7        45.523                                                                    23811542.770 7 100754426.47207     -2768.404 7        45.264
R22        40.000    21018964.204 8 112200692.77808      2464.212 8        50.442                                                                    21018962.647 7  87267220.23707      1916.553 7        45.561
S44        42.000    40561279.155 6 213151159.09006      -467.413 6        36.911
C09        43.000                                                                                                                                    38450186.951 7 200220237.70107       -12.150 7        42.191    38450183.474 7 154822979.47607        -9.398 7        46.500    38450181.635 7 162695324.86007        -9.787 7        42.049
C05        44.000                                                                                                                                    39035826.336 6 203269821.34606      -406.112 6        38.925    39035821.133 7 157181143.13407      -314.018 7        43.137    39035823.359 6 165173482.86806      -330.036 6        40.114
R06        45.000    19370471.098 6 103364597.26806       132.301 6        40.584
C44        46.000                                                                                                                                    25103260.949 6 130719302.27806      1971.577 6        40.851                                                                    25103260.088 6 106220144.00406      1602.171 6        41.364
C39        47.000                                                                                                                                    39050533.937 6 203346390.79006     -1038.639 6        41.707                                                                    39050530.303 7 165235588.43607      -843.933 7        42.186
C20        48.000                                                                                                                                    22243755.657 8 115829119.13908     -1737.732 8        51.233                                                                    22243749.790 8  94120639.18408     -1412.082 8        49.711
C06        49.000                                                                                                                                    38178266.100 6 198804272.65406      -525.000 6        41.461    38178260.050 7 153728057.88907      -405.960 7        44.473    38178259.995 6 161544735.54506      -426.570 6        41.661
C16        50.000                                                                                                                                    38669630.857 7 201362932.17107      -626.420 7        42.413    38669630.286 7 155706601.21007      -484.339 7        44.331    38669627.898 6 163623875.26306      -508.914 6        39.201
S48        51.000    77094145.214 6 405133159.09806      -385.279 6        37.890
C19        52.000                                                                                                                                    22310238.215 8 116175325.61108       859.954 8        50.595                                                                    22310233.523 8  94401971.66008       698.766 8        49.479
C60        54.000                                                                                                                                    40561282.050 6 211213440.70706      -463.491 6        38.751                                                                    40561267.376 6 171628190.37106      -376.616 6        39.838
C37        56.000                                                                                                                                    25229948.078 7 131378966.51607      1355.156 7        43.536                                                                    25229951.663 7 106756188.65607      1101.219 7        43.367
C02        57.000                                                                                                                                    40511653.904 5 210954854.80105      -451.218 5        34.352    40511647.628 6 163123668.08706      -348.889 6        40.551    40511650.771 6 171418101.95806      -366.612 6        36.034
I03        58.000   131626215.385 6 440744295.73006       953.588 6        40.048
R07        59.000    21892255.425 8 117190971.18908      2661.732 8        48.273                                                                    21892254.022 7  91148532.73507      2070.235 7        42.667
> 2025 01 01 02 15 40.0000000  0 53
G28         1.000    23896062.296 6 125574669.73706     -2693.438 6        40.532                                    23896058.510 4  97850373.69204     -2098.789 4        24.992    23896058.149 6  97850379.69706     -2098.785 6        39.360
G31         2.000    22186470.627 7 116590704.76507     -1138.417 7        44.930                                    22186465.873 7  90849888.09107      -887.076 7        42.643    22186466.397 6  90849887.09906      -887.119 6        41.640
G09         3.000    21516272.972 7 113068814.52407      2331.644 7        46.587                                    21516270.706 7  88105579.10507      1816.867 7        47.261    21516270.833 7  88105580.09707      1816.943 7        43.100
E34         4.000    25540298.280 7 134215181.20707      1967.493 7        43.316                                                                    25540298.185 7 100225629.93607      1469.181 7        46.334    25540297.945 7 102840210.92907      1507.556 7        46.805
S21         5.000    38345490.722 7 201506729.07307      -390.260 7        42.736
E05         6.000    24319057.586 7 127797544.07107      2204.481 7        42.591                                                                    24319058.169 7  95433257.47507      1646.179 7        45.964    24319057.895 7  97922813.13707      1689.134 7        46.115
G21         7.000    24733253.369 6 129974166.58106     -3688.799 6        36.272                                    24733248.850 3 101278571.73603     -2874.400 3        18.746
E04         8.000    25009441.787 7 131425525.83707     -2503.433 7        44.155                                                                    25009440.024 7  98142442.89207     -1869.507 7        47.931    25009439.613 8 100702672.50008     -1918.304 8        48.139
R14         9.000    23275175.765 7 124069771.72007     -1617.168 7        44.513                                                                    23275177.140 6  96498696.93006     -1257.808 6        39.435
G04        10.000    20186104.169 8 106078737.41908       741.375 8        48.303                                    20186100.858 6  82658765.57906       577.694 6        40.682    20186100.932 8  82658760.57808       577.682 8        48.641
E09        11.000    23356079.813 8 122737077.11508       -51.269 8        48.384                                                                    23356079.203 8  91654328.01108       -38.258 8        50.694    23356078.715 8  94045309.70508       -39.246 8        50.781
S27        12.000    38977032.809 5 204825660.45605      -381.531 5        35.776
G06        13.000    22903523.221 7 120358850.65507      2621.722 7        42.269                                    22903521.605 6  93786121.36106      2042.900 6        40.300    22903522.188 6  93786132.37006      2042.884 6        41.940
S36        14.000    38112908.781 7 200285191.84407      -390.262 7        44.060
E36        16.000    23308481.927 8 122486927.27308      -597.761 8        48.130                                                                    23308482.089 8  91467527.79708      -446.376 8        50.828    23308481.767 8  93853631.94808      -458.008 8        50.866
S45        17.000    63307789.118 6 332686158.24506      -429.813 6        37.641
G03        18.000    20103721.714 8 105645827.74708     -1457.691 8        49.839                                    20103719.746 8  82321443.67508     -1135.863 8        51.845    20103720.337 7  82321452.67407     -1135.794 7        45.830
R21        19.000    19543880.080 8 104583286.29008     -1997.958 8        52.724                                                                    19543878.271 7  81342565.35207     -1553.929 7        46.086
R20        20.000    22483955.765 5 120231844.92305     -4831.242 5        34.614                                                                    22483958.446 7  93513652.57807     -3757.651 7        42.464
R05        21.000    21566017.861 7 115282762.06807     -3639.443 7        47.604                                                                    21566016.797 7  89664375.19607     -2830.701 7        44.026
I06        22.000    37997598.825 7 149110966.45907      -210.761 7        42.762
S28        23.000    40780603.405 5 214303511.50705      -384.203 5        34.186
E10        24.000    27820688.544 6 146198813.42406     -3463.538 6        38.489                                                                    27820688.596 7 109174501.65407     -2586.352 7        42.889    27820688.520 7 112022523.08607     -2653.813 7        43.429
S23        25.000    38059895.724 7 200006115.94807      -386.267 7        44.218
E06        26.000    23528472.204 7 123643017.10407     -1348.038 7        47.590                                                                    23528471.678 8  92330824.19308     -1006.630 8        50.496    23528471.698 8  94739452.87108     -1032.909 8        51.228
R15        27.000    22644605.999 7 121005916.13007      1642.588 7        45.929                                                                    22644606.304 6  94115724.71706      1277.573 6        41.731
C22        30.000                                                                                                                                    25882847.696 6 134778782.36806      2442.311 6        41.321                                                                    25882842.404 6 109518782.94306      1984.573 6        40.939
I01        31.000   334045285.172 7   7724638.83507     -2610.958 7        43.293
G02        32.000    22967800.725 7 120696639.72707     -3495.076 7        45.305                                    22967794.632 5  94049323.81805     -2723.434 5        32.629
G19        33.000    22233845.647 7 116839677.31607      -950.988 7        44.450                                    22233839.614 5  91043925.01605      -741.028 5        32.275
G17        34.000    22942036.829 7 120561263.44607     -2469.430 7        44.635                                    22942032.501 6  93943850.67006     -1924.230 6        39.838    22942032.047 6  93943850.67806     -1924.193 6        39.018
E11        35.000    25233645.918 6 132603765.11406     -2966.835 6        41.225                                                                    25233642.269 7  99022308.51607     -2215.625 7        43.826    25233641.926 7 101605491.90007     -2273.269 7        43.663
C32        36.000                                                                                                                                    26381367.590 6 137374720.21406     -3252.472 6        40.126                                                                    26381368.357 6 111628221.35006     -2642.884 6        41.371
C35        37.000                                                                                                                                    22862676.517 8 119051973.86308      -427.173 8        48.084                                                                    22862675.168 7  96739480.21007      -347.097 7        47.836
I09        38.000    37196464.759 7 145966912.68707      -493.767 7        43.009
C29        39.000                                                                                                                                    23814816.720 7 124009994.81507     -3408.165 7        46.006                                                                    23814814.799 7 100768271.50707     -2769.484 7        45.445
R22        40.000    21016657.942 8 112188380.08008      2460.928 8        50.506                                                                    21016655.868 7  87257643.68407      1914.109 7        45.431
S44        42.000    40561725.597 6 213153498.18906      -467.624 6        37.043
C09        43.000                                                                                                                                    38450199.244 7 200220300.73907       -13.002 7        42.148    38450195.758 7 154823028.23207       -10.197 7        46.451    38450193.777 7 162695376.09407       -10.504 7        42.222
C05        44.000                                                                                                                                    39036216.570 6 203271852.41706      -406.152 6        39.204    39036211.067 7 157182713.68807      -313.977 7        43.158    39036213.258 6 165175133.29606      -330.065 6        40.184
R06        45.000    19370348.517 6 103363942.99206       129.621 6        41.168
C44        46.000                                                                                                                                    25101368.730 6 130709448.61906      1969.856 6        40.853                                                                    25101367.782 7 106212137.11307      1600.679 7        42.072
C39        47.000                                                                                                                                    39051531.944 6 203351585.71106     -1039.337 6        41.726                                                                    39051528.011 7 165239809.75007      -844.508 7        42.521
C20        48.000                                                                                                                                    22245424.960 8 115837811.34508     -1738.998 8        51.102                                                                    22245419.052 8  94127702.32408     -1413.106 8        49.885
C06        49.000                                                                                                                                    38178770.853 6 198806900.07906      -525.953 6        41.204    38178764.645 7 153730089.57207      -406.580 7        44.713    38178764.687 6 161546870.55206      -427.366 6        41.838
C16        50.000                                                                                                                                    38670232.160 7 201366066.26707      -627.183 7        42.383    38670232.076 7 155709024.68507      -484.973 7        44.176    38670229.938 6 163626421.99406      -509.787 6        39.649
S48        51.000    77094508.949 6 405135086.33506      -385.261 6        37.221
C19        52.000                                                                                                                                    22309413.354 8 116171029.73208       858.501 8        50.672                                                                    22309408.529 8  94398480.91708       697.615 8        49.721
C60        54.000                                                                                                                                    40561727.214 6 211215758.52206      -463.562 6        38.820                                                                    40561712.361 6 171630073.80206      -376.655 6        40.114
C37        56.000                                                                                                                                    25228647.367 7 131372195.94007      1353.187 7        43.541                                                                    25228651.457 7 106750687.03707      1099.505 7        43.699
C02        57.000                                                                                                                                    40512087.052 5 210957111.45605      -451.651 5        34.300    40512080.602 6 163125413.04306      -348.986 6        40.431    40512084.322 6 171419935.65606      -366.654 6        36.231
I03        58.000   131625000.798 6 440739528.02806       953.637 6        40.126
R07        59.000    21889769.380 8 117177666.49608      2660.138 8        48.148                                                                    21889768.777 7  91138184.65007      2069.018 7        42.684
> 2025 01 01 02 15 45.0000000  0 53
G28         1.000    23898626.709 6 125588143.22306     -2695.588 6        41.156                                    23898622.404 4  97860872.50604     -2100.458 4        24.812    23898622.358 6  97860878.50606     -2100.515 6        39.562
G31         2.000    22187555.646 7 116596406.02907     -1141.754 7        45.264                                    22187550.836 7  90854330.63807      -889.680 7        42.605    22187550.861 6  90854329.64006      -889.694 6        41.692
G09         3.000    21514055.566 7 113057160.84407      2330.143 7        45.958                                    21514053.080 7  88096498.31707      1815.693 7        47.291    21514053.724 7  88096499.33207      1815.591 7        43.274
E34         4.000    25538426.502 7 134205346.84107      1966.659 7        43.244                                                                    25538426.753 7 100218286.07907      1468.657 7        46.274    25538426.577 7 102832675.50307      1506.899 7        46.742
S21         5.000    38345864.527 7 201508680.88807      -390.080 7        42.889
E05         6.000    24316960.733 7 127786524.66207      2203.695 7        42.504                                                                    24316961.194 7  95425028.69607      1645.578 7        45.713    24316960.945 7  97914369.69607      1688.495 7        46.159
G21         7.000    24736763.085 6 129992612.38006     -3689.182 6        36.673                                    24736758.815 3 101292945.09203     -2874.684 3        18.507
E04         8.000    25011823.855 7 131438045.85607     -2504.113 7        44.072                                                                    25011822.487 7  98151792.25307     -1869.973 7        47.859    25011822.100 8 100712265.75708     -1918.861 8        48.177
R14         9.000    23276694.213 7 124077867.57407     -1620.864 7        44.199                                                                    23276695.759 6  96504993.67406     -1260.610 6        40.102
G04        10.000    20185400.294 8 106075037.20308       738.995 8        48.341                                    20185396.734 6  82655882.29806       575.839 6        40.627    20185396.725 8  82655877.30308       575.863 8        48.291
E09        11.000    23356129.797 8 122737338.34208       -52.926 8        48.179                                                                    23356128.938 8  91654523.08708       -39.556 8        50.660    23356128.485 8  94045509.86508       -40.568 8        50.832
S27        12.000    38977391.813 5 204827568.44505      -381.291 5        35.738
G06        13.000    22901029.539 6 120345746.25406      2620.425 6        41.969                                    22901027.924 6  93775910.13906      2041.887 6        40.319    22901028.504 6  93775921.13906      2041.883 6        41.414
S36        14.000    38113282.301 7 200287143.72107      -389.900 7        44.217
E36        16.000    23309051.874 8 122489921.68408      -599.675 8        48.079                                                                    23309051.920 8  91469763.87808      -447.808 8        50.801    23309051.550 8  93855926.36208      -459.503 8        50.862
S45        17.000    63308157.272 6 332686707.94216      -429.740 6        37.198
G03        18.000    20105109.651 8 105653121.24608     -1459.268 8        49.824                                    20105107.648 8  82327126.92108     -1137.092 8        51.831    20105107.956 7  82327135.93007     -1137.193 7        45.661
R21        19.000    19545748.656 8 104593287.24908     -2002.127 8        52.880                                                                    19545747.471 7  81350343.86907     -1557.130 7        46.243
R20        20.000    22488474.303 5 120256004.77405     -4832.135 5        34.643                                                                    22488475.686 7  93532443.59207     -3758.500 7        42.118
R05        21.000    21569422.323 8 115300961.28608     -3639.972 8        48.123                                                                    21569420.983 7  89678530.13207     -2831.031 7        43.570
I06        22.000    37997867.249 7 149112020.44207      -210.551 7        42.542
S28        23.000    40780968.200 5 214305432.91505      -383.886 5        34.109
E10        24.000    27823984.184 6 146216132.33906     -3463.664 6        38.526                                                                    27823984.290 7 109187434.59807     -2586.540 7        42.827    27823984.164 7 112035793.41807     -2654.000 7        43.653
S23        25.000    38060261.637 7 200008047.39707      -385.982 7        44.196
E06        26.000    23529755.477 7 123649761.82307     -1349.491 7        47.578                                                                    23529755.171 8  92335860.83508     -1007.755 8        50.511    23529755.184 8  94744620.90308     -1034.072 8        51.243
R15        27.000    22643070.917 7 120997712.11707      1639.354 7        45.962                                                                    22643071.290 6  94109343.81806      1275.133 6        41.712
C22        30.000                                                                                                                                    25880502.962 6 134766571.89906      2442.091 6        40.975                                                                    25880497.575 6 109508860.93906      1984.225 6        40.808
I01        31.000   334048612.383 7   7737694.00707     -2610.760 7        43.069
G02        32.000    22971127.017 7 120714118.44607     -3496.160 7        45.240                                    22971120.791 5  94062943.60005     -2724.287 5        32.689
G19        33.000    22234751.970 7 116844441.04907      -954.177 7        44.728                                    22234746.191 5  91047637.01105      -743.514 5        32.335
G17        34.000    22944387.562 7 120573616.01207     -2471.226 7        44.309                                    22944383.067 6  93953476.04806     -1925.631 6        39.823    22944383.157 6  93953476.05006     -1925.752 6        39.057
E11        35.000    25236469.522 6 132618602.44406     -2967.873 6        41.087                                                                    25236465.857 7  99033388.33107     -2216.270 7        43.795    25236465.534 7 101616860.75807     -2274.033 7        43.744
C32        36.000                                                                                                                                    26384490.645 6 137390982.87906     -3252.194 6        40.231                                                                    26384491.246 6 111641436.09306     -2642.892 6        40.894
C35        37.000                                                                                                                                    22863087.910 8 119054117.04908      -429.804 8        48.314                                                                    22863086.737 7  96741221.71107      -349.325 7        47.664
I09        38.000    37197093.952 7 145969382.21107      -493.678 7        42.692
C29        39.000                                                                                                                                    23818090.317 7 124027039.30207     -3409.253 7        46.775                                                                    23818088.044 7 100782121.54907     -2770.403 7        45.350
R22        40.000    21014354.326 8 112176083.00508      2458.113 8        50.359                                                                    21014352.079 7  87248079.28607      1911.943 7        45.303
S44        42.000    40562171.047 6 213155837.20806      -467.673 6        37.369
C09        43.000                                                                                                                                    38450212.025 7 200220367.79207       -13.519 7        42.282    38450208.534 7 154823080.07107       -10.412 7        46.372    38450206.619 7 162695430.57907       -10.997 7        42.057
C05        44.000                                                                                                                                    39036606.978 6 203273883.46706      -405.808 6        39.324    39036600.966 7 157184284.22807      -313.961 7        43.124    39036603.514 6 165176783.66906      -329.920 6        40.126
R06        45.000    19370228.105 6 103363301.66206       127.252 6        41.347
C44        46.000                                                                                                                                    25099478.773 6 130699604.31306      1968.156 6        41.237                                                                    25099477.501 6 106204137.81306      1599.276 6        41.845
C39        47.000                                                                                                                                    39052529.955 6 203356783.94406     -1039.709 6        41.886                                                                    39052526.297 7 165244033.72807      -844.807 7        42.427
C20        48.000                                                                                                                                    22247095.041 8 115846509.93208     -1740.086 8        51.338                                                                    22247089.559 8  94134770.63208     -1414.067 8        49.849
C06        49.000                                                                                                                                    38179275.984 6 198809531.52306      -526.404 6        41.337    38179270.135 7 153732124.37907      -407.068 7        44.572    38179269.760 6 161549008.80806      -427.805 6        41.630
C16        50.000                                                                                                                                    38670834.705 7 201369204.15707      -627.747 7        42.561    38670834.661 7 155711451.09707      -485.388 7        44.054    38670832.439 6 163628971.76306      -510.146 6        39.312
S48        51.000    77094877.948 6 405137013.34806      -385.118 6        37.448
C19        52.000                                                                                                                                    22308589.803 8 116166741.11308       857.275 8        50.816                                                                    22308584.961 8  94394996.05908       696.526 8        49.576
C60        54.000                                                                                                                                    40562172.489 6 211218076.25506      -463.250 6        39.114                                                                    40562157.515 6 171631957.12706      -376.407 6        39.985
C37        56.000                                                                                                                                    25227348.810 7 131365435.38107      1351.400 7        43.496                                                                    25227353.182 7 106745193.51307      1097.944 7        43.545
C02        57.000                                                                                                                                    40512521.211 5 210959368.03905      -451.300 5        34.638    40512514.385 6 163127157.98306      -348.848 6        40.725    40512517.899 6 171421769.33206      -366.808 6        36.276
I03        58.000   131623785.627 6 440734760.41406       953.721 6        39.736
R07        59.000    21887285.859 8 117164369.43708      2659.013 8        48.205                                                                    21887284.433 6  91127842.48806      2068.161 6        41.762
> 2025 01 01 02 15 50.0000000  0 53
G28         1.000    23901192.530 6 125601628.84306     -2698.499 6        41.249                                    23901188.427 4  97871380.77104     -2102.723 4        24.902    23901188.952 6  97871386.77206     -2102.755 6        39.643
G31         2.000    22188643.925 7 116602124.71107     -1145.604 7        45.678                                    22188639.104 7  90858786.75507      -892.679 7        42.531    22188639.213 7  90858785.76807      -892.800 7        42.055
G09         3.000    21511839.437 7 113045515.95607      2327.908 7        46.663                                    21511837.137 7  88087424.38107      1813.954 7        47.198    21511837.703 7  88087425.37907      1813.880 7        43.215
E34         4.000    25536556.195 7 134195517.41407      1965.167 7        43.501                                                                    25536556.264 7 100210945.93107      1467.492 7        46.251    25536556.046 7 102825143.86507      1505.862 7        46.895
S21         5.000    38346230.928 7 201510632.54807      -390.423 7        42.764
E05         6.000    24314864.726 7 127775509.80707      2202.378 7        42.516                                                                    24314865.185 7  95416803.33407      1644.559 7        45.682    24314864.915 7  97905929.75407      1687.451 7        46.151
G21         7.000    24740273.030 6 130011059.43606     -3689.685 6        37.066                                    24740269.208 3 101307319.40603     -2875.091 3        18.657
E04         8.000    25014207.133 7 131450570.63507     -2505.704 7        44.054                                                                    25014205.882 7  98161145.17107     -1871.067 7        47.696    25014205.361 8 100721862.66308     -1919.910 8        48.173
R14         9.000    23278216.185 7 124085982.98807     -1625.252 7        43.039                                                                    23278216.849 6  96511305.64606     -1263.976 6        39.108
G04        10.000    20184698.593 8 106071349.80508       736.038 8        48.313                                    20184695.024 6  82653009.00006       573.536 6        40.584    20184695.056 8  82653003.99308       573.536 8        48.141
E09        11.000    23356181.278 8 122737608.61908       -55.117 8        48.311                                                                    23356180.348 8  91654724.91608       -41.143 8        50.497    23356179.907 8  94045716.96408       -42.231 8        50.891
S27        12.000    38977757.578 5 204829476.55105      -381.509 5        35.890
G06        13.000    22898537.009 6 120332648.95406      2618.450 6        41.878                                    22898535.598 6  93765704.45106      2040.348 6        40.191    22898536.281 6  93765715.46106      2040.292 6        41.690
S36        14.000    38113651.987 7 200289093.35107      -390.091 7        44.167
E36        16.000    23309623.546 8 122492926.27308      -602.168 8        48.047                                                                    23309623.664 8  91472007.56508      -449.665 8        50.651    23309623.348 8  93858228.57708      -461.346 8        50.933
S45        17.000    63308522.836 6 332688857.20306      -430.203 6        37.512
G03        18.000    20106499.315 8 105660423.99708     -1461.615 8        50.024                                    20106497.308 8  82332817.37608     -1138.920 8        51.728    20106497.815 7  82332826.38407     -1138.918 7        45.688
R21        19.000    19547621.674 8 104603309.50408     -2006.753 8        52.809                                                                    19547620.567 7  81358138.96407     -1560.867 7        46.513
R20        20.000    22492992.922 5 120280170.51705     -4833.871 5        34.362                                                                    22492994.945 6  93551239.14006     -3759.748 6        41.998
R05        21.000    21572826.875 7 115319163.84407     -3641.045 7        47.500                                                                    21572826.154 7  89692687.68107     -2831.874 7        43.589
I06        22.000    37998135.682 7 149113074.20807      -210.859 7        42.506
S28        23.000    40781329.726 5 214307354.00005      -384.171 5        34.267
E10        24.000    27827280.274 6 146233453.16106     -3464.600 6        38.679                                                                    27827280.410 7 109200368.97007     -2587.089 7        42.567    27827280.212 7 112049065.20607     -2654.530 7        43.839
S23        25.000    38060629.227 7 200009978.30707      -386.417 7        44.119
E06        26.000    23531040.623 7 123656514.47007     -1351.451 7        47.468                                                                    23531040.143 8  92340903.40008     -1009.243 8        50.291    23531040.160 8  94749795.01408     -1035.592 8        51.270
R15        27.000    22641538.366 7 120989524.95907      1635.517 7        45.430                                                                    22641538.615 6  94102976.05306      1272.112 6        41.187
C22        30.000                                                                                                                                    25878157.927 6 134754363.11606      2441.463 6        41.709                                                                    25878152.985 6 109498940.31106      1983.898 6        40.937
I01        31.000   334051938.797 7   7750749.39507     -2611.149 7        42.808
G02        32.000    22974454.008 7 120731603.30607     -3497.805 7        44.807                                    22974448.143 5  94076568.16205     -2725.559 5        32.593
G19        33.000    22235662.069 7 116849221.64207      -957.946 7        44.686                                    22235655.889 5  91051362.14405      -746.447 5        32.245
G17        34.000    22946739.943 7 120585978.38807     -2473.564 7        44.935                                    22946735.530 6  93963109.06106     -1927.452 6        39.733    22946735.996 6  93963109.07206     -1927.526 6        39.153
E11        35.000    25239293.817 6 132633445.62906     -2969.276 6        41.678                                                                    25239290.472 7  99044472.52607     -2217.416 7        43.846    25239290.022 7 101628234.11907     -2275.291 7        43.814
C32        36.000                                                                                                                                    26387613.607 6 137407245.02606     -3252.526 6        40.315                                                                    26387614.096 6 111654650.41106     -2642.918 6        40.930
C35        37.000                                                                                                                                    22863502.319 8 119056274.16208      -432.980 8        48.334                                                                    22863500.921 7  96742974.54707      -351.777 7        47.707
I09        38.000    37197723.327 7 145971852.06407      -494.174 7        42.639
C29        39.000                                                                                                                                    23821364.660 7 124044089.63907     -3410.806 7        46.543                                                                    23821362.512 7 100795976.34107     -2771.589 7        45.404
R22        40.000    21012053.394 8 112163801.29308      2454.701 8        50.588                                                                    21012051.767 7  87238526.85007      1909.217 7        46.036
S44        42.000    40562618.312 6 213158175.71706      -467.627 6        37.202
C09        43.000                                                                                                                                    38450225.314 7 200220438.52807       -14.796 7        42.106    38450221.970 7 154823134.76907       -11.358 7        46.243    38450220.227 7 162695488.05507       -11.937 7        42.123
C05        44.000                                                                                                                                    39036996.658 6 203275914.16906      -406.272 6        39.315    39036991.164 7 157185854.48807      -314.110 7        43.122    39036993.328 6 165178433.77706      -330.018 6        40.281
R06        45.000    19370109.971 6 103362672.93406       124.352 6        41.273
C44        46.000                                                                                                                                    25097590.183 6 130689769.00006      1966.062 6        41.132                                                                    25097588.662 6 106196145.82406      1597.615 6        41.700
C39        47.000                                                                                                                                    39053528.646 6 203361985.14806     -1040.662 6        41.940                                                                    39053525.127 7 165248260.13907      -845.653 7        42.337
C20        48.000                                                                                                                                    22248766.818 8 115855214.54608     -1741.736 8        51.353                                                                    22248761.161 8  94141843.84408     -1415.257 8        49.951
C06        49.000                                                                                                                                    38179781.637 6 198812166.65006      -527.615 6        41.328    38179776.291 7 153734162.02007      -407.913 7        44.593    38179775.969 6 161551150.06206      -428.574 6        41.764
C16        50.000                                                                                                                                    38671438.392 7 201372345.49807      -628.828 7        42.499    38671437.657 7 155713880.19307      -486.307 7        43.663    38671435.574 6 163631524.37006      -510.856 6        39.544
S48        51.000    77095239.693 6 405138939.87106      -385.389 6        37.444
C19        52.000                                                                                                                                    22307767.370 8 116162459.44808       855.466 8        50.801                                                                    22307762.695 8  94391516.85508       695.119 8        49.660
C60        54.000                                                                                                                                    40562617.071 6 211220393.54406      -463.696 6        38.949                                                                    40562602.348 6 171633840.11206      -376.684 6        39.919
C37        56.000                                                                                                                                    25226051.749 7 131358684.49307      1349.043 7        42.736                                                                    25226056.526 7 106739707.86607      1096.181 7        43.439
C02        57.000                                                                                                                                    40512954.292 5 210961624.27205      -451.431 5        34.548    40512947.765 6 163128902.64006      -349.185 6        40.293    40512950.953 6 171423602.69206      -366.865 6        36.295
I03        58.000   131622570.334 6 440729992.61606       953.337 6        39.805
R07        59.000    21884803.284 8 117151079.07608      2657.197 8        48.151                                                                    21884801.548 6  91117505.52406      2066.698 6        41.826
> 2025 01 01 02 15 55.0000000  0 53
G28         1.000    23903760.793 6 125615127.14306     -2701.115 6        41.097                                    23903757.034 4  97881898.92404     -2104.767 4        25.158    23903757.397 6  97881904.92406     -2104.730 6        39.892
G31         2.000    22189735.431 7 116607861.35607     -1149.308 7        45.989                                    22189730.797 7  90863256.87107      -895.565 7        42.518    22189730.827 6  90863255.87706      -895.584 6        41.754
G09         3.000    21509625.155 7 113033880.33507      2326.045 7        46.684                                    21509622.950 7  88078357.66507      1812.503 7        47.242    21509623.059 7  88078358.66407      1812.487 7        42.811
E34         4.000    25534686.883 7 134185693.46707      1964.048 7        43.928                                                                    25534686.859 7 100203609.86807      1466.636 7        46.269    25534686.624 7 102817616.43207      1504.800 7        47.033
S21         5.000    38346606.173 7 201512584.10607      -390.509 7        42.845
E05         6.000    24312769.559 7 127764500.08507      2201.211 7        42.753                                                                    24312770.160 7  95408581.78807      1643.724 7        45.636    24312769.812 7  97897493.73507      1686.616 7        46.287
G21         7.000    24743784.313 6 130029508.21106     -3690.099 6        36.590                                    24743779.996 3 101321695.07003     -2875.408 3        19.343
E04         8.000    25016591.984 7 131463100.68307     -2506.709 7        44.138                                                                    25016590.291 7  98170502.03307     -1872.014 7        47.877    25016589.821 8 100731463.61508     -1920.789 8        48.345
R14         9.000    23279741.943 7 124094118.72607     -1629.394 7        42.590                                                                    23279744.113 6  96517633.44106     -1267.187 6        39.952
G04        10.000    20183999.311 8 106067675.74608       733.317 8        48.223                                    20183995.873 6  82650146.09906       571.417 6        40.567    20183995.854 8  82650141.09708       571.419 8        48.031
E09        11.000    23356234.447 8 122737888.49508       -57.139 8        48.500                                                                    23356233.594 8  91654933.91508       -42.670 8        50.638    23356233.120 8  94045931.41708       -43.810 8        51.024
S27        12.000    38978122.056 5 204831384.30705      -381.885 5        35.952
G06        13.000    22896046.180 7 120319559.30807      2616.978 7        42.622                                    22896044.734 6  93755504.73506      2039.206 6        40.241    22896045.229 6  93755515.74906      2039.110 6        41.852
S36        14.000    38114021.460 7 200291044.28407      -390.441 7        44.021
E36        16.000    23310197.405 8 122495941.59208      -604.347 8        48.198                                                                    23310197.446 8  91474259.26208      -451.288 8        50.702    23310197.113 8  93860539.01708      -463.046 8        51.119
S45        17.000    63308886.334 6 332691006.62506      -430.062 6        37.414
G03        18.000    20107890.914 8 105667736.51108     -1463.665 8        50.122                                    20107888.832 8  82338515.43908     -1140.519 8        51.753    20107889.470 7  82338524.43907     -1140.535 7        45.777
R21        19.000    19549498.858 8 104613353.71908     -2011.222 8        52.853                                                                    19549497.340 7  81365951.13407     -1564.311 7        46.451
R20        20.000    22497512.471 5 120304342.73505     -4835.320 5        33.587                                                                    22497515.018 7  93570039.74307     -3760.718 7        42.188
R05        21.000    21576232.635 7 115337370.20207     -3641.876 7        47.144                                                                    21576232.344 7  89706848.18507     -2832.520 7        43.962
I06        22.000    37998404.314 7 149114128.15907      -210.980 7        42.447
S28        23.000    40781699.323 5 214309274.89005      -384.230 5        34.157
E10        24.000    27830576.712 6 146250776.41206     -3465.037 6        38.739                                                                    27830576.926 7 109213305.15807     -2587.526 7        42.692    27830576.904 7 112062338.87307     -2655.080 7        44.095
S23        25.000    38060997.026 7 200011909.32707      -386.341 7        44.110
E06        26.000    23532327.134 7 123663275.60707     -1353.263 7        47.854                                                                    23532326.719 8  92345952.30008     -1010.559 8        50.426    23532326.751 8  94754975.62208     -1036.903 8        51.461
R15        27.000    22640009.668 7 120981355.07207      1632.062 7        45.675                                                                    22640010.069 6  94096621.68406      1269.367 6        40.937
C22        30.000                                                                                                                                    25875813.700 6 134742156.56006      2440.924 6        40.987                                                                    25875808.749 6 109489021.50706      1983.348 6        40.734
I01        31.000   334055265.817 7   7763805.38907     -2611.448 7        42.944
G02        32.000    22977782.130 7 120749094.83307     -3499.110 7        44.686                                    22977776.810 5  94090197.91905     -2726.577 5        32.509
G19        33.000    22236574.607 7 116854019.65007      -961.554 7        44.429                                    22236568.874 5  91055100.85205      -749.261 5        32.222
G17        34.000    22949094.267 7 120598351.15607     -2475.812 7        45.096                                    22949089.991 6  93972750.17806     -1929.209 6        39.778    22949090.665 6  93972750.17606     -1929.083 6        39.781
E11        35.000    25242119.720 6 132648295.21806     -2970.748 6        41.933                                                                    25242116.235 7  99055561.51007     -2218.464 7        43.968    25242115.629 7 101639612.36707     -2276.241 7        43.964
C32        36.000                                                                                                                                    26390736.560 6 137423507.20806     -3252.664 6        39.805                                                                    26390737.085 6 111667864.77306     -2643.151 6        40.622
C35        37.000                                                                                                                                    22863919.384 8 119058445.75308      -435.926 8        48.302                                                                    22863917.994 7  96744739.14907      -354.346 7        47.487
I09        38.000    37198352.878 7 145974322.64807      -494.386 7        42.809
C29        39.000                                                                                                                                    23824639.707 7 124061146.34207     -3412.083 7        46.604                                                                    23824638.182 7 100809836.31007     -2772.763 7        45.263
R22        40.000    21009755.861 8 112151535.49308      2451.386 8        50.938                                                                    21009754.145 7  87228986.78507      1906.647 7        46.035
S44        42.000    40563061.825 6 213160514.34606      -467.787 6        37.543
C09        43.000                                                                                                                                    38450239.375 6 200220513.43406       -15.516 6        41.733    38450236.254 7 154823192.71107       -12.173 7        46.196    38450234.688 6 162695548.93906       -12.772 6        41.981
C05        44.000                                                                                                                                    39037387.070 6 203277945.06106      -406.593 6        39.168    39037381.063 7 157187424.88907      -314.123 7        43.158    39037383.267 6 165180084.03806      -330.401 6        40.019
R06        45.000    19369994.754 6 103362057.15206       121.673 6        41.566
C44        46.000                                                                                                                                    25095703.130 6 130679943.23906      1964.043 6        40.667                                                                    25095701.703 6 106188161.59406      1595.898 6        41.881
C39        47.000                                                                                                                                    39054528.247 7 203367189.83907     -1041.487 7        42.030                                                                    39054524.548 7 165252489.37907      -846.374 7        42.262
C20        48.000                                                                                                                                    22250439.873 8 115863925.72108     -1743.115 8        51.249                                                                    22250434.068 8  94148922.39908     -1416.526 8        49.698
C06        49.000                                                                                                                                    38180288.684 6 198814805.97706      -528.369 6        41.175    38180283.278 7 153736202.91807      -408.645 7        44.834    38180282.757 6 161553294.73706      -429.497 6        41.511
C16        50.000                                                                                                                                    38672042.510 7 201375490.84607      -629.575 7        42.796    38672041.872 7 155716312.38207      -486.906 7        43.725    38672039.715 6 163634080.23606      -511.921 6        39.225
S48        51.000    77095609.930 6 405140866.25906      -385.553 6        37.429
C19        52.000                                                                                                                                    22306946.660 8 116158185.25908       853.919 8        50.656                                                                    22306941.913 8  94388043.73608       693.771 8        49.453
C60        54.000                                                                                                                                    40563062.123 6 211222710.89206      -463.550 6        38.889                                                                    40563047.431 6 171635723.17006      -376.906 6        39.886
C37        56.000                                                                                                                                    25224757.715 7 131351943.82407      1346.908 7        42.296                                                                    25224761.967 7 106734230.51907      1094.385 7        43.082
C02        57.000                                                                                                                                    40513386.555 5 210963880.68405      -451.430 5        34.686    40513380.739 6 163130647.44706      -349.106 6        40.601    40513384.280 6 171425436.23806      -366.994 6        36.208
I03        58.000   131621355.586 6 440725225.01106       953.396 6        39.841
R07        59.000    21882321.446 7 117137796.31307      2655.597 7        47.842                                                                    21882320.321 6  91107174.50506      2065.550 6        41.583
> 2025 01 01 02 16  0.0000000  0 53
G28         1.000    23906331.804 6 125628638.00006     -2703.322 6        40.889                                    23906328.128 4  97892426.85604     -2106.485 4        25.008    23906328.481 6  97892432.86106     -2106.481 6        39.778
G31         2.000    22190830.557 7 116613615.81407     -1152.550 7        45.536                                    22190825.862 7  90867740.86607      -898.093 7        42.360    22190825.693 6  90867739.87506      -898.213 6        41.611
G09         3.000    21507412.786 7 113022253.91807      2324.493 7        46.702                                    21507410.508 7  88069298.12307      1811.293 7        47.146    21507411.033 7  88069299.13707      1811.211 7        43.136
E34         4.000    25532818.379 7 134175874.90507      1963.285 7        44.020                                                                    25532818.468 7 100196277.83107      1466.082 7        46.353    25532818.203 7 102810093.11807      1504.318 7        47.032
S21         5.000    38346977.863 7 201514535.49207      -390.207 7        42.474
E05         6.000    24310675.243 7 127753495.36007      2200.409 7        42.368                                                                    24310676.085 7  95400363.97807      1643.277 7        45.741    24310675.601 7  97889061.55007      1686.073 7        46.379
G21         7.000    24747295.073 6 130047958.64106     -3690.319 6        36.817                                    24747290.997 3 101336072.02403     -2875.578 3        19.582
E04         8.000    25018977.347 7 131475635.90107     -2507.512 7        44.050                                                                    25018975.573 7  98179862.74707     -1872.529 7        47.866    25018975.265 8 100741068.51908     -1921.356 8        48.332
R14         9.000    23281272.055 7 124102274.44007     -1633.077 7        43.630                                                                    23281274.460 6  96523976.72906     -1270.236 6        39.607
G04        10.000    20183302.704 8 106064014.92708       730.889 8        48.428                                    20183299.239 6  82647293.51606       569.523 6        40.477    20183299.502 8  82647288.51408       569.537 8        48.138
E09        11.000    23356289.511 8 122738177.83708       -58.689 8        48.568                                                                    23356288.651 8  91655149.99008       -43.841 8        50.659    23356288.166 8  94046153.12508       -44.984 8        51.043
S27        12.000    38978478.717 6 204833292.54106      -381.495 6        36.019
G06        13.000    22893557.058 7 120306477.20807      2615.774 7        42.078                                    22893555.306 6  93745310.89006      2038.266 6        40.188    22893555.963 6  93745321.90006      2038.171 6        41.068
S36        14.000    38114390.865 7 200292995.34507      -390.056 7        43.900
E36        16.000    23310772.929 8 122498967.52108      -606.165 8        48.330                                                                    23310773.319 8  91476518.88808      -452.711 8        50.763    23310772.958 8  93862857.59108      -464.522 8        51.104
S45        17.000    63309257.510 6 332693155.96906      -429.845 6        37.728
G03        18.000    20109284.205 8 105675058.67408     -1465.345 8        49.927                                    20109282.194 8  82344221.02008     -1141.827 8        51.631    20109282.649 7  82344230.02507     -1141.818 7        45.732
R21        19.000    19551379.886 8 104623419.78408     -2015.299 8        52.648                                                                    19551378.288 7  81373780.29807     -1567.449 7        45.890
R20        20.000    22502034.447 5 120328521.26105     -4836.396 5        34.010                                                                    22502037.020 7  93588845.23807     -3761.533 7        42.199
R05        21.000    21579639.119 7 115355580.32807     -3642.348 7        47.206                                                                    21579638.930 7  89721011.61407     -2832.884 7        43.945
I06        22.000    37998673.066 7 149115182.22507      -210.822 7        42.681
S28        23.000    40782063.573 5 214311195.93105      -384.149 5        34.081
E10        24.000    27833873.760 6 146268102.00406     -3465.259 6        38.799                                                                    27833873.857 7 109226243.08907     -2587.749 7        42.474    27833873.804 7 112075614.31407     -2655.246 7        44.032
S23        25.000    38061365.045 7 200013840.32507      -386.304 7        44.048
E06        26.000    23533615.436 7 123670045.07607     -1354.643 7        47.839                                                                    23533614.929 8  92351007.43108     -1011.586 8        50.415    23533614.951 8  94760162.62808     -1038.009 8        51.450
R15        27.000    22638483.557 7 120973202.58507      1628.899 7        45.210                                                                    22638484.486 6  94090280.89306      1266.880 6        41.611
C22        30.000                                                                                                                                    25873469.679 6 134729952.15206      2440.693 6        40.493                                                                    25873464.944 6 109479104.42206      1983.280 6        40.679
I01        31.000   334058592.961 7   7776861.85907     -2611.268 7        42.963
G02        32.000    22981112.355 7 120766592.89307     -3500.271 7        45.020                                    22981106.720 5  94103832.76305     -2727.487 5        32.401
G19        33.000    22237490.848 7 116858834.95507      -964.682 7        44.682                                    22237485.230 5  91058853.03105      -751.700 5        32.192
G17        34.000    22951450.374 7 120610734.15507     -2477.523 7        44.439                                    22951446.433 6  93982399.26106     -1930.539 6        39.766    22951447.083 6  93982399.26006     -1930.565 6        40.138
E11        35.000    25244946.532 6 132663151.08006     -2971.612 6        41.409                                                                    25244943.070 7  99066655.16707     -2219.039 7        43.894    25244942.624 7 101650995.43307     -2276.912 7        44.089
C32        36.000                                                                                                                                    26393858.763 6 137439769.27506     -3252.260 6        39.796                                                                    26393859.969 6 111681079.02506     -2642.776 6        40.451
C35        37.000                                                                                                                                    22864338.996 8 119060631.68708      -438.527 8        48.359                                                                    22864337.807 7  96746515.39607      -356.381 7        47.487
I09        38.000    37198982.747 7 145976793.86407      -494.214 7        42.963
C29        39.000                                                                                                                                    23827916.679 7 124078209.27007     -3413.074 7        46.530                                                                    23827915.008 7 100823701.33107     -2773.447 7        45.377
R22        40.000    21007460.980 8 112139285.46908      2448.484 8        50.741                                                                    21007458.922 7  87219458.99807      1904.359 7        45.419
S44        42.000    40563505.101 6 213162852.95506      -467.200 6        36.790
C09        43.000                                                                                                                                    38450254.405 6 200220592.44206       -16.201 6        41.733    38450251.546 7 154823253.80807       -12.486 7        46.362    38450249.903 6 162695613.14006       -13.231 6        41.917
C05        44.000                                                                                                                                    39037776.567 6 203279975.99206      -406.124 6        39.168    39037771.337 7 157188995.34607      -314.091 7        43.340    39037773.259 6 165181734.34406      -330.008 6        40.072
R06        45.000    19369881.963 6 103361454.46006       119.211 6        41.251
C44        46.000                                                                                                                                    25093818.576 6 130670126.87706      1962.385 6        41.235                                                                    25093816.670 6 106180185.00206      1594.494 6        41.852
C39        47.000                                                                                                                                    39055528.431 6 203372397.91806     -1041.924 6        41.857                                                                    39055524.699 7 165256721.37707      -846.752 7        42.227
C20        48.000                                                                                                                                    22252113.800 8 115872643.34408     -1744.059 8        51.200                                                                    22252108.127 8  94156006.17208     -1417.266 8        49.698
C06        49.000                                                                                                                                    38180796.195 6 198817449.39006      -529.014 6        41.206    38180790.731 7 153738246.97507      -409.080 7        44.909    38180790.479 6 161555442.72706      -429.887 6        41.507
C16        50.000                                                                                                                                    38672647.677 7 201378640.09007      -630.236 7        42.745    38672647.042 7 155718747.57907      -487.408 7        43.888    38672644.486 6 163636639.23806      -511.945 6        39.237
S48        51.000    77095972.905 6 405142792.73406      -384.944 6        37.244
C19        52.000                                                                                                                                    22306126.974 8 116153918.42808       852.678 8        50.433                                                                    22306122.524 8  94384576.57608       692.860 8        49.439
C60        54.000                                                                                                                                    40563507.505 6 211225028.25306      -463.364 6        38.985                                                                    40563492.496 6 171637606.20806      -376.630 6        39.817
C37        56.000                                                                                                                                    25223465.957 7 131345213.25307      1345.302 7        42.804                                                                    25223469.358 7 106728761.38807      1092.996 7        42.912
C02        57.000                                                                                                                                    40513820.262 5 210966137.12905      -451.065 5        34.805    40513814.335 6 163132392.27306      -348.891 6        40.358    40513817.594 5 171427269.78305      -366.707 5        35.986
I03        58.000   131620141.045 6 440720457.56006       953.519 6        40.076
R07        59.000    21879841.105 8 117124520.99708      2654.335 8        48.114                                                                    21879840.746 7  91096849.28107      2064.506 7        42.322
> 2025 01 01 02 16  5.0000000  0 54
G28         1.000    23908905.449 6 125642160.98606     -2706.001 6        41.054                                    23908901.604 4  97902964.24804     -2108.565 4        24.992    23908901.846 6  97902970.24506     -2108.628 6        40.503
G31         2.000    22191928.678 7 116619387.65107     -1156.236 7        45.698                                    22191924.186 7  90872238.40507      -900.963 7        42.269    22191924.166 6  90872237.40206      -900.969 6        41.628
G09         3.000    21505201.918 7 113010636.27507      2322.649 7        46.672                                    21505199.751 7  88060245.41507      1809.854 7        47.041    21505200.271 7  88060246.42307      1809.691 7        43.289
E34         4.000    25530950.744 7 134166061.32807      1962.048 7        43.833                                                                    25530950.984 7 100188949.50607      1465.196 7        46.261    25530950.733 7 102802573.62207      1503.437 7        47.101
S21         5.000    38347344.456 7 201516486.59607      -390.344 7        42.918
E05         6.000    24308582.036 7 127742495.20607      2199.412 7        42.745                                                                    24308582.783 7  95392149.58107      1642.468 7        45.725    24308582.254 7  97880632.86407      1685.348 7        46.481
G21         7.000    24750806.291 6 130066410.25506     -3690.533 6        36.764                                    24750802.138 3 101350449.89703     -2875.741 3        19.493
E04         8.000    25021363.689 7 131488175.85807     -2508.592 7        44.286                                                                    25021361.882 7  98189226.99607     -1873.292 7        47.719    25021361.594 8 100750677.05908     -1922.152 8        48.401
R14         9.000    23282807.278 7 124110449.80607     -1637.174 7        44.930                                                                    23282807.993 6  96530335.32406     -1273.405 6        39.610
G04        10.000    20182608.514 8 106060366.92008       728.191 8        48.631                                    20182605.010 6  82644450.91406       567.420 6        40.460    20182605.303 8  82644445.91608       567.394 8        48.228
E09        11.000    23356346.345 8 122738476.24208       -60.716 8        48.636                                                                    23356345.416 8  91655372.82108       -45.346 8        50.537    23356344.975 8  94046381.77108       -46.544 8        51.147
S27        12.000    38978845.122 5 204835200.28905      -381.585 5        35.933
G06        13.000    22891068.354 7 120293402.27007      2614.273 7        42.536                                    22891067.251 6  93735122.62906      2037.091 6        40.122    22891067.919 6  93735133.64106      2037.081 6        41.797
S36        14.000    38114762.439 7 200294945.99807      -390.007 7        43.791
E21        15.000                                                                                                                                    28871975.093 5 113299830.03615       370.387 5        32.263
E36        16.000    23311350.812 8 122502003.65408      -608.394 8        48.329                                                                    23311351.021 8  91478786.12308      -454.334 8        50.671    23311350.700 8  93865183.96908      -466.169 8        51.168
S45        17.000    63309623.915 6 332695304.86306      -429.785 6        37.720
G03        18.000    20110679.226 8 105682390.08308     -1467.352 8        49.852                                    20110677.314 8  82349933.80408     -1143.391 8        51.538    20110678.048 7  82349942.80907     -1143.445 7        46.099
R21        19.000    19553265.148 8 104633507.21508     -2019.741 8        53.116                                                                    19553263.966 7  81381626.07307     -1570.928 7        46.790
R20        20.000    22506555.912 5 120352705.69605     -4837.309 5        33.707                                                                    22506560.201 7  93607655.36507     -3762.543 7        42.745
R05        21.000    21583046.674 7 115373793.75907     -3643.124 7        47.425                                                                    21583046.051 7  89735177.62407     -2833.630 7        44.814
I06        22.000    37998941.529 7 149116236.04807      -210.828 7        42.711
S28        23.000    40782429.772 5 214313116.12905      -384.185 5        34.571
E10        24.000    27837170.664 6 146285429.47006     -3465.789 6        38.709                                                                    27837171.191 7 109239182.42207     -2588.155 7        42.254    27837170.992 7 112088891.19607     -2655.609 7        43.943
S23        25.000    38061734.808 7 200015770.80407      -386.222 7        44.479
E06        26.000    23534905.142 7 123676822.50007     -1356.385 7        47.719                                                                    23534904.607 8  92356068.48708     -1012.913 8        50.374    23534904.646 8  94765355.71008     -1039.331 8        51.501
R15        27.000    22636960.870 7 120965067.15807      1625.265 7        45.216                                                                    22636961.521 6  94083953.34106      1264.057 6        41.526
C22        30.000                                                                                                                                    25871126.877 6 134717749.40906      2440.243 6        40.167                                                                    25871121.379 6 109469188.71406      1982.904 6        40.858
I01        31.000   334061920.125 7   7789918.52307     -2611.448 7        42.804
G02        32.000    22984443.766 7 120784097.09207     -3501.579 7        44.470                                    22984437.779 5  94117472.39305     -2728.506 5        32.150
G19        33.000    22238410.297 7 116863667.09807      -968.160 7        44.543                                    22238404.770 5  91062618.33505      -754.408 5        32.060
G17        34.000    22953808.642 7 120623126.91207     -2479.633 7        44.677                                    22953804.740 6  93992055.95306     -1932.179 6        39.691    22953804.638 6  93992055.95306     -1932.092 6        39.901
E11        35.000    25247774.663 6 132678012.79306     -2972.947 6        40.892                                                                    25247771.093 7  99077753.19107     -2220.088 7        43.757    25247770.840 7 101662382.97207     -2278.019 7        43.987
C32        36.000                                                                                                                                    26396982.208 6 137456030.84206     -3252.268 6        39.880                                                                    26396982.835 6 111694292.88806     -2642.761 6        40.167
C35        37.000                                                                                                                                    22864761.550 8 119062831.57508      -441.500 8        48.330                                                                    22864760.278 7  96748302.99107      -358.777 7        47.556
I09        38.000    37199612.432 7 145979265.39907      -494.431 7        42.929
C29        39.000                                                                                                                                    23831194.773 7 124095278.01607     -3414.476 7        46.393                                                                    23831192.879 7 100837571.08407     -2774.622 7        45.401
R22        40.000    21005168.949 8 112127050.86808      2445.206 8        50.450                                                                    21005166.973 7  87209943.18707      1901.930 7        45.395
S44        42.000    40563953.990 6 213165191.13906      -467.602 6        37.595
C09        43.000                                                                                                                                    38450269.867 6 200220675.11606       -16.966 6        41.657    38450267.477 7 154823317.72707       -13.104 7        46.387    38450265.660 7 162695680.32107       -13.838 7        42.038
C05        44.000                                                                                                                                    39038166.501 6 203282006.59706      -406.214 6        39.348    39038161.298 7 157190565.53807      -314.081 7        43.153    39038163.328 6 165183384.38706      -330.070 6        40.100
R06        45.000    19369771.148 6 103360864.39006       116.704 6        41.209
C44        46.000                                                                                                                                    25091935.510 7 130660319.55807      1960.506 7        42.116                                                                    25091933.317 6 106172215.76806      1592.967 6        41.852
C39        47.000                                                                                                                                    39056529.360 6 203377608.96606     -1042.734 6        41.654                                                                    39056525.354 7 165260955.77907      -847.332 7        42.210
C20        48.000                                                                                                                                    22253789.124 8 115881366.99808     -1745.419 8        51.230                                                                    22253783.417 8  94163094.86108     -1418.334 8        49.746
C06        49.000                                                                                                                                    38181304.947 6 198820096.52106      -529.951 6        41.163    38181299.278 7 153740293.89807      -409.745 7        44.938    38181298.839 6 161557593.74506      -430.662 6        41.514
C16        50.000                                                                                                                                    38673253.291 7 201381792.79307      -630.957 7        42.601    38673252.278 7 155721185.43107      -487.933 7        43.807    38673250.066 6 163639201.07606      -512.800 6        39.363
S48        51.000    77096334.936 6 405144718.60406      -385.374 6        38.126
C19        52.000                                                                                                                                    22305309.244 8 116149658.54708       851.178 8        50.472                                                                    22305304.411 8  94381115.08208       691.624 8        49.547
C60        54.000                                                                                                                                    40563952.298 6 211227345.17406      -463.329 6        38.844                                                                    40563937.315 6 171639488.90306      -376.718 6        39.913
C37        56.000                                                                                                                                    25222175.225 7 131338492.41207      1343.050 7        42.741                                                                    25222178.489 7 106723300.14407      1091.437 7        42.792
C02        57.000                                                                                                                                    40514253.750 5 210968393.24805      -451.371 5        34.595    40514247.152 6 163134136.84506      -349.017 6        40.448    40514251.122 6 171429103.06306      -366.720 6        36.178
I03        58.000   131618926.047 6 440715689.93106       953.468 6        39.895
R07        59.000    21877362.746 8 117111252.76508      2652.851 8        48.096                                                                    21877362.305 7  91086529.55207      2063.374 7        42.832
> 2025 01 01 02 16 10.0000000  0 54
G28         1.000    23911480.904 6 125655696.50306     -2708.284 6        40.582                                    23911477.277 4  97913511.39704     -2110.345 4        24.677    23911477.990 6  97913517.41706     -2110.511 6        40.584
G31         2.000    22193030.597 7 116625177.31807     -1159.741 7        45.318                                    22193025.895 7  90876749.83507      -903.692 7        42.324    22193026.090 6  90876748.85206      -903.863 6        41.128
G09         3.000    21502992.883 7 112999027.86107      2320.761 7        46.553                                    21502990.742 7  88051199.90207      1808.387 7        47.084    21502991.190 7  88051200.90507      1808.343 7        43.257
E34         4.000    25529084.190 7 134156253.14107      1961.108 7        43.924                                                                    25529084.584 7 100181625.21807      1464.450 7        46.240    25529084.326 7 102795058.26507      1502.631 7        47.192
S21         5.000    38347717.331 7 201518437.65307      -390.146 7        42.993
E05         6.000    24306490.199 7 127731500.06407      2198.484 7        42.961                                                                    24306490.561 7  95383938.93907      1641.666 7        45.696    24306490.001 7  97872208.02007      1684.582 7        46.607
G21         7.000    24754317.807 6 130084863.51506     -3691.015 6        36.246                                    24754313.766 3 101364829.05303     -2876.095 3        19.224
E04         8.000    25023750.866 7 131500720.98907     -2509.595 7        44.354                                                                    25023749.104 7  98198595.11307     -1874.010 7        47.674    25023748.839 8 100760289.56108     -1922.916 8        48.476
R14         9.000    23284344.121 7 124118645.14307     -1641.094 7        44.394                                                                    23284344.935 6  96536709.52006     -1276.448 6        40.498
G04        10.000    20181916.702 8 106056732.15408       725.644 8        48.268                                    20181913.335 6  82641618.63106       565.436 6        40.441    20181913.457 7  82641613.63207       565.400 7        47.623
E09        11.000    23356404.893 8 122738784.11808       -62.587 8        48.666                                                                    23356403.964 8  91655602.73008       -46.714 8        50.505    23356403.582 8  94046617.67408       -47.931 8        51.221
S27        12.000    38979211.088 5 204837107.84005      -381.571 5        35.557
G06        13.000    22888581.648 7 120280334.92807      2612.694 7        42.739                                    22888580.622 6  93724940.28806      2035.869 6        40.148    22888581.315 6  93724951.29306      2035.865 6        41.516
S36        14.000    38115136.450 7 200296895.89107      -390.182 7        44.063
E21        15.000                                                                                                                                    28871503.810 5 113297980.83405       369.221 5        32.485
E36        16.000    23311930.814 8 122505050.41308      -610.493 8        48.238                                                                    23311930.801 8  91481061.30108      -455.893 8        50.619    23311930.502 8  93867518.49908      -467.737 8        51.294
S45        17.000    63309988.186 6 332697453.73806      -429.691 6        37.508
G03        18.000    20112076.066 8 105689731.14008     -1469.254 8        49.675                                    20112074.271 8  82355654.10808     -1144.874 8        51.523    20112074.785 7  82355663.10407     -1144.852 7        45.898
R21        19.000    19555154.538 8 104643616.40208     -2024.033 8        52.778                                                                    19555152.990 7  81389488.76607     -1574.238 7        46.313
R20        20.000    22511079.760 5 120376896.36905     -4838.853 5        33.737                                                                    22511083.158 7  93626470.32207     -3763.457 7        42.449
R05        21.000    21586454.336 7 115392010.90307     -3643.824 7        46.997                                                                    21586453.921 7  89749346.50207     -2833.988 7        44.293
I06        22.000    37999210.318 7 149117289.97707      -210.817 7        42.540
S28        23.000    40782792.327 5 214315036.72005      -383.695 5        34.648
E10        24.000    27840468.680 6 146302759.25706     -3466.362 6        38.670                                                                    27840468.883 7 109252123.49307     -2588.416 7        42.231    27840468.868 7 112102169.86007     -2655.919 7        44.268
S23        25.000    38062100.735 7 200017701.30907      -386.105 7        44.445
E06        26.000    23536196.280 7 123683608.25907     -1357.994 7        47.922                                                                    23536195.885 8  92361135.78008     -1014.130 8        50.285    23536195.933 8  94770555.19108     -1040.537 8        51.654
R15        27.000    22635442.976 7 120956949.02007      1621.831 7        46.163                                                                    22635443.389 6  94077639.23006      1261.397 6        41.828
C22        30.000                                                                                                                                    25868784.826 6 134705548.80406      2439.792 6        40.939                                                                    25868778.641 6 109459274.74206      1982.569 6        40.770
I01        31.000   334065247.397 7   7802975.71307     -2611.501 7        42.652
G02        32.000    22987775.546 7 120801607.80707     -3502.777 7        44.652                                    22987770.059 5  94131117.10105     -2729.434 5        32.078
G19        33.000    22239333.778 7 116868516.52507      -971.635 7        44.260                                    22239327.552 5  91066397.11205      -757.122 5        32.060
G17        34.000    22956168.739 7 120635529.90107     -2481.640 7        44.406                                    22956165.010 6  94001720.61806     -1933.746 6        39.658    22956164.748 6  94001720.61806     -1933.762 6        39.991
E11        35.000    25250604.070 6 132692880.79306     -2974.288 6        41.232                                                                    25250600.403 7  99088855.92707     -2221.136 7        43.537    25250600.002 7 101673775.33107     -2278.900 7        44.068
C32        36.000                                                                                                                                    26400105.216 6 137472292.32706     -3252.407 6        39.937                                                                    26400105.400 6 111707506.66406     -2642.702 6        39.931
C35        37.000                                                                                                                                    22865187.022 8 119065045.83408      -444.344 8        48.254                                                                    22865185.477 7  96750102.24307      -361.079 7        47.486
I09        38.000    37200242.535 7 145981737.59007      -494.604 7        42.827
C29        39.000                                                                                                                                    23834474.003 7 124112352.97207     -3415.589 7        46.638                                                                    23834471.856 7 100851445.87907     -2775.552 7        45.309
R22        40.000    21002879.782 8 112114832.12308      2442.185 8        50.479                                                                    21002878.353 7  87200439.72707      1899.473 7        45.794
S44        42.000    40564396.090 6 213167529.32206      -467.740 6        37.308
C09        43.000                                                                                                                                    38450287.430 6 200220761.91406       -17.749 6        41.738    38450284.387 7 154823384.83707       -13.800 7        46.447    38450282.487 6 162695750.83106       -14.532 6        41.907
C05        44.000                                                                                                                                    39038557.138 6 203284037.31606      -406.229 6        39.243    39038550.978 7 157192135.81707      -314.117 7        43.365    39038553.338 6 165185034.49806      -330.056 6        40.162
R06        45.000    19369662.944 6 103360287.19606       114.228 6        41.125
C44        46.000                                                                                                                                    25090053.029 6 130650521.70706      1958.717 6        41.542                                                                    25090051.669 6 106164254.19906      1591.533 6        41.752
C39        47.000                                                                                                                                    39057530.540 6 203382823.41106     -1043.251 6        41.700                                                                    39057526.856 7 165265192.93107      -847.810 7        42.057
C20        48.000                                                                                                                                    22255465.669 8 115890097.09508     -1746.668 8        51.012                                                                    22255459.947 8  94170188.76908     -1419.301 8        49.703
C06        49.000                                                                                                                                    38181814.269 6 198822747.72106      -530.655 6        41.235    38181808.493 7 153742343.98307      -410.323 7        45.082    38181807.927 6 161559748.04806      -431.187 6        41.497
C16        50.000                                                                                                                                    38673859.153 7 201384949.36607      -631.685 7        42.595    38673858.540 7 155723626.30507      -488.550 7        43.858    38673856.233 6 163641766.03806      -513.273 6        39.255
S48        51.000    77096704.426 6 405146644.38206      -385.354 6        37.267
C19        52.000                                                                                                                                    22304492.877 8 116145406.04108       849.702 8        50.429                                                                    22304487.740 8  94377659.56308       690.468 8        49.426
C60        54.000                                                                                                                                    40564397.408 6 211229662.08706      -463.418 6        38.757                                                                    40564382.335 6 171641371.55806      -376.497 6        39.832
C37        56.000                                                                                                                                    25220886.491 7 131331781.68607      1341.170 7        42.195                                                                    25220889.812 7 106717847.12907      1089.789 7        42.747
C02        57.000                                                                                                                                    40514686.308 5 210970649.40105      -451.340 5        34.276    40514680.783 6 163135881.46106      -348.956 6        40.629    40514684.011 5 171430936.37105      -366.626 5        35.895
I03        58.000   131617711.155 6 440710922.45106       953.373 6        39.784
R07        59.000    21874885.977 8 117097991.96608      2651.349 8        48.573                                                                    21874884.804 7  91076215.59707      2062.152 7        43.054
> 2025 01 01 02 16 15.0000000  0 54
G28         1.000    23914058.896 6 125669244.15506     -2710.857 6        40.911                                    23914055.288 4  97924068.00904     -2112.350 4        24.271    23914055.304 6  97924074.01706     -2112.410 6        40.100
G31         2.000    22194135.632 7 116630984.39807     -1163.168 7        45.582                                    22194130.900 7  90881274.83507      -906.365 7        42.195    22194130.949 6  90881273.84606      -906.361 6        41.461
G09         3.000    21500785.300 7 112987428.24407      2319.036 7        46.475                                    21500783.424 7  88042161.24107      1807.041 7        47.011    21500783.751 7  88042162.24507      1807.058 7        43.365
E34         4.000    25527219.136 7 134146449.97107      1960.168 7        43.901                                                                    25527219.057 7 100174304.66707      1463.810 7        46.325    25527218.820 7 102787546.74507      1501.916 7        47.112
S21         5.000    38348089.379 7 201520388.40807      -390.262 7        42.789
E05         6.000    24304398.697 7 127720509.54307      2197.648 7        42.912                                                                    24304399.160 7  95375731.73207      1641.204 7        45.770    24304398.633 7  97863786.72007      1683.888 7        46.406
G21         7.000    24757829.642 6 130103318.02106     -3690.993 6        36.473                                    24757825.527 3 101379209.16703     -2876.086 3        19.194
E04         8.000    25026139.079 7 131513270.85607     -2510.519 7        44.059                                                                    25026137.265 7  98207966.76507     -1874.731 7        47.638    25026136.970 8 100769905.68708     -1923.640 8        48.348
R14         9.000    23285884.369 7 124126860.14807     -1644.990 7        44.545                                                                    23285887.375 6  96543098.98306     -1279.398 6        41.437
G04        10.000    20181227.475 8 106053110.24108       723.064 8        48.165                                    20181224.088 6  82638796.36306       563.427 6        40.365    20181224.413 7  82638791.36307       563.393 7        47.937
E09        11.000    23356464.997 8 122739101.06908       -64.248 8        48.579                                                                    23356464.302 8  91655839.41408       -47.987 8        50.567    23356463.880 8  94046860.53708       -49.284 8        51.077
S27        12.000    38979573.290 5 204839014.99805      -381.148 5        35.900
G06        13.000    22886096.612 7 120267274.77107      2611.388 7        42.417                                    22886095.356 6  93714763.54406      2034.851 6        40.157    22886096.297 6  93714774.53706      2034.905 6        41.526
S36        14.000    38115507.872 7 200298845.66707      -389.858 7        43.841
E21        15.000                                                                                                                                    28871034.040 5 113296138.99805       367.605 5        34.233
E36        16.000    23312512.474 8 122508107.39808      -612.450 8        48.292                                                                    23312512.490 8  91483344.11208      -457.346 8        50.708    23312512.239 8  93869860.86508      -469.268 8        51.139
S45        17.000    63310351.747 6 332699602.28006      -429.781 6        37.508
G03        18.000    20113475.041 8 105697081.45208     -1470.932 8        49.922                                    20113472.999 8  82361381.62808     -1146.180 8        51.464    20113473.322 7  82361390.62907     -1146.201 7        46.102
R21        19.000    19557047.146 8 104653746.96708     -2028.266 8        52.467                                                                    19557045.794 7  81397368.09507     -1577.587 7        46.661
R20        20.000    22515605.101 5 120401092.83205     -4839.606 5        34.133                                                                    22515608.673 7  93645289.79107     -3764.350 7        42.677
R05        21.000    21589863.343 7 115410231.44007     -3644.552 7        47.106                                                                    21589862.095 7  89763518.02607     -2834.692 7        44.137
I06        22.000    37999478.803 7 149118343.72807      -210.796 7        42.692
S28        23.000    40783162.027 5 214316956.83205      -384.172 5        34.295
E10        24.000    27843766.772 6 146320090.96106     -3466.721 6        38.345                                                                    27843766.969 7 109265065.98607     -2588.557 7        42.000    27843766.931 7 112115449.98807     -2656.118 7        44.104
S23        25.000    38062468.561 7 200019631.45807      -385.976 7        44.360
E06        26.000    23537489.137 7 123690401.97307     -1359.502 7        47.659                                                                    23537488.717 8  92366209.01108     -1015.256 8        50.377    23537488.745 8  94775760.77108     -1041.789 8        51.445
R15        27.000    22633927.087 7 120948847.78107      1618.512 7        45.728                                                                    22633926.916 6  94071338.27706      1258.815 6        41.619
C22        30.000                                                                                                                                    25866442.331 6 134693349.93306      2439.595 6        41.630                                                                    25866435.993 6 109449362.18806      1982.499 6        40.918
I01        31.000   334068574.923 7   7816033.11107     -2611.470 7        42.654
G02        32.000    22991109.077 7 120819124.64307     -3503.872 7        44.709                                    22991103.390 5  94144766.57705     -2730.280 5        32.102
G19        33.000    22240259.325 7 116873382.87507      -974.975 7        43.941                                    22240253.589 5  91070189.07005      -759.722 5        31.985
G17        34.000    22958531.011 7 120647942.67607     -2483.562 7        44.442                                    22958527.113 6  94011392.90706     -1935.241 6        39.598    22958527.390 6  94011392.90806     -1935.296 6        39.619
E11        35.000    25253434.643 6 132707754.66806     -2975.526 6        41.139                                                                    25253430.686 7  99099963.02907     -2221.903 7        43.479    25253430.355 7 101685172.19607     -2279.871 7        43.793
C32        36.000                                                                                                                                    26403228.095 6 137488553.32906     -3252.175 6        39.201                                                                    26403228.217 6 111720720.06606     -2642.568 6        39.826
C35        37.000                                                                                                                                    22865615.054 8 119067274.03908      -447.023 8        48.478                                                                    22865613.393 7  96751912.86107      -363.269 7        47.559
I09        38.000    37200872.349 7 145984210.11307      -494.598 7        42.808
C29        39.000                                                                                                                                    23837754.374 7 124129433.77307     -3416.806 7        46.161                                                                    23837751.969 7 100865325.42907     -2776.401 7        45.481
R22        40.000    21000593.645 8 112102628.84108      2439.090 8        50.674                                                                    21000592.441 7  87190948.28207      1897.016 7        46.326
S44        42.000    40564838.535 6 213169867.07906      -467.637 6        37.251
C09        43.000                                                                                                                                    38450304.900 6 200220852.36906       -18.492 6        41.790    38450301.938 7 154823454.79107       -14.352 7        46.285    38450299.791 7 162695824.36207       -15.226 7        42.068
C05        44.000                                                                                                                                    39038947.126 6 203286067.68906      -406.023 6        39.060    39038941.158 7 157193705.82507      -313.973 7        43.255    39038943.273 6 165186684.35806      -329.948 6        40.145
R06        45.000    19369557.194 6 103359722.68406       111.580 6        41.066
C44        46.000                                                                                                                                    25088172.652 6 130640732.97206      1956.866 6        41.161                                                                    25088171.751 7 106156300.05707      1590.166 7        42.000
C39        47.000                                                                                                                                    39058532.484 6 203388040.84606     -1043.830 6        41.561                                                                    39058528.841 7 165269432.53507      -848.161 7        42.218
C20        48.000                                                                                                                                    22257143.339 8 115898833.23308     -1747.847 8        51.204                                                                    22257137.641 8  94177287.61608     -1420.280 8        49.879
C06        49.000                                                                                                                                    38182323.799 6 198825402.65606      -531.320 6        41.230    38182318.096 7 153744396.95007      -410.864 7        44.904    38182317.812 6 161561905.43206      -431.829 6        41.614
C16        50.000                                                                                                                                    38674466.037 7 201388109.44107      -632.377 7        42.512    38674465.186 7 155726069.87007      -489.044 7        43.611    38674462.978 6 163644333.87906      -513.786 6        39.429
S48        51.000    77097066.480 6 405148569.67406      -385.120 6        37.198
C19        52.000                                                                                                                                    22303677.486 8 116141160.51108       848.405 8        50.410                                                                    22303672.471 8  94374209.74108       689.370 8        49.606
C60        54.000                                                                                                                                    40564842.016 6 211231978.59006      -463.256 6        38.841                                                                    40564827.159 6 171643253.93506      -376.496 6        39.730
C37        56.000                                                                                                                                    25219599.999 7 131325080.73107      1339.237 7        42.055                                                                    25219603.029 7 106712402.07207      1088.191 7        42.815
C02        57.000                                                                                                                                    40515120.306 5 210972905.24505      -451.431 5        34.038    40515113.685 6 163137625.80406      -348.844 6        40.200    40515117.383 6 171432769.43206      -366.492 6        36.197
I03        58.000   131616496.250 6 440706154.81906       953.576 6        39.754
R07        59.000    21872410.043 7 117084738.14507      2650.019 7        47.501                                                                    21872408.577 7  91065907.07607      2061.132 7        42.605
> 2025 01 01 02 16 20.0000000  0 54
G28         1.000    23916639.557 6 125682804.21206     -2713.203 6        40.770                                    23916635.584 4  97934634.29304     -2114.175 4        24.632    23916635.143 6  97934640.28806     -2114.366 6        39.381
G31         2.000    22195244.118 7 116636809.19407     -1166.684 7        45.053                                    22195239.250 7  90885813.64007      -909.103 7        42.237    22195239.439 6  90885812.63506      -909.100 6        41.468
G09         3.000    21498580.115 7 112975837.77107      2317.166 7        46.298                                    21498577.855 7  88033129.71007      1805.583 7        47.111    21498577.923 7  88033130.71007      1805.632 7        43.609
E34         4.000    25525354.345 7 134136652.13307      1959.096 7        43.547                                                                    25525354.603 7 100166988.11607      1462.878 7        46.454    25525354.368 7 102780039.31607      1501.099 7        47.033
S21         5.000    38348463.958 7 201522338.91207      -390.053 7        43.090
E05         6.000    24302308.403 7 127709523.96207      2196.636 7        43.295                                                                    24302308.556 7  95367528.22307      1640.352 7        45.982    24302308.151 7  97855369.20407      1683.116 7        46.345
G21         7.000    24761341.657 6 130121774.03006     -3691.116 6        36.110                                    24761337.670 3 101393590.48403     -2876.180 3        19.493
E04         8.000    25028527.955 7 131525825.78607     -2511.474 7        44.060                                                                    25028526.365 7  98217342.20607     -1875.465 7        47.915    25028526.037 8 100779525.70708     -1924.381 8        48.209
R14         9.000    23287429.865 7 124135094.99207     -1648.914 7        44.232                                                                    23287430.953 6  96549503.80806     -1282.420 6        40.045
G04        10.000    20180540.685 8 106049501.47908       720.466 8        48.323                                    20180537.372 6  82635984.34306       561.402 6        40.486    20180537.800 7  82635979.34207       561.380 7        47.976
E09        11.000    23356527.087 8 122739427.41408       -66.236 8        48.542                                                                    23356526.405 8  91656083.11908       -49.436 8        50.676    23356525.971 8  94047110.59608       -50.744 8        50.960
S27        12.000    38979938.617 6 204840922.36506      -381.285 6        36.015
G06        13.000    22883612.702 7 120254222.14707      2609.755 7        42.133                                    22883611.531 6  93704592.66706      2033.576 6        40.243    22883612.189 6  93704603.66306      2033.743 6        41.244
S36        14.000    38115878.046 7 200300795.39707      -389.848 7        44.191
E21        15.000                                                                                                                                    28870567.078 5 113294305.22705       365.601 5        33.347
E36        16.000    23313096.117 8 122511174.92608      -614.527 8        48.343                                                                    23313096.266 8  91485634.80608      -458.917 8        50.846    23313095.957 8  93872211.31508      -470.889 8        51.049
S45        17.000    63310718.009 6 332700150.69616      -429.677 6        37.380
G03        18.000    20114875.498 8 105704441.33408     -1472.947 8        49.877                                    20114873.538 8  82367116.60108     -1147.749 8        51.538    20114874.119 7  82367125.60107     -1147.752 7        45.846
R21        19.000    19558944.185 8 104663899.20708     -2032.557 8        52.427                                                                    19558943.124 7  81405264.28307     -1580.872 7        46.148
R20        20.000    22520132.620 5 120425295.45405     -4841.372 5        34.529                                                                    22520133.693 7  93664114.01907     -3765.259 7        42.354
R05        21.000    21593272.675 7 115428455.62207     -3645.240 7        47.448                                                                    21593271.413 7  89777692.39207     -2835.174 7        44.054
I06        22.000    37999747.229 7 149119397.51807      -210.693 7        42.944
S28        23.000    40783525.360 5 214318876.63405      -383.839 5        34.219
E10        24.000    27847064.951 6 146337424.87706     -3466.934 6        38.144                                                                    27847065.557 6 109278010.14606     -2589.027 6        41.933    27847065.386 7 112128731.81807     -2656.603 7        43.706
S23        25.000    38062833.884 7 200021561.38107      -385.973 7        44.209
E06        26.000    23538783.551 7 123697203.94707     -1361.179 7        47.644                                                                    23538783.079 8  92371288.40608     -1016.505 8        50.471    23538783.093 8  94780972.66708     -1043.006 8        51.356
R15        27.000    22632413.943 7 120940763.88307      1615.090 7        46.329                                                                    22632414.640 6  94065050.81006      1256.177 6        41.619
C22        30.000                                                                                                                                    25864099.090 6 134681153.11506      2439.217 6        41.669                                                                    25864093.457 6 109439451.28806      1981.775 6        40.946
I01        31.000   334071902.646 7   7829090.98007     -2611.612 7        42.648
G02        32.000    22994443.105 7 120836647.89907     -3505.294 7        44.715                                    22994437.901 5  94158421.06205     -2731.395 5        32.144
G19        33.000    22241188.886 7 116878266.43407      -978.453 7        44.045                                    22241182.953 5  91073994.44005      -762.427 5        32.114
G17        34.000    22960895.022 7 120660365.54907     -2485.571 7        45.087                                    22960891.099 6  94021073.06706     -1936.810 6        39.637    22960890.902 6  94021073.07606     -1936.827 6        39.105
E11        35.000    25256266.100 6 132722634.72406     -2976.778 6        41.180                                                                    25256262.349 7  99111074.75807     -2222.862 7        43.771    25256262.034 7 101696573.79407     -2280.776 7        43.767
C32        36.000                                                                                                                                    26406350.213 6 137504814.12906     -3252.048 6        39.646                                                                    26406351.017 6 111733933.30406     -2642.748 6        39.535
C35        37.000                                                                                                                                    22866045.618 8 119069516.53608      -449.893 8        48.587                                                                    22866044.083 7  96753735.06307      -365.672 7        47.614
I09        38.000    37201502.629 7 145986683.22907      -494.697 7        42.984
C29        39.000                                                                                                                                    23841035.560 7 124146520.68007     -3418.006 7        45.505                                                                    23841033.385 7 100879209.92207     -2777.512 7        45.452
R22        40.000    20998310.813 8 112090441.35508      2435.906 8        50.401                                                                    20998308.775 7  87181469.12507      1894.669 7        46.179
S44        42.000    40565285.554 6 213172204.71906      -467.530 6        37.444
C09        43.000                                                                                                                                    38450322.963 7 200220946.84607       -19.425 7        42.038    38450319.966 7 154823527.84907       -14.879 7        46.459    38450317.887 7 162695901.10607       -15.756 7        42.036
C05        44.000                                                                                                                                    39039336.528 6 203288098.04506      -406.089 6        39.216    39039331.088 7 157195275.84307      -314.032 7        43.253    39039333.010 6 165188334.18206      -330.002 6        40.048
R06        45.000    19369453.913 6 103359170.97706       109.040 6        40.825
C44        46.000                                                                                                                                    25086295.257 6 130630953.61906      1954.867 6        41.692                                                                    25086293.749 6 106148353.53206      1588.414 6        41.859
C39        47.000                                                                                                                                    39059534.995 6 203393261.57406     -1044.507 6        41.969                                                                    39059531.416 7 165273674.78907      -848.703 7        42.322
C20        48.000                                                                                                                                    22258822.320 8 115907575.72508     -1749.145 8        51.232                                                                    22258816.638 8  94184391.59708     -1421.430 8        49.757
C06        49.000                                                                                                                                    38182834.669 6 198828061.59106      -532.234 6        41.354    38182828.462 7 153746453.01207      -411.549 7        44.761    38182828.392 6 161564066.00906      -432.443 6        41.502
C16        50.000                                                                                                                                    38675072.889 7 201391273.30907      -633.164 7        42.360    38675072.765 7 155728516.37607      -489.616 7        43.583    38675070.659 6 163646904.77006      -514.664 6        39.312
S48        51.000    77097433.234 6 405150494.80806      -384.926 6        37.384
C19        52.000                                                                                                                                    22302863.326 8 116136922.26808       846.921 8        50.478                                                                    22302858.550 8  94370765.80808       688.112 8        49.558
C60        54.000                                                                                                                                    40565287.283 6 211234294.99406      -463.359 6        39.105                                                                    40565272.023 6 171645136.18606      -376.609 6        39.814
C37        56.000                                                                                                                                    25218315.798 7 131318389.83607      1337.211 7        42.660                                                                    25218318.410 7 106706965.16407      1086.425 7        42.944
C02        57.000                                                                                                                                    40515553.405 5 210975161.04705      -451.206 5        34.448    40515547.258 6 163139370.13506      -348.907 6        40.570    40515550.446 6 171434602.44106      -366.666 6        36.212
I03        58.000   131615281.323 6 440701387.25706       953.464 6        39.694
R07        59.000    21869935.120 8 117071491.74508      2648.617 8        48.353                                                                    21869934.005 7  91055604.33407      2060.119 7        43.371
> 2025 01 01 02 16 25.0000000  0 54
G28         1.000    23919222.289 6 125696376.92506     -2715.614 6        40.832                                    23919218.152 4  97945210.43204     -2116.062 4        24.692    23919218.660 6  97945216.42906     -2116.140 6        39.426
G31         2.000    22196355.857 7 116642651.98507     -1170.174 7        45.252                                    22196350.981 7  90890366.46707      -911.824 7        42.199    22196351.759 6  90890365.46406      -911.812 6        41.540
G09         3.000    21496376.070 7 112964256.68507      2315.448 7        46.726                                    21496374.060 7  88024105.48907      1804.244 7        47.134    21496374.380 7  88024106.49807      1804.208 7        43.862
E34         4.000    25523491.028 7 134126859.87107      1958.031 7        43.302                                                                    25523491.147 7 100159675.70707      1462.239 7        46.663    25523490.902 7 102772536.16007      1500.372 7        47.027
S21         5.000    38348833.466 7 201524289.49907      -389.987 7        43.060
E05         6.000    24300218.574 7 127698543.54107      2195.596 7        42.662                                                                    24300219.040 7  95359328.56907      1639.633 7        46.152    24300218.684 7  97846955.64407      1682.429 7        46.421
G21         7.000    24764854.523 6 130140231.85506     -3691.767 6        36.117                                    24764850.017 3 101407973.20903     -2876.704 3        19.254
E04         8.000    25030918.216 7 131538386.00607     -2512.405 7        44.166                                                                    25030916.520 8  98226721.58808     -1876.151 8        48.000    25030916.180 8 100789149.77308     -1925.083 8        48.253
R14         9.000    23288978.521 7 124143350.05907     -1652.820 7        43.845                                                                    23288979.859 6  96555924.36806     -1285.627 6        39.207
G04        10.000    20179856.606 8 106045906.12108       717.912 8        48.114                                    20179853.205 6  82633182.77006       559.412 6        40.513    20179853.632 8  82633177.76308       559.358 8        48.062
E09        11.000    23356590.994 8 122739763.37708       -68.010 8        48.542                                                                    23356590.323 8  91656334.00008       -50.757 8        50.853    23356589.910 8  94047368.02308       -52.117 8        51.000
S27        12.000    38980299.329 6 204842829.76906      -381.339 6        36.147
G06        13.000    22881129.971 7 120241177.30207      2608.321 7        42.311                                    22881129.172 6  93694427.85406      2032.456 6        40.334    22881130.074 6  93694438.86306      2032.321 6        41.075
S36        14.000    38116253.278 7 200302745.93907      -390.032 7        43.970
E21        15.000                                                                                                                                    28870102.157 5 113292479.90805       364.268 5        35.176    28870100.767 5 116247931.59115       373.654 5        34.238
E36        16.000    23313681.918 8 122514253.24708      -616.571 8        48.227                                                                    23313682.051 8  91487933.54708      -460.430 8        50.982    23313681.701 8  93874570.02208      -472.436 8        51.030
S45        17.000    63311086.336 6 332702299.25706      -429.635 6        37.350
G03        18.000    20116277.899 8 105711811.02808     -1474.774 8        49.961                                    20116275.951 8  82372859.21908     -1149.176 8        51.574    20116276.299 7  82372868.22407     -1149.226 7        45.878
R21        19.000    19560845.867 8 104674073.40808     -2036.845 8        52.929                                                                    19560844.022 7  81413177.54307     -1584.260 7        46.226
R20        20.000    22524659.116 5 120449504.37305     -4841.997 5        34.114                                                                    22524660.965 6  93682943.21106     -3766.383 6        41.647
R05        21.000    21596682.404 8 115446683.71908     -3645.833 8        48.071                                                                    21596681.200 7  89791869.81607     -2835.753 7        43.799
I06        22.000    38000015.589 7 149120451.51507      -210.703 7        42.698
S28        23.000    40783893.830 5 214320796.81105      -383.880 5        34.281
E10        24.000    27850364.346 6 146354761.25106     -3467.428 6        38.135                                                                    27850364.463 6 109290956.13206     -2589.210 6        41.876    27850364.347 7 112142015.52807     -2656.891 7        43.606
S23        25.000    38063203.562 7 200023491.40107      -385.944 7        44.501
E06        26.000    23540079.234 7 123704014.40207     -1362.801 7        47.756                                                                    23540079.063 8  92376374.13708     -1017.679 8        50.622    23540079.068 8  94786191.07008     -1044.190 8        51.366
R15        27.000    22630904.948 7 120932697.66807      1611.728 7        46.197                                                                    22630904.839 6  94058777.09006      1253.527 6        40.825
C22        30.000                                                                                                                                    25861756.595 6 134668958.59206      2438.869 6        41.993                                                                    25861751.742 6 109429542.24606      1981.678 6        41.080
I01        31.000   334075229.937 7   7842149.47607     -2611.551 7        42.902
G02        32.000    22997779.373 7 120854177.82307     -3506.470 7        45.324                                    22997773.647 5  94172080.74105     -2732.319 5        32.359
G19        33.000    22242121.654 7 116883167.41507      -981.702 7        44.542                                    22242115.573 5  91077813.38105      -764.963 5        31.970
G17        34.000    22963260.921 7 120672798.79007     -2487.565 7        43.922                                    22963257.035 6  94030761.29906     -1938.362 6        39.556    22963257.144 6  94030761.29606     -1938.338 6        39.649
E11        35.000    25259098.714 6 132737521.19806     -2977.824 6        41.242                                                                    25259095.327 7  99122191.27507     -2223.748 7        43.989    25259094.962 7 101707980.31307     -2281.736 7        43.621
C32        36.000                                                                                                                                    26409472.976 6 137521075.01806     -3252.048 6        40.248                                                                    26409473.683 6 111747146.61606     -2642.755 6        39.688
C35        37.000                                                                                                                                    22866478.916 8 119071773.56108      -452.750 8        48.594                                                                    22866477.402 7  96755569.09107      -368.041 7        47.704
I09        38.000    37202132.948 7 145989157.09807      -494.711 7        42.897
C29        39.000                                                                                                                                    23844317.645 7 124163613.94307     -3419.176 7        45.503                                                                    23844315.893 7 100893099.59507     -2778.467 7        45.546
R22        40.000    20996030.160 8 112078269.94108      2432.849 8        50.180                                                                    20996028.948 7  87172002.47407      1892.155 7        46.056
S44        42.000    40565734.697 6 213174542.52406      -467.550 6        37.463
C09        43.000                                                                                                                                    38450342.156 7 200221045.55707       -19.985 7        42.102    38450338.899 7 154823604.18607       -15.504 7        46.355    38450336.806 7 162695981.34007       -16.488 7        42.169
C05        44.000                                                                                                                                    39039726.006 6 203290128.64306      -406.031 6        39.273    39039720.754 7 157196846.01007      -313.936 7        43.105    39039723.195 6 165189984.20506      -329.994 6        40.272
R06        45.000    19369352.198 6 103358632.51106       106.579 6        40.827
C44        46.000                                                                                                                                    25084418.940 6 130621183.91706      1953.148 6        41.971                                                                    25084417.723 7 106140414.87307      1586.876 7        42.148
C39        47.000                                                                                                                                    39060538.296 7 203398485.83807     -1045.048 7        42.066                                                                    39060534.631 7 165277919.94907      -849.411 7        42.351
C20        48.000                                                                                                                                    22260502.374 8 115916324.79408     -1750.322 8        51.425                                                                    22260496.811 8  94191500.94508     -1422.448 8        49.942
C06        49.000                                                                                                                                    38183346.241 6 198830724.78606      -532.949 6        41.752    38183339.746 7 153748512.36307      -412.010 7        44.743    38183339.798 6 161566230.09506      -433.215 6        41.790
C16        50.000                                                                                                                                    38675681.154 7 201394441.19907      -633.862 7        42.487    38675681.191 7 155730965.98407      -490.100 7        43.403    38675679.028 6 163649478.94906      -515.253 6        39.459
S48        51.000    77097799.035 6 405152419.87506      -384.764 6        36.885
C19        52.000                                                                                                                                    22302050.930 8 116132691.54508       845.538 8        50.577                                                                    22302046.077 8  94367328.01508       686.901 8        49.692
C60        54.000                                                                                                                                    40565731.829 6 211236611.53906      -463.116 6        39.330                                                                    40565716.878 6 171647018.58906      -376.628 6        39.937
C37        56.000                                                                                                                                    25217032.346 7 131311709.27007      1335.261 7        42.902                                                                    25217035.513 7 106701536.66607      1084.859 7        43.124
C02        57.000                                                                                                                                    40515987.121 5 210977417.05405      -451.050 5        34.600    40515980.348 6 163141114.61806      -348.745 6        40.543    40515983.800 6 171436435.63506      -366.522 6        36.174
I03        58.000   131614065.949 6 440696619.95706       953.527 6        39.736
R07        59.000    21867462.415 7 117058252.87807      2647.118 7        47.444                                                                    21867461.060 7  91045307.45407      2058.867 7        42.893
> 2025 01 01 02 16 30.0000000  0 54
G28         1.000    23921807.501 6 125709962.29906     -2718.330 6        40.379                                    23921803.340 4  97955796.42504     -2118.179 4        24.286    23921803.999 6  97955802.43506     -2118.172 6        39.628
G31         2.000    22197471.305 7 116648512.77807     -1174.020 7        46.072                                    22197466.176 7  90894933.31607      -914.823 7        42.106    22197466.608 6  90894932.32606      -914.869 6        41.118
G09         3.000    21494174.150 7 112952684.99907      2313.366 7        46.744                                    21494172.041 7  88015088.59307      1802.623 7        47.039    21494172.100 7  88015089.59407      1802.573 7        43.346
E34         4.000    25521628.745 7 134117073.22007      1956.693 7        43.086                                                                    25521628.804 7 100152367.49607      1461.253 7        46.546    25521628.580 7 102765037.30007      1499.325 7        47.178
S21         5.000    38349203.792 7 201526240.25707      -390.267 7        43.081
E05         6.000    24298129.487 7 127687568.33307      2194.510 7        42.811                                                                    24298130.503 7  95351132.80407      1638.732 7        46.182    24298130.079 7  97838546.07307      1681.469 7        46.588
G21         7.000    24768366.671 6 130158691.40106     -3691.931 6        36.215                                    24768362.754 3 101422357.24503     -2876.821 3        18.806
E04         8.000    25033309.510 7 131550951.53807     -2513.594 7        44.075                                                                    25033307.642 7  98236104.94707     -1877.096 7        47.944    25033307.304 8 100798777.91108     -1926.083 8        48.440
R14         9.000    23290531.154 7 124151625.17707     -1657.065 7        44.295                                                                    23290532.874 6  96562360.56306     -1288.892 6        38.868
G04        10.000    20179174.956 8 106042324.18008       714.993 8        48.284                                    20179171.582 6  82630391.64906       557.140 6        40.389    20179171.820 8  82630386.64208       557.203 8        48.043
E09        11.000    23356656.794 8 122740108.98008       -70.106 8        48.357                                                                    23356656.119 8  91656592.08308       -52.351 8        50.862    23356655.671 8  94047632.83808       -53.732 8        51.195
S27        12.000    38980660.524 6 204844737.41706      -381.692 6        36.200
G06        13.000    22878649.434 6 120228140.25606      2606.639 6        41.571                                    22878648.262 6  93684269.11806      2031.144 6        40.231    22878649.292 6  93684280.12806      2031.098 6        41.209
S36        14.000    38116620.434 7 200304697.69007      -390.444 7        43.803
E21        15.000                                                                                                                                    28869638.644 5 113290662.36305       362.451 5        34.343    28869637.597 5 116246066.62805       371.988 5        33.838
E36        16.000    23314269.685 8 122517342.37608      -618.988 8        48.145                                                                    23314269.886 8  91490240.36608      -462.255 8        50.963    23314269.563 8  93876937.02008      -474.320 8        51.176
S45        17.000    63311454.668 6 332704447.87906      -429.744 6        37.750
G03        18.000    20117682.110 8 105719190.54508     -1476.972 8        49.820                                    20117680.223 8  82378609.49208     -1150.886 8        51.463    20117680.739 7  82378618.49407     -1150.873 7        46.194
R21        19.000    19562751.651 8 104684269.59008     -2041.470 8        53.082                                                                    19562749.823 7  81421107.90307     -1587.775 7        46.255
R20        20.000    22529186.678 5 120473719.72805     -4843.873 5        33.862                                                                    22529189.122 6  93701777.34706     -3767.351 6        41.185
R05        21.000    21600092.895 7 115464915.64007     -3646.787 7        47.433                                                                    21600092.446 7  89806050.19507     -2836.352 7        44.169
I06        22.000    38000284.325 7 149121505.74507      -210.872 7        43.113
S28        23.000    40784255.652 5 214322717.05905      -384.194 5        34.186
E10        24.000    27853663.909 6 146372100.08606     -3468.128 6        38.336                                                                    27853663.928 6 109303903.97606     -2589.911 6        41.793    27853663.717 7 112155301.12407     -2657.359 7        43.591
S23        25.000    38063569.184 7 200025421.56207      -386.104 7        44.293
E06        26.000    23541377.161 7 123710833.37207     -1364.742 7        47.417                                                                    23541376.682 8  92381466.22208     -1019.091 8        50.621    23541376.670 8  94791415.99408     -1045.679 8        51.602
R15        27.000    22629398.122 7 120924649.03207      1607.916 7        45.231                                                                    22629398.009 6  94052517.05106      1250.571 6        40.434
C22        30.000                                                                                                                                    25859415.084 6 134656766.36306      2438.167 6        41.137                                                                    25859410.440 6 109419635.06306      1981.167 6        41.206
I01        31.000   334078557.975 7   7855208.65207     -2612.011 7        42.957
G02        32.000    23001116.479 7 120871714.44007     -3508.086 7        45.306                                    23001110.662 5  94185745.63805     -2733.578 5        32.299
G19        33.000    22243057.356 7 116888085.88107      -985.466 7        44.050                                    22243051.506 5  91081645.94805      -767.898 5        31.955
G17        34.000    22965628.926 7 120685242.31507     -2489.720 7        44.409                                    22965624.924 6  94040457.55106     -1940.041 6        39.414    22965625.117 6  94040457.56206     -1940.103 6        39.532
E11        35.000    25261932.780 6 132752414.09906     -2979.236 6        41.259                                                                    25261929.377 7  99133312.60007     -2224.857 7        43.905    25261929.013 7 101719391.76007     -2282.904 7        44.035
C32        36.000                                                                                                                                    26412596.075 6 137537335.95106     -3252.267 6        40.646                                                                    26412596.667 6 111760359.94606     -2642.875 6        39.898
C35        37.000                                                                                                                                    22866915.242 8 119074045.10608      -455.834 8        48.557                                                                    22866913.680 7  96757414.88007      -370.398 7        47.729
I09        38.000    37202764.026 7 145991631.73507      -495.003 7        42.893
C29        39.000                                                                                                                                    23847601.306 7 124180713.52807     -3420.605 7        46.132                                                                    23847599.744 7 100906994.38907     -2779.517 7        45.567
R22        40.000    20993753.250 8 112066114.65008      2429.346 8        50.023                                                                    20993751.244 7  87162548.36607      1889.466 7        45.688
S44        42.000    40566180.867 6 213176880.50106      -467.925 6        37.633
C09        43.000                                                                                                                                    38450362.095 6 200221148.55006       -21.047 6        41.988    38450358.473 7 154823683.81707       -16.350 7        46.161    38450356.540 7 162696064.99807       -17.157 7        42.218
C05        44.000                                                                                                                                    39040115.820 6 203292159.49806      -406.383 6        39.129    39040110.926 7 157198416.40207      -314.234 7        43.003    39040113.067 6 165191634.43406      -330.099 6        40.360
R06        45.000    19369253.903 6 103358107.15606       103.720 6        40.901
C44        46.000                                                                                                                                    25082544.614 7 130611423.87107      1950.989 7        42.121                                                                    25082543.292 7 106132484.01107      1585.257 7        42.279
C39        47.000                                                                                                                                    39061542.065 7 203403713.65007     -1045.916 7        42.279                                                                    39061538.524 7 165282167.96407      -850.030 7        42.525
C20        48.000                                                                                                                                    22262183.884 8 115925080.46708     -1751.826 8        51.438                                                                    22262178.236 8  94198615.62708     -1423.506 8        50.051
C06        49.000                                                                                                                                    38183858.453 6 198833392.24906      -533.974 6        41.509    38183852.097 7 153750575.02707      -412.943 7        44.561    38183852.168 6 161568397.61106      -433.891 6        41.723
C16        50.000                                                                                                                                    38676290.630 7 201397613.14507      -634.896 7        42.383    38676290.377 7 155733418.74107      -490.834 7        43.266    38676288.006 6 163652056.39506      -515.937 6        39.360
S48        51.000    77098164.773 6 405154344.92106      -385.185 6        37.225
C19        52.000                                                                                                                                    22301240.008 8 116128468.36708       843.837 8        50.510                                                                    22301235.081 8  94363896.31708       685.652 8        49.797
C60        54.000                                                                                                                                    40566176.595 6 211238928.24506      -463.403 6        38.895                                                                    40566161.889 6 171648901.07406      -376.517 6        40.164
C37        56.000                                                                                                                                    25215751.284 7 131305039.05507      1332.923 7        42.828                                                                    25215754.541 7 106696116.55907      1083.098 7        43.274
C02        57.000                                                                                                                                    40516420.663 5 210979673.30705      -451.425 5        34.519    40516413.434 6 163142859.31206      -349.017 6        40.405    40516417.078 6 171438269.02306      -366.781 6        36.321
I03        58.000   131612851.259 6 440691852.91106       953.301 6        39.844
R07        59.000    21864989.809 7 117045021.69707      2645.407 7        47.272                                                                    21864988.848 7  91035016.53007      2057.544 7        42.656
> 2025 01 01 02 16 35.0000000  0 54
G28         1.000    23924394.598 6 125723559.84106     -2720.869 6        41.161                                    23924390.907 4  97966391.91504     -2120.163 4        24.692    23924391.269 6  97966397.90806     -2120.152 6        39.664
G31         2.000    22198589.772 7 116654391.03407     -1177.466 7        45.955                                    22198584.690 7  90899513.78107      -917.509 7        42.008    22198585.411 6  90899512.77906      -917.406 6        41.490
G09         3.000    21491973.868 7 112941122.21207      2311.517 7        47.081                                    21491971.694 7  88006078.63307      1801.181 7        46.968    21491971.721 7  88006079.62207      1801.153 7        43.412
E34         4.000    25519767.134 7 134107291.66207      1955.704 7        43.200                                                                    25519767.432 7 100145063.09307      1460.365 7        46.484    25519767.171 7 102757542.34607      1498.439 7        47.264
S21         5.000    38349575.679 7 201528190.67107      -390.169 7        42.997
E05         6.000    24296042.170 7 127676597.81607      2193.375 7        42.821                                                                    24296042.904 7  95342940.54107      1637.930 7        46.080    24296042.471 7  97830140.09407      1680.704 7        46.634
G21         7.000    24771880.031 6 130177152.20706     -3692.290 6        36.567                                    24771875.714 3 101436742.28203     -2877.109 3        18.955
E04         8.000    25035701.280 7 131563521.85007     -2514.671 7        44.275                                                                    25035699.592 7  98245491.86307     -1877.823 7        47.898    25035699.432 8 100808409.71108     -1926.826 8        48.518
R14         9.000    23292087.386 7 124159920.21107     -1660.995 7        43.763                                                                    23292089.055 6  96568812.25106     -1292.027 6        40.069
G04        10.000    20178495.896 8 106038755.13608       712.367 8        48.296                                    20178492.397 6  82627610.57906       555.091 6        40.310    20178492.725 8  82627605.57708       555.143 8        48.217
E09        11.000    23356724.325 8 122740463.70508       -72.047 8        48.500                                                                    23356723.623 8  91656856.97408       -53.777 8        50.758    23356723.188 8  94047904.64208       -55.186 8        51.289
S27        12.000    38981027.452 5 204846644.48405      -381.224 5        35.957
G06        13.000    22876170.000 7 120215110.50107      2605.074 7        42.578                                    22876168.775 6  93674116.06706      2029.929 6        40.207    22876169.492 6  93674127.07806      2029.846 6        41.473
S36        14.000    38116991.279 7 200306649.19707      -390.488 7        44.220
E21        15.000                                                                                                                                    28869177.757 5 113288852.63005       360.660 5        34.076    28869176.390 5 116244209.68505       370.419 5        33.180
E36        16.000    23314859.436 8 122520441.79408      -621.068 8        48.270                                                                    23314859.695 8  91492554.86208      -463.819 8        50.908    23314859.360 8  93879311.89208      -475.898 8        51.362
S45        17.000    63311822.052 6 332706596.17506      -429.710 6        37.546
G03        18.000    20119088.032 8 105726579.36208     -1478.778 8        49.869                                    20119086.254 8  82384367.01008     -1152.297 8        51.351    20119086.891 7  82384376.01607     -1152.282 7        46.228
R21        19.000    19564660.675 8 104694487.06408     -2045.877 8        52.624                                                                    19564658.980 7  81429054.82407     -1591.236 7        46.288
R20        20.000    22533716.968 5 120497940.91405     -4845.137 5        33.748                                                                    22533719.400 6  93720616.02106     -3768.305 6        41.526
R05        21.000    21603503.926 7 115483150.88707     -3647.512 7        47.157                                                                    21603503.773 7  89820233.16107     -2837.023 7        44.486
I06        22.000    38000553.104 7 149122559.83607      -210.862 7        42.959
S28        23.000    40784620.125 5 214324637.05905      -384.067 5        34.214
E10        24.000    27856963.865 6 146389440.87506     -3468.551 6        38.444                                                                    27856963.738 6 109316853.25406     -2590.164 6        41.666    27856963.711 7 112168588.21107     -2657.756 7        43.454
S23        25.000    38063935.924 7 200027351.54307      -386.051 7        44.275
E06        26.000    23542676.128 7 123717660.30807     -1366.309 7        47.503                                                                    23542675.793 8  92386564.26208     -1020.355 8        50.555    23542675.814 8  94796647.02608     -1046.932 8        51.753
R15        27.000    22627894.253 7 120916617.45607      1604.413 7        45.008                                                                    22627894.595 6  94046270.28406      1247.908 6        40.508
C22        30.000                                                                                                                                    25857074.579 6 134644575.92406      2437.724 6        40.822                                                                    25857069.377 6 109409729.35206      1980.943 6        41.082
I01        31.000   334081886.022 7   7868268.07607     -2612.017 7        42.717
G02        32.000    23004454.102 7 120889257.22507     -3509.416 7        44.036                                    23004448.867 5  94199415.33905     -2734.614 5        32.054
G19        33.000    22243995.949 7 116893021.23207      -988.914 7        43.712                                    22243990.676 5  91085491.68005      -770.581 5        31.834
G17        34.000    22967998.986 7 120697695.66307     -2491.876 7        43.759                                    22967994.683 6  94050161.45906     -1941.721 6        39.261    22967995.044 6  94050161.46306     -1941.628 6        39.643
E11        35.000    25264767.934 6 132767312.89606     -2980.474 6        41.278                                                                    25264764.538 7  99144438.31407     -2225.662 7        43.735    25264764.211 7 101730807.70607     -2283.691 7        44.123
C32        36.000                                                                                                                                    26415718.922 6 137553596.43806     -3251.979 6        40.563                                                                    26415719.249 6 111773572.92906     -2642.423 6        40.110
C35        37.000                                                                                                                                    22867354.246 8 119076330.66708      -458.711 8        48.393                                                                    22867352.633 7  96759272.09007      -372.579 7        47.863
I09        38.000    37203394.330 7 145994106.76107      -495.132 7        42.954
C29        39.000                                                                                                                                    23850886.758 7 124197818.94207     -3421.899 7        46.406                                                                    23850884.688 7 100920893.94907     -2780.440 7        45.529
R22        40.000    20991479.622 8 112053974.91308      2426.195 8        50.318                                                                    20991477.529 7  87153106.35507      1887.079 7        46.203
S44        42.000    40566621.532 6 213179218.08806      -467.742 6        37.698
C09        43.000                                                                                                                                    38450382.619 7 200221255.29407       -21.900 7        42.082    38450378.879 7 154823766.35807       -16.835 7        46.105    38450377.148 7 162696151.74307       -17.660 7        42.286
C05        44.000                                                                                                                                    39040506.242 6 203294190.07006      -406.253 6        38.931    39040500.887 7 157199986.56007      -314.099 7        42.974    39040503.064 6 165193284.44406      -330.037 6        40.384
R06        45.000    19369158.046 6 103357594.48206       101.227 6        41.130
C44        46.000                                                                                                                                    25080672.263 7 130601672.98407      1949.051 7        42.044                                                                    25080670.680 7 106124560.63607      1583.801 7        42.262
C39        47.000                                                                                                                                    39062546.511 7 203408944.49907     -1046.702 7        42.279                                                                    39062542.980 7 165286418.45207      -850.458 7        42.461
C20        48.000                                                                                                                                    22263866.353 8 115933842.22408     -1753.130 8        51.186                                                                    22263860.811 8  94205735.27408     -1424.465 8        50.093
C06        49.000                                                                                                                                    38184371.349 6 198836063.46906      -534.783 6        41.275    38184365.392 7 153752640.57207      -413.453 7        44.474    38184365.018 6 161570568.19506      -434.470 6        41.766
C16        50.000                                                                                                                                    38676900.796 7 201400788.62907      -635.660 7        42.332    38676900.256 7 155735874.23307      -491.473 7        43.173    38676897.880 6 163654636.74606      -516.432 6        39.517
S48        51.000    77098526.769 6 405156270.01106      -385.169 6        36.892
C19        52.000                                                                                                                                    22300430.183 8 116124252.21708       842.380 8        50.514                                                                    22300425.415 8  94360470.35508       684.558 8        49.790
C60        54.000                                                                                                                                    40566621.338 6 211241244.59406      -463.428 6        38.760                                                                    40566606.583 6 171650783.30606      -376.404 6        40.281
C37        56.000                                                                                                                                    25214471.905 7 131298378.69407      1330.863 7        42.578                                                                    25214475.430 7 106690704.47007      1081.548 7        43.488
C02        57.000                                                                                                                                    40516852.357 5 210981929.30605      -451.399 5        34.214    40516846.698 6 163144603.78306      -349.042 6        40.246    40516850.302 6 171440102.20606      -366.707 6        36.151
I03        58.000   131611636.791 6 440687085.73906       953.419 6        39.919
R07        59.000    21862519.417 7 117031797.68407      2643.947 7        47.501                                                                    21862518.921 7  91024731.20807      2056.516 7        42.711
> 2025 01 01 02 16 40.0000000  0 54
G28         1.000    23926984.831 6 125737169.74906     -2723.354 6        40.958                                    23926980.714 4  97976997.02604     -2122.077 4        24.361    23926981.547 6  97977003.02106     -2122.028 6        38.877
G31         2.000    22199711.490 7 116660287.00007     -1181.155 7        45.874                                    22199706.594 6  90904108.04406      -920.378 6        41.931    22199707.041 6  90904107.03406      -920.316 6        41.290
G09         3.000    21489775.240 7 112929568.59107      2309.674 7        46.882                                    21489773.087 7  87997075.81307      1799.747 7        46.855    21489773.194 7  87997076.80807      1799.811 7        42.866
E34         4.000    25517906.835 7 134097515.48007      1954.561 7        43.397                                                                    25517907.119 7 100137762.69307      1459.604 7        46.409    25517906.892 7 102750051.49707      1497.680 7        47.203
S21         5.000    38349942.196 7 201530141.00807      -390.205 7        42.627
E05         6.000    24293955.519 7 127665632.23307      2192.503 7        42.734                                                                    24293956.220 7  95334751.96407      1637.232 7        45.821    24293955.831 7  97821737.90607      1679.960 7        46.592
G21         7.000    24775392.821 6 130195614.53206     -3692.688 6        36.234                                    24775388.925 3 101451128.51703     -2877.424 3        18.716
E04         8.000    25038094.430 7 131576097.20807     -2515.748 7        44.217                                                                    25038092.716 7  98254882.55207     -1878.623 7        47.719    25038092.454 8 100818045.36608     -1927.614 8        48.462
R14         9.000    23293646.959 7 124168235.11607     -1665.080 7        43.640                                                                    23293648.063 6  96575279.40906     -1295.173 6        40.343
G04        10.000    20177819.162 8 106035199.26208       709.626 8        48.378                                    20177815.760 6  82624839.76906       552.957 6        40.274    20177815.983 8  82624834.77008       552.992 8        48.128
E09        11.000    23356793.693 8 122740827.80808       -73.958 8        48.539                                                                    23356792.866 8  91657128.87108       -55.175 8        50.677    23356792.432 8  94048183.63008       -56.622 8        51.204
S27        12.000    38981386.219 6 204848551.93006      -381.736 6        36.344
G06        13.000    22873692.497 7 120202088.34007      2603.458 7        42.425                                    22873690.762 6  93663968.93206      2028.671 6        40.102    22873691.565 6  93663979.93606      2028.710 6        41.707
S36        14.000    38117365.004 7 200308600.88407      -390.532 7        44.027
E21        15.000                                                                                                                                    28868718.088 5 113287050.99005       359.835 5        32.443    28868716.900 5 116242361.09405       368.527 5        32.485
E36        16.000    23315451.407 8 122523551.76208      -623.236 8        48.288                                                                    23315451.542 8  91494877.23608      -465.364 8        50.791    23315451.166 8  93881694.85708      -477.550 8        51.252
S45        17.000    63312186.373 6 332708744.20106      -429.690 6        37.448
G03        18.000    20120496.044 8 105733977.75008     -1480.779 8        49.405                                    20120494.108 8  82390131.99108     -1153.852 8        51.277    20120494.538 7  82390141.00007     -1153.884 7        45.696
R21        19.000    19566573.853 8 104704726.31408     -2050.203 8        52.850                                                                    19566572.515 7  81437018.68807     -1594.609 7        46.173
R20        20.000    22538247.992 5 120522168.16705     -4846.288 5        34.086                                                                    22538250.297 7  93739459.45307     -3769.328 7        42.082
R05        21.000    21606916.111 7 115501389.83207     -3648.378 7        47.573                                                                    21606915.175 7  89834419.00307     -2837.600 7        43.992
I06        22.000    38000821.620 7 149123613.96407      -210.948 7        42.758
S28        23.000    40784985.747 5 214326556.56805      -384.160 5        34.310
E10        24.000    27860263.862 6 146406783.85106     -3468.892 6        38.838                                                                    27860263.978 6 109329804.17406     -2590.505 6        41.480    27860263.901 7 112181876.97607     -2657.996 7        43.257
S23        25.000    38064302.553 7 200029281.29707      -386.177 7        44.196
E06        26.000    23543976.930 7 123724495.48407     -1367.998 7        47.669                                                                    23543976.479 8  92391668.45708     -1021.585 8        50.459    23543976.485 8  94801884.37408     -1048.231 8        51.660
R15        27.000    22626394.941 7 120908603.24007      1600.878 7        45.252                                                                    22626395.540 6  94040037.01706      1245.158 6        41.340
C22        30.000                                                                                                                                    25854733.906 6 134632387.56506      2437.170 6        40.787                                                                    25854728.711 6 109399825.31206      1980.641 6        41.189
I01        31.000   334085213.840 7   7881327.98507     -2612.169 7        42.643
G02        32.000    23007793.771 7 120906806.42607     -3510.609 7        44.135                                    23007788.301 5  94213090.03505     -2735.538 5        31.660
G19        33.000    22244939.021 7 116897973.78307      -992.421 7        44.182                                    22244933.156 5  91089350.81005      -773.308 5        31.698
G17        34.000    22970370.811 7 120710159.06007     -2493.888 7        43.757                                    22970366.396 6  94059873.18906     -1943.291 6        39.159    22970366.821 6  94059873.17806     -1943.233 6        40.219
E11        35.000    25267604.318 6 132782217.84706     -2981.639 6        41.657                                                                    25267600.656 7  99155568.64007     -2226.498 7        43.640    25267600.429 7 101742228.38507     -2284.660 7        44.065
C32        36.000                                                                                                                                    26418841.250 6 137569856.75806     -3252.201 6        40.713                                                                    26418842.032 6 111786785.78006     -2642.615 6        40.369
C35        37.000                                                                                                                                    22867795.832 8 119078630.50208      -461.521 8        48.349                                                                    22867794.272 7  96761140.90307      -374.937 7        47.902
I09        38.000    37204025.111 7 145996582.37907      -495.305 7        42.777
C29        39.000                                                                                                                                    23854172.606 7 124214930.43307     -3423.107 7        46.243                                                                    23854170.644 7 100934798.45107     -2781.430 7        45.469
R22        40.000    20989207.905 8 112041851.02308      2422.886 8        49.630                                                                    20989206.140 7  87143676.67907      1884.609 7        45.713
S44        42.000    40567066.235 6 213181555.57906      -467.435 6        37.618
C09        43.000                                                                                                                                    38450404.147 6 200221366.00706       -22.774 6        41.883    38450399.916 7 154823851.96607       -17.522 7        45.976    38450398.374 7 162696241.72307       -18.437 7        42.313
C05        44.000                                                                                                                                    39040896.029 6 203296220.64306      -406.397 6        39.066    39040891.201 7 157201556.74207      -314.180 7        43.215    39040893.088 6 165194934.46106      -330.043 6        40.489
R06        45.000    19369064.932 6 103357094.59306        98.539 6        41.185
C44        46.000                                                                                                                                    25078800.886 6 130591931.53606      1947.273 6        41.313                                                                    25078799.914 7 106116644.91307      1582.476 7        42.184
C39        47.000                                                                                                                                    39063551.640 7 203414178.63407     -1047.321 7        42.245                                                                    39063548.213 7 165290671.63407      -851.005 7        42.468
C20        48.000                                                                                                                                    22265550.237 8 115942610.34208     -1754.475 8        50.743                                                                    22265544.687 8  94212860.08908     -1425.533 8        50.106
C06        49.000                                                                                                                                    38184885.246 6 198838738.67706      -535.623 6        41.347    38184879.003 7 153754709.21407      -414.259 7        44.587    38184878.756 6 161572742.02106      -435.170 6        41.924
C16        50.000                                                                                                                                    38677511.381 7 201403967.89807      -636.331 7        42.286    38677510.669 7 155738332.65007      -492.156 7        43.151    38677508.409 6 163657220.17006      -517.105 6        39.649
S48        51.000    77098893.089 6 405158194.85306      -384.887 6        37.108
C19        52.000                                                                                                                                    22299621.821 8 116120043.35708       840.830 8        50.433                                                                    22299617.099 8  94357050.31708       683.367 8        49.852
C60        54.000                                                                                                                                    40567066.425 6 211243560.86406      -463.541 6        38.826                                                                    40567051.568 6 171652665.47206      -376.550 6        40.043
C37        56.000                                                                                                                                    25213194.646 7 131291728.43007      1328.909 7        42.447                                                                    25213198.353 7 106685300.60207      1079.767 7        43.850
C02        57.000                                                                                                                                    40517286.266 5 210984185.23605      -451.240 5        34.400    40517279.990 6 163146348.21706      -349.045 6        40.100    40517283.504 6 171441935.34306      -366.725 6        36.193
I03        58.000   131610421.904 6 440682318.66806       953.162 6        39.787
R07        59.000    21860051.101 8 117018580.99908      2642.434 8        48.309                                                                    21860049.728 7  91014451.53807      2055.284 7        42.576
> 2025 01 01 02 16 45.0000000  0 54
G28         1.000    23929576.980 6 125750791.67306     -2725.571 6        40.741                                    23929572.918 4  97987611.51104     -2123.824 4        24.331    23929573.548 6  97987617.52606     -2123.973 6        39.177
G31         2.000    22200836.665 7 116666200.32107     -1184.520 7        45.646                                    22200831.851 6  90908715.82306      -923.002 6        41.990    22200832.535 6  90908714.82306      -923.010 6        41.535
G09         3.000    21487577.978 7 112918023.76307      2308.002 7        46.815                                    21487576.152 7  87988079.84507      1798.444 7        46.964    21487576.354 7  87988080.83807      1798.387 7        42.849
E34         4.000    25516047.510 7 134087744.29407      1953.704 7        43.223                                                                    25516047.782 7 100130466.03207      1458.882 7        46.314    25516047.399 7 102742564.48807      1496.997 7        47.230
S21         5.000    38350316.394 7 201532091.01707      -390.140 7        42.773
E05         6.000    24291869.639 7 127654671.25807      2191.509 7        42.533                                                                    24291870.386 7  95326566.82707      1636.520 7        45.723    24291869.957 7  97813339.24207      1679.258 7        46.544
G21         7.000    24778905.664 6 130214077.99806     -3692.906 6        36.159                                    24778902.239 3 101465515.62503     -2877.579 3        18.597
E04         8.000    25040488.421 7 131588677.24507     -2516.649 7        44.147                                                                    25040486.652 7  98264276.72907     -1879.289 7        47.676    25040486.364 8 100827684.61208     -1928.334 8        48.520
R14         9.000    23295210.446 7 124176569.46907     -1668.864 7        44.918                                                                    23295212.088 6  96581761.68006     -1298.166 6        39.147
G04        10.000    20177144.773 8 106031656.19408       707.215 8        48.344                                    20177141.573 6  82622078.93806       551.077 6        40.405    20177141.805 8  82622073.93608       551.111 8        48.248
E09        11.000    23356864.803 8 122741200.93608       -75.647 8        48.276                                                                    23356863.863 8  91657407.50508       -56.445 8        50.556    23356863.473 8  94048469.53708       -57.950 8        51.253
S27        12.000    38981748.153 6 204850458.75106      -381.323 6        36.295
G06        13.000    22871215.759 7 120189073.38707      2602.108 7        42.487                                    22871214.101 6  93653827.40706      2027.617 6        40.207    22871214.825 6  93653838.40806      2027.635 6        41.619
S36        14.000    38117733.868 7 200310551.34407      -390.003 7        44.200
E21        15.000                                                                                                                                    28868260.803 5 113285257.16905       357.791 5        33.748    28868260.228 5 116240520.41805       367.529 5        34.376
E36        16.000    23316045.009 8 122526671.93208      -625.176 8        48.128                                                                    23316045.276 8  91497207.23708      -466.870 8        50.726    23316044.916 8  93884085.63608      -479.063 8        51.300
S45        17.000    63312551.750 6 332710891.91006      -429.550 6        37.743
G03        18.000    20121905.621 8 105741385.34208     -1482.565 8        49.236                                    20121903.729 8  82395904.14308     -1155.244 8        51.333    20121904.082 7  82395913.14507     -1155.265 7        45.535
R21        19.000    19568491.458 8 104714986.84808     -2054.343 8        52.741                                                                    19568490.329 7  81444999.09607     -1597.882 7        46.378
R20        20.000    22542780.341 5 120546401.15005     -4847.234 5        34.081                                                                    22542782.319 7  93758307.32007     -3770.126 7        42.006
R05        21.000    21610328.689 7 115519631.92907     -3648.852 7        47.649                                                                    21610327.616 7  89848607.30907     -2838.088 7        43.185
I06        22.000    38001090.335 7 149124667.85707      -210.846 7        42.893
S28        23.000    40785356.489 5 214328475.93105      -383.922 5        34.052
E10        24.000    27863564.663 6 146424128.68206     -3469.228 6        38.817                                                                    27863564.624 6 109342756.47506     -2590.635 6        41.266    27863564.510 7 112195167.16607     -2658.260 7        43.039
S23        25.000    38064672.454 7 200031210.60407      -385.947 7        44.489
E06        26.000    23545279.236 7 123731338.54307     -1369.490 7        47.452                                                                    23545278.619 8  92396778.52508     -1022.699 8        50.358    23545278.674 8  94807127.75308     -1049.385 8        51.667
R15        27.000    22624899.639 7 120900606.08007      1597.656 7        45.910                                                                    22624898.586 6  94033817.00806      1242.527 6        41.092
C22        30.000                                                                                                                                    25852393.965 6 134620200.89806      2437.042 6        40.574                                                                    25852388.366 6 109389922.65706      1980.330 6        41.020
I01        31.000   334088541.826 7   7894388.06907     -2612.023 7        42.730
G02        32.000    23011135.088 7 120924361.66207     -3511.848 7        44.612                                    23011128.894 5  94226769.43505     -2736.506 5        32.030
G19        33.000    22245885.095 7 116902943.12607      -995.679 7        44.147                                    22245878.783 5  91093223.01905      -775.857 5        31.864
G17        34.000    22972744.315 7 120722632.07107     -2495.721 7        44.000                                    22972739.933 6  94069592.41806     -1944.715 6        39.285    22972740.411 6  94069592.39806     -1944.604 6        40.069
E11        35.000    25270441.800 6 132797128.62506     -2982.761 6        41.538                                                                    25270438.162 7  99166703.30507     -2227.443 7        43.500    25270437.833 7 101753653.52807     -2285.479 7        44.051
C32        36.000                                                                                                                                    26421964.148 6 137586116.52306     -3251.976 6        40.739                                                                    26421964.277 6 111799998.17706     -2642.591 6        40.322
C35        37.000                                                                                                                                    22868240.187 8 119080944.27908      -464.281 8        48.291                                                                    22868238.594 7  96763021.03707      -377.283 7        47.663
I09        38.000    37204656.341 7 145999058.30307      -495.375 7        42.889
C29        39.000                                                                                                                                    23857459.865 7 124232047.64207     -3424.081 7        45.947                                                                    23857457.758 7 100948707.58107     -2782.415 7        45.439
R22        40.000    20986939.464 8 112029742.66008      2419.999 8        49.956                                                                    20986937.275 7  87134259.07207      1882.203 7        45.621
S44        42.000    40567515.105 6 213183892.65006      -467.646 6        37.429
C09        43.000                                                                                                                                    38450425.369 6 200221480.36106       -23.347 6        41.900    38450421.716 7 154823940.40807       -18.103 7        45.913    38450420.260 7 162696334.64407       -18.930 7        42.148
C05        44.000                                                                                                                                    39041286.406 6 203298250.84706      -406.029 6        38.946    39041280.957 7 157203126.62307      -314.015 7        43.058    39041283.000 6 165196584.17506      -330.115 6        40.350
R06        45.000    19368973.951 6 103356607.27806        96.118 6        41.046
C44        46.000                                                                                                                                    25076931.840 6 130582199.17206      1945.368 6        41.104                                                                    25076930.865 7 106108736.56807      1580.698 7        42.042
C39        47.000                                                                                                                                    39064557.633 7 203419415.72707     -1047.877 7        42.341                                                                    39064553.963 7 165294927.20207      -851.514 7        42.408
C20        48.000                                                                                                                                    22267235.191 8 115951384.42408     -1755.523 8        50.800                                                                    22267229.656 8  94219989.75808     -1426.579 8        49.956
C06        49.000                                                                                                                                    38185399.411 6 198841417.54506      -536.267 6        40.911    38185393.637 7 153756780.68207      -414.651 7        44.658    38185393.174 6 161574918.81906      -435.772 6        41.695
C16        50.000                                                                                                                                    38678122.344 7 201407150.60607      -637.002 7        42.131    38678121.812 7 155740793.71507      -492.539 7        43.007    38678119.529 6 163659806.38906      -517.835 6        39.345
S48        51.000    77099260.160 6 405160119.08706      -384.712 6        37.176
C19        52.000                                                                                                                                    22298815.035 8 116115841.41808       839.630 8        50.264                                                                    22298810.153 8  94353635.90908       682.155 8        49.715
C60        54.000                                                                                                                                    40567511.025 6 211245876.66206      -463.238 6        38.589                                                                    40567496.208 6 171654547.24006      -376.374 6        39.952
C37        56.000                                                                                                                                    25211919.768 7 131285087.95307      1326.913 7        42.464                                                                    25211923.301 7 106679904.66107      1078.323 7        43.822
C02        57.000                                                                                                                                    40517719.450 5 210986440.81505      -451.251 5        34.290    40517713.263 6 163148092.38006      -348.916 6        40.167    40517716.822 6 171443768.17706      -366.621 6        36.083
I03        58.000   131609207.059 6 440677551.37606       953.382 6        39.802
R07        59.000    21857583.777 8 117005371.24908      2641.053 8        48.281                                                                    21857582.071 7  91004177.30207      2054.167 7        42.959
> 2025 01 01 02 16 50.0000000  0 54
G28         1.000    23932171.379 6 125764425.96206     -2728.030 6        40.708                                    23932167.394 4  97998235.63504     -2125.733 4        24.391    23932168.407 6  97998241.63106     -2125.635 6        40.031
G31         2.000    22201965.449 7 116672131.33907     -1187.896 7        45.603                                    22201960.470 7  90913337.39907      -925.635 7        42.100    22201961.132 6  90913336.40306      -925.573 6        41.597
G09         3.000    21485382.756 7 112906488.11007      2306.324 7        46.958                                    21485380.974 7  87979091.02807      1797.135 7        47.066    21485381.331 7  87979092.02107      1797.237 7        43.230
E34         4.000    25514189.202 7 134077978.48507      1952.768 7        43.579                                                                    25514189.381 7 100123173.38407      1458.223 7        46.350    25514189.003 7 102735081.59407      1496.318 7        47.394
S21         5.000    38350689.113 7 201534041.11707      -389.912 7        42.758
E05         6.000    24289784.623 7 127643715.22807      2190.824 7        42.701                                                                    24289785.387 7  95318385.37507      1636.037 7        45.716    24289785.140 7  97804944.36707      1678.713 7        46.638
G21         7.000    24782420.562 6 130232542.86106     -3692.841 6        36.038                                    24782416.152 3 101479903.81003     -2877.518 3        18.746
E04         8.000    25042883.102 7 131601262.28607     -2517.418 7        44.263                                                                    25042881.477 7  98273674.64707     -1879.850 7        47.693    25042881.240 8 100837327.69108     -1928.876 8        48.552
R14         9.000    23296777.886 7 124184923.73907     -1672.651 7        44.700                                                                    23296779.204 6  96588259.42506     -1300.913 6        39.658
G04        10.000    20176473.160 8 106028126.28408       704.802 8        48.336                                    20176469.841 6  82619328.36106       549.198 6        40.515    20176469.970 8  82619323.35408       549.211 8        48.389
E09        11.000    23356937.441 8 122741583.43008       -77.297 8        48.362                                                                    23356936.691 8  91657693.13608       -57.749 8        50.559    23356936.220 8  94048762.61108       -59.205 8        51.352
S27        12.000    38982109.996 6 204852365.64406      -381.052 6        36.306
G06        13.000    22868740.143 7 120176066.01807      2600.683 7        42.436                                    22868738.914 6  93643691.80206      2026.503 6        40.276    22868739.451 7  93643702.80007      2026.575 7        42.002
S36        14.000    38118104.127 7 200312500.58207      -389.815 7        43.996
E21        15.000                                                                                                                                    28867805.646 5 113283471.01005       356.580 5        32.790    28867805.045 5 116238687.71605       365.594 5        34.167
E36        16.000    23316640.771 7 122529802.65907      -627.119 7        47.898                                                                    23316641.038 8  91499545.11408      -468.259 8        50.672    23316640.643 8  93886484.50308      -480.511 8        51.319
S45        17.000    63312918.011 6 332713039.54206      -429.451 6        37.452
G03        18.000    20123317.160 8 105748802.49108     -1484.276 8        49.488                                    20123315.161 8  82401683.73808     -1156.579 8        51.437    20123315.710 7  82401692.74007     -1156.573 7        45.815
R21        19.000    19570412.859 8 104725268.97408     -2058.458 8        52.550                                                                    19570411.566 7  81452996.30507     -1601.022 7        46.400
R20        20.000    22547312.964 5 120570640.18005     -4848.393 5        33.623                                                                    22547314.755 7  93777159.86507     -3770.850 7        42.119
R05        21.000    21613741.882 7 115537877.62107     -3649.336 7        47.192                                                                    21613740.570 7  89862798.40007     -2838.427 7        42.510
I06        22.000    38001358.916 7 149125721.78107      -210.612 7        42.828
S28        23.000    40785720.059 5 214330395.00105      -383.774 5        34.438
E10        24.000    27866865.754 6 146441475.68106     -3469.588 6        38.763                                                                    27866865.774 6 109355710.40406     -2591.007 6        41.220    27866865.580 7 112208459.02907     -2658.423 7        43.175
S23        25.000    38065037.629 7 200033139.68507      -385.575 7        44.126
E06        26.000    23546582.937 7 123738189.82907     -1371.001 7        47.331                                                                    23546582.410 8  92401894.73908     -1023.747 8        50.313    23546582.489 8  94812377.43008     -1050.478 8        51.811
R15        27.000    22623405.819 7 120892626.30907      1594.327 7        46.159                                                                    22623405.107 6  94027610.53006      1239.961 6        41.046
C22        30.000                                                                                                                                    25850053.984 6 134608016.28506      2436.782 6        41.068                                                                    25850048.340 6 109380021.67406      1980.184 6        41.209
I01        31.000   334091870.079 7   7907448.59607     -2612.078 7        42.821
G02        32.000    23014476.696 7 120941923.23907     -3512.837 7        44.918                                    23014470.717 5  94240453.77805     -2737.276 5        32.120
G19        33.000    22246833.579 7 116907929.61907      -998.881 7        44.516                                    22246827.626 5  91097108.59705      -778.348 5        32.012
G17        34.000    22975119.477 7 120735115.07907     -2497.404 7        43.780                                    22975115.380 6  94079319.43206     -1946.027 6        39.357    22975114.919 6  94079319.42506     -1946.037 6        39.405
E11        35.000    25273280.307 6 132812045.54806     -2983.966 6        41.204                                                                    25273276.891 7  99177842.55807     -2228.242 7        43.486    25273276.331 7 101765083.36907     -2286.287 7        44.170
C32        36.000                                                                                                                                    26425086.360 6 137602376.08806     -3251.704 6        40.610                                                                    26425086.690 6 111813210.40006     -2642.234 6        40.613
C35        37.000                                                                                                                                    22868687.224 8 119083272.30608      -466.973 8        48.309                                                                    22868685.698 7  96764912.75007      -379.447 7        47.878
I09        38.000    37205287.523 7 146001534.79007      -495.255 7        42.899
C29        39.000                                                                                                                                    23860748.438 7 124249170.91207     -3425.192 7        45.512                                                                    23860746.181 7 100962621.62907     -2783.223 7        45.505
R22        40.000    20984674.665 8 112017650.18408      2417.000 8        50.429                                                                    20984672.854 7  87124853.79107      1879.951 7        46.164
S44        42.000    40567955.926 6 213186229.59406      -467.225 6        37.508
C09        43.000                                                                                                                                    38450448.071 6 200221598.71906       -23.907 6        41.888    38450444.410 7 154824031.92407       -18.456 7        45.862    38450442.966 7 162696430.81807       -19.399 7        42.294
C05        44.000                                                                                                                                    39041676.139 6 203300281.06206      -405.935 6        38.865    39041670.623 7 157204696.49607      -313.866 7        43.082    39041672.863 6 165198233.87006      -329.832 6        40.422
R06        45.000    19368884.496 6 103356132.89506        93.710 6        40.837
C44        46.000                                                                                                                                    25075064.825 6 130572476.25706      1943.713 6        41.039                                                                    25075063.754 7 106100835.88207      1579.505 7        42.155
C39        47.000                                                                                                                                    39065563.924 7 203424656.08507     -1048.295 7        42.057                                                                    39065560.296 7 165299185.41907      -851.715 7        42.476
C20        48.000                                                                                                                                    22268921.396 8 115960164.81108     -1756.550 8        50.798                                                                    22268915.727 8  94227124.53808     -1427.366 8        50.095
C06        49.000                                                                                                                                    38185914.533 6 198844100.40806      -536.812 6        40.970    38185908.589 7 153758855.24607      -415.021 7        44.751    38185908.510 7 161577098.88207      -436.312 7        42.036
C16        50.000                                                                                                                                    38678734.177 7 201410337.11207      -637.691 7        42.066    38678733.640 7 155743257.70207      -492.892 7        43.001    38678731.483 6 163662395.64806      -517.836 6        39.676
S48        51.000    77099624.749 6 405162043.21506      -384.551 6        37.433
C19        52.000                                                                                                                                    22298009.640 8 116111646.76508       838.311 8        50.240                                                                    22298004.659 8  94350227.40708       681.229 8        49.835
C60        54.000                                                                                                                                    40567955.902 6 211248192.35906      -463.088 6        38.700                                                                    40567940.763 6 171656428.94306      -376.157 6        40.031
C37        56.000                                                                                                                                    25210646.987 7 131278457.57407      1325.143 7        42.654                                                                    25210649.978 7 106674516.95607      1076.730 7        44.077
C02        57.000                                                                                                                                    40518152.312 5 210988696.37205      -450.933 5        34.214    40518146.402 6 163149836.51006      -348.810 6        40.400    40518149.613 6 171445601.00006      -366.412 6        36.246
I03        58.000   131607991.883 6 440672784.16806       953.483 6        39.661
R07        59.000    21855117.440 8 116992168.99608      2639.852 8        48.287                                                                    21855115.931 7  90993908.88807      2053.131 7        42.918
> 2025 01 01 02 16 55.0000000  0 54
G28         1.000    23934768.263 6 125778072.52806     -2730.499 6        40.367                                    23934764.356 4  98008869.32204     -2127.655 4        24.647    23934765.094 6  98008875.30906     -2127.555 6        40.098
G31         2.000    22203097.257 7 116678079.99407     -1191.464 7        45.312                                    22203092.497 7  90917972.71507      -928.414 7        42.138    22203092.761 6  90917971.71606      -928.465 6        41.511
G09         3.000    21483189.723 7 112894961.57507      2304.342 7        46.607                                    21483187.540 7  87970109.31307      1795.590 7        47.115    21483188.110 7  87970110.31407      1795.676 7        43.869
E34         4.000    25512331.845 7 134068217.98707      1951.609 7        43.591                                                                    25512331.940 7 100115884.69207      1457.376 7        46.262    25512331.740 7 102727602.76707      1495.387 7        47.233
S21         5.000    38351054.485 7 201535991.18907      -390.040 7        42.622
E05         6.000    24287701.115 7 127632764.09607      2189.749 7        43.136                                                                    24287701.493 7  95310207.58807      1635.229 7        45.609    24287701.181 7  97796553.24407      1677.903 7        46.597
G21         7.000    24785934.093 6 130251009.13306     -3693.300 6        36.370                                    24785930.203 3 101494293.11403     -2877.899 3        18.716
E04         8.000    25045278.863 7 131613852.27207     -2518.491 7        44.310                                                                    25045277.286 7  98283076.26907     -1880.709 7        47.519    25045277.035 8 100846974.56908     -1929.724 8        48.574
R14         9.000    23298348.321 7 124193297.85707     -1676.800 7        44.470                                                                    23298349.926 6  96594772.59006     -1304.121 6        40.467
G04        10.000    20175803.888 8 106024609.47308       702.024 8        48.262                                    20175800.632 6  82616587.99006       547.030 6        40.543    20175800.644 8  82616582.98508       547.059 8        48.508
E09        11.000    23357012.067 8 122741975.22808       -79.286 8        48.566                                                                    23357011.238 8  91657985.71608       -59.220 8        50.472    23357010.766 8  94049062.82608       -60.739 8        51.261
S27        12.000    38982476.558 6 204854272.07406      -381.428 6        36.132
G06        13.000    22866266.495 7 120163066.18707      2599.200 7        42.620                                    22866265.146 6  93633562.06906      2025.350 6        40.369    22866265.469 6  93633573.05306      2025.405 6        41.402
S36        14.000    38118478.339 7 200314449.48307      -389.891 7        43.996
E21        15.000                                                                                                                                    28867352.719 5 113281693.05605       354.675 5        33.431    28867351.724 5 116236863.37005       363.918 5        34.562
E36        16.000    23317238.615 8 122532943.87208      -629.255 8        48.357                                                                    23317238.787 8  91501890.82508      -469.940 8        50.570    23317238.449 8  93888891.40608      -482.187 8        51.268
S45        17.000    63313286.956 6 332713586.99316      -429.473 6        37.936
G03        18.000    20124730.434 8 105756229.11508     -1486.329 8        49.677                                    20124728.399 8  82407470.71808     -1158.176 8        51.469    20124728.958 7  82407479.72007     -1158.244 7        45.694
R21        19.000    19572338.060 8 104735572.69208     -2062.839 8        52.274                                                                    19572336.866 7  81461010.30407     -1604.430 7        46.097
R20        20.000    22551847.163 5 120594884.97605     -4849.406 5        34.390                                                                    22551848.889 6  93796016.95306     -3771.846 6        41.721
R05        21.000    21617156.313 7 115556126.81407     -3650.150 7        47.961                                                                    21617154.974 7  89876992.21107     -2839.034 7        43.075
I06        22.000    38001627.285 7 149126775.70807      -210.730 7        42.809
S28        23.000    40786083.803 5 214332314.10805      -383.679 5        34.086
E10        24.000    27870167.284 6 146458824.78506     -3469.968 6        38.691                                                                    27870167.152 6 109368665.89506     -2591.234 6        41.101    27870166.925 7 112221752.49807     -2658.901 7        42.775
S23        25.000    38065404.911 7 200035068.57207      -385.768 7        44.181
E06        26.000    23547888.203 7 123745049.25107     -1372.702 7        47.601                                                                    23547887.703 8  92407017.03708     -1025.032 8        50.245    23547887.762 8  94817633.35208     -1051.774 8        51.676
R15        27.000    22621915.496 7 120884663.82907      1590.816 7        45.988                                                                    22621914.619 6  94021417.48806      1237.349 6        41.018
C22        30.000                                                                                                                                    25847714.315 6 134595833.65206      2436.271 6        41.297                                                                    25847708.699 6 109370122.30406      1979.777 6        41.373
I01        31.000   334095198.511 7   7920509.51607     -2612.122 7        42.698
G02        32.000    23017819.556 7 120959491.15307     -3514.135 7        44.387                                    23017813.849 5  94254143.05605     -2738.288 5        32.251
G19        33.000    22247785.819 7 116912933.22007     -1002.390 7        44.346                                    22247779.799 5  91101007.50105      -781.083 5        31.970
G17        34.000    22977496.880 7 120747608.07707     -2499.649 7        44.397                                    22977492.705 6  94089054.23006     -1947.779 6        39.532    22977492.607 6  94089054.24006     -1947.805 6        39.360
E11        35.000    25276119.879 6 132826968.54106     -2985.208 6        40.849                                                                    25276116.778 7  99188986.35407     -2229.177 7        43.827    25276116.013 7 101776517.87807     -2287.331 7        44.141
C32        36.000                                                                                                                                    26428208.855 6 137618635.38306     -3251.843 6        40.901                                                                    26428209.285 6 111826422.41606     -2642.271 6        40.753
C35        37.000                                                                                                                                    22869136.897 8 119085614.55508      -469.932 8        48.252                                                                    22869135.483 7  96766816.00907      -381.750 7        47.965
I09        38.000    37205918.806 7 146004011.80407      -495.434 7        42.986
C29        39.000                                                                                                                                    23864037.587 7 124266300.15407     -3426.455 7        45.589                                                                    23864035.716 7 100976540.52507     -2784.212 7        45.559
R22        40.000    20982412.496 8 112005573.58808      2413.827 8        50.959                                                                    20982410.238 7  87115460.89207      1877.320 7        46.072
S44        42.000    40568400.831 6 213188566.34106      -467.091 6        36.987
C09        43.000                                                                                                                                    38450471.862 7 200221721.04307       -24.844 7        42.171    38450468.299 7 154824126.52007       -19.292 7        46.148    38450466.551 7 162696530.20507       -20.041 7        42.332
C05        44.000                                                                                                                                    39042065.590 6 203302311.18406      -405.955 6        38.583    39042060.513 7 157206266.32307      -313.860 7        43.376    39042062.560 6 165199883.51006      -329.844 6        40.441
R06        45.000    19368798.127 6 103355671.28506        91.108 6        40.999
C44        46.000                                                                                                                                    25073200.086 6 130562762.70606      1941.864 6        40.951                                                                    25073198.393 7 106092942.83207      1577.932 7        42.063
C39        47.000                                                                                                                                    39066570.921 7 203429899.67607     -1049.146 7        42.144                                                                    39066567.297 7 165303446.26707      -852.442 7        42.476
C20        48.000                                                                                                                                    22270608.848 8 115968951.47808     -1757.981 8        50.889                                                                    22270603.084 8  94234264.41808     -1428.422 8        50.080
C06        49.000                                                                                                                                    38186430.467 6 198846787.20606      -537.827 6        40.951    38186424.747 7 153760932.84307      -415.760 7        44.760    38186424.463 7 161579282.10307      -436.856 7        42.004
C16        50.000                                                                                                                                    38679346.847 7 201413527.29907      -638.311 7        42.408    38679346.820 7 155745724.57307      -493.628 7        43.244    38679344.194 6 163664987.95406      -518.545 6        39.748
S48        51.000    77099990.823 6 405163967.21006      -384.917 6        37.376
C19        52.000                                                                                                                                    22297205.428 8 116107459.33908       836.807 8        50.315                                                                    22297200.488 8  94346824.77708       680.018 8        49.886
C60        54.000                                                                                                                                    40568400.368 6 211250507.89006      -462.986 6        38.601                                                                    40568385.435 6 171658310.49706      -376.272 6        40.193
C37        56.000                                                                                                                                    25209375.252 7 131271837.27107      1323.022 7        42.925                                                                    25209378.538 7 106669137.40907      1075.193 7        44.117
C02        57.000                                                                                                                                    40518585.697 5 210990951.85005      -450.968 5        34.267    40518579.479 6 163151580.57606      -348.772 6        40.522    40518583.029 6 171447433.76306      -366.645 6        36.340
I03        58.000   131606777.722 6 440668016.97006       953.447 6        39.799
R07        59.000    21852651.998 8 116978974.01908      2638.278 8        48.340                                                                    21852650.620 7  90983646.13507      2051.874 7        42.627
