     3.04           OBSERVATION DATA    M                   RINEX VERSION / TYPE
ssrcrin-15.6.1x                         20250101 010000 UTC PGM / RUN BY / DATE 
(00000000023479385599111004) Septentrio proprietary         COMMENT             
rref                                                        MARKER NAME         
01                                                          MARKER NUMBER       
geodetic                                                    MARKER TYPE         
NFB                 CLIMERS@TUW                             OBSERVER / AGENCY   
3297213             SEPT ASTERX SB3 PROB4.14.4              REC # / TYPE / VERS 
Unknown             Unknown                                 ANT # / TYPE        
  4127831.6633  1207192.9818  4695247.3798                  APPROX POSITION XYZ 
        0.0000        0.0000        0.0000                  ANTENNA: DELTA H/E/N
G   23 X1  C1C L1C D1C S1C C1W S1W C2W L2W D2W S2W C2L L2L  SYS / # / OBS TYPES 
       D2L S2L C5Q L5Q D5Q S5Q C1L L1L D1L S1L              SYS / # / OBS TYPES 
E   21 X1  C1C L1C D1C S1C C6C L6C D6C S6C C5Q L5Q D5Q S5Q  SYS / # / OBS TYPES 
       C7Q L7Q D7Q S7Q C8Q L8Q D8Q S8Q                      SYS / # / OBS TYPES 
S    9 X1  C1C L1C D1C S1C C5I L5I D5I S5I                  SYS / # / OBS TYPES 
R   17 X1  C1C L1C D1C S1C C2P L2P D2P S2P C2C L2C D2C S2C  SYS / # / OBS TYPES 
       C3Q L3Q D3Q S3Q                                      SYS / # / OBS TYPES 
C   25 X1  C1P L1P D1P S1P C5P L5P D5P S5P C2I L2I D2I S2I  SYS / # / OBS TYPES 
       C7I L7I D7I S7I C6I L6I D6I S6I C7D L7D D7D S7D      SYS / # / OBS TYPES 
J   17 X1  C1C L1C D1C S1C C2L L2L D2L S2L C5Q L5Q D5Q S5Q  SYS / # / OBS TYPES 
       C1L L1L D1L S1L                                      SYS / # / OBS TYPES 
I    5 X1  C5A L5A D5A S5A                                  SYS / # / OBS TYPES 
SEPTENTRIO RECEIVERS OUTPUT ALIGNED CARRIER PHASES.         COMMENT             
NO FURTHER PHASE SHIFT APPLIED IN THE RINEX ENCODER.        COMMENT             
G L1C                                                       SYS / PHASE SHIFT   
G L2W                                                       SYS / PHASE SHIFT   
G L2L  0.00000                                              SYS / PHASE SHIFT   
G L5Q  0.00000                                              SYS / PHASE SHIFT   
G L1L  0.00000                                              SYS / PHASE SHIFT   
E L1C  0.00000                                              SYS / PHASE SHIFT   
E L6C  0.00000                                              SYS / PHASE SHIFT   
E L5Q  0.00000                                              SYS / PHASE SHIFT   
E L7Q  0.00000                                              SYS / PHASE SHIFT   
E L8Q  0.00000                                              SYS / PHASE SHIFT   
S L1C                                                       SYS / PHASE SHIFT   
S L5I                                                       SYS / PHASE SHIFT   
R L1C                                                       SYS / PHASE SHIFT   
R L2P  0.00000                                              SYS / PHASE SHIFT   
R L2C                                                       SYS / PHASE SHIFT   
R L3Q  0.00000                                              SYS / PHASE SHIFT   
C L1P  0.00000                                              SYS / PHASE SHIFT   
C L5P  0.00000                                              SYS / PHASE SHIFT   
C L2I                                                       SYS / PHASE SHIFT   
C L7I                                                       SYS / PHASE SHIFT   
C L6I                                                       SYS / PHASE SHIFT   
C L7D                                                       SYS / PHASE SHIFT   
J L1C                                                       SYS / PHASE SHIFT   
J L2L  0.00000                                              SYS / PHASE SHIFT   
J L5Q  0.00000                                              SYS / PHASE SHIFT   
J L1L  0.00000                                              SYS / PHASE SHIFT   
I L5A                                                       SYS / PHASE SHIFT   
  2025     1     1     1     0    0.0000000     GPS         TIME OF FIRST OBS   
 C1C    0.000 C2C    0.000 C2P    0.000                     GLONASS COD/PHS/BIS 
DBHZ                                                        SIGNAL STRENGTH UNIT
    18                                                      LEAP SECONDS        
 24 R01  1 R02 -4 R03  5 R04  6 R05  1 R06 -4 R07  5 R08  6 GLONASS SLOT / FRQ #
    R09 -2 R10 -7 R11  0 R12 -1 R13 -2 R14 -7 R15  0 R16 -1 GLONASS SLOT / FRQ #
    R17  4 R18 -3 R19  3 R20  2 R21  4 R22 -3 R23  3 R24  2 GLONASS SLOT / FRQ #
                                                            END OF HEADER       
> 2025 01 01 01 00  0.0000000  0 54
G28         1.000    23317722.090 7 122535469.90207        85.487 7        42.643                                    23317718.352 4  95482165.51804        66.613 4        29.554    23317718.496 7  95482171.51607        66.576 7        42.775
G31         2.000    23147363.298 7 121640222.83807      1813.530 7        42.974                                    23147359.116 6  94784575.48106      1413.137 6        39.042    23147359.794 6  94784574.47306      1413.242 6        40.522
G09         3.000    24668912.661 6 129636024.66706      3375.086 6        37.293                                    24668912.169 5 101015087.26705      2629.943 5        31.977    24668913.092 5 101015088.27005      2629.952 5        35.395
E34         4.000    28082740.938 6 147575801.71006      2375.905 6        37.508                                                                    28082741.761 6 110202714.64306      1774.098 6        40.594    28082741.129 6 113077567.65006      1820.477 6        41.187
S21         5.000    38588109.985 7 202781727.62807      -424.987 7        42.074
E05         6.000    27097572.689 5 142398713.92205      2718.548 5        35.790                                                                    27097574.517 6 106336721.62406      2029.946 6        38.958    27097574.058 6 109110716.27206      2082.927 6        40.005
G21         7.000    22423063.240 7 117834052.09707     -2866.055 7        44.811                                    22423058.403 5  91818745.50105     -2233.290 5        32.850
E04         8.000    23985170.723 7 126042948.13207     -1080.571 7        47.093                                                                    23985168.809 8  94122986.21008      -806.950 8        50.416    23985168.555 8  96578360.33908      -827.991 8        51.530
R14         9.000    24045260.987 7 128174784.20607      1865.039 7        43.433                                                                    24045261.154 6  99691489.70106      1450.525 6        38.766
G04        10.000    22364386.656 7 117525679.00607      2766.836 7        44.944                                    22364383.800 5  91578458.07705      2155.978 5        33.269    22364383.979 7  91578453.09007      2155.968 7        43.407
E09        11.000    24650727.589 7 129540491.96507      1643.595 7        47.114                                                                    24650727.208 8  96734798.67908      1227.317 8        49.110    24650726.740 8  99258314.55408      1259.389 8        50.092
S27        12.000    39231133.400 5 206160977.04805      -407.583 5        35.829
S36        14.000    38355652.462 7 201560807.70807      -424.821 7        43.659
E36        16.000    24122207.348 7 126763083.60407       978.668 7        47.407                                                                    24122207.573 8  94660761.52808       730.865 8        50.413    24122207.177 8  97130167.42308       749.912 8        51.120
S45        17.000    63554881.644 6 333983514.45506      -466.337 6        37.248
G03        18.000    20207735.475 8 106192424.56108       336.583 8        49.896                                    20207733.443 8  82747363.37508       262.274 8        51.534    20207733.951 7  82747372.38007       262.245 7        45.684
R21        19.000    20130283.778 8 107721254.65708      1813.897 8        51.963                                                                    20130282.309 7  83783208.14807      1410.836 7        46.510
R20        20.000    19820351.670 6 105988371.08006     -2467.410 6        40.803                                                                    19820352.603 7  82435398.65107     -1919.052 7        46.613
R05        21.000    19600372.302 8 104775268.14108     -2058.532 8        51.752                                                                    19600371.558 7  81491881.15707     -1601.095 7        47.288
I06        22.000    38344972.138 7 150474136.70207      -218.517 7        42.665
S28        23.000    41029158.102 5 215609670.80505      -417.471 5        34.186
E10        24.000    25701108.030 7 135060354.37407     -2716.480 7        44.266                                                                    25701107.355 7 100856824.49107     -2028.558 7        47.457    25701107.397 8 103487862.66808     -2081.552 8        48.293
S23        25.000    38305879.632 7 201298736.90107      -421.382 7        44.773
E06        26.000    23696985.783 8 124528559.66808       434.810 8        48.138                                                                    23696985.199 8  92992105.42408       324.725 8        50.327    23696985.273 8  95417984.97708       333.171 8        51.198
E30        27.000    28884624.243 5 151789735.17005     -1554.919 5        35.448                                                                    28884626.723 6 113349479.28506     -1161.211 6        38.793    28884625.928 6 116306419.93206     -1191.708 6        39.922
E12        28.000    28024351.932 5 147269103.01205     -3181.018 5        35.429                                                                    28024349.544 6 109973752.76906     -2375.457 6        39.228    28024349.385 6 112842621.17606     -2437.529 6        40.336
E19        30.000    27549070.504 5 144771349.14605     -3261.914 5        33.090                                                                    27549069.329 6 108108471.88606     -2435.841 6        36.329    27549069.517 6 110928690.45606     -2499.432 6        37.456
G32        31.000    24789312.445 6 130268729.12706     -3727.281 6        40.651                                    24789310.929 5 101508096.09305     -2904.373 5        33.515    24789311.633 6 101508101.08306     -2904.504 6        37.422
G02        32.000    21213937.162 8 111480035.41708     -1794.547 8        48.943                                    21213930.723 6  86867556.75906     -1398.349 6        41.051
G19        33.000    23351646.237 6 122713759.79406      2034.140 6        41.371                                    23351640.500 4  95621131.99904      1585.043 4        28.398
G17        34.000    22402965.709 7 117728436.66907        -2.639 7        44.849                                    22402961.620 7  91736455.14207        -2.059 7        43.433    22402962.165 7  91736455.14807        -2.149 7        42.353
E11        35.000    23823672.832 7 125194314.22307     -1617.636 7        44.755                                                                    23823668.529 7  93489279.44707     -1207.829 7        46.812    23823668.279 7  95928122.66507     -1239.429 7        47.811
C32        36.000                                                                                                                                    24202513.703 7 126028864.61507     -2990.814 7        46.458                                                                    24202513.706 7 102408786.20507     -2430.343 7        46.912
C35        37.000                                                                                                                                    24137432.507 7 125689963.13007      1834.046 7        45.819                                                                    24137431.383 7 102133389.98407      1490.306 7        45.612
I09        38.000    37281370.681 7 146300103.44607      -381.245 7        43.395
C29        39.000                                                                                                                                    22146615.783 8 115323242.96708     -1569.107 8        50.410                                                                    22146613.260 8  93709576.07908     -1275.046 8        48.810
R22        40.000    24492888.485 7 130744691.73707      3845.588 7        42.842                                                                    24492889.895 6 101690319.52806      2990.973 6        38.237
S44        42.000    40739739.478 6 214088961.25406      -495.991 6        38.177
C09        43.000                                                                                                                                    39350363.680 6 204907692.52106       708.784 6        40.772    39350361.263 7 158447615.84707       547.998 7        44.910    39350359.377 6 166504265.02506       575.980 6        41.478
C05        44.000                                                                                                                                    39270478.638 6 204491725.47806      -420.870 6        37.883    39270474.025 7 158125997.70107      -325.381 7        43.069    39270476.122 6 166166380.69806      -341.865 6        40.217
R06        45.000    21091124.110 6 112546321.65606      2480.625 6        39.216
R13        46.000    24038480.901 6 128364152.76906     -1407.861 6        38.111
C39        47.000                                                                                                                                    39040034.778 7 203291715.43007      -309.390 7        42.779                                                                    39040030.870 7 165191159.88007      -251.338 7        43.134
C20        48.000                                                                                                                                    21922304.569 8 114155239.74008      -256.393 8        51.950                                                                    21922298.654 8  92760475.14008      -208.291 8        49.322
C06        49.000                                                                                                                                    38652117.868 6 201271745.80906       264.729 6        40.141    38652113.238 7 155636064.12107       204.817 7        44.322    38652112.867 6 163549759.16006       215.171 6        41.497
C16        50.000                                                                                                                                    39042372.980 7 203303901.93507       139.490 7        42.197    39042373.647 7 157207481.75007       107.831 7        43.297    39042371.177 6 165201071.85406       113.295 6        39.456
S48        51.000    77341415.273 6 406432982.37906      -427.428 6        37.327
C19        52.000                                                                                                                                    24208828.300 7 126061772.20707      2099.534 7        46.601                                                                    24208823.644 7 102435517.67607      1706.021 7        47.173
R04        53.000    22964734.153 7 122975133.85807     -4336.477 7        44.567                                                                    22964733.061 6  95647332.83406     -3372.739 6        40.131
C60        54.000                                                                                                                                    40739739.436 6 212142717.40406      -491.452 6        39.366                                                                    40739723.617 6 172383304.68506      -399.193 6        40.040
C30        55.000                                                                                                                                    25100948.977 7 130707212.00107     -3810.331 7        43.062                                                                    25100949.213 7 106210312.69907     -3096.129 7        42.955
C02        57.000                                                                                                                                    40706495.883 5 211969453.41105      -466.293 5        33.701    40706489.870 6 163908220.91906      -360.409 6        40.319    40706492.924 6 172242547.13306      -379.024 6        36.907
I03        58.000   133326487.190 6 447416528.45706       960.889 6        40.713
C13        59.000                                                                                                                                    41493479.594 5 216067493.49005     -1093.519 5        33.222    41493481.088 5 167077131.81205      -845.925 5        34.805    41493479.465 5 175572565.96905      -888.771 5        33.659
> 2025 01 01 01 00  5.0000000  0 54
G28         1.000    23317642.797 7 122535050.71107        82.316 7        42.356                                    23317638.494 4  95481838.87904        64.144 4        29.858    23317638.610 7  95481844.87107        64.278 7        42.618
G31         2.000    23145638.565 7 121631161.29507      1811.039 7        43.786                                    23145634.871 6  94777514.54206      1411.199 6        39.171    23145635.089 6  94777513.53706      1411.305 6        40.508
G09         3.000    24665702.535 6 129619150.79206      3374.843 6        37.195                                    24665701.141 5 101001938.80805      2629.741 5        31.502    24665702.041 5 101001939.81405      2629.516 5        35.657
E34         4.000    28080480.526 6 147563922.58706      2375.930 6        37.338                                                                    28080480.972 6 110193843.85806      1774.327 6        40.379    28080480.513 6 113068465.45206      1820.618 6        41.108
S21         5.000    38588514.103 7 202783852.80907      -424.952 7        42.136
E05         6.000    27094986.186 5 142385122.44705      2718.371 5        35.938                                                                    27094988.100 6 106326572.14406      2030.069 6        38.733    27094987.847 6 109100302.03806      2082.961 6        39.940
G21         7.000    22425791.063 7 117848385.76507     -2867.291 7        44.593                                    22425786.030 5  91829914.58905     -2234.255 5        32.772
E04         8.000    23986199.966 7 126048356.37207     -1082.524 7        47.136                                                                    23986197.925 8  94127024.83608      -808.401 8        50.418    23986197.710 8  96582504.32608      -829.493 8        51.382
R14         9.000    24043513.700 7 128165466.32907      1862.203 7        43.344                                                                    24043513.495 6  99684242.45206      1448.377 6        38.652
G04        10.000    22361754.954 7 117511848.75907      2765.352 7        45.102                                    22361751.951 5  91567681.26405      2154.818 5        33.222    22361751.901 7  91567676.26107      2154.858 7        43.494
E09        11.000    24649164.519 7 129532278.24107      1642.015 7        47.221                                                                    24649164.181 8  96728665.04908      1226.209 8        49.209    24649163.763 8  99252020.92208      1258.172 8        50.001
S27        12.000    39231522.069 5 206163014.18505      -407.551 5        35.719
S36        14.000    38356056.693 7 201562931.32807      -424.774 7        43.829
E36        16.000    24121276.716 7 126758193.09807       977.577 7        47.162                                                                    24121276.932 8  94657109.53108       729.959 8        50.510    24121276.566 8  97126420.15408       749.016 8        51.005
S45        17.000    63555283.165 6 333985846.50306      -466.435 6        37.112
G03        18.000    20207416.444 8 106190746.92108       334.669 8        49.764                                    20207414.214 8  82746056.12508       260.783 8        51.503    20207414.737 7  82746065.12907       260.709 7        45.893
R21        19.000    20128590.853 8 107712193.40508      1810.746 8        51.820                                                                    20128588.989 7  83776160.50307      1408.327 7        46.576
R20        20.000    19822659.891 6 106000717.08806     -2470.881 6        40.405                                                                    19822661.454 7  82445001.10507     -1921.825 7        46.686
R05        21.000    19602298.857 8 104785568.16008     -2061.388 8        51.899                                                                    19602298.545 7  81499892.27407     -1603.247 7        47.755
I06        22.000    38345250.463 7 150475229.20507      -218.330 7        42.660
S28        23.000    41029554.064 5 215611758.14505      -417.226 5        34.510
E10        24.000    25703692.941 7 135073939.60107     -2717.419 7        43.714                                                                    25703692.624 7 100866969.30507     -2029.333 7        47.443    25703692.521 8 103498272.12708     -2082.261 8        48.206
S23        25.000    38306281.443 7 201300843.76707      -421.185 7        44.694
E06        26.000    23696572.972 8 124526390.90708       432.771 8        48.202                                                                    23696572.558 8  92990485.90108       323.157 8        50.287    23696572.542 8  95416323.20508       331.551 8        51.086
E30        27.000    28886105.025 6 151797515.87306     -1556.936 6        36.000                                                                    28886107.481 6 113355289.54606     -1162.870 6        38.949    28886106.803 6 116312381.75206     -1192.997 6        39.664
E12        28.000    28027378.800 5 147285009.25305     -3181.345 5        35.419                                                                    28027376.315 6 109985630.83306     -2375.850 6        39.114    28027376.235 6 112854809.09206     -2437.854 6        40.162
E19        30.000    27552174.522 5 144787660.03005     -3262.403 5        32.695                                                                    27552173.402 5 108120652.04605     -2436.167 5        35.519    27552173.351 6 110941188.37606     -2499.722 6        37.021
G32        31.000    24792859.225 6 130287367.80106     -3727.997 6        40.246                                    24792857.923 5 101522619.73105     -2904.934 5        33.245    24792858.351 6 101522624.71706     -2904.976 6        37.645
G02        32.000    21215645.743 8 111489013.70708     -1796.677 8        49.103                                    21215639.209 6  86874552.82706     -1400.007 6        41.044
G19        33.000    23349712.408 6 122703595.19906      2031.615 6        41.759                                    23349706.273 4  95613211.53704      1583.078 4        28.322
G17        34.000    22402969.044 7 117728457.25107        -5.555 7        44.497                                    22402965.542 7  91736471.17807        -4.329 7        43.418    22402966.181 7  91736471.17507        -4.229 7        42.718
E11        35.000    23825212.900 7 125202406.04007     -1619.008 7        44.563                                                                    23825208.321 7  93495322.05007     -1209.012 7        46.814    23825208.121 7  95934322.90007     -1240.563 7        47.680
C32        36.000                                                                                                                                    24205385.897 7 126043820.74507     -2991.512 7        46.427                                                                    24205385.925 7 102420939.28507     -2430.863 7        46.929
C35        37.000                                                                                                                                    24135672.336 7 125680797.38507      1832.337 7        45.917                                                                    24135671.214 7 102125942.07007      1488.938 7        45.789
I09        38.000    37281856.561 7 146302010.17707      -381.318 7        43.399
C29        39.000                                                                                                                                    22148123.637 8 115331095.03708     -1571.599 8        50.358                                                                    22148121.177 8  93715956.53608     -1277.088 8        48.827
R22        40.000    24489286.528 7 130725463.73307      3845.569 7        44.352                                                                    24489286.970 6 101675364.39706      2991.152 6        39.736
S44        42.000    40740209.267 6 214091440.69006      -495.796 6        38.213
C09        43.000                                                                                                                                    39349683.559 6 204904150.97006       708.003 6        40.436    39349681.056 7 158444877.29607       547.399 7        44.841    39349679.324 6 166501387.23106       575.383 6        41.397
C05        44.000                                                                                                                                    39270882.702 6 204493829.29806      -420.599 6        37.784    39270878.076 7 158127624.51907      -325.288 7        43.048    39270880.160 6 166168090.23106      -341.823 6        40.253
R06        45.000    21088800.349 6 112533923.88406      2478.547 6        39.174
R13        46.000    24039801.222 6 128371201.70106     -1411.702 6        37.981
C39        47.000                                                                                                                                    39040332.401 7 203293264.71407      -310.165 7        42.891                                                                    39040328.420 7 165192418.81607      -252.151 7        43.189
C20        48.000                                                                                                                                    21922551.756 8 114156526.68308      -258.244 8        51.929                                                                    21922545.852 8  92761520.89208      -209.859 8        49.428
C06        49.000                                                                                                                                    38651864.197 6 201270424.05406       263.952 6        40.167    38651859.327 7 155635042.05807       204.084 7        44.430    38651859.023 6 163548685.11706       214.596 6        41.528
C16        50.000                                                                                                                                    39042240.053 7 203303206.80007       138.593 7        42.087    39042240.163 7 157206944.23007       107.153 7        43.318    39042237.735 6 165200506.99806       112.669 6        39.664
S48        51.000    77341816.677 6 406435118.41506      -427.016 6        37.338
C19        52.000                                                                                                                                    24206812.858 7 126051277.72907      2098.437 7        46.687                                                                    24206808.242 7 102426990.06307      1705.088 7        47.317
R04        53.000    22968784.194 7 122996816.92207     -4336.632 7        44.837                                                                    22968781.961 6  95664197.42106     -3372.991 6        40.102
C60        54.000                                                                                                                                    40740211.402 6 212145174.29106      -491.229 6        39.535                                                                    40740195.387 6 172385301.13806      -399.230 6        40.284
C30        55.000                                                                                                                                    25104607.968 7 130726265.05207     -3810.857 7        42.419                                                                    25104608.284 7 106225794.86407     -3096.626 7        43.035
C02        57.000                                                                                                                                    40706943.340 5 211971784.85305      -466.235 5        33.557    40706937.448 6 163910023.75006      -360.436 6        40.274    40706940.708 6 172244441.61806      -378.760 6        36.658
I03        58.000   133325262.717 6 447411724.29306       960.847 6        40.732
C13        59.000                                                                                                                                    41494528.044 5 216072961.76905     -1093.537 5        33.018    41494530.970 5 167081360.21505      -845.519 5        34.500    41494529.376 5 175577009.38505      -888.495 5        33.293
> 2025 01 01 01 00 10.0000000  0 54
G28         1.000    23317565.617 7 122534647.52407        79.116 7        42.885                                    23317561.783 4  95481524.71104        61.647 4        29.735    23317562.048 7  95481530.71007        61.617 7        42.396
G31         2.000    23143917.184 7 121622112.07907      1808.759 7        44.060                                    23143912.805 6  94770463.21006      1409.423 6        39.189    23143912.926 6  94770462.21306      1409.414 6        40.074
G09         3.000    24662492.013 6 129602279.10706      3374.248 6        37.905                                    24662490.561 5 100988792.04705      2629.283 5        31.426    24662490.911 6 100988793.05006      2629.194 6        36.147
E34         4.000    28078220.099 6 147552043.41406      2375.825 6        37.414                                                                    28078220.391 6 110184973.05706      1774.268 6        40.591    28078220.193 6 113059363.25206      1820.528 6        41.480
S21         5.000    38588919.290 6 202785978.10906      -424.973 6        41.845
E05         6.000    27092399.808 5 142371531.61405      2718.265 5        35.895                                                                    27092401.814 6 106316423.15706      2029.999 6        38.784    27092401.501 6 109089888.29106      2082.969 6        40.062
G21         7.000    22428519.851 7 117862726.62107     -2868.787 7        44.560                                    22428515.008 5  91841089.28305     -2235.419 5        32.772
E04         8.000    23987231.081 7 126053775.11007     -1084.671 7        47.048                                                                    23987229.070 8  94131071.29508      -809.970 8        50.360    23987228.852 8  96586656.33908      -831.071 8        51.406
R14         9.000    24041767.723 7 128156163.27307      1859.243 7        42.772                                                                    24041767.632 6  99677006.76306      1446.139 6        38.736
G04        10.000    22359124.437 7 117498026.62807      2763.798 7        44.773                                    22359121.689 5  91556910.77605      2153.603 5        33.204    22359121.970 7  91556905.78307      2153.585 7        43.941
E09        11.000    24647603.358 7 129524073.06307      1640.299 7        47.148                                                                    24647602.734 8  96722537.80908      1224.931 8        49.097    24647602.348 8  99245733.84108      1256.854 8        50.035
S27        12.000    39231908.493 5 206165051.02805      -407.213 5        35.657
S36        14.000    38356461.119 7 201565054.96707      -424.687 7        43.551
E36        16.000    24120347.268 7 126753309.15107       976.300 7        47.070                                                                    24120347.520 8  94653462.42808       729.035 8        50.389    24120347.159 8  97122677.90908       748.065 8        51.074
S45        17.000    63555680.759 6 333988178.50606      -466.297 6        37.093
G03        18.000    20207098.702 8 106189079.43608       332.668 8        49.482                                    20207096.898 8  82744756.78608       259.224 8        51.480    20207097.518 7  82744765.78707       259.251 7        45.786
R21        19.000    20126900.337 8 107703148.87008      1807.427 8        51.922                                                                    20126898.523 7  83769125.88207      1405.686 7        46.648
R20        20.000    19824972.499 6 106013081.59706     -2474.660 6        40.157                                                                    19824974.014 7  82454617.93007     -1924.686 7        46.634
R05        21.000    19604229.097 8 104795882.79908     -2064.204 8        51.517                                                                    19604227.811 7  81507914.77507     -1605.481 7        47.376
I06        22.000    38345529.340 7 150476321.76207      -218.466 7        42.586
S28        23.000    41029951.484 5 215613846.02405      -417.132 5        34.114
E10        24.000    25706279.500 7 135087530.57807     -2718.579 7        43.577                                                                    25706278.924 7 100877118.39707     -2030.059 7        47.521    25706278.642 8 103508685.98608     -2083.111 8        48.238
S23        25.000    38306682.328 7 201302950.55907      -421.214 7        44.573
E06        26.000    23696162.459 7 124524232.86407       430.657 7        47.980                                                                    23696161.867 8  92988874.37608       321.591 8        50.261    23696161.906 8  95414669.63808       330.003 8        51.136
E30        27.000    28887587.802 5 151805306.80505     -1559.054 5        34.790                                                                    28887589.708 6 113361107.42406     -1164.285 6        39.613    28887589.399 6 116318351.41206     -1194.669 6        39.739
E12        28.000    28030406.195 5 147300918.51005     -3182.091 5        35.005                                                                    28030403.833 6 109997511.10306     -2376.283 6        38.991    28030403.652 6 112866999.28606     -2438.255 6        39.946
E19        30.000    27555278.917 5 144803973.58005     -3262.738 5        32.784                                                                    27555277.706 5 108132834.25305     -2436.474 5        35.633    27555277.610 6 110953688.37506     -2500.079 6        36.960
G32        31.000    24796406.889 6 130306010.22506     -3728.685 6        40.095                                    24796405.569 5 101537146.29505     -2905.470 5        33.240    24796405.789 6 101537151.28906     -2905.389 6        37.671
G02        32.000    21217356.487 8 111498003.39308     -1798.962 8        49.009                                    21217349.873 6  86881557.77806     -1401.787 6        40.946
G19        33.000    23347780.383 6 122693443.86006      2029.111 6        41.204                                    23347774.537 4  95605301.40504      1581.121 4        28.379
G17        34.000    22402975.792 7 117728493.02107        -8.616 7        44.611                                    22402972.365 7  91736499.05307        -6.713 7        43.338    22402972.862 7  91736499.05307        -6.627 7        42.789
E11        35.000    23826754.017 7 125210506.04607     -1620.724 7        44.536                                                                    23826749.714 7  93501370.74607     -1210.193 7        46.883    23826749.495 7  95940529.39207     -1241.818 7        47.676
C32        36.000                                                                                                                                    24208258.756 7 126058780.74007     -2992.232 7        46.326                                                                    24208258.838 7 102433095.51807     -2431.536 7        46.867
C35        37.000                                                                                                                                    24133914.349 7 125671641.12007      1830.391 7        46.097                                                                    24133912.780 7 102118501.87807      1487.282 7        45.603
I09        38.000    37282342.544 7 146303917.75407      -381.522 7        43.378
C29        39.000                                                                                                                                    22149634.071 8 115338960.30808     -1574.267 8        50.378                                                                    22149631.625 8  93722347.72408     -1279.317 8        48.671
R22        40.000    24485684.460 7 130706236.21807      3845.595 7        43.052                                                                    24485685.236 6 101660409.69806      2990.918 6        37.546
S44        42.000    40740684.287 6 214093920.16406      -495.660 6        38.153
C09        43.000                                                                                                                                    39349004.683 6 204900613.36906       707.133 6        40.596    39349001.651 7 158442141.78807       546.844 7        44.755    39348999.940 6 166498512.64206       574.583 6        41.437
C05        44.000                                                                                                                                    39271286.347 6 204495933.19706      -420.793 6        37.584    39271281.949 7 158129251.38007      -325.339 7        43.046    39271284.144 6 166169799.83506      -341.962 6        40.105
R06        45.000    21086478.340 6 112521537.93806      2476.164 6        39.285
R13        46.000    24041123.977 6 128378270.65806     -1415.691 6        37.728
C39        47.000                                                                                                                                    39040630.872 7 203294818.77007      -311.129 7        42.880                                                                    39040626.914 7 165193681.62007      -252.912 7        43.056
C20        48.000                                                                                                                                    21922800.629 8 114157823.62708      -260.285 8        51.921                                                                    21922794.935 8  92762574.78008      -211.599 8        49.272
C06        49.000                                                                                                                                    38651611.382 6 201269106.96506       263.129 6        40.284    38651606.278 7 155634023.59907       203.427 7        44.482    38651606.208 6 163547614.90706       213.654 6        41.371
C16        50.000                                                                                                                                    39042107.821 7 203302516.29307       137.714 7        42.015    39042107.068 7 157206410.29007       106.510 7        43.401    39042105.200 6 165199945.91006       111.856 6        39.435
S48        51.000    77342216.203 6 406437254.54406      -427.273 6        37.376
C19        52.000                                                                                                                                    24204798.358 7 126040789.45907      2097.170 7        46.546                                                                    24204794.050 7 102418467.49207      1704.084 7        47.117
R04        53.000    22972834.110 7 123018501.88007     -4337.033 7        45.207                                                                    22972830.577 6  95681063.49306     -3373.229 6        39.333
C60        54.000                                                                                                                                    40740683.217 6 212147631.23906      -491.275 6        39.438                                                                    40740667.161 6 172387297.60806      -399.175 6        40.093
C30        55.000                                                                                                                                    25108267.147 7 130745321.56507     -3811.447 7        42.059                                                                    25108268.027 7 106241279.84107     -3097.281 7        43.172
C02        57.000                                                                                                                                    40707391.092 5 211974116.38205      -466.234 5        34.214    40707385.545 6 163911826.62506      -360.411 6        40.355    40707388.420 6 172246336.17306      -378.873 6        36.601
I03        58.000   133324038.817 6 447406920.29806       960.780 6        40.629
C13        59.000                                                                                                                                    41495579.900 5 216078429.90905     -1093.388 5        32.862    41495581.430 5 167085588.52205      -845.400 5        34.343    41495579.647 5 175581452.72705      -888.596 5        32.958
> 2025 01 01 01 00 15.0000000  0 54
G28         1.000    23317491.657 7 122534260.03807        76.180 7        43.247                                    23317488.041 4  95481222.77304        59.364 4        29.744    23317488.311 7  95481228.76707        59.439 7        42.629
G31         2.000    23142197.028 7 121613074.91507      1806.448 7        44.554                                    23142192.885 6  94763421.26606      1407.625 6        39.135    23142193.049 6  94763420.25406      1407.559 6        39.595
G09         3.000    24659281.091 6 129585409.29506      3373.944 6        38.375                                    24659280.531 5 100975646.75005      2629.041 5        31.623    24659280.900 6 100975647.75206      2629.028 6        36.480
E34         4.000    28075959.505 6 147540163.86006      2376.131 6        37.501                                                                    28075959.966 6 110176101.97106      1774.493 6        40.763    28075959.677 6 113050260.73906      1820.734 6        41.604
S21         5.000    38589324.044 7 202788103.23407      -424.778 7        42.148
E05         6.000    27089813.899 5 142357941.19505      2718.228 5        35.967                                                                    27089815.686 6 106306274.45506      2029.981 6        38.958    27089815.401 6 109079474.84506      2082.894 6        40.052
G21         7.000    22431250.295 7 117877074.43607     -2870.032 7        44.919                                    22431245.318 5  91852269.39405     -2236.385 5        32.713
E04         8.000    23988264.124 7 126059204.05007     -1086.575 7        46.907                                                                    23988262.172 8  94135125.37608      -811.407 8        50.438    23988261.932 8  96590816.17908      -832.531 8        51.407
R14         9.000    24040024.989 7 128146874.68907      1856.563 7        43.577                                                                    24040026.055 6  99669782.32406      1443.887 6        39.628
G04        10.000    22356495.828 7 117484212.35007      2762.302 7        45.081                                    22356492.907 5  91546146.41405      2152.440 5        33.401    22356493.057 7  91546141.41507      2152.303 7        43.954
E09        11.000    24646043.613 7 129515876.16307      1638.787 7        47.140                                                                    24646042.978 8  96716416.75308      1223.789 8        49.238    24646042.530 8  99239453.10408      1255.702 8        50.081
S27        12.000    39232296.366 5 206167087.69505      -406.876 5        35.876
S36        14.000    38356863.230 7 201567178.05207      -424.267 7        43.845
E36        16.000    24119419.141 7 126748431.49407       975.176 7        47.103                                                                    24119419.340 8  94649820.02108       728.248 8        50.484    24119418.962 8  97118940.48208       747.228 8        51.096
S45        17.000    63556079.552 6 333990510.23006      -466.056 6        37.089
G03        18.000    20206783.552 8 106187421.80008       330.768 8        49.748                                    20206781.452 8  82743465.12108       257.739 8        51.430    20206781.982 7  82743474.11407       257.760 7        45.839
R21        19.000    20125213.368 8 107694120.80508      1804.223 8        51.996                                                                    20125211.819 7  83762104.04107      1403.416 7        46.805
R20        20.000    19827288.258 6 106025464.31106     -2478.177 6        40.803                                                                    19827289.697 7  82464248.93907     -1927.419 7        46.650
R05        21.000    19606160.681 8 104806211.52108     -2066.907 8        51.847                                                                    19606160.013 7  81515948.22007     -1607.563 7        47.529
I06        22.000    38345807.524 7 150477414.15307      -218.175 7        42.766
S28        23.000    41030346.977 5 215615933.22305      -417.103 5        34.286
E10        24.000    25708866.810 7 135101127.00207     -2719.470 7        43.554                                                                    25708866.325 7 100887271.57007     -2030.801 7        47.604    25708865.912 8 103519104.01608     -2083.816 8        48.208
S23        25.000    38307083.585 7 201305056.97307      -421.004 7        44.725
E06        26.000    23695753.606 7 124522085.26207       428.721 7        47.843                                                                    23695753.194 8  92987270.64708       320.160 8        50.339    23695753.205 8  95413024.06808       328.565 8        51.220
E30        27.000    28889073.453 5 151813107.63805     -1560.849 5        34.424                                                                    28889074.181 6 113366932.70506     -1165.427 6        39.003    28889073.873 6 116324328.66006     -1196.082 6        39.721
E12        28.000    28033434.544 5 147316830.43305     -3182.368 5        35.267                                                                    28033431.861 6 110009393.38206     -2376.554 6        39.096    28033431.731 6 112879191.52806     -2438.592 6        39.868
E19        30.000    27558383.791 5 144820289.51905     -3263.451 5        32.485                                                                    27558382.539 5 108145018.23305     -2436.933 5        35.786    27558382.402 6 110966190.17906     -2500.376 6        36.960
G32        31.000    24799955.003 6 130324656.11006     -3729.363 6        40.255                                    24799953.882 5 101551675.55005     -2905.996 5        33.365    24799953.769 6 101551680.53606     -2905.993 6        37.648
G02        32.000    21219069.390 8 111507004.15708     -1801.032 8        49.027                                    21219062.661 6  86888571.36006     -1403.401 6        40.949
G19        33.000    23345850.773 6 122683305.51606      2026.753 6        41.139                                    23345845.264 4  95597401.40504      1579.287 4        28.190
G17        34.000    22402986.480 7 117728543.63107       -11.399 7        45.491                                    22402982.015 7  91736538.48707        -8.886 7        43.372    22402982.891 7  91736538.48207        -8.849 7        42.650
E11        35.000    23828296.816 7 125218613.91607     -1622.128 7        44.301                                                                    23828292.564 7  93507425.33007     -1211.336 7        46.791    23828292.425 7  95946741.91907     -1242.931 7        47.769
C32        36.000                                                                                                                                    24211132.219 7 126073744.31107     -2992.829 7        46.311                                                                    24211132.374 7 102445254.64907     -2432.093 7        46.990
C35        37.000                                                                                                                                    24132157.610 7 125662494.04507      1828.767 7        45.898                                                                    24132156.175 7 102111069.14407      1485.797 7        45.630
I09        38.000    37282829.031 7 146305825.98107      -381.463 7        43.537
C29        39.000                                                                                                                                    22151146.967 8 115346838.47608     -1576.688 8        50.447                                                                    22151144.486 8  93728749.38608     -1281.372 8        48.705
R22        40.000    24482082.723 7 130687009.12607      3845.857 7        42.337                                                                    24482082.565 6 101645455.37406      2991.108 6        37.577
S44        42.000    40741152.175 6 214096399.37206      -495.564 6        38.174
C09        43.000                                                                                                                                    39348326.493 6 204897079.38506       706.742 6        40.758    39348323.153 7 158439409.10807       546.466 7        44.615    39348321.245 6 166495641.00706       574.078 6        41.371
C05        44.000                                                                                                                                    39271690.353 6 204498036.88006      -420.417 6        37.743    39271686.134 7 158130878.07907      -325.033 7        42.910    39271688.101 6 166171509.26806      -341.789 6        40.234
R06        45.000    21084159.917 6 112509163.41506      2473.880 6        39.102
R13        46.000    24042451.515 6 128385359.27706     -1419.293 6        37.777
C39        47.000                                                                                                                                    39040930.083 7 203296377.31507      -311.863 7        42.914                                                                    39040926.278 7 165194948.08207      -253.662 7        43.084
C20        48.000                                                                                                                                    21923051.552 8 114159130.29808      -262.100 8        52.007                                                                    21923045.847 8  92763636.56308      -213.109 8        49.377
C06        49.000                                                                                                                                    38651359.785 6 201267794.26006       262.193 6        40.434    38651354.044 7 155633008.53407       202.790 7        44.459    38651354.000 6 163546548.22306       212.979 6        41.592
C16        50.000                                                                                                                                    39041976.028 7 203301830.15207       137.104 7        42.161    39041975.706 7 157205879.71807       105.959 7        43.225    39041973.375 6 165199388.39606       111.038 6        39.477
S48        51.000    77342619.641 6 406439390.30506      -426.750 6        37.263
C19        52.000                                                                                                                                    24202785.612 7 126030307.08107      2096.173 7        46.717                                                                    24202781.002 7 102409949.72607      1703.060 7        47.179
R04        53.000    22976883.252 7 123040188.38007     -4337.097 7        45.321                                                                    22976881.297 6  95697930.77006     -3373.333 6        39.390
C60        54.000                                                                                                                                    40741154.812 6 212150087.91106      -491.099 6        39.601                                                                    40741139.074 6 172389293.86906      -399.268 6        40.038
C30        55.000                                                                                                                                    25111927.127 6 130764381.22906     -3811.990 6        41.874                                                                    25111928.458 7 106256767.36907     -3097.737 7        43.560
C02        57.000                                                                                                                                    40707837.700 5 211976447.71105      -465.932 5        33.976    40707832.976 6 163913629.36806      -360.328 6        40.317    40707836.186 6 172248230.61206      -378.851 6        36.828
I03        58.000   133322814.505 6 447402116.24906       961.087 6        40.636
C13        59.000                                                                                                                                    41496629.345 5 216083897.78805     -1093.404 5        32.563    41496631.897 5 167089816.64505      -845.406 5        34.305    41496629.475 5 175585895.82105      -888.490 5        32.856
> 2025 01 01 01 00 20.0000000  0 54
G28         1.000    23317421.169 7 122533888.02207        72.943 7        43.192                                    23317417.229 4  95480932.88704        56.837 4        29.943    23317417.877 7  95480938.89707        56.782 7        42.650
G31         2.000    23140479.747 7 121604049.54007      1803.859 7        43.727                                    23140475.160 6  94756388.50006      1405.604 6        39.027    23140475.779 6  94756387.49006      1405.720 6        40.024
G09         3.000    24656070.716 6 129568541.15506      3373.266 6        38.366                                    24656070.751 5 100962502.75105      2628.509 5        31.660    24656070.619 6 100962503.74606      2628.504 6        36.144
E34         4.000    28073698.316 6 147528283.70306      2376.257 6        37.176                                                                    28073699.575 6 110167230.42906      1774.345 6        40.799    28073698.855 6 113041157.76906      1820.626 6        41.328
S21         5.000    38589728.082 7 202790228.07107      -425.084 7        42.142
E05         6.000    27087227.657 6 142344350.86506      2717.881 6        36.095                                                                    27087229.540 6 106296125.83806      2029.839 6        39.000    27087229.326 6 109069061.47506      2082.730 6        40.079
G21         7.000    22433981.787 7 117891428.89307     -2871.566 7        44.507                                    22433976.876 5  91863454.68805     -2237.587 5        32.826
E04         8.000    23989299.104 7 126064642.91807     -1088.839 7        46.708                                                                    23989297.143 8  94139186.86008      -813.082 8        50.494    23989296.919 8  96594983.61708      -834.286 8        51.341
R14         9.000    24038285.773 7 128137600.60207      1853.464 7        43.325                                                                    24038285.517 6  99662569.13406      1441.634 6        38.928
G04        10.000    22353868.736 7 117470405.66707      2760.592 7        45.293                                    22353865.623 5  91535387.97005      2151.105 5        33.515    22353865.857 7  91535382.97007      2151.114 7        44.479
E09        11.000    24644485.406 7 129507687.29507      1636.880 7        47.198                                                                    24644484.653 8  96710301.68008      1222.429 8        49.205    24644484.257 8  99233178.51208      1254.191 8        50.012
S27        12.000    39232685.223 5 206169123.75905      -407.050 5        35.900
S36        14.000    38357268.739 7 201569300.19907      -424.359 7        43.882
E36        16.000    24118492.023 7 126743559.87507       973.656 7        47.071                                                                    24118492.318 8  94646182.12008       727.141 8        50.498    24118491.930 8  97115207.68108       746.027 8        51.012
S45        17.000    63556479.986 6 333992841.41106      -466.273 6        37.021
G03        18.000    20206470.058 8 106185773.77408       328.612 8        49.755                                    20206467.835 8  82742180.94508       256.059 8        51.552    20206468.552 7  82742189.94207       256.077 7        45.821
R21        19.000    20123529.066 8 107685108.83808      1800.711 8        51.636                                                                    20123527.337 7  83755094.74107      1400.486 7        46.513
R20        20.000    19829607.957 6 106037864.99806     -2481.834 6        41.039                                                                    19829608.730 7  82473893.92507     -1930.452 7        46.844
R05        21.000    19608095.856 8 104816554.24808     -2069.970 8        51.962                                                                    19608094.935 7  81523992.56507     -1609.958 7        47.611
I06        22.000    38346085.743 7 150478506.19307      -218.455 7        42.872
S28        23.000    41030746.096 5 215618019.91805      -417.410 5        34.719
E10        24.000    25711455.214 7 135114728.61307     -2720.824 7        43.632                                                                    25711454.593 7 100897428.61107     -2031.783 7        47.763    25711454.144 8 103529526.02408     -2084.774 8        48.003
S23        25.000    38307483.209 7 201307162.64307      -421.023 7        44.736
E06        26.000    23695346.878 7 124519947.83107       426.474 7        47.729                                                                    23695346.454 8  92985674.50908       318.520 8        50.360    23695346.443 8  95411386.30108       326.751 8        51.106
E30        27.000    28890559.893 5 151820918.15105     -1563.006 5        35.324                                                                    28890560.638 6 113372765.28106     -1167.239 6        39.372    28890560.250 6 116330313.38306     -1197.672 6        40.007
E12        28.000    28036462.963 5 147332744.82005     -3183.170 5        35.090                                                                    28036460.071 6 110021277.49106     -2377.088 6        39.054    28036460.095 6 112891385.66606     -2439.115 6        40.021
E19        30.000    27561488.903 5 144836607.59605     -3263.423 5        32.335                                                                    27561487.561 5 108157203.81805     -2437.336 5        35.838    27561487.391 6 110978693.64506     -2500.868 6        36.801
G32        31.000    24803504.096 6 130343305.15806     -3730.134 6        40.138                                    24803502.750 5 101566207.27205     -2906.593 5        33.545    24803502.949 6 101566212.26906     -2906.747 6        37.429
G02        32.000    21220784.097 8 111516015.76908     -1803.394 8        48.807                                    21220777.533 6  86895593.39406     -1405.244 6        41.051
G19        33.000    23343924.092 6 122673180.03006      2023.858 6        41.924                                    23343918.402 4  95589511.41504      1577.032 4        28.502
G17        34.000    22402998.323 7 117728608.90207       -14.532 7        44.823                                    22402994.442 7  91736589.35007       -11.324 7        43.505    22402994.554 7  91736589.35607       -11.356 7        42.396
E11        35.000    23829841.255 7 125226729.41807     -1624.002 7        44.376                                                                    23829836.880 7  93513485.60107     -1212.727 7        46.925    23829836.699 7  95952960.28807     -1244.396 7        47.712
C32        36.000                                                                                                                                    24214006.577 7 126088711.20407     -2993.755 7        46.298                                                                    24214006.500 7 102457416.45207     -2432.570 7        46.828
C35        37.000                                                                                                                                    24130402.520 7 125653355.95707      1826.670 7        46.129                                                                    24130401.364 7 102103643.68207      1484.366 7        45.675
I09        38.000    37283315.320 7 146307734.64307      -381.760 7        43.693
C29        39.000                                                                                                                                    22152662.163 8 115354729.28008     -1579.442 8        50.404                                                                    22152659.810 8  93735161.29608     -1283.420 8        48.731
R22        40.000    24478480.949 7 130667781.95007      3845.489 7        43.172                                                                    24478481.016 6 101630500.89606      2990.844 6        38.066
S44        42.000    40741626.905 6 214098878.07106      -495.724 6        38.270
C09        43.000                                                                                                                                    39347648.414 6 204893548.84306       705.829 6        41.011    39347645.196 7 158436679.07107       545.604 7        44.689    39347643.101 6 166492772.14606       573.512 6        41.373
C05        44.000                                                                                                                                    39272094.280 6 204500140.12406      -420.439 6        37.750    39272089.882 7 158132504.44307      -325.244 7        42.961    39272092.032 6 166173218.29406      -341.688 6        40.191
R06        45.000    21081842.860 6 112496800.09306      2471.535 6        39.069
R13        46.000    24043784.104 6 128392467.12406     -1423.559 6        38.219
C39        47.000                                                                                                                                    39041230.012 7 203297940.09807      -313.065 7        42.980                                                                    39041226.416 7 165196217.94207      -254.314 7        43.281
C20        48.000                                                                                                                                    21923304.382 8 114160446.41808      -264.226 8        51.992                                                                    21923298.553 8  92764706.00408      -214.639 8        49.337
C06        49.000                                                                                                                                    38651108.587 6 201266485.70906       261.168 6        40.982    38651102.772 7 155631996.67907       201.988 7        44.349    38651102.738 6 163545484.91306       212.246 6        41.430
C16        50.000                                                                                                                                    39041844.991 7 203301148.11707       135.866 7        42.299    39041844.928 7 157205352.31507       105.123 7        43.209    39041842.416 6 165198834.14606       110.582 6        39.541
S48        51.000    77343018.926 6 406441525.62006      -426.872 6        37.308
C19        52.000                                                                                                                                    24200773.611 7 126019830.38107      2094.724 7        46.488                                                                    24200769.093 7 102401436.52507      1702.174 7        47.167
R04        53.000    22980933.151 7 123061876.12107     -4337.650 7        45.236                                                                    22980931.551 6  95714798.99906     -3373.794 6        39.667
C60        54.000                                                                                                                                    40741626.546 6 212152544.07706      -491.241 6        39.667                                                                    40741610.633 6 172391289.68906      -399.114 6        40.093
C30        55.000                                                                                                                                    25115587.844 7 130783443.78307     -3812.776 7        42.093                                                                    25115589.305 7 106272257.24307     -3098.139 7        43.755
C02        57.000                                                                                                                                    40708286.334 5 211978778.57505      -466.031 5        34.038    40708280.563 6 163915431.74506      -360.515 6        40.164    40708283.670 6 172250124.62006      -378.846 6        36.775
I03        58.000   133321590.044 6 447397311.96506       960.915 6        40.815
C13        59.000                                                                                                                                    41497678.172 5 216089365.06305     -1093.496 5        32.880    41497682.036 5 167094044.28505      -845.586 5        34.219    41497679.664 5 175590338.40205      -888.145 5        33.102
> 2025 01 01 01 00 25.0000000  0 54
G28         1.000    23317353.090 7 122533532.20407        69.460 7        43.528                                    23317349.560 5  95480655.63405        54.117 5        30.045    23317349.936 7  95480661.64107        54.090 7        42.671
G31         2.000    23138764.170 7 121595036.71307      1801.242 7        42.614                                    23138759.922 6  94749365.51606      1403.559 6        38.748    23138760.705 6  94749364.51106      1403.608 6        40.083
G09         3.000    24652861.289 6 129551675.36206      3372.697 6        38.021                                    24652861.311 5 100949360.58605      2628.073 5        31.691    24652860.966 5 100949361.59405      2628.219 5        35.733
E34         4.000    28071437.891 6 147516403.68206      2376.070 6        37.119                                                                    28071438.765 6 110158358.96906      1774.150 6        40.913    28071438.033 6 113032054.87506      1820.588 6        41.204
S21         5.000    38590130.872 6 202792353.36006      -425.094 6        41.816
E05         6.000    27084641.493 6 142330761.39806      2717.562 6        36.612                                                                    27084643.538 6 106285977.87406      2029.406 6        39.057    27084643.123 6 109058648.78706      2082.340 6        40.014
G21         7.000    22436714.413 7 117905790.61907     -2873.148 7        44.369                                    22436709.797 5  91874645.63905     -2238.816 5        32.719
E04         8.000    23990336.238 7 126070092.43907     -1091.061 7        46.833                                                                    23990334.163 8  94143256.30608      -814.753 8        50.472    23990333.945 8  96599159.22008      -835.977 8        51.240
R14         9.000    24036548.597 7 128128341.64907      1850.276 7        43.253                                                                    24036548.427 6  99655367.73706      1439.060 6        39.712
G04        10.000    22351242.967 7 117456607.34007      2758.693 7        45.016                                    22351239.899 5  91524636.02405      2149.631 5        33.497    22351239.911 7  91524631.02607      2149.663 7        44.089
E09        11.000    24642928.547 7 129499507.16107      1635.123 7        47.026                                                                    24642928.054 8  96704193.14808      1221.017 8        49.214    24642927.655 8  99226910.61908      1252.913 8        49.942
S27        12.000    39233069.398 5 206171159.94605      -407.395 5        35.881
S36        14.000    38357673.090 7 201571422.26507      -424.469 7        43.663
E36        16.000    24117566.244 7 126738695.01107       972.272 7        46.970                                                                    24117566.575 8  94642549.26708       726.009 8        50.472    24117566.212 8  97111480.05708       744.958 8        50.952
S45        17.000    63556881.985 6 333995172.69506      -466.429 6        36.964
G03        18.000    20206158.359 8 106184136.07808       326.441 8        49.751                                    20206156.190 8  82740904.81908       254.369 8        51.523    20206157.122 7  82740913.81607       254.427 7        45.497
R21        19.000    20121847.584 8 107676113.94308      1797.192 8        51.713                                                                    20121846.190 7  83748098.71007      1397.800 7        46.463
R20        20.000    19831930.999 6 106050284.36106     -2485.739 6        40.701                                                                    19831931.269 7  82483553.43307     -1933.422 7        46.616
R05        21.000    19610033.199 8 104826911.65508     -2073.017 8        52.041                                                                    19610032.330 7  81532048.32507     -1612.352 7        47.354
I06        22.000    38346364.328 7 150479598.39607      -218.497 7        42.758
S28        23.000    41031140.100 5 215620106.74705      -417.420 5        34.162
E10        24.000    25714044.531 7 135128336.13207     -2722.204 7        43.845                                                                    25714044.056 7 100907590.06707     -2032.773 7        47.760    25714043.591 7 103539952.56607     -2085.829 7        47.907
S23        25.000    38307884.099 7 201309268.56107      -421.250 7        44.647
E06        26.000    23694942.156 7 124517821.31307       424.113 7        47.729                                                                    23694941.786 8  92984086.52708       316.719 8        50.376    23694941.772 8  95409756.88408       325.017 8        50.982
E30        27.000    28892047.873 6 151828738.99806     -1565.266 6        36.662                                                                    28892048.717 6 113378605.56306     -1168.917 6        39.309    28892048.264 6 116336306.00106     -1199.422 6        39.886
E12        28.000    28039491.833 5 147348662.32005     -3183.950 5        34.710                                                                    28039489.156 6 110033163.95106     -2377.621 6        38.931    28039489.113 6 112903582.20006     -2439.677 6        40.055
E19        30.000    27564595.176 5 144852928.62105     -3264.552 5        32.228                                                                    27564593.438 5 108169391.54405     -2437.740 5        35.805    27564593.152 6 110991199.31906     -2501.409 6        36.412
G32        31.000    24807053.709 6 130361958.10906     -3730.937 6        40.024                                    24807052.382 5 101580742.03505     -2907.223 5        33.533    24807052.280 6 101580747.03006     -2907.273 6        37.040
G02        32.000    21222501.105 8 111525038.95308     -1805.834 8        48.761                                    21222494.586 6  86902624.44606     -1407.145 6        40.925
G19        33.000    23342000.550 6 122663068.06506      2020.962 6        41.209                                    23341994.111 4  95581631.95904      1574.775 4        28.408
G17        34.000    22403014.063 7 117728689.56107       -17.794 7        44.966                                    22403009.802 7  91736652.19607       -13.864 7        43.412    22403009.243 6  91736652.19706       -13.796 6        41.886
E11        35.000    23831386.930 7 125234853.25407     -1625.772 7        44.244                                                                    23831382.808 7  93519552.09507     -1213.941 7        46.838    23831382.630 7  95959185.03007     -1245.600 7        47.546
C32        36.000                                                                                                                                    24216881.572 7 126103682.07807     -2994.657 7        46.432                                                                    24216881.498 7 102469581.51007     -2433.286 7        46.845
C35        37.000                                                                                                                                    24128649.761 7 125644227.53607      1824.683 7        46.079                                                                    24128648.249 7 102096226.09307      1482.769 7        45.720
I09        38.000    37283802.091 7 146309644.28407      -382.052 7        43.560
C29        39.000                                                                                                                                    22154180.215 8 115362633.45008     -1582.263 8        50.201                                                                    22154177.763 8  93741584.06608     -1285.516 8        48.765
R22        40.000    24474879.215 7 130648555.55507      3845.240 7        42.990                                                                    24474879.782 6 101615547.06906      2990.415 6        37.777
S44        42.000    40742095.929 6 214101356.96706      -495.917 6        38.222
C09        43.000                                                                                                                                    39346971.794 6 204890022.38306       704.789 6        41.199    39346967.957 7 158433952.17807       545.003 7        44.486    39346965.982 6 166489906.59906       572.898 6        41.545
C05        44.000                                                                                                                                    39272498.022 6 204502243.61606      -420.710 6        37.686    39272493.776 7 158134130.99507      -325.430 7        42.612    39272495.940 6 166174927.55406      -341.746 6        40.267
R06        45.000    21079528.747 6 112484448.73606      2468.917 6        38.907
R13        46.000    24045118.954 6 128399595.07506     -1427.675 6        38.604
C39        47.000                                                                                                                                    39041531.121 7 203299507.81607      -314.064 7        42.921                                                                    39041527.599 7 165197491.84407      -255.112 7        43.321
C20        48.000                                                                                                                                    21923559.018 8 114161772.71708      -266.350 8        51.741                                                                    21923553.312 8  92765783.72908      -216.288 8        49.365
C06        49.000                                                                                                                                    38650858.462 6 201265182.00506       260.033 6        40.717    38650852.432 7 155630988.57007       201.077 7        44.221    38650852.309 6 163544425.53406       211.522 6        41.559
C16        50.000                                                                                                                                    39041714.862 7 203300470.90507       134.838 7        42.277    39041714.742 7 157204828.64207       104.347 7        43.168    39041712.435 6 165198283.85406       109.768 6        39.544
S48        51.000    77343418.287 6 406443660.92106      -427.124 6        37.047
C19        52.000                                                                                                                                    24198763.039 7 126009360.04607      2093.363 7        46.434                                                                    24198758.362 7 102392928.51407      1701.132 7        47.273
R04        53.000    22984983.052 7 123083565.79807     -4338.254 7        44.504                                                                    22984982.380 6  95731668.72806     -3374.183 6        40.100
C60        54.000                                                                                                                                    40742098.248 6 212155000.43206      -491.439 6        39.435                                                                    40742082.322 6 172393285.66106      -399.078 6        40.043
C30        55.000                                                                                                                                    25119249.144 7 130802509.94407     -3813.701 7        42.085                                                                    25119250.800 7 106287750.05307     -3098.850 7        43.954
C02        57.000                                                                                                                                    40708735.003 5 211981109.77405      -466.449 5        33.934    40708728.190 6 163917234.35306      -360.614 6        40.160    40708731.494 6 172252018.87106      -378.755 6        36.767
I03        58.000   133320365.616 6 447392508.00706       960.814 6        40.984
C13        59.000                                                                                                                                    41498728.704 5 216094832.44505     -1093.436 5        33.006    41498731.284 5 167098272.00105      -845.397 5        33.856    41498729.793 5 175594781.09005      -888.316 5        32.910
> 2025 01 01 01 00 30.0000000  0 54
G28         1.000    23317288.668 7 122533192.09707        66.619 7        43.712                                    23317284.900 5  95480390.61705        51.908 5        30.128    23317285.267 7  95480396.60707        52.000 7        42.984
G31         2.000    23137051.622 7 121586035.97707      1799.159 7        43.323                                    23137047.147 6  94742351.95806      1401.941 6        38.751    23137047.592 6  94742350.97406      1401.759 6        40.114
G09         3.000    24649652.573 6 129534811.47006      3372.796 6        38.141                                    24649652.157 5 100936219.89505      2628.150 5        31.525    24649652.443 5 100936220.91005      2627.918 5        34.905
E34         4.000    28069176.981 6 147504523.31706      2376.513 6        37.701                                                                    28069177.970 6 110149487.28806      1774.541 6        40.839    28069177.202 6 113022951.76406      1820.795 6        41.278
S21         5.000    38590536.461 7 202794478.29307      -424.726 7        42.252
E05         6.000    27082055.551 6 142317172.29306      2718.070 6        36.276                                                                    27082057.714 6 106275830.18106      2029.537 6        39.075    27082057.144 6 109048236.36506      2082.630 6        40.040
G21         7.000    22439449.010 7 117920159.22707     -2874.310 7        43.721                                    22439444.033 5  91885841.95305     -2239.723 5        32.539
E04         8.000    23991374.886 7 126075552.11507     -1092.718 7        46.788                                                                    23991373.065 8  94147333.34008      -816.012 8        50.457    23991372.847 8  96603342.61308      -837.323 8        51.475
R14         9.000    24034814.713 7 128119097.38707      1847.601 7        43.498                                                                    24034815.150 6  99648177.76506      1437.089 6        39.529
G04        10.000    22348618.366 7 117442816.84907      2757.483 7        44.573                                    22348615.643 5  91513890.19105      2148.684 5        33.323    22348615.472 7  91513885.20207      2148.627 7        44.056
E09        11.000    24641373.357 7 129491335.31007      1633.702 7        46.984                                                                    24641372.923 8  96698090.79208      1219.970 8        49.104    24641372.630 8  99220649.07208      1251.781 8        50.115
S27        12.000    39233456.144 5 206173195.83305      -407.177 5        35.833
S36        14.000    38358076.006 7 201573543.54507      -424.265 7        43.727
E36        16.000    24116641.811 7 126733836.43007       971.298 7        46.836                                                                    24116642.003 8  94638921.10108       725.289 8        50.438    24116641.642 8  97107757.24208       744.216 8        51.160
S45        17.000    63557277.598 6 333995903.44816      -465.833 6        37.134
G03        18.000    20205848.669 8 106182508.21008       324.797 8        49.745                                    20205846.418 8  82739636.35108       253.087 8        51.479    20205846.957 7  82739645.35107       253.057 7        45.359
R21        19.000    20120170.479 8 107667135.50908      1794.210 8        51.686                                                                    20120169.172 7  83741115.48107      1395.474 7        46.580
R20        20.000    19834255.696 6 106062721.85806     -2489.120 6        40.412                                                                    19834257.125 7  82493227.02107     -1935.976 7        46.751
R05        21.000    19611973.378 8 104837283.20408     -2075.556 8        51.841                                                                    19611972.576 7  81540115.09007     -1614.352 7        47.739
I06        22.000    38346642.679 7 150480690.43207      -218.197 7        42.821
S28        23.000    41031540.824 5 215622193.23905      -417.183 5        33.982
E10        24.000    25716634.924 7 135141949.06907     -2723.050 7        43.907                                                                    25716634.463 7 100917755.57107     -2033.329 7        47.680    25716634.174 8 103550383.25608     -2086.487 8        48.080
S23        25.000    38308286.299 7 201311374.23607      -420.841 7        44.558
E06        26.000    23694539.505 7 124515705.20307       422.326 7        47.975                                                                    23694539.151 8  92982506.31608       315.380 8        50.295    23694539.082 8  95408135.45008       323.660 8        51.209
E30        27.000    28893536.985 6 151836569.75906     -1566.667 6        37.164                                                                    28893538.821 6 113384453.24006     -1170.224 6        39.838    28893538.269 6 116342306.22606     -1200.681 6        40.601
E12        28.000    28042521.208 5 147364582.51805     -3184.191 5        35.057                                                                    28042518.707 6 110045052.39406     -2377.651 6        39.204    28042518.823 6 112915780.78806     -2439.837 6        40.224
E19        30.000    27567700.480 5 144869251.97505     -3264.910 5        32.186                                                                    27567699.594 5 108181581.04105     -2437.917 5        35.438    27567699.240 6 111003706.81806     -2501.620 6        36.057
G32        31.000    24810603.961 6 130380614.45906     -3731.486 6        39.979                                    24810602.528 5 101595279.44205     -2907.649 5        33.413    24810602.968 6 101595284.42606     -2907.582 6        36.938
G02        32.000    21224220.408 8 111534073.19808     -1807.779 8        48.912                                    21224213.769 6  86909664.11406     -1408.661 6        41.027
G19        33.000    23340077.846 6 122652969.10206      2018.573 6        40.791                                    23340072.252 4  95573762.63804      1572.909 4        28.313
G17        34.000    22403032.235 7 117728785.07907       -20.428 7        44.996                                    22403027.983 7  91736726.62607       -15.918 7        43.427    22403027.984 7  91736726.62107       -15.941 7        42.055
E11        35.000    23832934.395 7 125242984.94007     -1626.999 7        44.324                                                                    23832930.219 7  93525624.46107     -1214.979 7        46.742    23832930.053 7  95965415.80407     -1246.604 7        47.597
C32        36.000                                                                                                                                    24219757.346 7 126118656.50007     -2995.108 7        46.453                                                                    24219757.176 7 102481749.46607     -2433.773 7        46.941
C35        37.000                                                                                                                                    24126898.382 7 125635108.33507      1823.106 7        45.804                                                                    24126897.045 7 102088816.00307      1481.401 7        45.681
I09        38.000    37284288.945 7 146311554.55107      -381.910 7        43.536
C29        39.000                                                                                                                                    22155700.490 8 115370550.48108     -1584.559 8        50.267                                                                    22155698.047 8  93748017.31608     -1287.624 8        48.745
R22        40.000    24471276.763 7 130629329.47607      3845.355 7        43.918                                                                    24471278.462 6 101600593.45306      2990.835 6        39.763
S44        42.000    40742570.248 6 214103835.56506      -495.534 6        38.141
C09        43.000                                                                                                                                    39346295.243 6 204886499.55106       704.326 6        41.614    39346291.268 7 158431228.10507       544.558 7        44.737    39346289.362 6 166487044.02306       572.419 6        41.476
C05        44.000                                                                                                                                    39272902.288 6 204504346.90406      -420.611 6        37.701    39272897.756 7 158135757.37207      -325.020 7        42.906    39272899.786 6 166176636.64406      -341.792 6        40.329
R06        45.000    21077215.851 6 112472108.80206      2466.944 6        39.225
R13        46.000    24046456.343 6 128406742.74206     -1431.024 6        36.544
C39        47.000                                                                                                                                    39041833.130 7 203301079.99307      -314.681 7        42.703                                                                    39041829.398 7 165198769.37507      -255.714 7        43.257
C20        48.000                                                                                                                                    21923815.610 8 114163108.71008      -267.969 8        51.611                                                                    21923809.853 8  92766869.34008      -217.835 8        49.432
C06        49.000                                                                                                                                    38650609.062 6 201263882.67906       259.453 6        40.658    38650602.814 7 155629983.84707       200.691 7        44.370    38650602.704 6 163543369.72906       210.902 6        41.499
C16        50.000                                                                                                                                    39041585.787 7 203299798.01507       134.258 7        42.298    39041585.379 7 157204308.31907       103.913 7        43.236    39041583.201 6 165197737.09006       109.063 6        39.751
S48        51.000    77343821.542 6 406445795.90206      -426.402 6        37.062
C19        52.000                                                                                                                                    24196753.735 7 125998895.59507      2092.505 7        46.482                                                                    24196748.786 7 102384425.30907      1700.270 7        47.316
R04        53.000    22989033.339 7 123105257.00107     -4338.206 7        43.913                                                                    22989033.275 6  95748539.64906     -3374.106 6        40.322
C60        54.000                                                                                                                                    40742569.741 6 212157456.49106      -491.027 6        39.315                                                                    40742553.935 6 172395281.43106      -398.974 6        40.145
C30        55.000                                                                                                                                    25122910.580 7 130821579.21907     -3813.956 7        42.423                                                                    25122912.828 7 106303245.39907     -3099.209 7        43.892
C02        57.000                                                                                                                                    40709182.026 5 211983440.69805      -465.942 5        33.737    40709175.965 6 163919036.78106      -360.321 6        40.439    40709179.166 6 172253912.95106      -378.560 6        36.711
I03        58.000   133319141.594 6 447387703.99406       961.002 6        40.810
C13        59.000                                                                                                                                    41499779.859 5 216100299.39105     -1093.156 5        33.305    41499781.335 5 167102499.40905      -845.299 5        34.533    41499779.606 5 175599223.47505      -888.351 5        32.886
> 2025 01 01 01 00 35.0000000  0 54
G28         1.000    23317226.578 7 122532867.42107        63.155 7        43.439                                    23317223.174 5  95480137.62305        49.212 5        30.158    23317223.090 7  95480143.62707        49.202 7        42.271
G31         2.000    23135341.910 7 121577047.05307      1796.406 7        43.750                                    23135336.662 6  94735347.60706      1399.799 6        38.946    23135337.115 6  94735346.60006      1399.811 6        40.150
G09         3.000    24646443.945 6 129517949.16706      3372.136 6        38.691                                    24646443.214 5 100923080.45405      2627.642 5        31.706    24646443.326 5 100923081.44505      2627.881 5        34.629
E34         4.000    28066916.456 6 147492642.33906      2376.021 6        38.162                                                                    28066916.898 6 110140615.12006      1774.259 6        40.729    28066916.344 6 113013848.12506      1820.677 6        41.166
S21         5.000    38590939.404 7 202796602.55507      -425.019 7        42.138
E05         6.000    27079469.592 6 142303583.28206      2717.690 6        36.302                                                                    27079471.860 6 106265682.55906      2029.272 6        38.973    27079471.302 6 109037824.01506      2082.264 6        40.038
G21         7.000    22442184.641 7 117934534.51107     -2875.914 7        43.964                                    22442179.629 5  91897043.47005     -2240.969 5        32.683
E04         8.000    23992415.806 7 126081021.67507     -1095.110 7        46.722                                                                    23992413.915 8  94151417.74808      -817.763 8        50.389    23992413.686 8  96607533.56908      -839.067 8        51.394
R14         9.000    24033082.569 7 128109867.36307      1844.224 7        42.409                                                                    24033083.340 6  99640998.87106      1434.527 6        39.805
G04        10.000    22345995.468 7 117429033.96507      2755.603 7        45.129                                    22345992.826 5  91503150.28905      2147.225 5        33.509    22345992.601 7  91503145.28507      2147.345 7        43.898
E09        11.000    24639820.093 7 129483171.43507      1631.794 7        47.125                                                                    24639819.395 8  96691994.39408      1218.547 8        49.160    24639819.018 8  99214393.63708      1250.300 8        49.993
S27        12.000    39233847.259 5 206175231.29205      -407.181 5        35.686
S36        14.000    38358481.823 7 201575664.61607      -424.410 7        43.632
E36        16.000    24115718.431 7 126728983.85407       969.732 7        47.262                                                                    24115718.609 8  94635297.42308       724.130 8        50.459    24115718.205 8  97104039.03508       743.013 8        51.045
S45        17.000    63557675.264 6 333998233.55606      -466.192 6        37.301
G03        18.000    20205540.685 8 106180889.90808       322.547 8        49.694                                    20205538.467 8  82738375.33608       251.333 8        51.565    20205538.908 7  82738384.33707       251.363 7        45.567
R21        19.000    20118495.696 8 107658173.31908      1790.606 8        51.908                                                                    20118494.185 7  83734144.89007      1392.695 7        46.658
R20        20.000    19836583.949 6 106075177.16306     -2493.030 6        40.265                                                                    19836585.980 7  82502914.48207     -1939.033 7        47.077
R05        21.000    19613916.321 8 104847668.65208     -2078.717 8        52.008                                                                    19613915.648 7  81548192.66607     -1616.831 7        47.484
I06        22.000    38346920.628 7 150481782.07807      -218.406 7        42.717
S28        23.000    41031935.508 5 215624279.26805      -417.240 5        34.324
E10        24.000    25719226.338 7 135155567.14707     -2724.401 7        43.862                                                                    25719225.888 7 100927924.91207     -2034.330 7        47.641    25719225.785 8 103560817.88708     -2087.529 8        48.158
S23        25.000    38308686.098 7 201313479.47907      -421.326 7        44.567
E06        26.000    23694138.860 8 124513599.23308       419.973 8        48.040                                                                    23694138.389 8  92980933.67508       313.627 8        50.331    23694138.337 8  95406521.79008       321.780 8        51.125
E30        27.000    28895028.146 6 151844410.07306     -1569.149 6        36.749                                                                    28895030.862 6 113390308.00406     -1171.827 6        38.994    28895030.097 6 116348313.71406     -1202.314 6        39.625
E12        28.000    28045550.894 5 147380505.10405     -3184.825 5        35.276                                                                    28045548.707 6 110056942.65206     -2378.460 6        39.027    28045548.752 6 112927981.20806     -2440.371 6        40.162
E19        30.000    27570807.142 5 144885577.42505     -3265.783 5        32.168                                                                    27570806.564 5 108193772.12605     -2438.782 5        35.433    27570805.967 5 111016215.90005     -2502.091 5        35.710
G32        31.000    24814154.665 6 130399273.92906     -3732.363 6        40.062                                    24814153.265 5 101609819.28705     -2908.334 5        33.305    24814153.256 6 101609824.29406     -2908.290 6        36.567
G02        32.000    21225941.728 8 111543118.22108     -1810.311 8        49.190                                    21225934.986 6  86916712.18306     -1410.632 6        41.054
G19        33.000    23338159.215 6 122642882.93406      2015.744 6        41.259                                    23338152.875 4  95565903.28904      1570.714 4        28.284
G17        34.000    22403053.437 7 117728895.22807       -23.794 7        45.363                                    22403048.946 7  91736812.45807       -18.540 7        43.486    22403048.969 6  91736812.45506       -18.445 6        41.948
E11        35.000    23834483.410 7 125251124.16507     -1628.711 7        44.286                                                                    23834479.037 7  93531702.45707     -1216.316 7        46.802    23834478.870 7  95971652.35907     -1248.010 7        47.649
C32        36.000                                                                                                                                    24222633.632 7 126133634.17807     -2996.001 7        46.186                                                                    24222633.475 7 102493920.04807     -2434.540 7        46.787
C35        37.000                                                                                                                                    24125148.965 7 125625998.08007      1820.925 7        45.741                                                                    24125147.469 7 102081413.17307      1479.612 7        45.619
I09        38.000    37284775.749 7 146313465.23007      -382.355 7        43.361
C29        39.000                                                                                                                                    22157223.568 8 115378480.10008     -1587.378 8        50.309                                                                    22157220.860 8  93754460.78008     -1289.988 8        48.728
R22        40.000    24467675.546 7 130610103.29107      3845.161 7        44.077                                                                    24467676.749 6 101585639.76606      2990.727 6        39.135
S44        42.000    40743042.295 6 214106313.60506      -495.857 6        38.096
C09        43.000                                                                                                                                    39345619.261 6 204882980.06306       703.420 6        41.745    39345615.223 7 158428506.60407       543.863 7        44.697    39345613.491 6 166484184.14106       571.577 6        41.287
C05        44.000                                                                                                                                    39273306.304 6 204506449.64906      -420.727 6        37.747    39273301.629 7 158137383.36207      -325.291 7        42.925    39273303.775 6 166178345.31606      -341.980 6        40.105
R06        45.000    21074905.375 6 112459780.06806      2464.307 6        39.009
R13        46.000    24047796.880 6 128413909.85406     -1435.670 6        36.991
C39        47.000                                                                                                                                    39042136.052 7 203302656.36207      -315.896 7        42.646                                                                    39042132.187 7 165200050.28907      -256.621 7        43.196
C20        48.000                                                                                                                                    21924074.031 8 114164454.11308      -270.230 8        51.756                                                                    21924068.226 8  92767962.58708      -219.621 8        49.352
C06        49.000                                                                                                                                    38650359.918 6 201262587.43306       258.410 6        40.493    38650353.954 7 155628982.28507       199.901 7        44.355    38650353.977 6 163542317.23406       210.121 6        41.397
C16        50.000                                                                                                                                    39041457.271 7 203299129.16607       133.101 7        42.466    39041456.834 7 157203791.12507       102.963 7        43.253    39041454.999 6 165197193.57606       108.331 6        39.592
S48        51.000    77344218.296 6 406447930.09306      -426.552 6        37.297
C19        52.000                                                                                                                                    24194745.171 7 125988436.77807      2090.955 7        46.690                                                                    24194740.299 7 102375926.66907      1699.023 7        47.133
R04        53.000    22993085.821 7 123126949.54207     -4338.880 7        44.503                                                                    22993083.859 6  95765411.60006     -3374.668 6        40.353
C60        54.000                                                                                                                                    40743041.627 6 212159912.00106      -491.120 6        39.432                                                                    40743025.530 6 172397276.73206      -399.242 6        40.036
C30        55.000                                                                                                                                    25126573.241 7 130840651.31607     -3814.959 7        42.899                                                                    25126575.305 7 106318743.03707     -3100.017 7        43.748
C02        57.000                                                                                                                                    40709628.925 5 211985771.11405      -466.176 5        33.934    40709623.105 6 163920838.79506      -360.424 6        40.224    40709626.507 6 172255806.59606      -378.815 6        36.832
I03        58.000   133317917.329 6 447382899.71806       960.663 6        40.629
C13        59.000                                                                                                                                    41500829.379 5 216105765.82905     -1093.599 5        33.760    41500831.514 5 167106726.40205      -845.515 5        34.462    41500829.103 5 175603665.39005      -888.511 5        33.102
> 2025 01 01 01 00 40.0000000  0 54
G28         1.000    23317168.054 7 122532559.72507        60.018 7        43.263                                    23317164.765 5  95479897.86605        46.761 5        30.211    23317164.580 7  95479903.86007        46.676 7        42.523
G31         2.000    23133633.251 7 121568071.49307      1793.947 7        43.029                                    23133628.690 6  94728353.66406      1397.879 6        38.976    23133629.574 6  94728352.68006      1397.679 6        39.985
G09         3.000    24643235.968 6 129501090.10506      3371.665 6        38.934                                    24643234.869 5 100909943.52105      2627.278 5        32.042    24643234.677 5 100909944.53305      2627.356 5        34.919
E34         4.000    28064655.302 6 147480762.24306      2376.142 6        38.198                                                                    28064656.028 6 110131743.63906      1774.313 6        40.615    28064655.784 6 113004745.22806      1820.534 6        41.418
S21         5.000    38591345.248 7 202798727.71607      -425.070 7        42.127
E05         6.000    27076883.827 6 142289995.94106      2717.436 6        36.174                                                                    27076886.352 6 106255536.17406      2029.041 6        38.895    27076885.802 6 109027412.94706      2082.195 6        39.952
G21         7.000    22444922.150 7 117948917.98607     -2877.340 7        44.503                                    22444916.758 5  91908251.37505     -2242.086 5        32.725
E04         8.000    23993458.914 7 126086502.66307     -1097.288 7        46.790                                                                    23993456.869 8  94155510.69308      -819.332 8        50.438    23993456.680 8  96611733.28708      -840.711 8        51.395
R14         9.000    24031353.771 7 128100653.37007      1841.271 7        42.851                                                                    24031354.943 6  99633832.40906      1432.284 6        39.228
G04        10.000    22343374.503 7 117415260.21507      2753.954 7        45.225                                    22343371.775 5  91492417.50305      2145.939 5        33.569    22343371.568 7  91492412.49807      2146.018 7        43.799
E09        11.000    24638268.398 7 129475017.11107      1630.092 7        46.972                                                                    24638267.711 8  96685905.13208      1217.217 8        49.056    24638267.309 8  99208145.52608      1248.983 8        50.030
S27        12.000    39234231.653 5 206177267.57905      -407.099 5        35.862
S36        14.000    38358885.517 7 201577787.54207      -424.808 7        43.791
E36        16.000    24114796.261 7 126724138.83707       968.363 7        47.370                                                                    24114796.579 8  94631679.39408       723.163 8        50.398    24114796.236 8  97100326.62108       742.006 8        51.073
S45        17.000    63558078.162 6 334000564.62006      -466.299 6        37.259
G03        18.000    20205234.551 8 106179282.72008       320.426 8        49.498                                    20205232.617 8  82737122.98208       249.682 8        51.550    20205233.616 7  82737131.98507       249.751 7        45.637
R21        19.000    20116824.113 8 107649228.97008      1787.246 8        51.984                                                                    20116822.498 7  83727188.17407      1390.070 7        46.527
R20        20.000    19838916.787 6 106087651.80506     -2496.883 6        40.620                                                                    19838918.573 7  82512616.98307     -1941.911 7        46.363
R05        21.000    19615862.033 8 104858069.39208     -2081.535 8        51.767                                                                    19615861.236 7  81556282.12207     -1619.046 7        47.319
I06        22.000    38347199.168 7 150482874.50207      -218.499 7        42.758
S28        23.000    41032330.987 5 215626366.16205      -417.324 5        34.148
E10        24.000    25721819.073 7 135169191.91007     -2725.365 7        43.501                                                                    25721818.496 7 100938099.25507     -2035.264 7        47.638    25721818.550 8 103571257.64208     -2088.361 8        48.205
S23        25.000    38309086.098 7 201315585.66207      -421.206 7        44.688
E06        26.000    23693740.311 8 124511504.95308       417.777 8        48.117                                                                    23693739.861 8  92979369.76908       312.006 8        50.281    23693739.790 8  95404917.08408       320.073 8        51.166
E30        27.000    28896521.673 5 151852261.54505     -1571.163 5        34.652                                                                    28896524.722 6 113396171.07706     -1173.383 6        38.814    28896524.139 6 116354329.75006     -1203.944 6        39.760
E12        28.000    28048581.848 5 147396431.61005     -3185.427 5        35.114                                                                    28048579.141 6 110068835.80506     -2378.711 6        38.808    28048579.405 6 112940184.63606     -2440.969 6        40.081
E19        30.000    27573914.610 5 144901906.50505     -3265.856 5        32.455                                                                    27573913.866 5 108205965.91705     -2439.020 5        35.467    27573913.489 5 111028727.79305     -2502.574 5        35.914
G32        31.000    24817706.139 6 130417938.06306     -3733.192 6        40.272                                    24817704.905 5 101624362.76205     -2908.981 5        33.162    24817705.366 6 101624367.76206     -2908.904 6        36.983
G02        32.000    21227665.302 8 111552175.56708     -1812.579 8        48.908                                    21227658.528 6  86923769.85406     -1412.399 6        41.032
G19        33.000    23336242.771 6 122632811.08806      2013.075 6        40.696                                    23336236.186 4  95558055.08504      1568.623 4        28.332
G17        34.000    22403077.573 7 117729021.54007       -26.768 7        45.190                                    22403072.968 7  91736910.88007       -20.859 7        43.496    22403073.180 7  91736910.88307       -20.894 7        42.144
E11        35.000    23836034.012 7 125259272.52407     -1630.380 7        44.337                                                                    23836029.605 7  93537787.27207     -1217.549 7        46.777    23836029.527 7  95977895.90707     -1249.234 7        47.620
C32        36.000                                                                                                                                    24225510.632 7 126148616.63307     -2996.869 7        46.230                                                                    24225510.717 7 102506094.52907     -2435.225 7        46.795
C35        37.000                                                                                                                                    24123401.455 7 125616898.29907      1819.042 7        45.953                                                                    24123400.066 7 102074018.87607      1477.977 7        45.652
I09        38.000    37285263.156 7 146315377.47207      -382.544 7        43.268
C29        39.000                                                                                                                                    22158748.894 8 115386423.84508     -1590.044 8        50.112                                                                    22158746.388 8  93760915.72808     -1292.089 8        48.748
R22        40.000    24464074.970 7 130590878.79507      3845.008 7        43.755                                                                    24464074.817 6 101570687.37406      2990.509 6        39.294
S44        42.000    40743515.106 6 214108792.62006      -495.820 6        38.081
C09        43.000                                                                                                                                    39344944.401 6 204879465.46506       702.476 6        41.802    39344940.473 7 158425788.89207       543.295 7        44.567    39344938.618 6 166481328.26506       570.694 6        41.375
C05        44.000                                                                                                                                    39273709.971 6 204508553.43206      -420.805 6        37.588    39273705.492 7 158139010.13707      -325.366 7        42.859    39273707.710 6 166180054.81906      -341.980 6        40.184
R06        45.000    21072597.640 6 112447464.12306      2461.931 6        38.943
R13        46.000    24049144.785 6 128421097.65906     -1439.626 6        38.246
C39        47.000                                                                                                                                    39042439.866 7 203304238.44707      -316.857 7        42.825                                                                    39042436.007 7 165201335.88407      -257.582 7        43.357
C20        48.000                                                                                                                                    21924334.720 8 114165810.46708      -272.265 8        51.893                                                                    21924328.691 8  92769064.75408      -221.291 8        49.375
C06        49.000                                                                                                                                    38650111.834 6 201261297.82606       257.523 6        40.269    38650106.478 7 155627985.07707       199.116 7        44.361    38650106.189 6 163541269.34206       209.134 6        41.425
C16        50.000                                                                                                                                    39041329.654 7 203298465.93107       132.271 7        42.444    39041329.819 7 157203278.27707       102.176 7        43.266    39041327.378 6 165196654.65606       107.451 6        39.703
S48        51.000    77344621.810 6 406450065.01406      -427.182 6        37.353
C19        52.000                                                                                                                                    24192737.795 7 125977985.10907      2089.754 7        46.573                                                                    24192733.157 7 102367433.84407      1698.040 7        47.258
R04        53.000    22997137.669 7 123148644.75707     -4339.207 7        44.959                                                                    22997134.325 6  95782285.63706     -3374.923 6        39.823
C60        54.000                                                                                                                                    40743513.061 6 212162368.49606      -491.318 6        39.498                                                                    40743497.246 6 172399272.84606      -399.395 6        39.982
C30        55.000                                                                                                                                    25130237.123 7 130859727.76707     -3815.665 7        43.486                                                                    25130238.747 7 106334244.21907     -3100.537 7        43.589
C02        57.000                                                                                                                                    40710076.239 5 211988102.58205      -466.116 5        33.820    40710070.947 6 163922641.66806      -360.590 6        40.300    40710074.193 6 172257701.14806      -379.052 6        36.749
I03        58.000   133316693.286 6 447378096.33506       960.756 6        40.663
C13        59.000                                                                                                                                    41501879.655 5 216111233.09105     -1093.486 5        33.689    41501881.369 5 167110954.06005      -845.689 5        34.609    41501879.414 5 175608108.00305      -888.400 5        33.054
> 2025 01 01 01 00 45.0000000  0 54
G28         1.000    23317112.513 7 122532267.70507        56.625 7        42.825                                    23317109.228 5  95479670.31205        44.127 5        30.060    23317109.475 7  95479676.31407        44.170 7        42.855
G31         2.000    23131927.838 7 121559107.98807      1791.266 7        42.851                                    23131922.972 6  94721369.11506      1395.787 6        38.901    23131923.620 6  94721368.12106      1395.843 6        40.050
G09         3.000    24640027.797 6 129484232.87206      3371.189 6        39.132                                    24640026.972 5 100896808.01805      2626.897 5        32.371    24640027.717 5 100896809.02405      2626.876 5        35.600
E34         4.000    28062394.531 6 147468881.76706      2375.912 6        38.123                                                                    28062395.185 6 110122871.83606      1774.332 6        40.398    28062395.117 6 112995641.99406      1820.526 6        41.483
S21         5.000    38591748.933 6 202800852.50406      -425.090 6        41.952
E05         6.000    27074298.327 5 142276408.92205      2717.083 5        35.962                                                                    27074300.904 6 106245390.01906      2029.185 6        39.237    27074300.231 6 109017002.12306      2081.861 6        39.916
G21         7.000    22447660.264 7 117963308.33107     -2878.840 7        44.232                                    22447655.126 5  91919464.62205     -2243.253 5        32.605
E04         8.000    23994503.829 7 126091993.72707     -1099.342 7        46.756                                                                    23994501.847 8  94159611.17108      -821.021 8        50.369    23994501.585 8  96615940.73508      -842.434 8        51.301
R14         9.000    24029629.005 7 128091454.01507      1838.319 7        42.711                                                                    24029628.271 6  99626677.38406      1429.805 6        38.613
G04        10.000    22340755.153 7 117401494.30307      2752.132 7        45.473                                    22340752.183 5  91481690.82105      2144.519 5        33.635    22340752.223 7  91481685.82207      2144.510 7        44.197
E09        11.000    24636718.276 7 129466871.00807      1628.267 7        47.100                                                                    24636717.571 8  96679822.00908      1215.841 8        49.088    24636717.183 8  99201903.71108      1247.558 8        49.999
S27        12.000    39234619.213 5 206179303.72005      -407.348 5        35.800
S36        14.000    38359288.352 7 201579910.86707      -425.092 7        43.718
E36        16.000    24113875.398 7 126719300.05607       966.994 7        47.142                                                                    24113875.824 8  94628066.02008       722.021 8        50.434    24113875.428 8  97096618.98908       740.854 8        50.980
S45        17.000    63558477.214 6 334002895.32806      -466.227 6        37.025
G03        18.000    20204930.689 8 106177685.32208       318.286 8        49.586                                    20204928.649 8  82735878.25608       248.014 8        51.503    20204929.293 7  82735887.25407       247.994 7        45.696
R21        19.000    20115155.882 8 107640301.05608      1783.753 8        51.882                                                                    20115154.136 7  83720244.23807      1387.382 7        46.531
R20        20.000    19841254.477 6 106100144.52606     -2500.562 6        40.744                                                                    19841254.927 7  82522333.54007     -1944.813 7        46.520
R05        21.000    19617810.527 8 104868484.30408     -2084.607 8        52.044                                                                    19617809.477 7  81564382.61707     -1621.397 7        47.600
I06        22.000    38347477.246 7 150483966.69607      -218.571 7        42.882
S28        23.000    41032737.448 5 215628452.59905      -417.410 5        34.348
E10        24.000    25724412.837 7 135182822.04407     -2726.667 7        43.338                                                                    25724412.288 7 100948277.59107     -2036.166 7        47.626    25724412.226 8 103581701.50408     -2089.322 8        48.181
S23        25.000    38309488.661 7 201317691.45807      -421.333 7        44.533
E06        26.000    23693343.707 8 124509421.03108       415.574 8        48.106                                                                    23693343.316 8  92977813.59408       310.306 8        50.228    23693343.238 8  95403320.31208       318.403 8        51.092
E30        27.000    28898019.167 5 151860122.80305     -1573.274 5        34.486                                                                    28898020.887 6 113402041.51606     -1174.962 6        38.592    28898020.294 6 116360353.32406     -1205.638 6        39.898
E12        28.000    28051613.189 5 147412360.69605     -3186.407 5        34.976                                                                    28051610.508 6 110080730.90806     -2379.392 6        38.538    28051610.728 6 112952390.03706     -2441.352 6        40.038
E19        30.000    27577022.170 5 144918237.92505     -3266.632 5        32.731                                                                    27577021.784 5 108218161.44005     -2439.309 5        35.962    27577021.154 6 111041241.47706     -2502.838 6        36.374
G32        31.000    24821258.357 6 130436605.49306     -3733.955 6        40.362                                    24821257.180 5 101638908.80805     -2909.574 5        33.150    24821257.749 6 101638913.81706     -2909.550 6        36.904
G02        32.000    21229390.838 8 111561243.89808     -1814.904 8        48.668                                    21229384.190 6  86930836.08206     -1414.211 6        40.975
G19        33.000    23334328.193 6 122622752.25806      2010.242 6        41.244                                    23334322.201 4  95550217.02904      1566.427 4        28.246
G17        34.000    22403104.059 7 117729162.69707       -29.838 7        45.490                                    22403099.784 7  91737020.87007       -23.250 7        43.456    22403100.027 7  91737020.87807       -23.216 7        42.089
E11        35.000    23837586.005 7 125267428.69907     -1632.134 7        44.066                                                                    23837581.640 7  93543877.91407     -1218.766 7        46.736    23837581.639 7  95984145.44207     -1250.608 7        47.638
C32        36.000                                                                                                                                    24228388.434 7 126163602.53207     -2997.693 7        46.608                                                                    24228388.619 7 102518271.80407     -2435.886 7        46.956
C35        37.000                                                                                                                                    24121655.528 7 125607807.71507      1816.954 7        46.001                                                                    24121654.270 7 102066632.02907      1476.396 7        45.788
I09        38.000    37285750.705 7 146317290.27307      -382.734 7        43.564
C29        39.000                                                                                                                                    22160276.781 8 115394380.38508     -1592.737 8        50.268                                                                    22160274.391 8  93767381.07308     -1294.302 8        48.866
R22        40.000    24460472.594 7 130571654.45007      3844.646 7        42.521                                                                    24460473.780 6 101555735.12406      2990.376 6        39.991
S44        42.000    40743984.130 6 214111271.30406      -495.999 6        37.909
C09        43.000                                                                                                                                    39344269.945 6 204875954.44806       701.700 6        41.757    39344266.087 7 158423073.95907       542.642 7        44.680    39344264.273 6 166478475.27806       570.101 6        41.552
C05        44.000                                                                                                                                    39274114.196 6 204510656.93706      -420.686 6        37.637    39274109.606 7 158140636.71507      -325.450 7        42.997    39274111.636 6 166181764.09906      -341.926 6        40.269
R06        45.000    21070291.637 6 112435159.63806      2459.655 6        39.357
R13        46.000    24050496.253 6 128428304.98006     -1443.762 6        39.132
C39        47.000                                                                                                                                    39042744.403 7 203305824.92207      -317.820 7        43.007                                                                    39042740.673 7 165202625.02607      -258.309 7        43.475
C20        48.000                                                                                                                                    21924597.034 8 114167176.43208      -274.307 8        52.104                                                                    21924591.047 8  92770174.71508      -222.973 8        49.467
C06        49.000                                                                                                                                    38649864.962 6 201260012.54606       256.485 6        40.377    38649859.615 7 155626991.22307       198.336 7        44.382    38649859.527 6 163540224.96506       208.224 6        41.442
C16        50.000                                                                                                                                    39041203.110 7 203297806.97507       131.197 7        42.398    39041203.334 7 157202768.73407       101.489 7        43.371    39041200.823 6 165196119.22206       106.564 6        39.679
S48        51.000    77345022.709 6 406452199.48306      -427.178 6        37.319
C19        52.000                                                                                                                                    24190731.682 7 125967539.29407      2088.379 7        46.587                                                                    24190727.140 7 102358945.77207      1696.977 7        47.388
R04        53.000    23001188.582 7 123170341.41407     -4339.577 7        45.491                                                                    23001186.085 6  95799160.79906     -3375.254 6        39.856
C60        54.000                                                                                                                                    40743984.732 6 212164824.62706      -491.291 6        39.489                                                                    40743969.137 6 172401268.66006      -399.352 6        40.241
C30        55.000                                                                                                                                    25133901.538 7 130878807.24407     -3816.390 7        43.738                                                                    25133902.669 7 106349747.86807     -3101.152 7        43.632
C02        57.000                                                                                                                                    40710524.676 5 211990433.81305      -466.491 5        33.952    40710518.829 6 163924444.29806      -360.573 6        40.403    40710522.012 6 172259595.44306      -379.138 6        36.677
I03        58.000   133315469.339 6 447373292.85706       960.616 6        40.706
C13        59.000                                                                                                                                    41502929.852 5 216116700.00205     -1093.469 5        33.012    41502930.832 5 167115181.40705      -845.855 5        34.814    41502929.225 5 175612550.26905      -888.187 5        32.922
> 2025 01 01 01 00 50.0000000  0 54
G28         1.000    23317059.866 7 122531991.48107        53.834 7        42.969                                    23317056.691 5  95479455.07905        41.949 5        30.151    23317057.105 7  95479461.07707        41.940 7        43.206
G31         2.000    23130224.639 7 121550156.70307      1789.194 7        43.255                                    23130219.623 6  94714394.09206      1394.178 6        39.186    23130220.707 6  94714393.09506      1394.148 6        40.443
G09         3.000    24636820.171 6 129467377.67206      3371.052 6        39.237                                    24636819.544 5 100883674.10005      2626.798 5        32.844    24636819.970 6 100883675.09806      2626.917 6        36.219
E34         4.000    28060133.722 6 147457001.02406      2376.370 6        37.936                                                                    28060134.471 6 110113999.86206      1774.612 6        40.412    28060134.295 6 112986538.57906      1820.766 6        41.275
S21         5.000    38592153.968 7 202802976.94107      -424.597 7        42.038
E05         6.000    27071713.181 5 142262822.37505      2717.394 5        35.957                                                                    27071715.431 6 106235244.22206      2029.178 6        39.222    27071714.684 6 109006591.63906      2082.119 6        39.721
G21         7.000    22450399.540 7 117977705.65507     -2879.950 7        44.284                                    22450394.840 5  91930683.32005     -2244.121 5        32.671
E04         8.000    23995550.655 7 126097495.03207     -1101.182 7        46.499                                                                    23995548.737 8  94163719.28308      -822.266 8        50.281    23995548.495 8  96620156.01808      -843.732 8        51.173
R14         9.000    24027906.019 7 128082269.42207      1835.664 7        42.921                                                                    24027905.009 6  99619533.79006      1427.617 6        38.132
G04        10.000    22338136.632 7 117387736.34507      2751.031 7        45.133                                    22338134.110 5  91470970.33705      2143.659 5        33.647    22338134.273 7  91470965.34207      2143.588 7        44.227
E09        11.000    24635169.687 7 129458733.26907      1626.844 7        47.146                                                                    24635168.999 8  96673745.11808      1214.940 8        49.026    24635168.630 8  99195668.29608      1246.582 8        49.915
S27        12.000    39235008.450 5 206181339.37605      -407.032 5        35.571
S36        14.000    38359690.601 7 201582034.67907      -424.449 7        43.725
E36        16.000    24112955.875 7 126714467.65707       966.006 7        47.096                                                                    24112956.236 8  94624457.40608       721.377 8        50.309    24112955.864 8  97092916.23508       740.181 8        50.908
S45        17.000    63558874.164 6 334005225.63406      -465.940 6        37.172
G03        18.000    20204628.716 8 106176097.83508       316.684 8        49.750                                    20204626.560 8  82734641.25508       246.768 8        51.588    20204627.191 7  82734650.25307       246.733 7        45.667
R21        19.000    20113490.667 8 107631389.77408      1780.761 8        51.937                                                                    20113488.827 7  83713313.23407      1385.038 7        46.773
R20        20.000    19843593.112 6 106112655.33606     -2503.742 6        40.496                                                                    19843595.062 7  82532064.17107     -1947.382 7        46.794
R05        21.000    19619761.408 8 104878913.42308     -2086.969 8        51.661                                                                    19619760.701 7  81572494.14107     -1623.195 7        47.841
I06        22.000    38347755.642 7 150485058.76207      -218.270 7        42.736
S28        23.000    41033125.992 5 215630538.71305      -417.090 5        34.386
E10        24.000    25727007.730 7 135196457.66107     -2727.484 7        43.473                                                                    25727007.101 7 100958460.02407     -2036.714 7        47.675    25727006.948 8 103592149.56808     -2089.889 8        48.116
S23        25.000    38309886.827 7 201319796.81007      -420.861 7        44.655
E06        26.000    23692949.128 7 124507347.59207       413.820 7        47.809                                                                    23692948.799 8  92976265.24908       309.055 8        50.198    23692948.678 8  95401731.57608       317.106 8        50.984
E30        27.000    28899517.501 5 151867993.96605     -1574.842 5        34.476                                                                    28899518.842 6 113407919.36206     -1176.180 6        39.414    28899518.182 6 116366384.50806     -1206.843 6        40.548
E12        28.000    28054644.487 5 147428292.50305     -3186.206 5        34.529                                                                    28054642.214 6 110092628.03506     -2379.454 6        38.366    28054642.273 6 112964597.51706     -2441.554 6        39.835
E19        30.000    27580130.848 5 144934571.75705     -3266.934 5        31.992                                                                    27580129.826 5 108230358.77305     -2439.645 5        35.848    27580129.413 5 111053756.98605     -2503.055 5        35.652
G32        31.000    24824811.676 6 130455276.37006     -3734.346 6        40.276                                    24824810.022 5 101653457.54305     -2909.880 5        33.078    24824809.842 6 101653462.53606     -2909.763 6        36.597
G02        32.000    21231118.625 8 111570323.37908     -1816.801 8        48.538                                    21231111.953 6  86937910.99906     -1415.688 6        41.037
G19        33.000    23332416.274 6 122612706.58706      2008.098 6        41.056                                    23332410.650 4  95542389.24304      1564.754 4        28.417
G17        34.000    22403133.847 7 117729318.85507       -32.548 7        45.214                                    22403129.485 7  91737142.54907       -25.360 7        43.560    22403129.787 7  91737142.55807       -25.377 7        42.195
E11        35.000    23839139.676 7 125275592.80507     -1633.345 7        44.132                                                                    23839135.269 7  93549974.49207     -1219.788 7        46.616    23839135.203 7  95990401.05207     -1251.583 7        47.597
C32        36.000                                                                                                                                    24231267.166 7 126178592.02707     -2998.093 7        46.438                                                                    24231267.237 7 102530451.96607     -2436.091 7        46.723
C35        37.000                                                                                                                                    24119911.695 7 125598726.43407      1815.566 7        45.959                                                                    24119910.324 7 102059252.71807      1475.400 7        45.699
I09        38.000    37286238.114 7 146319203.76307      -382.498 7        43.541
C29        39.000                                                                                                                                    22161807.294 8 115402349.86308     -1594.969 8        50.232                                                                    22161804.861 8  93773856.88708     -1295.957 8        48.669
R22        40.000    24456870.646 7 130552430.61607      3844.946 7        43.642                                                                    24456872.236 6 101540783.25606      2990.576 6        39.544
S44        42.000    40744456.745 6 214113749.76306      -495.567 6        38.078
C09        43.000                                                                                                                                    39343595.526 6 204872447.12606       701.295 6        41.161    39343592.508 7 158420361.88007       542.254 7        44.716    39343590.717 6 166475625.26106       569.937 6        41.385
C05        44.000                                                                                                                                    39274518.543 6 204512760.29806      -420.347 6        37.705    39274513.452 7 158142263.15807      -325.082 7        43.136    39274515.669 6 166183473.21406      -341.650 6        40.167
R06        45.000    21067987.974 6 112422866.74206      2457.752 6        39.189
R13        46.000    24051849.073 6 128435532.14206     -1447.242 6        38.237
C39        47.000                                                                                                                                    39043049.679 7 203307415.93607      -318.416 7        42.792                                                                    39043046.265 7 165203917.81407      -258.585 7        43.189
C20        48.000                                                                                                                                    21924861.021 8 114168552.15308      -275.910 8        51.964                                                                    21924855.199 8  92771292.56508      -224.121 8        49.366
C06        49.000                                                                                                                                    38649619.604 6 201258731.72406       255.923 6        40.484    38649613.937 7 155626000.80907       197.859 7        44.409    38649613.352 6 163539184.14106       207.980 6        41.163
C16        50.000                                                                                                                                    39041077.338 7 203297152.41407       130.754 7        42.201    39041077.436 7 157202262.59607       100.996 7        43.335    39041075.198 6 165195587.30206       106.260 6        39.712
S48        51.000    77345420.979 6 406454333.58206      -426.686 6        37.210
C19        52.000                                                                                                                                    24188727.230 7 125957099.46507      2087.575 7        46.894                                                                    24188722.318 7 102350462.52907      1696.343 7        47.227
R04        53.000    23005240.804 7 123192039.58807     -4339.532 7        45.607                                                                    23005238.788 6  95816037.12706     -3375.172 6        39.676
C60        54.000                                                                                                                                    40744456.363 6 212167280.56606      -491.070 6        39.213                                                                    40744440.616 6 172403264.27206      -398.829 6        40.000
C30        55.000                                                                                                                                    25137566.317 7 130897889.89307     -3816.723 7        43.486                                                                    25137567.171 7 106365254.03007     -3101.259 7        43.126
C02        57.000                                                                                                                                    40710971.552 5 211992764.85405      -466.071 5        33.850    40710966.689 6 163926246.80406      -360.289 6        40.472    40710969.836 6 172261489.58106      -378.722 6        36.643
I03        58.000   133314245.093 6 447368489.38506       960.891 6        40.846
C13        59.000                                                                                                                                    41503978.155 5 216122166.59405     -1093.203 5        32.132    41503980.643 5 167119408.52505      -845.398 5        34.519    41503978.794 5 175616992.35705      -888.029 5        32.707
> 2025 01 01 01 00 55.0000000  0 54
G28         1.000    23317010.687 7 122531731.34607        50.331 7        43.803                                    23317007.163 5  95479252.37905        39.218 5        30.083    23317007.153 7  95479258.37307        39.221 7        42.713
G31         2.000    23128523.712 7 121541217.91907      1786.536 7        44.307                                    23128518.699 6  94707428.81306      1392.108 6        39.402    23128519.516 6  94707427.81506      1392.139 6        40.658
G09         3.000    24633613.139 6 129450524.75806      3370.259 6        38.898                                    24633612.630 5 100870541.96205      2626.174 5        32.641    24633613.422 6 100870542.97706      2626.123 6        36.484
E34         4.000    28057872.973 6 147445120.29806      2375.880 6        37.928                                                                    28057873.767 6 110105127.87306      1774.356 6        40.338    28057873.460 6 112977435.14706      1820.680 6        41.139
S21         5.000    38592556.378 7 202805101.18807      -424.868 7        42.169
E05         6.000    27069127.909 5 142249236.56005      2717.120 5        35.467                                                                    27069130.229 6 106225099.00406      2028.970 6        39.435    27069129.323 6 108996181.75206      2081.932 6        39.553
G21         7.000    22453140.826 7 117992110.23707     -2881.712 7        44.334                                    22453135.918 5  91941907.66805     -2245.490 5        32.569
E04         8.000    23996599.638 7 126103006.82607     -1103.448 7        46.696                                                                    23996597.515 8  94167835.24008      -824.034 8        50.294    23996597.316 8  96624379.34308      -845.504 8        51.093
R14         9.000    24026185.187 7 128073099.74707      1832.379 7        42.734                                                                    24026186.152 6  99612401.83606      1425.127 6        39.018
G04        10.000    22335520.262 7 117373986.65207      2749.058 7        45.174                                    22335517.657 5  91460256.29805      2142.124 5        33.503    22335517.618 7  91460251.30007      2142.118 7        44.132
E09        11.000    24633622.514 7 129450604.15507      1624.952 7        47.119                                                                    24633622.147 8  96667674.68408      1213.464 8        49.054    24633621.675 8  99189439.50208      1245.051 8        49.831
S27        12.000    39235395.594 5 206183375.16905      -407.205 5        35.924
S36        14.000    38360096.620 7 201584158.67507      -424.846 7        43.772
E36        16.000    24112037.762 7 126709641.91407       964.449 7        47.253                                                                    24112037.925 8  94620853.76808       720.209 8        50.311    24112037.586 8  97089218.58908       738.978 8        50.790
S45        17.000    63559276.145 6 334007556.01006      -466.131 6        37.206
G03        18.000    20204328.504 8 106174520.54608       314.376 8        49.646                                    20204326.415 8  82733412.19708       244.968 8        51.489    20204326.989 7  82733421.19707       244.953 7        45.812
R21        19.000    20111828.545 8 107622495.46008      1777.205 8        52.120                                                                    20111827.043 7  83706395.44607      1382.199 7        46.838
R20        20.000    19845935.512 6 106125184.51506     -2507.675 6        40.069                                                                    19845937.998 7  82541809.09107     -1950.560 7        46.854
R05        21.000    19621714.989 8 104889356.81908     -2090.174 8        51.476                                                                    19621713.983 7  81580616.78607     -1625.793 7        47.576
I06        22.000    38348033.941 7 150486150.91307      -218.508 7        42.836
S28        23.000    41033527.521 5 215632625.10505      -417.236 5        34.024
E10        24.000    25729603.605 7 135210099.03707     -2728.965 7        43.765                                                                    25729602.979 7 100968646.77007     -2037.836 7        47.592    25729602.736 8 103602602.05408     -2091.018 8        48.024
S23        25.000    38310288.983 7 201321902.06107      -421.005 7        44.731
E06        26.000    23692556.502 8 124505284.92608       411.425 8        48.057                                                                    23692556.234 8  92974724.94808       307.219 8        50.175    23692556.133 8  95400151.09608       315.225 8        50.943
E30        27.000    28901017.227 5 151875875.31305     -1577.371 5        35.652                                                                    28901018.573 6 113413804.76306     -1177.890 6        38.988    28901018.004 6 116372423.44206     -1208.536 6        40.167
E12        28.000    28057676.816 5 147444227.34205     -3187.441 5        34.262                                                                    28057674.507 6 110104527.40106     -2379.970 6        38.390    28057674.440 6 112976807.32506     -2442.229 6        39.562
E19        30.000    27583240.105 5 144950908.22705     -3267.513 5        32.419                                                                    27583238.659 5 108242558.07305     -2439.997 5        35.857    27583237.982 6 111066274.55206     -2503.863 6        36.144
G32        31.000    24828364.867 6 130473950.97306     -3735.423 6        39.865                                    24828363.567 5 101668009.17805     -2910.721 5        32.623    24828363.798 6 101668014.18806     -2910.677 6        36.624
G02        32.000    21232848.620 8 111579414.26408     -1819.343 8        48.792                                    21232841.890 6  86944994.80606     -1417.666 6        40.930
G19        33.000    23330506.862 6 122602674.37406      2005.071 6        40.620                                    23330501.647 4  95534571.92904      1562.392 4        28.398
G17        34.000    22403166.306 7 117729490.26507       -35.782 7        45.594                                    22403162.092 7  91737276.11607       -27.882 7        43.407    22403162.187 6  91737276.11106       -27.815 6        41.988
E11        35.000    23840694.761 7 125283765.11107     -1635.300 7        44.313                                                                    23840690.355 7  93556077.19107     -1221.226 7        46.516    23840690.293 7  95996662.95707     -1253.102 7        47.430
C32        36.000                                                                                                                                    24234146.379 7 126193585.36307     -2999.115 7        46.336                                                                    24234146.523 7 102542635.30007     -2437.083 7        46.705
C35        37.000                                                                                                                                    24118169.625 7 125589654.77507      1813.373 7        45.853                                                                    24118168.284 7 102051881.27907      1473.359 7        45.573
I09        38.000    37286726.076 7 146321118.14007      -382.963 7        43.522
C29        39.000                                                                                                                                    22163340.497 8 115410332.53108     -1597.871 8        50.394                                                                    22163337.889 8  93780343.48608     -1298.518 8        48.637
R22        40.000    24453270.772 7 130533207.41807      3844.477 7        43.009                                                                    24453271.335 6 101525831.85506      2990.383 6        38.838
S44        42.000    40744929.525 6 214116228.29306      -495.695 6        38.048
C09        43.000                                                                                                                                    39342922.597 6 204868943.83606       700.271 6        41.089    39342919.615 7 158417652.91207       541.504 7        44.594    39342917.962 6 166472778.56706       568.913 6        41.211
C05        44.000                                                                                                                                    39274921.767 6 204514863.77006      -420.770 6        37.894    39274917.400 7 158143889.70007      -325.325 7        43.134    39274919.573 6 166185182.47906      -342.060 6        40.052
R06        45.000    21065685.919 6 112410585.68206      2454.972 6        39.288
R13        46.000    24053205.418 6 128442779.07106     -1451.316 6        37.440
C39        47.000                                                                                                                                    39043356.208 7 203309011.76507      -319.711 7        42.974                                                                    39043352.648 7 165205214.58307      -259.898 7        43.247
C20        48.000                                                                                                                                    21925127.106 8 114169937.90008      -278.187 8        52.055                                                                    21925121.389 8  92772418.61908      -226.140 8        49.216
C06        49.000                                                                                                                                    38649374.762 6 201257455.60006       254.699 6        40.937    38649368.694 7 155625014.02407       196.921 7        44.542    38649368.311 6 163538147.21206       206.844 6        41.197
C16        50.000                                                                                                                                    39040952.365 6 203296502.55706       129.382 6        41.967    39040952.540 7 157201760.07007       100.065 7        43.435    39040950.122 6 165195059.26006       104.903 6        39.613
S48        51.000    77345827.530 6 406456467.47006      -426.681 6        37.255
C19        52.000                                                                                                                                    24186723.555 7 125946665.88607      2086.039 7        46.811                                                                    24186718.602 7 102341984.42407      1694.927 7        47.140
R04        53.000    23009292.871 7 123213739.62307     -4340.241 7        45.707                                                                    23009291.545 6  95832914.93106     -3375.852 6        40.024
C60        54.000                                                                                                                                    40744928.083 6 212169736.56606      -491.220 6        39.396                                                                    40744912.385 6 172405259.99506      -399.199 6        39.916
C30        55.000                                                                                                                                    25141231.374 7 130916975.94507     -3817.592 7        43.363                                                                    25141232.430 7 106380763.03607     -3102.167 7        43.050
C02        57.000                                                                                                                                    40711419.340 5 211995096.07305      -466.547 5        33.820    40711414.312 6 163928049.44706      -360.637 6        40.434    40711417.365 6 172263383.87806      -378.800 6        36.582
I03        58.000   133313021.284 6 447363686.11906       960.614 6        40.856
C13        59.000                                                                                                                                    41505027.545 5 216127633.19405     -1093.075 5        31.064    41505031.003 5 167123635.62605      -845.360 5        34.705    41505028.476 5 175621434.41505      -888.436 5        32.455
> 2025 01 01 01 01  0.0000000  0 54
G28         1.000    23316964.571 7 122531487.50807        47.419 7        43.604                                    23316960.672 4  95479062.37604        36.947 4        29.934    23316960.431 7  95479068.38307        36.874 7        42.762
G31         2.000    23126824.957 7 121532291.88707      1784.161 7        43.934                                    23126820.251 6  94700473.46306      1390.253 6        39.532    23126821.007 6  94700472.46706      1390.247 6        40.882
G09         3.000    24630406.535 6 129433674.37106      3369.898 6        38.156                                    24630406.186 5 100857411.80205      2625.892 5        32.299    24630406.857 6 100857412.79906      2626.064 6        36.639
E34         4.000    28055611.849 6 147433239.76706      2376.253 6        37.690                                                                    28055613.177 6 110096256.07706      1774.482 6        40.594    28055612.551 6 112968331.90406      1820.759 6        41.132
S21         5.000    38592964.517 7 202807225.52007      -424.658 7        42.004
E05         6.000    27066542.749 5 142235651.74205      2716.970 5        35.629                                                                    27066545.180 6 106214954.50006      2028.924 6        39.712    27066544.165 6 108985772.62106      2081.775 6        39.559
G21         7.000    22455883.413 7 118006522.32007     -2882.889 7        44.355                                    22455878.431 5  91953137.85905     -2246.406 5        32.437
E04         8.000    23997650.488 7 126108529.33107     -1105.344 7        46.716                                                                    23997648.463 8  94171959.18308      -825.422 8        50.349    23997648.211 8  96628610.87308      -846.980 8        51.134
R14         9.000    24024467.623 7 128063945.65507      1829.589 7        43.274                                                                    24024469.175 6  99605281.99406      1422.964 6        39.390
G04        10.000    22332905.617 7 117360245.44807      2747.650 7        44.647                                    22332902.799 5  91449548.87105      2141.026 5        33.389    22332902.504 7  91449543.87607      2140.951 7        43.970
E09        11.000    24632077.272 7 129442483.91907      1623.437 7        47.060                                                                    24632076.899 8  96661610.87508      1212.270 8        49.116    24632076.472 8  99183217.50708      1243.823 8        49.802
S27        12.000    39235782.622 5 206185411.29705      -406.886 5        35.771
S36        14.000    38360499.071 7 201586282.43407      -424.591 7        43.680
E36        16.000    24111120.939 7 126704823.05307       963.341 7        47.011                                                                    24111120.955 8  94617255.27108       719.371 8        50.428    24111120.581 8  97085526.21808       738.116 8        50.854
S45        17.000    63559673.078 6 334009886.79806      -465.992 6        37.077
G03        18.000    20204030.308 8 106172953.66808       312.498 8        49.947                                    20204028.248 8  82732191.25608       243.505 8        51.323    20204028.832 7  82732200.25207       243.513 7        45.600
R21        19.000    20110169.259 8 107613618.21608      1773.935 8        51.903                                                                    20110167.620 7  83699490.91607      1379.756 7        46.494
R20        20.000    19848282.999 6 106137732.45306     -2511.261 6        40.443                                                                    19848284.526 7  82551568.59807     -1953.243 7        47.082
R05        21.000    19623671.396 8 104899814.93308     -2092.877 8        51.249                                                                    19623670.204 7  81588750.87007     -1627.783 7        47.486
I06        22.000    38348312.274 7 150487243.30307      -218.452 7        42.997
S28        23.000    41033921.552 5 215634711.56105      -417.237 5        34.186
E10        24.000    25732200.606 7 135223746.39807     -2729.848 7        43.869                                                                    25732199.999 7 100978837.98007     -2038.570 7        47.669    25732199.671 8 103613059.11808     -2091.771 8        48.095
S23        25.000    38310689.636 7 201324007.75107      -420.822 7        44.608
E06        26.000    23692166.166 7 124503233.26507       409.489 7        47.852                                                                    23692165.857 8  92973192.87008       305.715 8        50.300    23692165.762 8  95398579.04808       313.675 8        50.942
E30        27.000    28902518.799 5 151883767.06705     -1579.168 5        35.576                                                                    28902520.253 6 113419697.95906     -1179.326 6        38.937    28902519.375 6 116378470.38106     -1210.108 6        39.700
E12        28.000    28060709.783 5 147460165.37405     -3187.689 5        34.367                                                                    28060707.319 6 110116429.19306     -2380.620 6        38.282    28060707.365 6 112989019.58106     -2442.566 6        39.411
E19        30.000    27586349.345 5 144967247.66405     -3268.223 5        32.725                                                                    27586348.040 6 108254759.59006     -2440.504 6        36.200    27586347.407 6 111078794.36906     -2503.998 6        36.129
G32        31.000    24831919.467 6 130492629.47206     -3736.060 6        39.120                                    24831917.823 5 101682563.85605     -2911.210 5        32.341    24831918.815 6 101682568.86806     -2911.195 6        36.669
G02        32.000    21234580.788 8 111588516.80408     -1821.457 8        48.512                                    21234574.031 6  86952087.69106     -1419.319 6        40.827
G19        33.000    23328600.943 6 122592655.84506      2002.552 6        41.459                                    23328595.233 4  95526765.29304      1560.427 4        28.161
G17        34.000    22403202.199 7 117729677.14607       -38.761 7        45.398                                    22403197.655 7  91737421.73707       -30.203 7        43.338    22403197.712 7  91737421.72807       -30.159 7        42.461
E11        35.000    23842251.309 7 125291945.86607     -1636.801 7        44.290                                                                    23842247.134 7  93562186.19007     -1222.277 7        46.692    23842247.045 7  96002931.31907     -1254.255 7        47.469
C32        36.000                                                                                                                                    24237026.450 7 126208582.75907     -2999.664 7        46.293                                                                    24237026.666 7 102554821.87907     -2437.390 7        46.556
C35        37.000                                                                                                                                    24116429.687 7 125580592.94907      1811.669 7        45.940                                                                    24116428.031 7 102044517.77007      1472.201 7        45.264
I09        38.000    37287213.721 7 146323033.56107      -383.086 7        43.517
C29        39.000                                                                                                                                    22164876.048 8 115418328.62408     -1600.318 8        50.339                                                                    22164873.447 8  93786840.93408     -1300.324 8        48.406
R22        40.000    24449670.183 7 130513985.22207      3844.468 7        44.241                                                                    24449669.899 6 101510881.25206      2990.304 6        39.111
S44        42.000    40745399.604 6 214118707.11206      -495.522 6        37.977
C09        43.000                                                                                                                                    39342250.226 6 204865444.73006       699.531 6        40.789    39342247.808 7 158414947.18307       540.913 7        44.611    39342245.855 6 166469935.23506       568.576 6        40.849
C05        44.000                                                                                                                                    39275325.769 6 204516967.59906      -420.545 6        37.943    39275321.483 7 158145516.49407      -325.248 7        43.187    39275323.338 6 166186891.96106      -341.549 6        39.724
R06        45.000    21063387.814 6 112398316.71406      2452.714 6        38.787
R13        46.000    24054565.498 6 128450046.08606     -1455.083 6        37.822
C39        47.000                                                                                                                                    39043663.526 7 203310612.61807      -320.350 7        42.796                                                                    39043660.003 7 165206515.36907      -260.275 7        42.969
C20        48.000                                                                                                                                    21925395.086 8 114171333.89108      -279.993 8        51.968                                                                    21925389.491 8  92773552.95208      -227.438 8        48.992
C06        49.000                                                                                                                                    38649131.107 6 201256184.42106       253.962 6        40.732    38649124.241 7 155624031.07207       196.335 7        44.560    38649124.166 6 163537114.24406       206.370 6        40.749
C16        50.000                                                                                                                                    39040828.541 6 203295857.58406       128.673 6        41.990    39040828.619 7 157201261.33507        99.505 7        43.422    39040826.380 6 165194535.12806       104.704 6        39.264
S48        51.000    77346222.620 6 406458601.46206      -426.678 6        37.089
C19        52.000                                                                                                                                    24184721.125 7 125936238.79407      2085.013 7        47.173                                                                    24184716.147 7 102333511.52607      1694.338 7        46.912
R04        53.000    23013345.084 7 123235441.58307     -4340.374 7        45.588                                                                    23013344.254 6  95849794.21606     -3375.754 6        40.193
C60        54.000                                                                                                                                    40745399.759 6 212172192.85806      -491.032 6        39.141                                                                    40745383.945 6 172407255.91906      -398.973 6        39.565
C30        55.000                                                                                                                                    25144897.576 7 130936065.62607     -3817.990 7        43.225                                                                    25144898.557 7 106396274.93807     -3102.462 7        42.806
C02        57.000                                                                                                                                    40711867.249 5 211997427.57305      -466.190 5        33.653    40711861.845 6 163929852.32906      -360.619 6        40.536    40711864.894 6 172265278.38506      -378.531 6        36.318
I03        58.000   133311797.583 6 447358883.22106       960.667 6        40.887
C13        59.000                                                                                                                                    41506077.270 5 216133099.99205     -1093.304 5        30.634    41506081.173 5 167127862.90005      -845.453 5        35.605    41506078.340 5 175625876.59805      -888.294 5        31.849
> 2025 01 01 01 01  5.0000000  0 54
G28         1.000    23316920.706 7 122531259.55007        43.974 7        43.261                                    23316917.230 5  95478884.74105        34.267 5        30.083    23316917.417 7  95478890.73807        34.369 7        42.772
G31         2.000    23125128.228 7 121523378.15807      1781.582 7        44.059                                    23125124.178 6  94693527.70406      1388.247 6        39.703    23125124.788 6  94693526.69506      1388.237 6        40.729
G09         3.000    24627200.297 6 129416826.03506      3369.539 6        37.890                                    24627200.064 5 100844283.23905      2625.609 5        32.132    24627200.202 6 100844284.25006      2625.607 6        36.352
E34         4.000    28053351.012 6 147421359.07406      2376.114 6        37.331                                                                    28053352.455 6 110087384.10206      1774.277 6        40.389    28053351.737 6 112959228.48706      1820.687 6        41.054
S21         5.000    38593364.499 7 202809349.48407      -424.742 7        42.138
E05         6.000    27063957.636 5 142222067.46505      2716.854 5        35.543                                                                    27063960.111 6 106204810.39106      2028.708 6        39.721    27063959.145 6 108975363.86806      2081.913 6        39.577
G21         7.000    22458627.139 7 118020941.39907     -2884.492 7        44.251                                    22458622.264 5  91964373.49805     -2247.656 5        32.641
E04         8.000    23998703.231 7 126114062.08107     -1107.530 7        46.573                                                                    23998701.293 8  94176090.78408      -827.055 8        50.323    23998701.072 8  96632850.25808      -848.708 8        51.099
R14         9.000    24022753.227 7 128054806.28407      1826.333 7        43.719                                                                    24022753.801 6  99598173.59906      1420.478 6        39.486
G04        10.000    22330292.433 7 117346512.28107      2745.891 7        44.873                                    22330289.413 5  91438847.70905      2139.655 5        33.395    22330289.477 7  91438842.71607      2139.593 7        44.321
E09        11.000    24630533.659 7 129434372.09007      1621.533 7        46.984                                                                    24630533.263 8  96655553.34408      1210.912 8        49.020    24630532.869 8  99177001.95308      1242.457 8        49.884
S27        12.000    39236167.142 5 206187447.60705      -407.333 5        35.833
S36        14.000    38360904.750 7 201588405.88607      -424.660 7        43.803
E36        16.000    24110204.870 7 126700010.64507       961.858 7        47.091                                                                    24110205.173 8  94613661.58608       718.260 8        50.321    24110204.785 8  97081838.78708       736.955 8        50.831
S45        17.000    63560072.845 6 334010617.29916      -465.999 6        37.285
G03        18.000    20203734.172 8 106171396.75708       310.396 8        49.891                                    20203731.985 8  82730978.07508       241.867 8        51.444    20203732.469 7  82730987.07807       241.857 7        45.329
R21        19.000    20108513.730 8 107604757.78808      1770.508 8        51.867                                                                    20108512.270 7  83692599.46807      1377.047 7        46.307
R20        20.000    19850633.651 6 106150298.66606     -2515.124 6        40.565                                                                    19850634.406 7  82561342.30407     -1956.114 7        46.899
R05        21.000    19625630.737 8 104910287.28908     -2095.853 8        52.138                                                                    19625629.568 7  81596896.03507     -1630.077 7        47.553
I06        22.000    38348590.402 7 150488335.60107      -218.348 7        43.101
S28        23.000    41034320.170 5 215636797.67405      -417.146 5        34.114
E10        24.000    25734798.527 7 135237399.27807     -2731.061 7        43.670                                                                    25734797.966 7 100989033.30907     -2039.404 7        47.610    25734797.777 7 103623520.41807     -2092.705 7        47.995
S23        25.000    38311089.707 7 201326113.29107      -421.046 7        44.588
E06        26.000    23691777.987 7 124501192.13807       407.240 7        47.886                                                                    23691777.400 8  92971668.65208       304.017 8        50.228    23691777.369 8  95397015.06408       312.023 8        50.927
E30        27.000    28904022.359 5 151891668.77405     -1581.368 5        35.033                                                                    28904023.993 6 113425598.53906     -1180.792 6        37.887    28904022.749 6 116384524.88906     -1211.574 6        38.712
E12        28.000    28063743.633 5 147476106.17505     -3188.387 5        34.629                                                                    28063740.710 6 110128333.01106     -2380.814 6        38.159    28063740.968 6 113001233.94806     -2443.128 6        39.538
E19        30.000    27589458.939 5 144983589.46505     -3268.510 5        32.737                                                                    27589457.675 5 108266962.88105     -2440.913 5        35.938    27589457.157 6 111091316.00506     -2504.455 6        36.008
G32        31.000    24835474.890 6 130511311.43006     -3736.684 6        38.565                                    24835472.808 5 101697121.23405     -2911.702 5        32.329    24835473.674 6 101697126.21806     -2911.505 6        36.783
G02        32.000    21236315.067 8 111597630.50708     -1823.833 8        48.550                                    21236308.301 6  86959189.27806     -1421.165 6        40.884
G19        33.000    23326697.542 6 122582650.51706      1999.794 6        41.225                                    23326691.248 4  95518968.93004      1558.280 4        28.142
G17        34.000    22403240.183 7 117729879.01807       -41.803 7        45.087                                    22403236.066 7  91737579.03407       -32.573 7        43.355    22403236.358 7  91737579.04607       -32.681 7        42.368
E11        35.000    23843809.672 7 125300134.56707     -1638.607 7        44.176                                                                    23843805.350 7  93568301.12607     -1223.710 7        46.613    23843805.319 7  96009205.77507     -1255.552 7        47.411
C32        36.000                                                                                                                                    24239907.447 7 126223583.75007     -3000.475 7        46.398                                                                    24239907.380 7 102567011.44207     -2438.179 7        46.549
C35        37.000                                                                                                                                    24114691.483 7 125571540.50607      1809.584 7        46.322                                                                    24114689.520 7 102037161.95107      1470.402 7        45.482
I09        38.000    37287702.146 7 146324949.67907      -383.321 7        43.545
C29        39.000                                                                                                                                    22166413.982 8 115426337.69208     -1603.132 8        50.340                                                                    22166411.486 8  93793348.97908     -1302.710 8        48.476
R22        40.000    24446068.659 7 130494763.55707      3844.354 7        43.591                                                                    24446069.252 6 101495931.12006      2990.015 6        39.667
S44        42.000    40745872.380 6 214121185.75606      -495.543 6        38.174
C09        43.000                                                                                                                                    39341579.518 6 204861949.36206       698.769 6        40.665    39341576.448 7 158412244.34907       540.228 7        44.685    39341574.621 6 166467094.98406       567.637 6        41.116
C05        44.000                                                                                                                                    39275730.214 6 204519071.28106      -420.723 6        37.701    39275725.387 7 158147143.21207      -325.444 7        43.295    39275727.591 6 166188601.41406      -341.942 6        40.062
R06        45.000    21061089.791 6 112386059.30506      2450.293 6        38.631
R13        46.000    24055930.990 6 128457332.93606     -1459.377 6        37.497
C39        47.000                                                                                                                                    39043971.862 7 203312218.04307      -321.478 7        42.830                                                                    39043968.300 7 165207819.94207      -261.369 7        43.134
C20        48.000                                                                                                                                    21925665.141 8 114172739.67108      -282.133 8        51.878                                                                    21925659.363 8  92774695.28008      -229.262 8        49.094
C06        49.000                                                                                                                                    38648887.751 6 201254917.74106       252.887 6        40.806    38648881.015 7 155623051.59807       195.485 7        44.602    38648880.854 6 163536085.00106       205.430 6        40.953
C16        50.000                                                                                                                                    39040705.520 6 203295217.06606       127.605 6        41.938    39040705.567 7 157200766.04907        98.642 7        43.536    39040703.405 6 165194014.67706       103.769 6        39.078
S48        51.000    77346623.890 6 406460735.06006      -426.636 6        37.282
C19        52.000                                                                                                                                    24182719.602 7 125925817.72607      2083.633 7        46.956                                                                    24182714.882 7 102325043.59107      1693.113 7        47.017
R04        53.000    23017397.411 7 123257145.07207     -4340.866 7        44.963                                                                    23017397.462 6  95866674.68406     -3376.170 6        40.405
C60        54.000                                                                                                                                    40745871.435 6 212174648.97106      -491.157 6        39.174                                                                    40745855.652 6 172409251.72706      -399.206 6        39.805
C30        55.000                                                                                                                                    25148564.290 7 130955158.48507     -3818.862 7        42.844                                                                    25148565.208 7 106411789.46707     -3103.237 7        42.916
C02        57.000                                                                                                                                    40712315.373 5 211999759.01405      -466.370 5        33.808    40712309.754 6 163931655.14206      -360.673 6        40.489    40712312.969 6 172267172.90606      -378.703 6        36.628
I03        58.000   133310573.361 6 447354080.35706       960.639 6        40.994
C13        59.000                                                                                                                                    41507128.546 5 216138566.50905     -1093.114 5        31.291    41507130.740 6 167132090.00106      -845.559 6        36.072    41507128.211 5 175630318.65905      -888.623 5        31.653
> 2025 01 01 01 01 10.0000000  0 54
G28         1.000    23316880.399 7 122531047.52707        40.829 7        43.486                                    23316876.833 4  95478719.53204        31.811 4        29.905    23316877.018 7  95478725.54507        31.824 7        42.021
G31         2.000    23123434.484 7 121514476.82407      1779.030 7        44.283                                    23123430.426 6  94686591.60406      1386.258 6        39.504    23123430.750 6  94686590.60206      1386.328 6        40.193
G09         3.000    24623995.088 6 129399979.89606      3368.939 6        38.165                                    24623994.251 5 100831156.38805      2625.143 5        32.012    24623994.235 5 100831157.38205      2625.392 5        35.624
E34         4.000    28051090.584 6 147409478.28906      2376.135 6        37.505                                                                    28051091.572 6 110078512.07906      1774.494 6        40.658    28051090.899 6 112950125.03206      1820.702 6        41.485
S21         5.000    38593770.223 6 202811473.15206      -424.819 6        41.874
E05         6.000    27061372.831 5 142208483.81805      2716.444 5        35.448                                                                    27061375.217 6 106194666.75706      2028.645 6        39.757    27061374.357 6 108964955.62406      2081.575 6        39.483
G21         7.000    22461372.412 7 118035367.52807     -2885.898 7        44.054                                    22461367.473 5  91975614.64105     -2248.751 5        32.581
E04         8.000    23999758.049 7 126119605.16707     -1109.657 7        46.641                                                                    23999756.130 8  94180230.10608      -828.618 8        50.350    23999755.822 8  96637097.55208      -850.219 8        51.178
R14         9.000    24021041.934 7 128045681.87907      1823.306 7        44.108                                                                    24021041.704 6  99591076.83206      1418.058 6        39.042
G04        10.000    22327680.816 7 117332787.27007      2744.195 7        45.005                                    22327677.583 5  91428152.89705      2138.337 5        33.515    22327677.729 7  91428147.89807      2138.304 7        43.816
E09        11.000    24628991.896 7 129426268.77507      1619.839 7        47.242                                                                    24628991.192 8  96649502.17108      1209.601 8        49.143    24628990.881 8  99170792.91808      1241.168 8        49.908
S27        12.000    39236560.998 5 206189483.39005      -407.329 5        35.614
S36        14.000    38361305.836 7 201590528.80707      -424.222 7        43.786
E36        16.000    24109290.316 7 126695204.76107       960.524 7        47.217                                                                    24109290.623 8  94610072.77608       717.263 8        50.385    24109290.272 8  97078156.35308       735.952 8        50.933
S45        17.000    63560471.159 6 334012947.72606      -466.049 6        36.983
G03        18.000    20203439.799 8 106169849.88908       308.356 8        49.763                                    20203437.631 8  82729772.72708       240.280 8        51.388    20203438.295 7  82729781.72307       240.253 7        45.294
R21        19.000    20106860.745 8 107595914.11408      1767.073 8        51.960                                                                    20106859.291 7  83685721.05807      1374.330 7        46.151
R20        20.000    19852986.782 6 106162883.15706     -2518.588 6        40.336                                                                    19852987.602 7  82571130.24507     -1959.013 7        46.916
R05        21.000    19627592.863 8 104920773.97108     -2098.776 8        52.077                                                                    19627591.278 7  81605052.33607     -1632.402 7        47.358
I06        22.000    38348869.185 7 150489427.88107      -218.401 7        43.143
S28        23.000    41034716.629 5 215638883.78405      -417.068 5        34.243
E10        24.000    25737397.470 7 135251057.78307     -2732.362 7        43.390                                                                    25737397.062 7 100999232.83707     -2040.292 7        47.621    25737396.932 8 103633986.01608     -2093.548 8        48.085
S23        25.000    38311490.383 7 201328218.82807      -421.291 7        44.533
E06        26.000    23691391.504 7 124499161.65007       405.074 7        47.878                                                                    23691391.036 8  92970152.37808       302.465 8        50.272    23691390.982 8  95395459.24008       310.341 8        51.003
E30        27.000    28905527.617 5 151899580.53305     -1583.316 5        34.681                                                                    28905529.389 6 113431506.66506     -1182.570 6        38.628    28905528.359 6 116390587.13506     -1213.138 6        39.333
E12        28.000    28066777.364 5 147492049.81305     -3189.264 5        35.033                                                                    28066774.835 6 110140238.97406     -2381.385 6        38.249    28066775.120 6 113013450.49906     -2443.514 6        39.574
E19        30.000    27592568.637 5 144999933.85005     -3269.220 5        32.407                                                                    27592567.604 5 108279168.05505     -2441.123 5        35.462    27592567.523 6 111103839.58506     -2504.660 6        36.163
G32        31.000    24839030.484 6 130529996.94006     -3737.570 6        38.468                                    24839028.557 5 101711681.36905     -2912.392 5        32.461    24839029.097 6 101711686.34806     -2912.316 6        36.862
G02        32.000    21238051.582 8 111606755.49508     -1826.152 8        48.712                                    21238044.739 6  86966299.65706     -1422.977 6        40.810
G19        33.000    23324795.521 6 122572658.52206      1997.067 6        41.812                                    23324789.901 4  95511182.96404      1556.147 4        28.123
G17        34.000    22403281.688 7 117730095.99107       -44.888 7        45.652                                    22403277.326 7  91737748.10707       -34.975 7        43.312    22403277.393 7  91737748.10907       -34.988 7        42.091
E11        35.000    23845369.384 7 125308331.33307     -1640.213 7        44.215                                                                    23845365.096 7  93574422.08807     -1224.823 7        46.600    23845365.112 7  96015486.41607     -1256.690 7        47.505
C32        36.000                                                                                                                                    24242788.998 7 126238588.45307     -3001.351 7        46.302                                                                    24242788.896 7 102579203.97907     -2438.743 7        46.534
C35        37.000                                                                                                                                    24112954.573 7 125562497.55107      1807.602 7        46.018                                                                    24112952.935 7 102029813.80507      1469.011 7        45.398
I09        38.000    37288190.810 7 146326866.58107      -383.462 7        43.522
C29        39.000                                                                                                                                    22167954.562 8 115434359.80308     -1605.794 8        50.322                                                                    22167952.073 8  93799867.58908     -1304.712 8        48.501
R22        40.000    24442467.221 7 130475542.45807      3844.070 7        42.013                                                                    24442470.256 6 101480981.39606      2989.824 6        38.177
S44        42.000    40746345.598 6 214123664.35306      -495.834 6        37.924
C09        43.000                                                                                                                                    39340909.241 6 204858457.85106       697.952 6        40.656    39340906.182 7 158409544.49007       539.695 7        44.736    39340904.046 6 166464257.84206       567.097 6        40.953
C05        44.000                                                                                                                                    39276134.006 6 204521174.97206      -420.741 6        37.720    39276129.541 7 158148769.91007      -325.349 7        43.380    39276131.450 6 166190310.82306      -341.701 6        39.877
R06        45.000    21058795.668 6 112373813.70506      2448.001 6        39.255
R13        46.000    24057298.115 6 128464639.50506     -1463.264 6        37.720
C39        47.000                                                                                                                                    39044281.179 7 203313828.13807      -322.484 7        42.849                                                                    39044277.484 7 165209128.27407      -262.039 7        43.118
C20        48.000                                                                                                                                    21925937.000 8 114174155.32008      -284.149 8        51.745                                                                    21925931.264 8  92775845.60308      -230.764 8        49.126
C06        49.000                                                                                                                                    38648643.989 6 201253655.63206       252.014 6        40.613    38648638.441 7 155622075.65907       194.834 7        44.492    38648638.771 6 163535059.42006       204.753 6        40.882
C16        50.000                                                                                                                                    39040584.050 7 203294581.08407       126.754 7        42.167    39040583.659 7 157200274.26707        97.899 7        43.198    39040581.348 6 165193497.87706       102.940 6        39.171
S48        51.000    77347022.549 6 406462868.43506      -426.582 6        37.210
C19        52.000                                                                                                                                    24180719.032 7 125915402.80607      2082.321 7        46.728                                                                    24180714.829 7 102316580.59907      1692.170 7        47.026
R04        53.000    23021450.942 7 123278850.17007     -4341.170 7        44.966                                                                    23021450.033 6  95883556.41606     -3376.432 6        40.608
C60        54.000                                                                                                                                    40746343.401 6 212177105.01606      -491.140 6        39.492                                                                    40746327.256 6 172411247.46706      -399.200 6        39.787
C30        55.000                                                                                                                                    25152231.585 7 130974254.59807     -3819.539 7        42.377                                                                    25152232.322 7 106427306.60207     -3103.738 7        42.957
C02        57.000                                                                                                                                    40712763.394 5 212002090.43805      -466.397 5        34.005    40712757.346 6 163933457.93006      -360.604 6        40.632    40712760.542 6 172269067.36006      -378.846 6        36.635
I03        58.000   133309349.523 6 447349277.60506       960.538 6        40.953
C13        59.000                                                                                                                                    41508177.768 5 216144033.01105     -1093.368 5        32.186    41508180.275 6 167136317.02406      -845.409 6        36.117    41508178.026 5 175634760.59605      -888.313 5        31.509
> 2025 01 01 01 01 15.0000000  0 54
G28         1.000    23316842.930 7 122530851.65807        37.492 7        43.695                                    23316839.553 4  95478566.91204        29.211 4        29.991    23316839.734 7  95478572.91207        29.210 7        42.220
G31         2.000    23121743.243 7 121505588.07407      1776.261 7        43.420                                    23121738.968 6  94679665.31006      1384.100 6        39.324    23121739.126 6  94679664.30806      1384.133 6        39.829
G09         3.000    24620789.750 6 129383136.12706      3368.359 6        38.411                                    24620788.862 5 100818031.37805      2624.694 5        32.150    24620789.513 5 100818032.37605      2624.878 5        35.300
E34         4.000    28048829.892 6 147397597.56506      2376.241 6        37.788                                                                    28048830.428 6 110069640.13606      1774.303 6        40.529    28048830.140 6 112941021.63006      1820.554 6        41.464
S21         5.000    38594171.461 6 202813596.85206      -424.885 6        41.747
E05         6.000    27058788.124 5 142194900.93105      2716.382 5        35.638                                                                    27058790.404 6 106184523.72006      2028.500 6        39.865    27058789.512 6 108954547.98006      2081.423 6        39.613
G21         7.000    22464119.264 7 118049800.91707     -2887.559 7        44.355                                    22464114.033 5  91986861.43405     -2250.044 5        32.515
E04         8.000    24000814.956 7 126125158.78807     -1111.975 7        46.684                                                                    24000812.944 8  94184377.28508      -830.340 8        50.418    24000812.643 8  96641352.92008      -852.031 8        51.254
R14         9.000    24019333.450 7 128036572.73407      1820.120 7        43.867                                                                    24019333.311 6  99583991.95306      1415.657 6        39.270
G04        10.000    22325070.485 7 117319070.59007      2742.439 7        45.028                                    22325067.417 5  91417464.57705      2136.966 5        33.605    22325067.425 7  91417459.57607      2136.988 7        44.006
E09        11.000    24627451.605 7 129418174.16207      1617.949 7        47.244                                                                    24627450.846 8  96643457.48808      1208.242 8        49.166    24627450.483 8  99164590.55008      1239.754 8        49.973
S27        12.000    39236946.398 5 206191519.38305      -407.444 5        35.271
S36        14.000    38361711.158 7 201592651.08707      -424.557 7        43.549
E36        16.000    24108376.998 7 126690405.60607       959.087 7        47.376                                                                    24108377.365 8  94606488.98908       716.208 8        50.411    24108376.997 8  97074479.07508       734.861 8        51.003
S45        17.000    63560869.478 6 334015277.95706      -465.908 6        36.877
G03        18.000    20203147.060 8 106168313.27308       306.082 8        49.820                                    20203145.223 8  82728575.36208       238.505 8        51.433    20203146.014 7  82728584.36607       238.584 7        45.655
R21        19.000    20105211.355 8 107587087.47008      1763.522 8        51.955                                                                    20105210.236 7  83678855.90407      1371.618 7        46.472
R20        20.000    19855343.589 6 106175485.99406     -2522.445 6        40.703                                                                    19855344.465 7  82580932.45707     -1961.966 7        46.910
R05        21.000    19629556.579 8 104931275.04708     -2101.765 8        51.756                                                                    19629555.739 7  81613219.84307     -1634.710 7        47.167
I06        22.000    38349147.451 7 150490520.27607      -218.631 7        43.187
S28        23.000    41035112.524 5 215640969.84905      -417.402 5        33.982
E10        24.000    25739997.829 7 135264722.07207     -2733.533 7        43.545                                                                    25739997.325 7 101009436.69307     -2041.289 7        47.643    25739997.072 8 103644456.05908     -2094.552 8        48.088
S23        25.000    38311891.496 7 201330324.36007      -421.131 7        44.376
E06        26.000    23691007.032 7 124497141.98507       402.695 7        47.794                                                                    23691006.642 8  92968644.18108       300.749 8        50.339    23691006.655 8  95393911.69708       308.602 8        51.120
E30        27.000    28907035.924 5 151907502.47305     -1585.376 5        34.362                                                                    28907036.953 6 113437422.37006     -1183.966 6        38.712    28907035.864 6 116396657.17806     -1215.064 6        39.186
E12        28.000    28069812.042 5 147507996.49305     -3190.017 5        34.724                                                                    28069809.402 6 110152147.21206     -2382.071 6        38.360    28069809.756 6 113025669.37406     -2444.114 6        39.751
E19        30.000    27595679.701 5 145016280.91805     -3269.791 5        32.084                                                                    27595678.633 5 108291375.27305     -2441.724 5        35.238    27595678.041 6 111116365.24506     -2505.466 6        36.181
G32        31.000    24842587.226 6 130548686.14506     -3738.480 6        38.997                                    24842585.098 5 101726244.37705     -2913.100 5        32.742    24842586.069 6 101726249.35706     -2913.130 6        37.312
G02        32.000    21239790.033 8 111615891.94508     -1828.544 8        48.724                                    21239783.337 6  86973418.96706     -1424.840 6        40.856
G19        33.000    23322897.136 6 122562680.08106      1994.232 6        41.895                                    23322891.062 4  95503407.55204      1553.953 4        28.133
G17        34.000    22403326.410 7 117730328.25407       -48.102 7        45.570                                    22403321.537 7  91737929.09307       -37.481 7        43.384    22403321.638 6  91737929.09706       -37.441 6        41.812
E11        35.000    23846930.768 7 125316536.33507     -1641.839 7        44.352                                                                    23846926.517 7  93580549.19807     -1226.068 7        46.757    23846926.433 7  96021773.37007     -1258.156 7        47.631
C32        36.000                                                                                                                                    24245670.873 7 126253597.01707     -3002.210 7        46.236                                                                    24245671.198 7 102591399.67107     -2439.463 7        46.426
C35        37.000                                                                                                                                    24111219.121 7 125553464.30307      1805.594 7        45.749                                                                    24111218.186 7 102022473.56207      1467.209 7        45.279
I09        38.000    37288679.414 7 146328784.38407      -383.788 7        43.551
C29        39.000                                                                                                                                    22169497.732 8 115442395.14508     -1608.514 8        50.275                                                                    22169495.161 8  93806396.97308     -1307.002 8        48.324
R22        40.000    24438866.016 7 130456322.28807      3843.883 7        44.033                                                                    24438867.426 6 101466032.45006      2989.575 6        39.589
S44        42.000    40746815.226 6 214126143.04406      -495.845 6        37.694
C09        43.000                                                                                                                                    39340239.557 6 204854970.37106       697.046 6        40.636    39340236.486 7 158406847.74207       538.951 7        44.904    39340234.449 6 166461423.97406       566.443 6        40.834
C05        44.000                                                                                                                                    39276538.330 6 204523278.80206      -420.744 6        37.709    39276533.418 7 158150396.73407      -325.393 7        43.350    39276535.465 6 166192020.38606      -342.062 6        39.739
R06        45.000    21056502.873 6 112361579.98206      2445.467 6        39.225
R13        46.000    24058670.754 6 128471965.99306     -1467.512 6        37.229
C39        47.000                                                                                                                                    39044591.276 7 203315443.07507      -323.628 7        42.696                                                                    39044587.691 7 165210440.54107      -262.870 7        43.009
C20        48.000                                                                                                                                    21926210.772 8 114175581.03708      -286.295 8        51.765                                                                    21926205.027 8  92777004.12808      -232.559 8        48.963
C06        49.000                                                                                                                                    38648402.519 6 201252398.28406       250.928 6        40.205    38648397.294 7 155621103.38507       194.004 7        44.473    38648397.210 6 163534037.72606       203.828 6        40.775
C16        50.000                                                                                                                                    39040462.813 7 203293949.83407       125.638 7        42.254    39040462.458 7 157199786.13607        97.087 7        43.185    39040460.053 6 165192984.94606       102.318 6        39.045
S48        51.000    77347426.484 6 406465001.96206      -426.939 6        36.983
C19        52.000                                                                                                                                    24178720.513 7 125904994.18407      2080.944 7        46.791                                                                    24178715.981 7 102308122.75607      1691.006 7        46.892
R04        53.000    23025506.121 7 123300557.07607     -4341.656 7        45.261                                                                    23025503.745 6  95900439.55406     -3377.025 6        40.250
C60        54.000                                                                                                                                    40746814.934 6 212179561.18006      -491.385 6        39.393                                                                    40746798.927 6 172413243.29506      -399.138 6        39.426
C30        55.000                                                                                                                                    25155899.168 6 130993354.14606     -3820.429 6        41.950                                                                    25155900.126 7 106442826.55007     -3104.343 7        42.808
C02        57.000                                                                                                                                    40713210.413 5 212004422.06905      -466.543 5        33.737    40713205.201 6 163935260.91006      -360.856 6        40.772    40713208.451 6 172270962.02406      -378.935 6        36.575
I03        58.000   133308125.719 6 447344475.09406       960.354 6        41.051
C13        59.000                                                                                                                                    41509227.949 5 216149499.48305     -1093.415 5        32.443    41509229.815 5 167140544.06705      -845.557 5        35.719    41509227.533 5 175639202.59505      -888.040 5        31.042
> 2025 01 01 01 01 20.0000000  0 54
G28         1.000    23316808.798 7 122530671.74707        34.575 7        43.477                                    23316805.256 4  95478426.71904        26.941 4        29.943    23316805.137 7  95478432.72407        26.842 7        42.468
G31         2.000    23120053.699 7 121496711.75707      1774.272 7        43.414                                    23120049.790 6  94672748.70206      1382.544 6        39.069    23120050.481 6  94672747.70206      1382.513 6        39.664
G09         3.000    24617584.944 6 129366294.54206      3368.321 6        38.715                                    24617583.885 5 100804908.07505      2624.666 5        32.132    24617584.020 5 100804909.05205      2624.794 5        35.057
E34         4.000    28046568.896 6 147385716.78306      2376.166 6        37.505                                                                    28046569.731 6 110060768.11606      1774.471 6        40.679    28046569.214 6 112931918.16706      1820.961 6        41.592
S21         5.000    38594577.257 6 202815720.06206      -424.292 6        41.821
E05         6.000    27056203.537 5 142181318.71205      2716.606 5        35.562                                                                    27056205.911 6 106174381.16606      2028.680 6        39.640    27056204.916 6 108944140.84706      2081.485 6        39.613
G21         7.000    22466867.119 7 118064241.38107     -2888.554 7        44.322                                    22466861.948 5  91998113.73905     -2250.822 5        32.377
E04         8.000    24001873.838 7 126130722.72607     -1113.614 7        46.685                                                                    24001871.751 8  94188532.18408      -831.602 8        50.355    24001871.479 8  96645616.20408      -853.227 8        51.279
R14         9.000    24017627.184 7 128027478.43507      1817.540 7        42.817                                                                    24017626.589 6  99576918.61106      1413.724 6        38.949
G04        10.000    22322461.709 7 117305362.04607      2741.167 7        45.047                                    22322458.815 5  91406782.60605      2135.973 5        33.629    22322458.775 7  91406777.61107      2135.930 7        44.460
E09        11.000    24625912.740 7 129410088.04907      1616.641 7        46.999                                                                    24625912.049 8  96637419.16308      1207.221 8        49.085    24625911.717 8  99158394.70408      1238.699 8        50.054
S27        12.000    39237332.205 5 206193554.83105      -406.548 5        35.548
S36        14.000    38362115.227 7 201594772.74707      -424.034 7        43.492
E36        16.000    24107465.038 7 126685612.98607       958.088 7        47.169                                                                    24107465.349 8  94602910.08708       715.506 8        50.379    24107465.045 8  97070806.80908       734.183 8        51.043
S45        17.000    63561270.855 6 334017608.07506      -465.762 6        36.919
G03        18.000    20202856.799 8 106166786.69308       304.540 8        49.761                                    20202854.733 8  82727385.82208       237.305 8        51.429    20202854.991 7  82727394.82407       237.177 7        45.553
R21        19.000    20103565.010 8 107578277.68908      1760.472 8        51.839                                                                    20103563.858 7  83672003.83907      1369.306 7        46.455
R20        20.000    19857703.644 6 106188107.07206     -2525.702 6        40.894                                                                    19857704.568 7  82590748.84707     -1964.484 7        46.742
R05        21.000    19631523.852 8 104941790.30508     -2104.248 8        52.030                                                                    19631522.658 7  81621398.37507     -1636.626 7        47.261
I06        22.000    38349425.859 7 150491612.63907      -218.251 7        43.126
S28        23.000    41035512.005 5 215643055.76805      -416.923 5        34.062
E10        24.000    25742599.225 7 135278391.97607     -2734.362 7        43.630                                                                    25742598.829 7 101019644.73607     -2041.906 7        47.595    25742598.315 8 103654930.39708     -2095.143 8        48.135
S23        25.000    38312291.975 7 201332429.72407      -420.838 7        44.417
E06        26.000    23690624.811 7 124495132.93307       400.990 7        47.910                                                                    23690624.346 8  92967143.92308       299.445 8        50.256    23690624.322 8  95392372.29708       307.281 8        51.123
E30        27.000    28908545.583 5 151915434.46505     -1587.224 5        35.338                                                                    28908546.313 6 113443345.64406     -1185.315 6        38.156    28908545.705 6 116402734.95606     -1216.182 6        39.048
E12        28.000    28072847.085 5 147523945.99005     -3189.634 5        34.786                                                                    28072844.427 6 110164057.57406     -2382.107 6        38.351    28072844.919 6 113037890.46006     -2444.269 6        39.799
E19        30.000    27598790.841 5 145032630.54005     -3269.794 5        32.317                                                                    27598789.976 5 108303584.41905     -2441.923 5        35.310    27598789.311 6 111128892.89006     -2505.532 6        36.393
G32        31.000    24846144.415 6 130567378.83806     -3738.643 6        39.613                                    24846142.300 5 101740810.10505     -2913.229 5        33.024    24846143.649 6 101740815.10006     -2913.287 6        37.543
G02        32.000    21241530.772 8 111625039.63708     -1830.386 8        48.993                                    21241524.064 6  86980547.03606     -1426.273 6        40.877
G19        33.000    23320999.955 6 122552714.98106      1992.020 6        41.681                                    23320994.700 4  95495642.54904      1552.221 4        28.275
G17        34.000    22403372.854 7 117730575.62607       -50.770 7        45.515                                    22403368.614 7  91738121.84507       -39.559 7        43.464    22403368.735 6  91738121.85406       -39.541 6        41.862
E11        35.000    23848493.796 7 125324749.41907     -1643.108 7        44.384                                                                    23848489.439 7  93586682.34507     -1226.971 7        46.638    23848489.279 7  96028066.50707     -1258.988 7        47.652
C32        36.000                                                                                                                                    24248553.694 7 126268609.23307     -3002.585 7        46.448                                                                    24248554.124 7 102603598.32507     -2439.847 7        46.559
C35        37.000                                                                                                                                    24109486.691 7 125544440.53507      1804.085 7        45.878                                                                    24109485.192 7 102015141.00307      1465.917 7        45.383
I09        38.000    37289168.450 7 146330702.96307      -383.636 7        43.242
C29        39.000                                                                                                                                    22171043.228 8 115450443.51308     -1610.725 8        50.215                                                                    22171040.748 8  93812936.92108     -1308.895 8        48.517
R22        40.000    24435266.165 7 130437102.54307      3843.983 7        42.754                                                                    24435267.002 6 101451083.77806      2989.889 6        38.072
S44        42.000    40747286.951 6 214128621.64906      -495.615 6        37.735
C09        43.000                                                                                                                                    39339570.480 6 204851486.68806       696.754 6        40.782    39339567.687 7 158404153.94707       538.696 7        45.099    39339565.570 6 166458593.21106       565.992 6        40.987
C05        44.000                                                                                                                                    39276942.113 6 204525382.61406      -420.409 6        37.735    39276937.568 7 158152023.53507      -325.132 7        43.346    39276939.646 6 166193729.88906      -341.751 6        39.916
R06        45.000    21054212.575 6 112349358.01106      2443.607 6        38.396
R13        46.000    24060045.379 6 128479312.19406     -1470.800 6        37.977
C39        47.000                                                                                                                                    39044902.310 7 203317062.66707      -324.230 7        42.610                                                                    39044898.594 7 165211756.57407      -263.408 7        43.024
C20        48.000                                                                                                                                    21926486.575 8 114177016.61008      -287.860 8        51.932                                                                    21926480.717 8  92778170.64008      -233.922 8        48.925
C06        49.000                                                                                                                                    38648161.533 6 201251145.50506       250.262 6        40.072    38648156.921 7 155620134.65207       193.653 7        44.486    38648156.752 6 163533019.72206       203.517 6        41.130
C16        50.000                                                                                                                                    39040342.345 7 203293323.11407       125.188 7        42.444    39040342.119 7 157199301.52107        96.796 7        43.213    39040339.663 6 165192475.69106       101.627 6        39.216
S48        51.000    77347828.344 6 406467135.22206      -426.291 6        36.926
C19        52.000                                                                                                                                    24176722.890 7 125894591.69107      2080.067 7        46.989                                                                    24176718.258 7 102299669.86407      1690.311 7        46.897
R04        53.000    23029560.159 7 123322265.62607     -4341.514 7        45.219                                                                    23029558.092 6  95917323.96006     -3376.799 6        40.696
C60        54.000                                                                                                                                    40747286.287 6 212182017.25106      -491.012 6        39.607                                                                    40747270.545 6 172415239.04106      -398.870 6        39.703
C30        55.000                                                                                                                                    25159567.414 7 131012456.89007     -3820.428 7        42.023                                                                    25159568.620 7 106458349.08407     -3104.546 7        42.857
C02        57.000                                                                                                                                    40713657.870 5 212006753.63505      -466.251 5        34.019    40713653.047 6 163937063.82306      -360.421 6        40.837    40713656.083 6 172272856.61006      -378.750 6        36.578
I03        58.000   133306901.992 6 447339672.68006       960.714 6        40.920
C13        59.000                                                                                                                                    41510278.665 5 216154965.89305     -1092.836 5        32.671    41510279.882 5 167144771.01805      -845.251 5        35.367    41510277.419 5 175643644.47905      -888.051 5        31.630
> 2025 01 01 01 01 25.0000000  0 54
G28         1.000    23316777.416 7 122530507.68907        30.959 7        43.118                                    23316774.004 4  95478298.88504        24.125 4        29.877    23316774.080 7  95478304.87707        24.224 7        42.641
G31         2.000    23118367.212 7 121487847.77007      1771.420 7        43.247                                    23118362.884 6  94665841.70406      1380.326 6        39.015    23118363.523 6  94665840.70406      1380.325 6        40.107
G09         3.000    24614380.512 6 129349455.03606      3367.546 6        38.315                                    24614379.417 5 100791786.38705      2624.063 5        32.048    24614380.784 5 100791787.39305      2623.873 5        35.533
E34         4.000    28044307.947 6 147373835.73606      2375.757 6        37.573                                                                    28044308.904 6 110051895.92006      1774.211 6        40.787    28044308.263 6 112922814.51806      1820.637 6        41.352
S21         5.000    38594983.177 6 202817842.99206      -424.681 6        41.821
E05         6.000    27053618.900 5 142167737.02705      2716.026 5        35.729                                                                    27053621.486 6 106164239.01306      2028.065 6        40.062    27053620.346 6 108933734.09906      2081.158 6        39.982
G21         7.000    22469616.253 7 118078688.77407     -2890.365 7        44.215                                    22469611.191 5  92009371.44905     -2252.236 5        32.509
E04         8.000    24002934.623 7 126136296.86607     -1115.972 7        46.793                                                                    24002932.490 8  94192694.68508      -833.368 8        50.450    24002932.138 8  96649887.29708      -855.069 8        51.276
R14         9.000    24015923.319 7 128018399.20407      1814.176 7        42.995                                                                    24015923.846 6  99569856.98406      1410.973 6        38.787
G04        10.000    22319854.570 7 117291661.57607      2739.231 7        45.308                                    22319851.752 5  91396106.91705      2134.464 5        33.629    22319851.495 7  91396101.92707      2134.335 7        44.373
E09        11.000    24624375.658 7 129402010.35007      1614.512 7        47.280                                                                    24624374.879 8  96631387.11608      1205.714 8        49.214    24624374.581 8  99152205.30108      1237.128 8        50.064
S27        12.000    39237719.689 5 206195590.69105      -407.416 5        35.529
S36        14.000    38362517.995 7 201596893.76207      -424.254 7        43.583
E36        16.000    24106554.312 7 126680826.79507       956.421 7        47.377                                                                    24106554.595 8  94599335.98808       714.191 8        50.428    24106554.210 8  97067139.47708       732.789 8        51.029
S45        17.000    63561668.633 6 334019937.84106      -466.010 6        37.096
G03        18.000    20202568.124 8 106165270.06108       302.155 8        49.824                                    20202566.130 8  82726204.03108       235.445 8        51.458    20202566.518 7  82726213.03407       235.427 7        45.750
R21        19.000    20101921.754 8 107569484.70408      1756.764 8        51.937                                                                    20101920.555 7  83665164.85307      1366.377 7        46.467
R20        20.000    19860067.076 6 106200746.34906     -2529.655 6        40.284                                                                    19860068.093 7  82600579.38407     -1967.565 7        46.481
R05        21.000    19633493.661 8 104952319.68308     -2107.426 8        51.765                                                                    19633492.685 7  81629587.89507     -1639.181 7        47.656
I06        22.000    38349704.210 7 150492704.89507      -218.633 7        43.198
S28        23.000    41035909.640 5 215645141.53105      -417.381 5        33.994
E10        24.000    25745201.487 7 135292067.36607     -2735.708 7        43.456                                                                    25745201.147 7 101029856.87107     -2042.961 7        47.666    25745200.807 8 103665408.94008     -2096.289 8        48.122
S23        25.000    38312691.706 7 201334534.69907      -421.085 7        44.402
E06        26.000    23690244.522 7 124493134.39407       398.539 7        47.918                                                                    23690244.024 8  92965651.50908       297.568 8        50.362    23690244.011 8  95390840.95708       305.315 8        51.084
E30        27.000    28910056.308 6 151923376.42006     -1589.718 6        36.147                                                                    28910057.678 6 113449276.32806     -1187.081 6        39.180    28910057.103 6 116408820.35606     -1217.948 6        39.748
E12        28.000    28075882.594 5 147539898.25705     -3190.881 5        34.381                                                                    28075880.149 6 110175969.96506     -2382.691 6        38.408    28075880.418 6 113050113.60906     -2445.052 6        39.856
E19        30.000    27601902.503 5 145048982.52705     -3270.784 5        32.210                                                                    27601901.344 5 108315795.28005     -2442.326 5        35.376    27601901.326 6 111141422.33106     -2506.310 6        36.650
G32        31.000    24849702.217 6 130586074.92906     -3739.697 6        40.172                                    24849700.241 5 101755378.48105     -2914.050 5        33.401    24849700.995 6 101755383.47206     -2914.125 6        37.629
G02        32.000    21243273.639 8 111634198.45108     -1833.038 8        49.117                                    21243266.937 6  86987683.77206     -1428.339 6        40.880
G19        33.000    23319106.664 6 122542763.15206      1989.000 6        41.385                                    23319100.932 4  95487887.87304      1549.871 4        28.114
G17        34.000    22403422.814 7 117730837.99107       -54.081 7        45.589                                    22403418.548 7  91738326.28607       -42.142 7        43.456    22403418.671 6  91738326.28706       -42.134 6        41.857
E11        35.000    23850058.110 7 125332970.45207     -1644.970 7        44.471                                                                    23850053.842 7  93592821.43007     -1228.434 7        46.765    23850053.708 7  96034365.74907     -1260.582 7        47.559
C32        36.000                                                                                                                                    24251437.352 7 126283625.00707     -3003.651 7        46.777                                                                    24251437.756 7 102615799.89107     -2440.729 7        46.562
C35        37.000                                                                                                                                    24107755.703 7 125535426.17507      1801.725 7        45.917                                                                    24107754.070 7 102007816.11107      1464.140 7        45.421
I09        38.000    37289657.400 7 146332622.23107      -384.100 7        43.577
C29        39.000                                                                                                                                    22172591.245 8 115458504.81808     -1613.711 8        50.257                                                                    22172588.891 8  93819487.40008     -1311.220 8        48.466
R22        40.000    24431665.521 7 130417883.30707      3843.741 7        43.217                                                                    24431667.008 6 101436135.48806      2989.348 6        38.778
S44        42.000    40747762.884 6 214131100.04506      -495.804 6        37.720
C09        43.000                                                                                                                                    39338902.688 6 204848006.77006       695.429 6        40.939    39338899.526 7 158401463.05307       537.743 7        45.249    39338897.315 6 166455765.48906       565.134 6        41.042
C05        44.000                                                                                                                                    39277346.138 6 204527486.31906      -420.972 6        37.890    39277341.614 7 158153650.25207      -325.547 7        43.464    39277343.577 6 166195439.32806      -342.012 6        40.019
R06        45.000    21051923.752 6 112337147.70706      2440.885 6        38.763
R13        46.000    24061426.343 6 128486678.00506     -1475.451 6        37.047
C39        47.000                                                                                                                                    39045214.314 7 203318686.78607      -325.414 7        42.887                                                                    39045210.463 7 165213076.33507      -264.516 7        43.007
C20        48.000                                                                                                                                    21926764.130 8 114178461.92508      -290.199 8        51.980                                                                    21926758.284 8  92779345.09108      -235.769 8        49.024
C06        49.000                                                                                                                                    38647922.003 6 201249897.18106       249.083 6        40.567    38647917.249 7 155619169.40007       192.508 7        44.646    38647916.942 6 163532005.39006       202.411 6        40.810
C16        50.000                                                                                                                                    39040222.754 7 203292700.83507       123.799 7        42.535    39040222.465 7 157198820.33007        95.785 7        43.149    39040220.203 6 165191970.04106       100.688 6        39.402
S48        51.000    77348227.682 6 406467668.17616      -426.519 6        37.070
C19        52.000                                                                                                                                    24174726.348 7 125884195.20907      2078.531 7        47.211                                                                    24174721.656 7 102291221.89107      1689.067 7        46.911
R04        53.000    23033613.233 7 123343975.62907     -4342.297 7        44.784                                                                    23033612.533 6  95934209.51906     -3377.323 6        41.223
C60        54.000                                                                                                                                    40747758.084 6 212184473.12606      -491.269 6        39.592                                                                    40747742.216 6 172417234.66306      -399.248 6        39.844
C30        55.000                                                                                                                                    25163236.289 7 131031562.77307     -3821.622 7        42.136                                                                    25163237.603 7 106473874.18007     -3105.431 7        42.927
C02        57.000                                                                                                                                    40714106.048 5 212009085.08905      -466.647 5        34.052    40714100.549 6 163938866.64106      -360.691 6        40.772    40714103.907 6 172274751.11206      -378.922 6        36.514
I03        58.000   133305678.363 6 447334870.30006       960.209 6        41.013
C13        59.000                                                                                                                                    41511326.773 5 216160431.98205     -1093.471 5        32.090    41511330.036 5 167148997.74205      -845.596 5        35.605    41511327.307 5 175648086.16005      -888.695 5        31.223
> 2025 01 01 01 01 30.0000000  0 54
G28         1.000    23316749.358 7 122530360.48807        27.923 7        42.770                                    23316746.029 4  95478184.18404        21.759 4        29.896    23316746.410 7  95478190.18107        21.897 7        42.762
G31         2.000    23116682.986 7 121478997.15407      1769.065 7        44.027                                    23116678.500 6  94658945.12506      1378.493 6        39.024    23116679.214 6  94658944.12306      1378.479 6        39.637
G09         3.000    24611176.399 6 129332618.64506      3367.129 6        37.335                                    24611175.611 5 100778667.13405      2623.734 5        31.728    24611176.363 5 100778668.12805      2623.879 5        35.981
E34         4.000    28042047.376 6 147361955.47706      2376.279 6        36.888                                                                    28042048.028 6 110043024.31706      1774.213 6        40.970    28042047.540 6 112913711.47206      1820.797 6        41.173
S21         5.000    38595386.602 7 202819966.75007      -424.516 7        42.008
E05         6.000    27051034.559 5 142154156.89205      2716.144 5        35.776                                                                    27051037.002 6 106154097.98806      2028.288 6        40.033    27051036.261 6 108923328.54106      2081.178 6        40.136
G21         7.000    22472367.052 7 118093144.14207     -2891.658 7        44.369                                    22472362.022 5  92020635.37105     -2253.236 5        32.533
E04         8.000    24003997.366 7 126141882.24007     -1118.047 7        46.635                                                                    24003995.366 8  94196865.58008      -834.853 8        50.465    24003994.978 8  96654166.99708      -856.631 8        51.326
R14         9.000    24014222.768 7 128009335.89607      1811.286 7        43.113                                                                    24014223.538 6  99562807.77606      1408.849 6        39.153
G04        10.000    22317249.292 7 117277970.18307      2737.563 7        45.410                                    22317246.356 5  91385438.30605      2133.167 5        33.719    22317246.245 7  91385433.30407      2133.120 7        43.738
E09        11.000    24622840.324 7 129393942.06707      1612.911 7        47.184                                                                    24622839.593 8  96625362.10608      1204.433 8        49.210    24622839.236 8  99146023.11308      1235.861 8        50.081
S27        12.000    39238108.993 5 206197627.56005      -407.378 5        35.381
S36        14.000    38362923.271 7 201599014.96707      -424.249 7        43.619
E36        16.000    24105645.008 7 126676048.06107       955.218 7        47.402                                                                    24105645.231 8  94595767.45408       713.303 8        50.462    24105644.836 8  97063477.84808       731.925 8        51.089
S45        17.000    63562068.186 6 334022268.44106      -466.067 6        36.991
G03        18.000    20202281.713 8 106163764.36808       300.259 8        49.999                                    20202279.606 8  82725030.76708       233.967 8        51.524    20202280.100 7  82725039.76407       233.964 7        45.747
R21        19.000    20100282.205 8 107560709.41708      1753.482 8        51.987                                                                    20100280.493 7  83658339.62907      1363.752 7        45.911
R20        20.000    19862433.658 6 106213404.71606     -2533.395 6        40.276                                                                    19862435.439 7  82610424.78207     -1970.393 7        47.001
R05        21.000    19635465.978 8 104962864.31008     -2110.215 8        51.779                                                                    19635465.241 7  81637789.28107     -1641.283 7        47.439
I06        22.000    38349982.534 7 150493797.80007      -218.534 7        43.445
S28        23.000    41036302.695 5 215647228.11605      -417.205 5        33.868
E10        24.000    25747805.165 7 135305749.26907     -2736.792 7        43.306                                                                    25747804.636 7 101040073.87407     -2043.829 7        47.549    25747804.550 8 103675892.47008     -2097.119 8        48.115
S23        25.000    38313092.149 7 201336640.35807      -420.971 7        44.385
E06        26.000    23689866.382 8 124491147.39708       396.435 8        48.006                                                                    23689865.940 8  92964167.71108       296.070 8        50.360    23689865.928 8  95389318.44708       303.817 8        51.182
E30        27.000    28911568.967 5 151931329.25905     -1591.465 5        35.667                                                                    28911571.117 6 113455215.13006     -1188.412 6        39.204    28911570.517 6 116414914.08806     -1219.518 6        39.919
E12        28.000    28078918.665 5 147555854.25405     -3191.526 5        34.119                                                                    28078916.509 6 110187885.15606     -2383.285 6        38.360    28078916.642 6 113062339.60306     -2445.317 6        39.745
E19        30.000    27605015.130 5 145065337.99205     -3271.316 5        31.932                                                                    27605013.706 5 108328008.77205     -2442.921 5        35.333    27605013.543 6 111153954.40206     -2506.442 6        36.809
G32        31.000    24853259.972 6 130604775.42006     -3740.438 6        40.513                                    24853258.910 5 101769950.28805     -2914.627 5        33.515    24853259.281 6 101769955.28606     -2914.481 6        37.301
G02        32.000    21245018.877 8 111643369.43408     -1835.215 8        49.169                                    21245012.099 6  86994829.99306     -1430.038 6        40.937
G19        33.000    23317215.270 6 122532825.59706      1986.434 6        41.287                                    23317209.749 4  95480144.32404      1547.869 4        28.180
G17        34.000    22403476.138 7 117731116.35607       -57.033 7        45.622                                    22403471.524 7  91738543.19507       -44.442 7        43.464    22403472.033 7  91738543.20107       -44.502 7        42.074
E11        35.000    23851624.454 7 125341200.44907     -1646.689 7        44.340                                                                    23851620.022 7  93598967.19907     -1229.625 7        46.733    23851619.818 7  96040671.83807     -1261.721 7        47.677
C32        36.000                                                                                                                                    24254322.024 7 126298645.33207     -3004.305 7        46.662                                                                    24254322.287 7 102628005.14707     -2441.467 7        46.570
C35        37.000                                                                                                                                    24106026.412 7 125526422.20307      1799.913 7        45.946                                                                    24106025.045 7 102000499.66207      1462.418 7        45.421
I09        38.000    37290146.943 7 146334542.93107      -384.197 7        43.433
C29        39.000                                                                                                                                    22174142.148 8 115466580.03708     -1616.255 8        50.324                                                                    22174139.581 8  93826049.18908     -1313.474 8        48.543
R22        40.000    24428065.948 7 130398665.73207      3843.670 7        43.805                                                                    24428066.870 6 101421188.47706      2989.454 6        39.766
S44        42.000    40748232.775 6 214133579.27706      -495.737 6        37.690
C09        43.000                                                                                                                                    39338235.355 6 204844531.62506       694.679 6        41.120    39338231.823 7 158398775.84207       537.222 7        45.229    39338230.074 6 166452941.66406       564.308 6        41.154
C05        44.000                                                                                                                                    39277749.867 6 204529590.86806      -420.853 6        37.977    39277745.487 7 158155277.62407      -325.448 7        43.285    39277747.615 6 166197149.46406      -342.158 6        39.967
R06        45.000    21049638.155 6 112324950.01406      2438.553 6        38.880
R13        46.000    24062810.146 6 128494064.48006     -1479.259 6        36.922
C39        47.000                                                                                                                                    39045527.258 7 203320316.46707      -326.330 7        42.783                                                                    39045523.523 7 165214400.58207      -265.209 7        43.090
C20        48.000                                                                                                                                    21927043.687 8 114179918.00108      -292.061 8        51.866                                                                    21927037.936 8  92780528.28208      -237.488 8        49.141
C06        49.000                                                                                                                                    38647683.956 6 201248654.37306       248.162 6        40.496    38647678.868 7 155618208.36307       191.829 7        44.713    38647678.296 6 163530995.50006       201.573 6        41.130
C16        50.000                                                                                                                                    39040104.261 7 203292083.97907       122.931 7        42.495    39040104.039 7 157198343.33307        95.181 7        43.202    39040101.621 6 165191468.80506        99.857 6        39.279
S48        51.000    77348626.475 6 406469801.74306      -426.587 6        37.138
C19        52.000                                                                                                                                    24172731.216 7 125873805.75507      2077.374 7        47.237                                                                    24172726.578 7 102282779.63407      1687.816 7        46.983
R04        53.000    23037667.544 7 123365688.07907     -4342.594 7        44.366                                                                    23037666.923 6  95951096.97906     -3377.669 6        41.142
C60        54.000                                                                                                                                    40748230.131 6 212186929.81006      -491.136 6        39.616                                                                    40748214.057 6 172419230.94206      -399.330 6        39.736
C30        55.000                                                                                                                                    25166906.321 7 131050672.75807     -3822.288 7        42.497                                                                    25166907.426 7 106489402.60507     -3105.993 7        42.827
C02        57.000                                                                                                                                    40714554.659 5 212011417.44205      -466.682 5        33.892    40714548.610 6 163940670.18106      -360.638 6        40.756    40714551.812 6 172276646.35006      -379.114 6        36.673
I03        58.000   133304455.115 6 447330068.67506       960.431 6        41.142
C13        59.000                                                                                                                                    41512377.469 5 216165898.83305     -1093.612 5        32.455    41512379.795 5 167153225.02705      -845.538 5        35.943    41512377.170 5 175652528.42605      -888.805 5        31.789
> 2025 01 01 01 01 35.0000000  0 54
G28         1.000    23316725.033 7 122530229.49907        24.611 7        42.781                                    23316721.149 4  95478082.11304        19.176 4        29.886    23316721.564 7  95478088.11207        19.205 7        42.398
G31         2.000    23115001.467 7 121470159.25907      1766.313 7        43.765                                    23114996.619 6  94652058.45406      1376.353 6        38.961    23114997.633 6  94652057.45706      1376.362 6        40.205
G09         3.000    24607972.898 6 129315784.71106      3366.562 6        36.964                                    24607972.275 5 100765549.78905      2623.296 5        31.253    24607972.351 5 100765550.79205      2623.395 5        35.486
E34         4.000    28039786.886 6 147350075.39306      2376.042 6        37.811                                                                    28039787.357 6 110034152.81306      1774.250 6        41.054    28039786.859 6 112904608.55506      1820.575 6        41.054
S21         5.000    38595789.513 6 202822090.65906      -424.741 6        41.728
E05         6.000    27048450.563 5 142140577.60305      2715.908 5        35.933                                                                    27048453.115 6 106143957.64706      2027.992 6        40.138    27048452.130 6 108912923.64806      2080.927 6        40.045
G21         7.000    22475119.393 7 118107606.82107     -2893.234 7        44.412                                    22475114.198 5  92031904.98905     -2254.466 5        32.551
E04         8.000    24005061.958 7 126147478.16007     -1120.190 7        46.875                                                                    24005060.262 8  94201044.34908      -836.482 8        50.553    24005059.899 8  96658454.77608      -858.270 8        51.129
R14         9.000    24012526.088 7 128000287.83107      1808.195 7        43.191                                                                    24012526.327 6  99555770.38706      1406.308 6        39.754
G04        10.000    22314645.136 7 117264287.20607      2735.788 7        45.020                                    22314642.468 5  91374776.24705      2131.780 5        33.539    22314642.668 7  91374771.23907      2131.738 7        43.606
E09        11.000    24621306.545 7 129385882.55307      1611.082 7        47.200                                                                    24621305.963 8  96619343.63708      1203.107 8        49.305    24621305.581 8  99139847.64108      1234.465 8        49.876
S27        12.000    39238494.299 5 206199664.31005      -407.431 5        35.676
S36        14.000    38363325.530 7 201601136.36907      -424.176 7        43.446
E36        16.000    24104736.914 7 126671276.12807       953.793 7        47.259                                                                    24104737.170 8  94592203.99608       712.238 8        50.564    24104736.783 8  97059821.42908       730.814 8        50.942
S45        17.000    63562469.997 6 334024599.17406      -466.106 6        36.873
G03        18.000    20201997.209 8 106162268.98208       298.032 8        49.810                                    20201995.032 8  82723865.53008       232.232 8        51.453    20201995.659 7  82723874.53207       232.199 7        45.579
R21        19.000    20098645.630 8 107551951.34208      1749.967 8        51.946                                                                    20098643.981 7  83651527.79607      1361.093 7        46.159
R20        20.000    19864804.595 6 106226081.53506     -2537.219 6        40.222                                                                    19864805.978 7  82620284.54107     -1973.404 7        46.923
R05        21.000    19637441.303 8 104973423.22408     -2113.159 8        51.760                                                                    19637440.524 7  81646001.75307     -1643.532 7        47.560
I06        22.000    38350261.065 7 150494890.85607      -218.622 7        43.424
S28        23.000    41036699.534 5 215649314.64905      -417.291 5        33.922
E10        24.000    25750410.008 7 135319437.00607     -2738.109 7        43.164                                                                    25750409.179 7 101050295.23007     -2044.610 7        47.664    25750409.297 8 103686380.47008     -2098.005 8        48.067
S23        25.000    38313492.887 7 201338746.10907      -421.086 7        44.206
E06        26.000    23689490.233 8 124489171.25508       394.206 8        48.116                                                                    23689489.911 8  92962692.02508       294.395 8        50.451    23689489.890 8  95387804.26608       302.053 8        50.996
E30        27.000    28913084.987 5 151939292.32205     -1593.760 5        34.833                                                                    28913086.461 6 113461161.57506     -1190.203 6        39.300    28913085.803 6 116421015.63606     -1220.999 6        39.754
E12        28.000    28081955.261 5 147571813.31905     -3192.476 5        34.029                                                                    28081953.310 6 110199802.61506     -2383.565 6        38.474    28081953.375 6 113074567.97906     -2445.977 6        39.489
E19        30.000    27608127.346 5 145081696.08605     -3271.730 5        31.955                                                                    27608126.423 5 108340224.23605     -2443.298 5        35.762    27608126.515 6 111166488.52906     -2506.858 6        36.665
G32        31.000    24856819.202 6 130623479.63106     -3741.196 6        40.563                                    24856818.277 5 101784524.99805     -2915.221 5        33.371    24856818.593 6 101784530.00406     -2915.209 6        37.104
G02        32.000    21246766.121 8 111652551.89108     -1837.600 8        49.019                                    21246759.453 6  87001985.15206     -1431.897 6        40.839
G19        33.000    23315327.259 6 122522901.65406      1983.519 6        41.461                                    23315321.231 4  95472411.39704      1545.600 4        28.275
G17        34.000    22403531.534 7 117731410.07307       -60.207 7        45.549                                    22403527.424 7  91738772.06107       -46.914 7        43.403    22403527.541 6  91738772.05606       -46.910 6        41.955
E11        35.000    23853192.265 7 125349438.74807     -1648.485 7        44.468                                                                    23853187.740 7  93605119.17607     -1230.964 7        46.891    23853187.561 7  96046984.30207     -1263.092 7        47.554
C32        36.000                                                                                                                                    24257207.431 7 126313669.55407     -3005.174 7        46.638                                                                    24257207.582 7 102640213.52907     -2441.954 7        46.620
C35        37.000                                                                                                                                    24104298.950 7 125517428.03407      1797.961 7        45.982                                                                    24104297.798 7 101993191.13907      1461.054 7        45.577
I09        38.000    37290636.424 7 146336464.59307      -384.345 7        43.560
C29        39.000                                                                                                                                    22175695.502 8 115474668.53708     -1619.008 8        50.103                                                                    22175692.907 8  93832621.74008     -1315.584 8        48.627
R22        40.000    24424466.019 7 130379448.96907      3843.348 7        44.460                                                                    24424467.100 6 101406242.08706      2989.318 6        40.689
S44        42.000    40748702.376 6 214136058.65706      -495.604 6        37.656
C09        43.000                                                                                                                                    39337568.859 6 204841060.52906       693.898 6        41.240    39337565.298 7 158396091.77307       536.582 7        45.199    39337563.513 6 166450121.09506       563.810 6        41.349
C05        44.000                                                                                                                                    39278154.254 6 204531695.62006      -420.977 6        37.841    39278149.874 7 158156905.14807      -325.451 7        43.261    39278152.042 6 166198859.71906      -342.030 6        40.067
R06        45.000    21047355.165 6 112312764.34306      2435.964 6        39.045
R13        46.000    24064196.210 6 128501470.90006     -1483.030 6        37.236
C39        47.000                                                                                                                                    39045840.901 7 203321951.02407      -327.242 7        42.544                                                                    39045837.382 7 165215728.79007      -265.912 7        43.238
C20        48.000                                                                                                                                    21927325.119 8 114181384.16908      -294.161 8        51.704                                                                    21927319.480 8  92781719.64108      -238.966 8        49.179
C06        49.000                                                                                                                                    38647446.748 6 201247416.35806       247.244 6        40.582    38647441.146 7 155617251.04807       191.157 7        44.653    38647440.495 6 163529989.49806       200.807 6        41.094
C16        50.000                                                                                                                                    39039986.741 7 203291471.89907       121.838 7        42.303    39039986.573 7 157197870.03107        94.344 7        43.179    39039984.140 6 165190971.42306        99.186 6        39.195
S48        51.000    77349028.362 6 406471935.52206      -426.487 6        36.892
C19        52.000                                                                                                                                    24170736.766 7 125863422.69207      2076.004 7        46.797                                                                    24170732.533 7 102274342.52007      1686.958 7        47.120
R04        53.000    23041723.398 7 123387402.41707     -4342.945 7        44.643                                                                    23041720.855 6  95967985.86506     -3377.908 6        40.639
C60        54.000                                                                                                                                    40748701.753 6 212189386.65406      -491.266 6        39.270                                                                    40748685.742 6 172421227.29706      -399.188 6        39.715
C30        55.000                                                                                                                                    25170576.902 7 131069786.15007     -3822.935 7        42.709                                                                    25170578.021 7 106504933.79207     -3106.475 7        43.018
C02        57.000                                                                                                                                    40715002.255 5 212013750.03405      -466.415 5        33.802    40714996.403 6 163942473.88106      -360.648 6        40.837    40714999.645 6 172278541.75706      -379.014 6        36.801
I03        58.000   133303231.221 6 447325267.32706       960.419 6        41.089
C13        59.000                                                                                                                                    41513426.119 5 216171365.76005     -1093.224 5        32.036    41513429.212 5 167157452.44905      -845.369 5        35.567    41513427.312 5 175656970.73505      -888.247 5        31.623
> 2025 01 01 01 01 40.0000000  0 54
G28         1.000    23316703.085 7 122530113.98007        21.528 7        42.686                                    23316699.238 5  95477992.09905        16.776 5        30.234    23316698.963 7  95477998.09507        16.750 7        42.646
G31         2.000    23113321.701 7 121461333.30907      1763.905 7        42.976                                    23113317.051 6  94645181.08906      1374.469 6        39.021    23113318.208 6  94645180.09506      1374.486 6        40.529
G09         3.000    24604770.322 6 129298952.48106      3366.240 6        37.595                                    24604769.306 5 100752433.77405      2623.049 5        31.434    24604769.274 5 100752434.78305      2622.914 5        35.529
E34         4.000    28037526.001 6 147338194.68006      2376.200 6        37.898                                                                    28037526.470 6 110025280.86306      1774.405 6        40.961    28037526.334 6 112895505.15906      1820.722 6        41.237
S21         5.000    38596193.820 7 202824214.04807      -424.629 7        42.044
E05         6.000    27045866.328 6 142126998.49706      2715.688 6        36.068                                                                    27045868.998 6 106133817.40906      2027.948 6        40.207    27045867.932 6 108902518.88306      2080.892 6        40.276
G21         7.000    22477872.732 7 118122076.00707     -2894.515 7        44.710                                    22477867.515 5  92043179.67405     -2255.468 5        32.635
E04         8.000    24006128.818 7 126153083.86107     -1122.240 7        46.818                                                                    24006126.937 8  94205230.42708      -838.009 8        50.514    24006126.592 8  96662750.05908      -859.851 8        51.167
R14         9.000    24010831.130 7 127991254.31707      1805.142 7        43.077                                                                    24010831.628 6  99548744.32006      1403.973 6        39.607
G04        10.000    22312042.880 7 117250611.89807      2734.258 7        44.983                                    22312040.082 5  91364120.17205      2130.587 5        33.695    22312040.508 7  91364115.17507      2130.597 7        44.123
E09        11.000    24619774.487 7 129377831.04807      1609.460 7        47.432                                                                    24619773.861 8  96613331.15608      1201.872 8        49.268    24619773.450 8  99133678.30708      1233.237 8        49.908
S27        12.000    39238882.593 5 206201699.84405      -406.758 5        35.690
S36        14.000    38363731.387 7 201603256.45607      -424.133 7        43.532
E36        16.000    24103830.125 7 126666510.24007       952.622 7        47.303                                                                    24103830.258 8  94588645.05908       711.317 8        50.517    24103829.900 8  97056169.64708       729.878 8        50.971
S45        17.000    63562866.742 6 334025329.25316      -466.024 6        36.941
G03        18.000    20201714.290 8 106160783.11408       296.235 8        49.498                                    20201712.278 8  82722707.71208       230.834 8        51.600    20201712.663 7  82722716.71307       230.828 7        45.636
R21        19.000    20097011.833 8 107543209.72808      1746.673 8        51.791                                                                    20097010.159 7  83644728.76407      1358.527 7        46.247
R20        20.000    19867178.443 6 106238776.11306     -2540.780 6        40.453                                                                    19867180.150 7  82630158.08207     -1976.019 7        47.130
R05        21.000    19639419.374 8 104983995.91108     -2115.954 8        51.912                                                                    19639418.278 7  81654224.96007     -1645.759 7        47.320
I06        22.000    38350539.773 7 150495983.49107      -218.581 7        43.511
S28        23.000    41037097.195 5 215651400.54305      -416.987 5        33.748
E10        24.000    25753015.879 7 135333129.81907     -2739.091 7        42.988                                                                    25753014.803 7 101060520.38507     -2045.464 7        47.329    25753014.911 8 103696872.36808     -2098.804 8        48.064
S23        25.000    38313893.902 7 201340851.13707      -421.056 7        44.337
E06        26.000    23689116.266 8 124487205.24208       392.161 8        48.183                                                                    23689115.758 8  92961223.89608       292.872 8        50.389    23689115.763 8  95386297.84008       300.460 8        51.020
E30        27.000    28914602.056 5 151947264.84705     -1595.339 5        35.243                                                                    28914603.608 6 113467115.05006     -1191.350 6        39.144    28914602.871 6 116427124.45906     -1222.432 6        39.874
E12        28.000    28084992.604 5 147587774.64805     -3192.305 5        33.719                                                                    28084990.712 6 110211721.81806     -2384.027 6        38.342    28084990.683 6 113086798.10306     -2446.279 6        39.480
E19        30.000    27611240.739 5 145098056.17105     -3271.977 5        32.545                                                                    27611239.865 5 108352441.17305     -2443.533 5        35.414    27611239.810 6 111179024.19106     -2507.340 6        36.911
G32        31.000    24860379.247 6 130642186.77706     -3741.712 6        40.017                                    24860378.171 5 101799102.00205     -2915.618 5        33.347    24860378.568 6 101799106.99006     -2915.678 6        36.646
G02        32.000    21248515.425 8 111661745.09808     -1839.788 8        48.951                                    21248508.881 6  87009148.69006     -1433.602 6        40.970
G19        33.000    23313441.234 6 122512990.60906      1980.955 6        41.077                                    23313435.203 4  95464688.50504      1543.605 4        28.180
G17        34.000    22403590.462 7 117731718.39207       -63.166 7        45.664                                    22403586.100 7  91739012.30807       -49.221 7        43.568    22403586.324 7  91739012.31607       -49.289 7        42.652
E11        35.000    23854761.291 7 125357684.59507     -1649.992 7        44.740                                                                    23854756.853 7  93611276.79007     -1232.133 7        46.736    23854756.693 7  96053302.54807     -1264.312 7        47.548
C32        36.000                                                                                                                                    24260093.256 7 126328696.91207     -3005.824 7        46.614                                                                    24260093.410 7 102652424.47507     -2442.464 7        46.762
C35        37.000                                                                                                                                    24102573.765 7 125508442.88907      1796.017 7        46.029                                                                    24102572.279 7 101985889.96507      1459.437 7        45.634
I09        38.000    37291126.286 7 146338386.62807      -384.477 7        43.439
C29        39.000                                                                                                                                    22177251.180 8 115482769.54208     -1621.460 8        50.036                                                                    22177248.615 8  93839204.46308     -1317.630 8        48.640
R22        40.000    24420866.622 7 130360232.43007      3843.193 7        42.813                                                                    24420867.198 6 101391295.89206      2989.348 6        39.129
S44        42.000    40749173.108 6 214138537.46206      -495.837 6        37.539
C09        43.000                                                                                                                                    39336903.213 6 204837592.78606       693.230 6        41.263    39336899.239 7 158393410.30707       535.992 7        45.273    39336897.508 6 166447303.26906       563.214 6        41.428
C05        44.000                                                                                                                                    39278558.600 6 204533799.84006      -420.805 6        37.815    39278553.876 7 158158532.27207      -325.433 7        43.488    39278555.946 6 166200569.56906      -341.991 6        40.091
R06        45.000    21045072.706 6 112300589.82506      2433.651 6        38.628
R13        46.000    24065586.749 6 128508896.62406     -1486.999 6        37.561
C39        47.000                                                                                                                                    39046155.814 7 203323589.75507      -328.182 7        42.428                                                                    39046151.955 7 165217060.37507      -266.775 7        43.090
C20        48.000                                                                                                                                    21927608.718 8 114182859.68108      -296.066 8        51.803                                                                    21927602.775 8  92782918.61108      -240.566 8        49.180
C06        49.000                                                                                                                                    38647209.693 6 201246182.42006       246.351 6        40.689    38647203.952 7 155616296.89007       190.482 7        44.418    38647203.638 6 163528986.81406       200.141 6        41.259
C16        50.000                                                                                                                                    39039870.168 7 203290863.84907       121.111 7        42.385    39039869.664 7 157197399.86107        93.716 7        43.228    39039867.322 6 165190477.33706        98.354 6        39.282
S48        51.000    77349428.809 6 406474068.73706      -426.639 6        36.972
C19        52.000                                                                                                                                    24168743.810 7 125853045.24707      2074.847 7        46.778                                                                    24168739.710 7 102265909.99607      1685.949 7        47.154
R04        53.000    23045778.808 7 123409117.77007     -4343.198 7        45.010                                                                    23045776.726 6  95984875.60206     -3378.090 6        40.129
C60        54.000                                                                                                                                    40749173.428 6 212191842.92506      -491.275 6        39.547                                                                    40749157.592 6 172423223.20606      -399.107 6        39.913
C30        55.000                                                                                                                                    25174248.132 7 131088902.25107     -3823.544 7        42.899                                                                    25174249.246 7 106520467.17607     -3106.922 7        43.069
C02        57.000                                                                                                                                    40715450.155 5 212016082.09005      -466.568 5        33.760    40715444.281 6 163944277.16106      -360.691 6        40.648    40715447.442 6 172280436.71006      -378.838 6        36.745
I03        58.000   133302007.621 6 447320465.71906       960.217 6        41.311
C13        59.000                                                                                                                                    41514475.430 5 216176832.07805     -1093.280 5        31.502    41514479.286 5 167161679.32305      -845.440 5        35.652    41514477.037 5 175661412.52505      -888.249 5        32.108
> 2025 01 01 01 01 45.0000000  0 54
G28         1.000    23316684.362 7 122530014.72807        18.135 7        43.316                                    23316680.408 5  95477914.76405        14.134 5        30.211    23316680.804 7  95477920.76607        14.150 7        43.056
G31         2.000    23111644.226 7 121452520.14607      1761.239 7        43.486                                    23111639.978 6  94638313.69006      1372.398 6        39.003    23111640.519 6  94638312.69706      1372.344 6        40.064
G09         3.000    24601567.922 6 129282122.79906      3365.683 6        38.267                                    24601566.729 5 100739319.74605      2622.610 5        31.728    24601566.773 5 100739320.72805      2622.602 5        35.148
E34         4.000    28035265.006 6 147326314.20306      2375.921 6        37.887                                                                    28035265.574 6 110016409.06306      1774.218 6        40.660    28035265.623 6 112886401.92706      1820.536 6        41.456
S21         5.000    38596598.591 6 202826337.40106      -424.751 6        41.554
E05         6.000    27043282.140 6 142113420.32206      2715.628 6        36.159                                                                    27043285.106 6 106123677.87306      2027.791 6        39.886    27043284.408 6 108892114.83406      2080.654 6        40.400
G21         7.000    22480627.499 7 118136552.49707     -2896.153 7        44.120                                    22480622.267 5  92054460.05805     -2256.741 5        32.389
E04         8.000    24007197.875 7 126158700.16907     -1124.434 7        46.895                                                                    24007195.687 8  94209424.42608      -839.670 8        50.478    24007195.328 8  96667053.46408      -861.580 8        51.189
R14         9.000    24009139.079 7 127982236.24907      1801.899 7        43.735                                                                    24009139.960 6  99541730.27706      1401.389 6        39.156
G04        10.000    22309442.323 7 117236945.09207      2732.376 7        44.808                                    22309439.382 5  91353470.71205      2129.124 5        33.629    22309439.457 7  91353465.72307      2129.212 7        44.128
E09        11.000    24618243.834 7 129369788.37707      1607.604 7        47.309                                                                    24618243.388 8  96607325.26108      1200.491 8        49.307    24618242.949 8  99127515.74508      1231.737 8        49.908
S27        12.000    39239270.957 5 206203735.93105      -407.202 5        35.533
S36        14.000    38364133.722 7 201605377.42307      -424.202 7        43.357
E36        16.000    24102924.519 7 126661751.22807       951.044 7        47.338                                                                    24102924.653 8  94585091.24508       710.146 8        50.470    24102924.294 8  97052523.12908       728.677 8        50.986
S45        17.000    63563268.700 6 334027659.51106      -465.971 6        37.077
G03        18.000    20201433.669 8 106159307.60808       294.032 8        49.403                                    20201431.500 8  82721557.96708       229.116 8        51.459    20201432.181 7  82721566.96107       229.091 7        45.478
R21        19.000    20095381.367 8 107534485.25508      1743.106 8        51.577                                                                    20095380.384 7  83637943.07107      1355.746 7        46.775
R20        20.000    19869556.693 6 106251489.27606     -2544.503 6        40.601                                                                    19869557.911 7  82640046.09407     -1979.046 7        47.280
R05        21.000    19641400.039 8 104994582.83808     -2118.932 8        51.802                                                                    19641398.900 7  81662459.22807     -1648.000 7        47.480
I06        22.000    38350818.056 7 150497076.33407      -218.648 7        43.378
S28        23.000    41037499.731 5 215653487.03305      -417.371 5        33.731
E10        24.000    25755622.591 7 135346828.53107     -2740.424 7        43.105                                                                    25755621.588 7 101070749.93807     -2046.467 7        47.328    25755621.595 8 103707368.78208     -2099.825 8        48.082
S23        25.000    38314296.259 7 201342956.39707      -421.106 7        44.349
E06        26.000    23688744.084 8 124485250.14308       389.860 8        48.187                                                                    23688743.774 8  92959763.92008       291.107 8        50.349    23688743.730 8  95384799.77708       298.716 8        51.075
E30        27.000    28916121.277 6 151955247.62406     -1597.590 6        36.008                                                                    28916122.848 6 113473076.19906     -1193.032 6        38.967    28916121.857 6 116433241.10906     -1224.337 6        39.790
E12        28.000    28088030.388 5 147603739.14505     -3192.989 5        33.120                                                                    28088028.695 6 110223643.33806     -2384.686 6        38.324    28088028.755 6 113099030.63606     -2446.759 6        39.339
E19        30.000    27614354.608 5 145114419.02205     -3272.894 5        32.754                                                                    27614353.589 5 108364660.18705     -2444.378 5        35.314    27614353.706 6 111191561.93506     -2507.739 6        36.979
G32        31.000    24863939.456 6 130660897.70006     -3742.526 6        39.892                                    24863938.674 5 101813681.93705     -2916.253 5        33.024    24863939.157 6 101813686.95206     -2916.435 6        36.624
G02        32.000    21250267.199 8 111670949.84208     -1842.162 8        49.028                                    21250260.528 6  87016321.21506     -1435.448 6        40.877
G19        33.000    23311557.777 6 122503093.27906      1977.981 6        40.589                                    23311551.725 4  95456976.29704      1541.282 4        28.284
G17        34.000    22403652.160 7 117732042.10907       -66.382 7        45.976                                    22403647.710 7  91739264.55207       -51.725 7        43.511    22403648.064 7  91739264.55607       -51.694 7        42.546
E11        35.000    23856331.787 7 125365938.79807     -1651.865 7        44.494                                                                    23856327.619 7  93617440.63707     -1233.469 7        46.773    23856327.367 7  96059627.19407     -1265.712 7        47.507
C32        36.000                                                                                                                                    24262979.812 7 126343728.19607     -3006.740 7        46.449                                                                    24262980.013 7 102664638.64307     -2443.230 7        46.604
C35        37.000                                                                                                                                    24100850.137 7 125499467.57407      1794.035 7        45.735                                                                    24100848.614 7 101978596.82007      1457.738 7        45.535
I09        38.000    37291616.020 7 146340309.64307      -384.735 7        43.435
C29        39.000                                                                                                                                    22178809.242 8 115490883.86008     -1624.268 8        49.952                                                                    22178806.919 8  93845798.02708     -1319.859 8        48.520
R22        40.000    24417266.152 6 130341016.86206      3842.865 6        41.907                                                                    24417266.981 6 101376350.45006      2989.013 6        39.381
S44        42.000    40749645.955 6 214141016.44906      -495.918 6        37.713
C09        43.000                                                                                                                                    39336238.064 6 204834129.19406       692.194 6        41.383    39336234.217 7 158390732.03907       535.174 7        45.123    39336232.329 6 166444488.83906       562.497 6        41.313
C05        44.000                                                                                                                                    39278962.692 6 204535904.34006      -420.931 6        37.664    39278958.084 7 158160159.59707      -325.489 7        43.335    39278959.997 6 166202279.67706      -342.110 6        39.796
R06        45.000    21042793.669 6 112288427.45706      2431.198 6        39.000
R13        46.000    24066981.658 6 128516342.45306     -1491.211 6        37.879
C39        47.000                                                                                                                                    39046471.433 7 203325233.40607      -329.309 7        42.334                                                                    39046467.656 7 165218396.01307      -267.732 7        43.043
C20        48.000                                                                                                                                    21927894.179 8 114184345.35008      -298.229 8        51.600                                                                    21927888.153 8  92784125.86208      -242.353 8        49.016
C06        49.000                                                                                                                                    38646973.039 6 201244953.32806       245.362 6        40.389    38646967.618 7 155615346.47607       189.661 7        44.340    38646967.520 6 163527988.10406       199.195 6        41.192
C16        50.000                                                                                                                                    39039753.750 7 203290260.61407       120.186 7        42.245    39039753.636 7 157196933.40007        92.948 7        43.113    39039751.552 6 165189987.18306        97.521 6        39.339
S48        51.000    77349829.493 6 406476202.09306      -426.873 6        36.911
C19        52.000                                                                                                                                    24166752.406 7 125842674.23807      2073.477 7        46.433                                                                    24166748.083 7 102257482.72507      1684.797 7        46.949
R04        53.000    23049833.863 7 123430834.92007     -4343.775 7        44.811                                                                    23049832.550 6  96001766.73606     -3378.370 6        40.105
C60        54.000                                                                                                                                    40749645.046 6 212194299.38406      -491.380 6        39.171                                                                    40749629.343 6 172425219.31606      -399.347 6        39.679
C30        55.000                                                                                                                                    25177919.696 7 131108021.82307     -3824.410 7        42.940                                                                    25177921.010 7 106536003.42007     -3107.664 7        42.948
C02        57.000                                                                                                                                    40715897.733 5 212018414.41205      -466.798 5        33.575    40715892.212 6 163946080.65106      -360.660 6        40.589    40715895.463 6 172282331.95606      -379.142 6        36.673
I03        58.000   133300783.798 6 447315664.40606       960.218 6        41.261
C13        59.000                                                                                                                                    41515526.233 5 216182298.52805     -1093.563 5        31.781    41515529.394 6 167165906.30106      -845.509 6        36.336    41515527.019 5 175665854.48305      -888.604 5        32.018
> 2025 01 01 01 01 50.0000000  0 54
G28         1.000    23316668.423 7 122529931.37207        15.281 7        43.217                                    23316664.691 5  95477849.81105        11.907 5        30.219    23316665.762 7  95477855.81707        11.891 7        43.118
G31         2.000    23109969.849 7 121443719.39407      1759.141 7        44.113                                    23109965.208 6  94631455.96406      1370.761 6        38.958    23109966.321 6  94631454.96706      1370.705 6        40.226
G09         3.000    24598365.555 6 129265295.27006      3365.346 6        38.562                                    24598364.395 5 100726207.38605      2622.353 5        31.955    24598365.076 5 100726208.37205      2622.424 5        35.071
E34         4.000    28033004.054 6 147314433.52306      2376.411 6        37.868                                                                    28033004.611 6 110007537.14306      1774.501 6        40.696    28033004.561 6 112877298.55606      1820.859 6        41.209
S21         5.000    38597001.341 7 202828460.23807      -424.460 7        42.027
E05         6.000    27040698.660 6 142099842.75206      2715.750 6        36.060                                                                    27040701.371 6 106113538.77306      2027.956 6        39.859    27040700.785 6 108881711.25006      2080.828 6        40.386
G21         7.000    22483383.205 7 118151035.95107     -2897.288 7        44.051                                    22483378.347 5  92065745.86105     -2257.621 5        32.228
E04         8.000    24008268.501 7 126164326.69007     -1126.146 7        46.967                                                                    24008266.376 8  94213626.04708      -840.994 8        50.444    24008266.041 8  96671364.69408      -862.924 8        51.092
R14         9.000    24007451.351 7 127973233.15207      1799.293 7        43.966                                                                    24007450.197 6  99534727.90606      1399.375 6        39.523
G04        10.000    22306843.125 7 117223286.42407      2731.123 7        45.281                                    22306840.256 5  91342827.60305      2128.148 5        33.617    22306840.385 7  91342822.60407      2128.103 7        44.045
E09        11.000    24616714.953 7 129361754.14807      1606.200 7        47.250                                                                    24616714.526 8  96601325.68408      1199.405 8        49.311    24616714.074 8  99121359.64908      1230.726 8        49.844
S27        12.000    39239658.428 5 206205772.09905      -406.934 5        35.762
S36        14.000    38364539.083 7 201607498.45507      -423.895 7        43.482
E36        16.000    24102020.109 7 126656998.69607       950.031 7        47.356                                                                    24102020.261 8  94581542.27208       709.457 8        50.487    24102019.881 8  97048881.57308       727.964 8        50.854
S45        17.000    63563664.443 6 334029989.54006      -465.816 6        36.968
G03        18.000    20201154.681 8 106157842.06408       292.384 8        49.545                                    20201152.610 8  82720415.98508       227.830 8        51.325    20201153.201 7  82720424.98207       227.813 7        45.448
R21        19.000    20093754.344 8 107525777.67308      1740.021 8        52.092                                                                    20093752.888 7  83631170.50707      1353.345 7        46.601
R20        20.000    19871938.081 6 106264220.70406     -2547.885 6        40.610                                                                    19871938.219 7  82649948.30407     -1981.678 7        47.111
R05        21.000    19643383.039 8 105005184.07908     -2121.441 8        51.871                                                                    19643381.868 7  81670704.63907     -1649.948 7        47.735
I06        22.000    38351096.114 7 150498169.08007      -218.389 7        43.355
S28        23.000    41037892.263 5 215655572.70105      -417.123 5        33.928
E10        24.000    25758230.278 7 135360532.74907     -2741.180 7        43.625                                                                    25758229.566 7 101080983.59607     -2047.032 7        47.466    25758229.344 8 103717869.40408     -2100.428 8        48.011
S23        25.000    38314695.141 7 201345061.37507      -420.921 7        44.549
E06        26.000    23688374.138 8 124483305.58908       388.089 8        48.145                                                                    23688373.695 8  92958311.82208       289.790 8        50.422    23688373.684 8  95383309.79508       297.363 8        50.920
E30        27.000    28917642.523 6 151963240.29906     -1599.288 6        36.669                                                                    28917643.793 6 113479044.73006     -1194.177 6        38.946    28917643.056 6 116439365.34806     -1225.462 6        39.745
E12        28.000    28091069.106 5 147619706.36705     -3193.393 5        33.114                                                                    28091067.102 6 110235566.90706     -2384.850 6        38.492    28091067.013 6 113111265.25606     -2447.064 6        38.985
E19        30.000    27617468.771 5 145130784.26505     -3273.187 5        32.886                                                                    27617467.460 5 108376880.95005     -2444.286 5        35.229    27617467.549 6 111204101.51406     -2507.851 6        36.998
G32        31.000    24867500.874 6 130679611.98306     -3742.913 6        39.907                                    24867499.798 5 101828264.50005     -2916.558 5        32.635    24867500.091 6 101828269.47406     -2916.287 6        36.272
G02        32.000    21252020.936 8 111680165.76508     -1844.077 8        48.933                                    21252014.276 6  87023502.45006     -1436.942 6        40.737
G19        33.000    23309676.556 6 122493209.32406      1975.663 6        41.552                                    23309670.853 4  95449274.51904      1539.470 4        28.076
G17        34.000    22403716.437 7 117732380.85007       -69.037 7        45.988                                    22403712.169 7  91739528.50507       -53.793 7        43.308    22403712.215 7  91739528.50307       -53.730 7        42.317
E11        35.000    23857904.052 7 125374200.97607     -1652.999 7        44.605                                                                    23857899.839 7  93623610.44507     -1234.357 7        46.733    23857899.624 7  96065957.95307     -1266.573 7        47.399
C32        36.000                                                                                                                                    24265866.999 7 126358763.02107     -3007.031 7        46.348                                                                    24265867.299 7 102676855.63707     -2443.455 7        46.717
C35        37.000                                                                                                                                    24099128.068 7 125490501.72707      1792.430 7        45.472                                                                    24099126.794 7 101971311.29307      1456.666 7        45.478
I09        38.000    37292106.257 7 146342233.37407      -384.675 7        43.253
C29        39.000                                                                                                                                    22180370.148 8 115499011.11108     -1626.591 8        50.017                                                                    22180367.663 8  93852402.04608     -1321.563 8        48.635
R22        40.000    24413665.693 7 130321801.97207      3843.065 7        42.445                                                                    24413668.050 6 101361405.57706      2989.099 6        39.351
S44        42.000    40750120.444 6 214143495.30306      -495.631 6        37.758
C09        43.000                                                                                                                                    39335573.204 6 204830669.35906       691.887 6        41.383    39335570.024 7 158388056.65807       535.003 7        44.910    39335567.979 6 166441677.40906       562.301 6        41.449
C05        44.000                                                                                                                                    39279366.551 6 204538008.73106      -420.609 6        37.440    39279362.336 7 158161786.84407      -325.271 7        43.295    39279364.236 6 166203989.62606      -341.700 6        40.005
R06        45.000    21040516.823 6 112276276.81506      2429.027 6        39.222
R13        46.000    24068379.962 6 128523807.86206     -1494.793 6        38.784
C39        47.000                                                                                                                                    39046788.134 7 203326881.63907      -329.922 7        42.307                                                                    39046784.212 7 165219735.28407      -267.938 7        43.191
C20        48.000                                                                                                                                    21928181.190 8 114185840.76908      -299.878 8        51.595                                                                    21928175.326 8  92785340.97608      -243.499 8        49.150
C06        49.000                                                                                                                                    38646737.380 6 201243728.73106       244.683 6        40.102    38646732.482 7 155614399.54707       189.188 7        44.146    38646732.469 6 163526992.98706       198.911 6        41.290
C16        50.000                                                                                                                                    39039638.832 7 203289661.86607       119.484 7        42.174    39039638.809 7 157196470.41007        92.362 7        43.166    39039636.563 6 165189500.60306        97.277 6        39.510
S48        51.000    77350230.213 6 406478335.23906      -426.481 6        37.108
C19        52.000                                                                                                                                    24164761.968 7 125832309.28507      2072.577 7        46.497                                                                    24164757.580 7 102249060.31607      1684.278 7        47.046
R04        53.000    23053889.126 7 123452553.58007     -4343.607 7        44.506                                                                    23053888.556 6  96018659.03906     -3378.531 6        40.760
C60        54.000                                                                                                                                    40750116.860 6 212196755.69906      -491.113 6        39.027                                                                    40750100.997 6 172427215.21906      -398.780 6        39.682
C30        55.000                                                                                                                                    25181591.964 7 131127144.48807     -3824.671 7        42.762                                                                    25181593.233 7 106551542.10707     -3107.702 7        43.145
C02        57.000                                                                                                                                    40716346.706 5 212020746.58805      -466.164 5        33.557    40716340.162 6 163947884.05806      -360.570 6        40.777    40716343.287 6 172284227.00506      -378.587 6        36.722
I03        58.000   133299560.249 6 447310863.13406       960.390 6        41.147
C13        59.000                                                                                                                                    41516575.857 5 216187764.72005     -1093.279 5        32.216    41516578.512 5 167170133.13505      -845.281 5        35.810    41516576.698 5 175670296.18805      -888.088 5        31.268
