     3.04           OBSERVATION DATA    M                   RINEX VERSION / TYPE
ssrcrin-15.6.1x                         20250101 024500 UTC PGM / RUN BY / DATE 
(00000000023479385599111004) Septentrio proprietary         COMMENT             
rref                                                        MARKER NAME         
01                                                          MARKER NUMBER       
geodetic                                                    MARKER TYPE         
NFB                 CLIMERS@TUW                             OBSERVER / AGENCY   
3297213             SEPT ASTERX SB3 PROB4.14.4              REC # / TYPE / VERS 
Unknown             Unknown                                 ANT # / TYPE        
  4127831.6449  1207193.3461  4695247.3200                  APPROX POSITION XYZ 
        0.0000        0.0000        0.0000                  ANTENNA: DELTA H/E/N
G   23 X1  C1C L1C D1C S1C C1W S1W C2W L2W D2W S2W C2L L2L  SYS / # / OBS TYPES 
       D2L S2L C5Q L5Q D5Q S5Q C1L L1L D1L S1L              SYS / # / OBS TYPES 
E   21 X1  C1C L1C D1C S1C C6C L6C D6C S6C C5Q L5Q D5Q S5Q  SYS / # / OBS TYPES 
       C7Q L7Q D7Q S7Q C8Q L8Q D8Q S8Q                      SYS / # / OBS TYPES 
S    9 X1  C1C L1C D1C S1C C5I L5I D5I S5I                  SYS / # / OBS TYPES 
R   17 X1  C1C L1C D1C S1C C2P L2P D2P S2P C2C L2C D2C S2C  SYS / # / OBS TYPES 
       C3Q L3Q D3Q S3Q                                      SYS / # / OBS TYPES 
C   25 X1  C1P L1P D1P S1P C5P L5P D5P S5P C2I L2I D2I S2I  SYS / # / OBS TYPES 
       C7I L7I D7I S7I C6I L6I D6I S6I C7D L7D D7D S7D      SYS / # / OBS TYPES 
J   17 X1  C1C L1C D1C S1C C2L L2L D2L S2L C5Q L5Q D5Q S5Q  SYS / # / OBS TYPES 
       C1L L1L D1L S1L                                      SYS / # / OBS TYPES 
I    5 X1  C5A L5A D5A S5A                                  SYS / # / OBS TYPES 
SEPTENTRIO RECEIVERS OUTPUT ALIGNED CARRIER PHASES.         COMMENT             
NO FURTHER PHASE SHIFT APPLIED IN THE RINEX ENCODER.        COMMENT             
G L1C                                                       SYS / PHASE SHIFT   
G L2W                                                       SYS / PHASE SHIFT   
G L2L  0.00000                                              SYS / PHASE SHIFT   
G L5Q  0.00000                                              SYS / PHASE SHIFT   
G L1L  0.00000                                              SYS / PHASE SHIFT   
E L1C  0.00000                                              SYS / PHASE SHIFT   
E L6C  0.00000                                              SYS / PHASE SHIFT   
E L5Q  0.00000                                              SYS / PHASE SHIFT   
E L7Q  0.00000                                              SYS / PHASE SHIFT   
E L8Q  0.00000                                              SYS / PHASE SHIFT   
S L1C                                                       SYS / PHASE SHIFT   
S L5I                                                       SYS / PHASE SHIFT   
R L1C                                                       SYS / PHASE SHIFT   
R L2P  0.00000                                              SYS / PHASE SHIFT   
R L2C                                                       SYS / PHASE SHIFT   
R L3Q  0.00000                                              SYS / PHASE SHIFT   
C L1P  0.00000                                              SYS / PHASE SHIFT   
C L5P  0.00000                                              SYS / PHASE SHIFT   
C L2I                                                       SYS / PHASE SHIFT   
C L7I                                                       SYS / PHASE SHIFT   
C L6I                                                       SYS / PHASE SHIFT   
C L7D                                                       SYS / PHASE SHIFT   
J L1C                                                       SYS / PHASE SHIFT   
J L2L  0.00000                                              SYS / PHASE SHIFT   
J L5Q  0.00000                                              SYS / PHASE SHIFT   
J L1L  0.00000                                              SYS / PHASE SHIFT   
I L5A                                                       SYS / PHASE SHIFT   
  2025     1     1     2    45    0.0000000     GPS         TIME OF FIRST OBS   
 C1C    0.000 C2C    0.000 C2P    0.000                     GLONASS COD/PHS/BIS 
DBHZ                                                        SIGNAL STRENGTH UNIT
    18                                                      LEAP SECONDS        
 24 R01  1 R02 -4 R03  5 R04  6 R05  1 R06 -4 R07  5 R08  6 GLONASS SLOT / FRQ #
    R09 -2 R10 -7 R11  0 R12 -1 R13 -2 R14 -7 R15  0 R16 -1 GLONASS SLOT / FRQ #
    R17  4 R18 -3 R19  3 R20  2 R21  4 R22 -3 R23  3 R24  2 GLONASS SLOT / FRQ #
                                                            END OF HEADER       
> 2025 01 01 02 45  0.0000000  0 54
G28         1.000    24929600.342 6 131005928.33306     -3428.495 6        37.437                                    24929598.386 3 102082517.67703     -2671.543 3        20.238    24929598.063 6 102082523.66706     -2671.451 6        37.308
G31         2.000    22769419.200 7 119654122.79807     -2312.716 7        44.460                                    22769414.378 6  93236967.43906     -1802.118 6        39.670    22769414.432 6  93236966.44306     -1802.107 6        40.038
G09         3.000    20849250.387 8 109563592.48308      1634.301 8        48.824                                    20849248.033 8  85374238.33208      1273.480 8        50.421    20849248.323 7  85374239.33607      1273.490 7        44.217
E34         4.000    24953316.231 7 131130574.98107      1509.126 7        45.547                                                                    24953316.402 7  97922190.99907      1126.882 7        47.727    24953316.241 8 100476682.18908      1156.344 8        48.818
S21         5.000    38474359.513 7 202183946.44607      -377.516 7        43.147
E05         6.000    23642493.954 7 124242182.27307      1826.010 7        45.293                                                                    23642494.266 7  92778280.81707      1363.514 7        47.418    23642493.788 8  95198576.06808      1399.167 8        48.701
E04         8.000    25899092.770 6 136100674.39406     -2782.930 6        41.514                                                                    25899091.077 7 101633625.16407     -2078.183 7        45.609    25899090.854 7 104284929.08407     -2132.292 7        46.253
R14         9.000    24028105.462 7 128083305.59907     -2894.421 7        42.806                                                                    24028108.022 6  99620332.70106     -2251.333 6        40.734
G04        10.000    20092417.113 8 105586410.31608      -176.514 8        49.450                                    20092413.752 7  82275134.62507      -137.543 7        42.883    20092413.650 8  82275129.62708      -137.581 8        49.457
E09        11.000    23480170.213 8 123389177.49108      -676.000 8        48.497                                                                    23480169.402 8  92141286.49708      -504.813 8        50.478    23480168.980 8  94544971.41108      -518.018 8        51.344
S27        12.000    39103614.928 6 205490887.59506      -372.747 6        36.197
G06        13.000    22128763.095 7 116287466.05107      1959.010 7        45.424                                    22128762.054 7  90613614.71007      1526.501 7        44.590    22128762.784 7  90613625.71507      1526.465 7        43.439
S36        14.000    38241797.363 7 200962501.47807      -377.464 7        44.558
E21        15.000    28834496.425 5 151526304.38705      -278.054 5        32.425                                                                    28834498.225 6 113152799.29906      -207.582 6        37.353    28834497.442 6 116104606.21606      -212.770 6        37.743
E36        16.000    23634408.665 8 124199682.27908     -1350.043 8        48.292                                                                    23634408.861 8  92746532.74008     -1008.140 8        50.171    23634408.578 8  95166002.28808     -1034.405 8        51.020
S45        17.000    63434963.625 6 333354096.89606      -417.108 6        37.652
G03        18.000    20702128.551 8 108790477.95708     -2106.498 8        48.084                                    20702126.930 8  84771820.26508     -1641.425 8        49.811    20702127.387 7  84771829.26807     -1641.470 7        44.871
R21        19.000    20438320.602 8 109369617.55008     -3387.369 8        51.193                                                                    20438319.396 7  85065266.50307     -2634.611 7        45.750
R20        20.000    24123269.567 3                     -5059.518 3        22.267                                                                    24123265.473 4 100331719.44504     -3935.221 4        25.564
R05        21.000    22795457.819 7 121854827.66607     -3796.108 7        43.731                                                                    22795458.083 6  94775981.80106     -2952.517 6        41.783
I06        22.000    38092311.450 7 149482640.11407      -210.331 7        42.946
S28        23.000    40907564.230 5 214970685.92305      -372.085 5        34.571
S23        25.000    38187394.163 7 200676107.19907      -373.283 7        44.652
E06        26.000    24070087.780 7 126489226.50007     -1862.580 7        46.952                                                                    24070087.241 8  94456240.31008     -1390.911 8        49.268    24070087.230 8  96920314.61808     -1427.192 8        50.688
R15        27.000    22321059.412 7 119276989.61207       276.758 7        46.722                                                                    22321059.847 7  92771006.06607       215.306 7        43.065
G26        28.000    24953038.544 6 131129099.05106      1638.128 6        37.047                                    24953036.978 4 102178519.51704      1276.509 4        28.142    24953037.034 5 102178520.51105      1276.431 5        34.867
C22        30.000                                                                                                                                    25083562.312 7 130616706.68307      2282.004 7        43.818                                                                    25083556.784 7 106136757.88407      1854.233 7        43.623
I01        31.000   335222935.349 7  12345991.62707     -2639.028 7        42.197
G02        32.000    24202191.939 7 127183403.78307     -3836.600 7        42.292                                    24202186.485 4  99103943.90204     -2989.556 4        27.569
G19        33.000    22745752.445 7 119529762.80707     -2069.679 7        43.947                                    22745747.013 5  93140094.28705     -1612.737 5        30.332
G17        34.000    23872035.783 7 125448436.90507     -3030.852 7        42.461                                    23872032.349 5  97752036.27505     -2361.702 5        35.552    23872032.090 6  97752036.28106     -2361.863 6        37.077
E11        35.000    26293403.836 6 138172826.61106     -3338.703 6        38.402                                                                    26293400.071 6 103181022.45106     -2493.231 6        41.259    26293399.829 7 105872694.12407     -2558.310 7        42.301
G11        36.000    25430209.060 6 133636650.50406      3210.020 6        38.580                                    25430206.581 3 104132447.91303      2501.307 3        19.672    25430206.291 5 104132447.94905      2501.134 5        35.090
C35        37.000                                                                                                                                    23174628.354 8 120676387.82408     -1406.527 8        48.148                                                                    23174627.189 7  98059449.16207     -1142.894 7        47.643
I09        38.000    37426294.339 7 146868815.20807      -529.119 7        42.741
C29        39.000                                                                                                                                    25025063.957 7 130312064.47907     -3707.184 7        42.745                                                                    25025062.496 7 105889217.93007     -3012.321 7        43.336
R22        40.000    20408828.362 8 108943745.76208      1166.264 8        51.096                                                                    20408826.042 7  84734039.85407       907.090 7        47.383
S44        42.000    40716645.891 6 213967623.88306      -455.297 6        37.240
C09        43.000                                                                                                                                    38500726.777 7 200483407.98607      -280.604 7        43.016    38500722.444 7 155026479.78107      -216.946 7        46.316    38500720.403 7 162909172.55007      -227.945 7        42.523
C05        44.000                                                                                                                                    39172880.208 6 203983497.55306      -400.638 6        39.036    39172874.701 7 157733002.93307      -309.769 7        43.007    39172876.788 6 165753403.31206      -325.475 6        40.019
R06        45.000    19472199.664 7 103907445.18707      -728.475 7        42.087
C44        46.000                                                                                                                                    24558145.972 7 127880747.26407      1213.193 7        43.204                                                                    24558144.904 7 103913586.22707       985.771 7        43.839
C39        47.000                                                                                                                                    39438762.813 6 205367997.47506     -1241.373 6        41.275                                                                    39438758.647 7 166878309.41107     -1008.701 7        42.119
C20        48.000                                                                                                                                    22903210.337 8 119263073.46008     -2136.312 8        50.430                                                                    22903204.761 8  96911008.26508     -1735.908 8        49.575
C06        49.000                                                                                                                                    38401782.674 6 199968184.97306      -785.421 6        40.830    38401777.182 7 154628068.99707      -607.310 7        44.784    38401776.835 6 162490509.87006      -638.267 6        41.621
C16        50.000                                                                                                                                    38924702.188 7 202691155.79807      -869.615 7        42.296    38924701.512 7 156733668.23307      -672.441 7        42.768    38924699.051 6 164703165.98606      -706.664 6        39.823
S48        51.000    77221239.616 6 405801493.83406      -370.126 6        37.667
C19        52.000                                                                                                                                    22105336.139 8 115108348.28808       351.586 8        51.149                                                                    22105331.203 8  93534965.57208       285.676 8        49.901
C60        54.000                                                                                                                                    40716651.000 6 212022483.06306      -451.140 6        39.952                                                                    40716635.427 6 172285603.43006      -366.611 6        39.895
R16        55.000    23064682.692 7 123207400.70607      3214.703 7        45.344                                                                    23064684.207 7  95827995.52607      2500.370 7        42.743
C37        56.000                                                                                                                                    24901770.772 7 129670070.52807       551.296 7        44.262                                                                    24901774.399 7 105367572.03007       447.949 7        44.941
C02        57.000                                                                                                                                    40663779.031 5 211747013.30205      -444.308 5        34.243    40663773.211 6 163736215.04806      -343.622 6        39.718    40663776.551 6 172061795.45506      -360.952 6        36.257
I03        58.000   131197907.151 6 439063518.82306       952.589 6        40.150
R07        59.000    21104254.286 8 112972746.15908      2107.601 8        49.891                                                                    21104252.943 7  87867692.53307      1639.200 7        46.760
> 2025 01 01 02 45  5.0000000  0 54
G28         1.000    24932863.508 6 131023074.60906     -3429.984 6        37.501                                    24932861.168 3 102095878.36903     -2672.713 3        19.642    24932861.302 6 102095884.37006     -2672.868 6        36.609
G31         2.000    22771621.119 7 119665693.55707     -2315.624 7        44.749                                    22771616.178 6  93245983.62106     -1804.383 6        39.589    22771616.600 6  93245982.63406     -1804.359 6        39.613
G09         3.000    20847696.545 8 109555425.64508      1632.350 8        49.132                                    20847693.947 8  85367874.56608      1271.962 8        50.367    20847694.404 7  85367875.56507      1271.938 7        44.355
E34         4.000    24951881.022 7 131123033.06307      1507.657 7        45.664                                                                    24951881.236 7  97916559.05007      1125.821 7        47.707    24951881.107 8 100470903.32308      1155.200 8        48.836
S21         5.000    38474717.350 7 202185833.62507      -377.330 7        43.048
E05         6.000    23640757.335 7 124233055.16107      1824.897 7        45.189                                                                    23640757.444 7  92771465.12107      1362.730 7        47.577    23640757.049 8  95191582.57708      1398.207 8        48.779
E04         8.000    25901741.368 7 136114590.16107     -2783.462 7        42.146                                                                    25901739.301 7 101644016.80807     -2078.479 7        45.631    25901738.994 7 104295591.82407     -2132.717 7        46.249
R14         9.000    24030821.826 7 128097785.77007     -2897.650 7        42.993                                                                    24030823.409 6  99631594.97006     -2253.801 6        39.222
G04        10.000    20092586.223 8 105587298.93308      -179.017 8        49.572                                    20092582.837 7  82275827.05607      -139.492 7        42.828    20092582.633 8  82275822.05708      -139.441 8        49.411
E09        11.000    23480814.075 8 123392561.59008      -677.664 8        48.633                                                                    23480813.344 8  92143813.58608      -506.028 8        50.530    23480813.032 8  94547564.42508      -519.234 8        51.424
S27        12.000    39103967.578 5 205492749.58905      -372.219 5        35.952
G06        13.000    22126900.527 7 116277676.49007      1956.804 7        45.211                                    22126899.172 7  90605986.48607      1524.783 7        44.533    22126899.932 7  90605997.48907      1524.753 7        43.238
S36        14.000    38242158.487 7 200964388.02107      -377.323 7        44.603
E21        15.000    28834761.747 5 151527699.32605      -280.383 5        31.540                                                                    28834764.007 6 113153840.71706      -208.730 6        36.155    28834763.000 6 116105674.86006      -214.339 6        36.484
E36        16.000    23635694.027 8 124206437.50208     -1352.128 8        48.452                                                                    23635694.337 8  92751577.22608     -1009.625 8        50.265    23635694.030 8  95171178.37208     -1036.049 8        51.121
S45        17.000    63435318.099 6 333356181.96406      -416.997 6        37.679
G03        18.000    20704133.914 8 108801014.72108     -2108.158 8        48.436                                    20704132.010 8  84780030.73108     -1642.720 8        49.701    20704132.408 7  84780039.73407     -1642.858 7        44.770
R21        19.000    20441487.574 8 109386562.60208     -3390.761 8        51.648                                                                    20441486.331 7  85078445.97207     -2637.256 7        46.017
R20        20.000    24127998.732 3                     -5058.984 3        22.800                                                                    24127999.356 4 100351396.51514     -3935.033 4        26.683
R05        21.000    22799009.341 7 121873808.70507     -3796.254 7        44.086                                                                    22799009.041 7  94790744.83207     -2952.711 7        42.205
I06        22.000    38092579.586 7 149483691.81507      -210.248 7        42.787
S28        23.000    40907916.415 5 214972546.13505      -371.950 5        34.629
S23        25.000    38187746.505 7 200677973.09707      -373.151 7        44.494
E06        26.000    24071860.647 7 126498542.54307     -1863.855 7        47.112                                                                    24071860.132 8  94463197.09408     -1391.794 8        49.316    24071860.038 8  96927452.88608     -1428.100 8        50.750
R15        27.000    22320802.468 7 119275616.11507       272.512 7        47.314                                                                    22320802.338 7  92769937.79907       211.955 7        42.999
G26        28.000    24951480.217 6 131120912.65406      1636.446 6        37.006                                    24951479.185 4 102172140.50804      1275.158 4        27.964    24951479.373 5 102172141.48205      1275.193 5        34.400
C22        30.000                                                                                                                                    25081371.378 7 130605297.81907      2281.527 7        43.699                                                                    25081365.792 7 106127487.26307      1853.875 7        43.700
I01        31.000   335226297.744 7  12359186.99807     -2639.179 7        42.044
G02        32.000    24205842.631 6 127202588.47206     -3837.282 6        41.526                                    24205837.260 4  99118893.00704     -2990.094 4        27.198
G19        33.000    22747723.477 7 119540117.86807     -2072.360 7        43.799                                    22747717.554 5  93148163.16905     -1614.822 5        30.174
G17        34.000    23874920.363 6 125463593.77906     -3031.929 6        41.518                                    23874916.599 5  97763846.82205     -2362.536 5        35.314    23874916.442 6  97763846.81606     -2362.716 6        37.905
E11        35.000    26296580.641 6 138189522.06206     -3339.653 6        38.366                                                                    26296577.092 6 103193489.83206     -2493.824 6        41.299    26296576.846 7 105885486.73607     -2558.860 7        42.106
G11        36.000    25427154.579 6 133620601.19806      3209.793 6        38.279                                    25427152.369 3 104119942.00003      2501.121 3        20.452    25427152.884 5 104119942.02805      2500.795 5        35.776
C35        37.000                                                                                                                                    23175980.376 7 120683426.50007     -1409.054 7        47.871                                                                    23175978.954 7  98065168.66107     -1145.039 7        47.662
I09        38.000    37426968.609 7 146871460.65507      -529.230 7        42.745
C29        39.000                                                                                                                                    25028623.692 7 130330600.82507     -3707.393 7        43.268                                                                    25028622.463 7 105904280.24707     -3012.729 7        43.543
R22        40.000    20407737.383 8 108937924.68608      1162.071 8        51.363                                                                    20407735.435 7  84729512.35207       903.914 7        47.323
S44        42.000    40717082.388 6 213969900.09106      -455.313 6        37.433
C09        43.000                                                                                                                                    38500996.296 7 200484812.25307      -281.223 7        42.741    38500992.013 7 155027565.64707      -217.404 7        46.219    38500990.145 7 162910313.64607      -228.484 7        42.379
C05        44.000                                                                                                                                    39173264.691 6 203985500.29806      -400.455 6        38.619    39173259.198 7 157734551.58007      -309.744 7        42.874    39173261.268 6 165755030.71206      -325.550 6        40.048
R06        45.000    19472883.674 7 103911093.49707      -730.814 7        42.252
C44        46.000                                                                                                                                    24556982.467 7 127874687.07507      1210.802 7        43.132                                                                    24556981.046 7 103908661.83007       983.787 7        43.824
C39        47.000                                                                                                                                    39439954.997 6 205374205.25206     -1241.685 6        41.120                                                                    39439950.693 7 166883353.74807     -1009.112 7        42.030
C20        48.000                                                                                                                                    22905262.104 8 119273757.10208     -2137.213 8        50.194                                                                    22905256.391 8  96919689.60908     -1736.711 8        49.579
C06        49.000                                                                                                                                    38402537.235 6 199972113.30606      -785.982 6        40.698    38402531.760 7 154631106.64207      -607.708 7        44.567    38402531.207 6 162493701.97206      -638.738 6        41.547
C16        50.000                                                                                                                                    38925537.121 7 202695505.42607      -870.233 7        42.209    38925536.843 7 156737031.65007      -672.965 7        43.026    38925534.438 6 164706700.42306      -707.220 6        39.763
S48        51.000    77221592.985 6 405803343.99406      -369.964 6        37.917
C19        52.000                                                                                                                                    22104999.308 8 115106593.62508       350.211 8        51.020                                                                    22104994.255 8  93533539.77208       284.569 8        49.954
C60        54.000                                                                                                                                    40717083.638 6 212024738.58206      -451.116 6        39.694                                                                    40717068.691 6 172287436.22206      -366.547 6        40.005
R16        55.000    23061674.533 7 123191331.06707      3213.097 7        45.147                                                                    23061675.539 7  95815496.90807      2499.167 7        42.542
C37        56.000                                                                                                                                    24901242.762 7 129667320.21807       548.905 7        43.890                                                                    24901246.271 7 105365337.19107       445.845 7        44.951
C02        57.000                                                                                                                                    40664205.038 5 211749234.55205      -444.092 5        33.737    40664199.799 6 163737932.65606      -343.550 6        39.973    40664203.171 6 172063600.41806      -361.264 6        36.480
I03        58.000   131196692.940 6 439058755.52506       952.663 6        40.155
R07        59.000    21102286.035 8 112962212.08408      2105.994 8        49.824                                                                    21102284.694 7  87859499.37307      1637.944 7        46.231
> 2025 01 01 02 45 10.0000000  0 54
G28         1.000    24936128.279 6 131040229.28206     -3431.742 6        36.885                                    24936125.529 3 102109245.60803     -2674.079 3        19.373    24936125.719 6 102109251.60706     -2674.145 6        37.429
G31         2.000    22773825.743 7 119677279.66307     -2318.747 7        44.363                                    22773820.845 6  93255011.75406     -1806.816 6        39.754    22773821.271 6  93255010.76506     -1806.769 6        38.940
G09         3.000    20846144.258 8 109547269.49208      1630.185 8        48.686                                    20846141.883 8  85361519.12008      1270.275 8        50.604    20846142.212 7  85361520.12107      1270.264 7        44.423
E34         4.000    24950447.459 7 131115498.99607      1506.014 7        45.208                                                                    24950447.544 7  97910932.95907      1124.664 7        47.622    24950447.418 8 100465130.46708      1153.930 8        48.798
S21         5.000    38475075.612 7 202187720.45607      -377.236 7        43.120
E05         6.000    23639021.404 7 124223933.90607      1823.727 7        44.551                                                                    23639021.714 7  92764653.79807      1361.833 7        47.518    23639021.292 8  95184593.56508      1397.361 8        48.744
E04         8.000    25904389.973 7 136128508.90407     -2783.947 7        42.495                                                                    25904388.009 7 101654410.68207     -2078.912 7        45.681    25904387.486 7 104306256.84007     -2133.125 7        46.247
R14         9.000    24033541.265 7 128112281.93307     -2900.763 7        42.527                                                                    24033543.269 6  99642869.72106     -2256.237 6        39.180
G04        10.000    20092757.775 8 105588200.36108      -181.568 8        49.365                                    20092754.369 7  82276529.46907      -141.479 7        43.103    20092754.392 8  82276524.46808      -141.501 8        49.559
E09        11.000    23481459.715 8 123395954.03608      -679.324 8        48.368                                                                    23481458.926 8  92146346.90608      -507.273 8        50.459    23481458.567 8  94550163.83008      -520.531 8        51.393
S27        12.000    39104328.527 5 205494611.64505      -372.298 5        35.986
G06        13.000    22125039.915 7 116267898.39307      1954.500 7        44.898                                    22125038.467 7  90598367.18807      1522.987 7        44.722    22125039.241 7  90598378.18507      1523.015 7        43.695
S36        14.000    38242520.170 7 200966275.13707      -377.164 7        44.557
E21        15.000    28835030.092 5 151529106.04805      -282.629 5        30.951                                                                    28835031.784 6 113154891.16606      -210.913 6        37.312    28835030.971 6 116106752.70606      -216.333 6        37.777
E36        16.000    23636981.667 8 124213203.50108     -1354.243 8        48.179                                                                    23636981.875 8  92756629.75808     -1011.298 8        50.187    23636981.613 8  95176362.70908     -1037.719 8        51.057
S45        17.000    63435676.348 6 333358266.93306      -417.131 6        37.762
G03        18.000    20706140.697 8 108811560.39808     -2109.978 8        48.301                                    20706138.784 8  84788248.13508     -1644.140 8        49.918    20706139.381 7  84788257.13907     -1644.139 7        45.052
R21        19.000    20444657.330 8 109403524.91508     -3394.129 8        51.341                                                                    20444656.248 7  85091638.89307     -2639.851 7        46.023
R20        20.000                                                                                                                                    24132730.063 4 100371073.96204     -3935.448 4        25.353
R05        21.000    22802560.804 7 121892790.74407     -3796.474 7        44.737                                                                    22802559.831 7  94805508.62507     -2952.775 7        42.578
I06        22.000    38092847.573 7 149484743.56307      -210.412 7        42.978
S28        23.000    40908270.952 5 214974405.80105      -371.799 5        34.609
S23        25.000    38188100.541 7 200679838.94707      -373.197 7        44.336
E06        26.000    24073634.587 7 126507864.98107     -1865.109 7        46.736                                                                    24073634.080 8  94470158.65208     -1392.774 8        49.322    24073634.032 8  96934596.05108     -1429.120 8        50.694
R15        27.000    22320549.945 8 119274263.83908       268.362 8        48.127                                                                    22320549.539 7  92768886.02207       208.752 7        42.470
G26        28.000    24949923.826 6 131112735.72206      1634.435 6        36.991                                    24949923.190 4 102165768.86804      1273.608 4        28.275    24949923.755 5 102165769.85905      1273.448 5        34.429
C22        30.000                                                                                                                                    25079181.084 7 130593891.57607      2280.948 7        43.786                                                                    25079175.306 7 106118218.74807      1853.639 7        43.666
I01        31.000   335229660.194 7  12372382.81007     -2639.178 7        42.229
G02        32.000    24209493.701 6 127221776.40406     -3837.899 6        40.951                                    24209488.519 4  99133844.64204     -2990.572 4        27.090
G19        33.000    22749696.810 7 119550487.17507     -2075.321 7        43.166                                    22749690.765 5  93156243.14305     -1617.131 5        30.400
G17        34.000    23877805.534 7 125478756.37007     -3032.987 7        42.464                                    23877801.936 5  97775661.81205     -2363.362 5        35.410    23877801.948 6  97775661.79406     -2363.257 6        37.679
E11        35.000    26299758.400 6 138206221.84606     -3340.339 6        37.932                                                                    26299755.122 6 103205960.44606     -2494.484 6        41.387    26299754.656 7 105898282.67907     -2559.492 7        42.023
G11        36.000    25424100.487 6 133604554.68106      3208.985 6        39.105                                    25424099.105 3 104107438.25203      2500.499 3        21.000    25424099.109 6 104107438.25906      2500.607 6        37.130
C35        37.000                                                                                                                                    23177334.497 7 120690478.51707     -1411.692 7        47.729                                                                    23177333.203 7  98070898.99307     -1147.002 7        47.500
I09        38.000    37427642.935 7 146874106.58307      -529.199 7        42.819
C29        39.000                                                                                                                                    25032184.489 7 130349139.57907     -3707.984 7        43.564                                                                    25032183.015 7 105919344.48307     -3012.836 7        43.539
R22        40.000    20406650.923 8 108932124.47808      1158.029 8        51.141                                                                    20406649.273 7  84725001.07107       900.663 7        47.711
S44        42.000    40717512.943 6 213972176.12606      -455.140 6        37.134
C09        43.000                                                                                                                                    38501266.306 7 200486220.20507      -281.920 7        42.834    38501262.445 7 155028654.37007      -218.122 7        46.203    38501260.530 7 162911457.70907      -228.948 7        42.440
C05        44.000                                                                                                                                    39173649.251 6 203987502.98406      -400.514 6        39.018    39173643.793 7 157736100.18807      -309.674 7        42.800    39173646.037 6 165756658.05406      -325.370 6        39.916
R06        45.000    19473569.805 7 103914753.26007      -733.146 7        42.190
C44        46.000                                                                                                                                    24555821.958 7 127868638.99307      1208.439 7        43.937                                                                    24555819.576 7 103903747.25407       982.093 7        43.697
C39        47.000                                                                                                                                    39441147.657 6 205380415.54306     -1242.286 6        41.006                                                                    39441143.490 6 166888400.10006     -1009.415 6        41.971
C20        48.000                                                                                                                                    22907314.890 8 119284445.78408     -2138.239 8        50.225                                                                    22907309.033 8  96928375.03108     -1737.395 8        49.513
C06        49.000                                                                                                                                    38403292.169 6 199976045.04706      -786.546 6        40.670    38403286.619 7 154634146.92107      -608.234 7        44.545    38403286.176 6 162496896.83306      -639.015 6        41.490
C16        50.000                                                                                                                                    38926372.817 7 202699858.21407      -870.961 7        42.180    38926372.832 7 156740397.50207      -673.479 7        43.120    38926370.401 6 164710237.40306      -707.551 6        39.556
S48        51.000    77221943.297 6 405805193.69306      -369.955 6        37.667
C19        52.000                                                                                                                                    22104663.780 8 115104846.15108       348.757 8        51.032                                                                    22104658.682 8  93532119.79508       283.545 8        49.882
C60        54.000                                                                                                                                    40717516.854 6 212026993.93306      -451.118 6        40.026                                                                    40717501.687 6 172289268.87606      -366.458 6        39.967
R16        55.000    23058668.324 7 123175269.82107      3211.443 7        45.177                                                                    23058668.644 7  95803004.84807      2497.813 7        42.131
C37        56.000                                                                                                                                    24900716.887 7 129664582.57107       546.253 7        43.941                                                                    24900720.625 7 105363112.62207       443.961 7        44.777
C02        57.000                                                                                                                                    40664631.828 5 211751455.71905      -444.249 5        33.760    40664626.070 6 163739650.20906      -343.523 6        39.898    40664629.790 6 172065405.28706      -360.845 6        36.295
I03        58.000   131195479.390 6 439053992.27706       952.690 6        40.331
R07        59.000    21100319.602 8 112951686.32108      2104.281 8        50.195                                                                    21100318.360 7  87851312.66407      1636.710 7        46.298
> 2025 01 01 02 45 15.0000000  0 54
G28         1.000    24939394.114 6 131057392.07106     -3433.382 6        37.248                                    24939391.485 3 102122619.18703     -2675.361 3        19.731    24939391.733 6 102122625.17706     -2675.496 6        37.943
G31         2.000    22776033.178 7 119688880.80807     -2321.869 7        43.998                                    22776028.364 6  93264051.60906     -1809.247 6        39.730    22776029.546 6  93264050.61906     -1809.291 6        39.114
G09         3.000    20844594.075 8 109539123.77808      1627.929 8        48.927                                    20844591.822 8  85355171.81308      1268.518 8        50.636    20844592.035 7  85355172.81107      1268.564 7        44.465
E34         4.000    24949015.183 7 131107972.53107      1504.342 7        45.160                                                                    24949015.287 7  97905312.54307      1123.385 7        47.573    24949015.142 8 100459363.42708      1152.640 8        48.786
S21         5.000    38475438.216 7 202189606.71407      -377.388 7        43.062
E05         6.000    23637286.497 7 124214818.26307      1822.442 7        44.588                                                                    23637287.046 7  92757846.66107      1360.864 7        47.479    23637286.681 8  95177608.85208      1396.323 8        48.758
E04         8.000    25907039.010 7 136142430.37107     -2784.738 7        42.783                                                                    25907037.249 7 101664806.58107     -2079.511 7        45.711    25907036.495 7 104316923.93307     -2133.715 7        46.214
R14         9.000    24036263.465 7 128126794.05307     -2903.977 7        42.919                                                                    24036266.180 6  99654156.92706     -2258.583 6        40.768
G04        10.000    20092931.379 8 105589114.34908      -184.213 8        49.254                                    20092928.275 7  82277241.66607      -143.543 7        43.120    20092928.196 8  82277236.66708      -143.565 8        49.518
E09        11.000    23482106.850 8 123399354.58008      -681.053 8        48.221                                                                    23482106.008 8  92148886.26808      -508.636 8        50.397    23482105.641 8  94552769.43708      -521.887 8        51.307
S27        12.000    39104682.103 5 205496473.14905      -372.410 5        35.890
G06        13.000    22123181.177 7 116258131.54507      1952.006 7        44.980                                    22123179.891 7  90590756.65107      1521.044 7        44.796    22123180.577 7  90590767.65307      1521.035 7        43.321
S36        14.000    38242878.011 7 200968161.16707      -377.271 7        44.406
E21        15.000    28835299.657 5 151530523.99905      -284.634 5        30.234                                                                    28835301.491 6 113155950.00506      -212.638 6        37.153    28835300.973 6 116107839.18906      -218.401 6        37.724
E36        16.000    23638270.974 8 124219980.01708     -1356.509 8        48.120                                                                    23638271.361 8  92761690.14008     -1013.013 8        50.163    23638271.061 8  95181555.09808     -1039.427 8        50.991
S45        17.000    63436027.656 6 333358651.46416      -417.171 6        37.701
G03        18.000    20708149.166 8 108822114.71208     -2111.845 8        48.641                                    20708147.200 8  84796472.27408     -1645.596 8        49.961    20708147.765 7  84796481.27707     -1645.575 7        45.395
R21        19.000    20447830.370 8 109420504.26108     -3397.717 8        51.736                                                                    20447829.372 7  85104845.04107     -2642.745 7        45.667
R20        20.000                                                                                                                                    24137460.646 4 100390751.40504     -3935.828 4        25.308
R05        21.000    22806111.795 7 121911773.56707     -3796.831 7        44.409                                                                    22806110.307 7  94820273.05107     -2953.187 7        42.328
I06        22.000    38093115.794 7 149485795.14007      -210.508 7        42.916
S28        23.000    40908622.989 5 214976265.30405      -372.167 5        34.609
S23        25.000    38188456.429 7 200681704.35707      -373.194 7        44.403
E06        26.000    24075409.616 7 126517193.56707     -1866.489 7        46.626                                                                    24075409.275 8  94477124.79708     -1393.828 8        49.194    24075409.221 8  96941743.91908     -1430.185 8        50.667
R15        27.000    22320301.380 7 119272932.49207       264.028 7        47.372                                                                    22320299.871 7  92767850.52907       205.409 7        42.017
G26        28.000    24948369.213 6 131104567.90806      1632.457 6        36.828                                    24948368.926 4 102159404.34504      1272.031 4        28.009    24948369.263 5 102159405.36205      1271.784 5        34.462
C22        30.000                                                                                                                                    25076991.072 7 130582487.68107      2280.330 7        43.793                                                                    25076985.364 7 106108952.14407      1853.002 7        43.708
I01        31.000   335233022.941 6  12385578.86006     -2639.390 6        41.988
G02        32.000    24213145.271 6 127240967.31906     -3838.596 6        40.753                                    24213140.359 4  99148798.58804     -2991.114 4        26.575
G19        33.000    22751672.305 7 119560870.50407     -2078.228 7        43.168                                    22751666.717 5  93164334.04805     -1619.396 5        30.385
G17        34.000    23880691.892 7 125493924.43807     -3034.240 7        42.679                                    23880688.226 5  97787481.08105     -2364.343 5        35.505    23880688.024 6  97787481.08406     -2364.454 6        37.493
E11        35.000    26302936.890 6 138222925.77506     -3341.263 6        37.410                                                                    26302933.770 6 103218434.15606     -2495.077 6        41.440    26302933.311 6 105911081.78206     -2560.181 6        41.886
G11        36.000    25421047.735 6 133588510.64606      3208.326 6        38.099                                    25421046.172 3 104094936.44503      2499.996 3        19.970    25421046.299 6 104094936.44606      2500.116 6        37.051
C35        37.000                                                                                                                                    23178691.171 7 120697543.63707     -1414.534 7        47.517                                                                    23178689.998 7  98076639.97407     -1149.340 7        47.597
I09        38.000    37428317.335 7 146876752.83807      -529.525 7        42.851
C29        39.000                                                                                                                                    25035745.302 7 130367680.43007     -3708.476 7        43.371                                                                    25035743.564 7 105934410.43307     -3013.417 7        43.382
R22        40.000    20405567.881 8 108926344.89808      1153.678 8        50.856                                                                    20405566.565 7  84720505.84807       897.302 7        47.614
S44        42.000    40717947.602 6 213974451.76106      -455.175 6        37.183
C09        43.000                                                                                                                                    38501537.023 7 200487631.55007      -282.661 7        42.838    38501533.496 7 155029745.70107      -218.702 7        46.105    38501531.538 7 162912604.52907      -229.668 7        42.500
C05        44.000                                                                                                                                    39174034.275 6 203989505.38506      -400.749 6        39.021    39174028.334 7 157737648.55607      -309.821 7        42.770    39174030.615 6 165758285.14606      -325.450 6        39.886
R06        45.000    19474257.243 7 103918424.18207      -735.464 7        42.303
C44        46.000                                                                                                                                    24554662.091 7 127862602.78907      1205.911 7        43.778                                                                    24554660.409 7 103898842.33907       979.974 7        43.752
C39        47.000                                                                                                                                    39442340.664 6 205386628.11606     -1243.012 6        41.092                                                                    39442336.530 7 166893448.31507     -1009.984 7        42.064
C20        48.000                                                                                                                                    22909368.246 8 119295139.25508     -2139.327 8        50.156                                                                    22909362.625 8  96937064.34008     -1738.343 8        49.574
C06        49.000                                                                                                                                    38404047.441 6 199979979.99906      -787.528 6        40.501    38404042.234 7 154637189.65707      -608.967 7        44.182    38404041.950 6 162500094.27206      -639.696 6        41.459
C16        50.000                                                                                                                                    38927209.129 7 202704213.90907      -871.633 7        42.055    38927209.256 7 156743765.59307      -673.960 7        43.043    38927206.815 6 164713776.76406      -708.266 6        39.673
S48        51.000    77222294.766 6 405807043.07306      -370.045 6        37.319
C19        52.000                                                                                                                                    22104329.434 8 115103105.63208       347.290 8        50.920                                                                    22104324.444 8  93530705.47808       282.193 8        49.979
C60        54.000                                                                                                                                    40717949.903 6 212029248.88806      -451.209 6        39.886                                                                    40717934.813 6 172291101.20206      -366.551 6        40.050
R16        55.000    23055663.127 7 123159216.66807      3209.595 7        45.830                                                                    23055663.329 6  95790519.05706      2496.279 6        41.614
C37        56.000                                                                                                                                    24900193.540 7 129661857.34007       543.678 7        44.074                                                                    24900197.229 7 105360898.15407       441.753 7        44.834
C02        57.000                                                                                                                                    40665058.233 5 211753676.56505      -444.093 5        33.563    40665052.909 6 163741367.50606      -343.436 6        39.595    40665056.003 6 172067209.91006      -361.131 6        36.042
I03        58.000   131194265.133 6 439049228.82806       952.664 6        40.236
R07        59.000    21098355.607 8 112941168.79708      2102.517 8        50.258                                                                    21098353.402 7  87843132.36807      1635.260 7        45.317
> 2025 01 01 02 45 20.0000000  0 54
G28         1.000    24942661.876 6 131074563.65206     -3435.143 6        37.667                                    24942659.298 3 102135999.59803     -2676.732 3        19.582    24942659.557 6 102136005.60506     -2676.631 6        37.459
G31         2.000    22778243.773 7 119700497.65707     -2324.768 7        44.033                                    22778238.911 6  93273103.69806     -1811.509 6        39.727    22778240.088 6  93273102.68906     -1811.397 6        39.667
G09         3.000    20843046.131 8 109530989.17208      1625.948 8        48.987                                    20843043.858 8  85348833.16208      1266.972 8        50.637    20843044.242 7  85348834.15807      1267.047 7        44.572
E34         4.000    24947584.766 7 131100454.37207      1502.933 7        44.828                                                                    24947584.616 7  97899698.32607      1122.364 7        47.597    24947584.529 8 100453602.75408      1151.676 8        48.914
S21         5.000    38475795.427 7 202191493.29507      -377.173 7        43.109
E05         6.000    23635553.195 7 124205708.95407      1821.243 7        44.450                                                                    23635553.579 7  92751044.24707      1360.132 7        47.360    23635553.263 8  95170628.97908      1395.643 8        48.915
E04         8.000    25909688.680 7 136156355.25307     -2785.073 7        42.389                                                                    25909687.041 7 101675205.03507     -2079.774 7        45.666    25909686.274 7 104327593.65007     -2134.082 7        46.298
R14         9.000    24038988.941 7 128141322.14207     -2907.148 7        42.760                                                                    24038990.829 6  99665456.52106     -2261.174 6        39.426
G04        10.000    20093107.983 8 105590041.58208      -186.621 8        49.331                                    20093104.720 7  82277964.18607      -145.419 7        43.109    20093104.856 8  82277959.18708      -145.463 8        49.557
E09        11.000    23482755.645 8 123402763.91708      -682.583 8        48.363                                                                    23482754.740 8  92151432.20108      -509.693 8        50.339    23482754.427 8  94555381.78708      -523.014 8        51.463
S27        12.000    39105029.204 5 205498334.78305      -372.438 5        35.824
G06        13.000    22121325.012 7 116248376.62507      1949.900 7        45.345                                    22121323.573 7  90583155.41907      1519.403 7        44.799    22121323.970 7  90583166.42207      1519.359 7        43.278
S36        14.000    38243235.983 7 200970047.84507      -377.195 7        44.554
E21        15.000    28835570.835 5 151531954.05205      -287.024 5        30.287                                                                    28835573.579 6 113157017.82906      -214.133 6        36.284    28835573.260 6 116108934.87706      -219.834 6        37.183
E36        16.000    23639562.770 8 124226767.74908     -1358.468 8        48.085                                                                    23639563.062 8  92766758.89808     -1014.430 8        50.143    23639562.723 8  95186756.08608     -1040.909 8        51.134
S45        17.000    63436379.573 6 333360736.33106      -417.069 6        37.611
G03        18.000    20710159.299 8 108832678.40008     -2113.494 8        48.377                                    20710157.405 8  84804703.71908     -1646.879 8        49.968    20710158.113 7  84804712.71607     -1646.894 7        45.428
R21        19.000    20451006.819 8 109437501.29908     -3401.037 8        51.706                                                                    20451005.849 7  85118064.95907     -2645.215 7        46.208
R20        20.000                                                                                                                                    24142189.174 4 100410429.37504     -3936.114 4        24.707
R05        21.000    22809662.410 7 121930757.82007     -3796.843 7        44.518                                                                    22809661.720 7  94835038.56907     -2952.997 7        42.315
I06        22.000    38093383.710 7 149486847.07907      -210.343 7        42.931
S28        23.000    40908974.902 5 214978125.34005      -371.561 5        34.567
S23        25.000    38188812.182 7 200683569.98007      -373.059 7        44.560
E06        26.000    24077186.086 7 126526528.96607     -1867.622 7        46.678                                                                    24077185.764 8  94484096.03408     -1394.668 8        49.150    24077185.685 8  96948897.01408     -1430.978 8        50.793
R15        27.000    22320055.367 7 119271622.79607       259.960 7        47.445                                                                    22320054.450 7  92766831.88507       202.217 7        42.091
G26        28.000    24946816.603 6 131096410.02906      1630.856 6        36.650                                    24946816.531 4 102153047.54704      1270.801 4        27.713    24946816.266 5 102153048.55505      1270.644 5        34.614
C22        30.000                                                                                                                                    25074801.440 7 130571086.84107      2280.037 7        44.158                                                                    25074795.876 7 106099688.03407      1852.658 7        43.676
I01        31.000   335236385.876 7  12398775.67507     -2639.211 7        42.144
G02        32.000    24216798.090 6 127260161.88906     -3839.033 6        40.613                                    24216792.923 4  99163755.39604     -2991.452 4        26.192
G19        33.000    22753651.218 7 119571268.50007     -2080.910 7        43.659                                    22753645.406 5  93172436.38105     -1621.488 5        30.355
G17        34.000    23883579.465 7 125509098.70607     -3035.381 7        42.546                                    23883575.722 5  97799305.17505     -2365.233 5        35.586    23883575.539 6  97799305.17706     -2365.228 6        37.040
E11        35.000    26306116.465 6 138239634.48406     -3342.007 6        37.652                                                                    26306113.371 6 103230911.43106     -2495.699 6        41.299    26306113.034 6 105923884.55806     -2560.839 6        41.902
G11        36.000    25417995.402 6 133572469.80906      3207.975 6        37.905                                    25417993.681 3 104082437.14303      2499.700 3        20.262    25417993.361 6 104082437.13406      2499.833 6        37.410
C35        37.000                                                                                                                                    23180050.643 7 120704622.51407     -1417.034 7        47.852                                                                    23180049.476 7  98082392.14707     -1151.465 7        47.547
I09        38.000    37428991.843 7 146879399.93907      -529.459 7        42.720
C29        39.000                                                                                                                                    25039306.054 7 130386224.09107     -3708.919 7        43.520                                                                    25039304.343 7 105949478.67107     -3013.737 7        43.020
R22        40.000    20404489.504 8 108920586.67208      1149.651 8        51.086                                                                    20404487.846 7  84716027.22307       894.208 7        47.472
S44        42.000    40718380.196 6 213976727.67606      -454.954 6        37.021
C09        43.000                                                                                                                                    38501808.872 7 200489046.98407      -283.304 7        42.891    38501805.368 7 155030840.20207      -219.033 7        46.179    38501803.371 7 162913754.70207      -230.240 7        42.550
C05        44.000                                                                                                                                    39174419.273 6 203991508.15306      -400.498 6        39.267    39174412.881 7 157739197.23707      -309.769 7        42.787    39174415.076 6 165759912.58206      -325.621 6        40.091
R06        45.000    19474947.182 7 103922107.06707      -737.652 7        42.045
C44        46.000                                                                                                                                    24553504.632 7 127856579.15207      1203.646 7        44.004                                                                    24553503.631 7 103893947.66207       977.937 7        43.854
C39        47.000                                                                                                                                    39443533.914 6 205392843.60606     -1243.181 6        41.535                                                                    39443530.152 7 166898498.92907     -1010.240 7        42.133
C20        48.000                                                                                                                                    22911422.697 8 119305838.21108     -2140.203 8        50.318                                                                    22911417.252 8  96945758.12208     -1739.066 8        49.616
C06        49.000                                                                                                                                    38404803.947 6 199983918.81706      -788.038 6        40.791    38404798.396 7 154640235.40207      -609.337 7        44.092    38404798.337 6 162503294.89806      -640.288 6        41.607
C16        50.000                                                                                                                                    38928046.500 7 202708573.19707      -872.067 7        42.434    38928046.391 7 156747136.48707      -674.337 7        43.056    38928044.005 6 164717319.05206      -708.666 6        39.598
S48        51.000    77222647.215 6 405808892.67606      -370.030 6        37.720
C19        52.000                                                                                                                                    22103996.632 8 115101372.74608       345.978 8        51.130                                                                    22103991.615 8  93529297.37008       281.124 8        49.987
C60        54.000                                                                                                                                    40718382.984 6 212031504.11206      -450.876 6        40.067                                                                    40718367.809 6 172292933.77106      -366.499 6        40.024
R16        55.000    23052659.331 7 123143172.63807      3208.036 7        45.935                                                                    23052660.064 6  95778040.36206      2495.234 6        41.871
C37        56.000                                                                                                                                    24899672.702 7 129659145.22407       541.255 7        44.184                                                                    24899676.341 7 105358694.34707       439.770 7        44.814
C02        57.000                                                                                                                                    40665484.351 5 211755897.78105      -443.898 5        34.057    40665479.323 6 163743085.07506      -343.354 6        39.483    40665482.672 6 172069014.83006      -360.845 6        36.367
I03        58.000   131193051.653 6 439044465.77706       952.637 6        40.224
R07        59.000    21096392.493 8 112930660.02608      2101.074 8        50.017                                                                    21096390.529 7  87834958.89107      1634.163 7        45.956
> 2025 01 01 02 45 25.0000000  0 54
G28         1.000    24945930.683 6 131091743.31206     -3436.942 6        38.318                                    24945928.465 3 102149386.32103     -2678.139 3        20.095    24945928.233 6 102149392.29406     -2677.991 6        37.543
G31         2.000    22780457.567 7 119712129.57607     -2328.121 7        43.547                                    22780452.435 6  93282167.53506     -1814.119 6        39.661    22780453.981 6  93282166.53606     -1814.108 6        40.372
G09         3.000    20841500.386 8 109522865.04108      1623.608 8        48.627                                    20841497.884 8  85342502.67208      1265.148 8        50.715    20841498.397 7  85342503.67007      1265.218 7        44.606
E34         4.000    24946155.599 7 131092943.85407      1501.100 7        44.941                                                                    24946155.401 7  97894089.82207      1120.986 7        47.469    24946155.292 8 100447847.94208      1150.241 8        48.857
S21         5.000    38476154.847 7 202193379.50007      -377.450 7        43.149
E05         6.000    23633821.187 7 124196605.27707      1819.968 7        44.545                                                                    23633821.233 7  92744246.05507      1359.075 7        47.303    23633820.877 8  95163653.44408      1394.552 8        48.772
E04         8.000    25912338.858 6 136170282.89006     -2786.131 6        41.759                                                                    25912337.342 7 101685605.53507     -2080.446 7        45.488    25912336.670 7 104338265.47007     -2134.698 7        46.250
R14         9.000    24041717.812 7 128155866.19807     -2910.629 7        42.880                                                                    24041719.519 6  99676768.57906     -2263.699 6        38.712
G04        10.000    20093287.012 8 105590981.39808      -189.459 8        49.196                                    20093283.549 7  82278696.51207      -147.630 7        43.183    20093283.604 8  82278691.50908      -147.631 8        49.357
E09        11.000    23483405.957 8 123406181.37908      -684.521 8        48.104                                                                    23483405.138 8  92153984.20108      -511.167 8        50.298    23483404.750 8  94558000.35708      -524.443 8        51.396
S27        12.000    39105386.374 5 205500196.40005      -372.565 5        35.671
G06        13.000    22119470.878 7 116238632.99707      1947.328 7        45.177                                    22119469.424 7  90575562.98207      1517.398 7        44.883    22119469.933 7  90575573.98107      1517.440 7        43.056
S36        14.000    38243595.085 7 200971934.12707      -377.447 7        44.462
E21        15.000    28835845.270 5 151533395.24605      -289.775 5        30.143                                                                    28835847.664 5 113158093.90905      -216.109 5        35.276    28835847.665 6 116110039.05806      -221.858 6        36.628
E36        16.000    23640856.614 7 124233566.04407     -1360.980 7        47.835                                                                    23640856.711 8  92771835.54208     -1016.259 8        50.015    23640856.403 8  95191965.16208     -1042.736 8        51.065
S45        17.000    63436736.028 6 333362820.97506      -417.106 6        37.422
G03        18.000    20712170.998 8 108843250.75508     -2115.543 8        48.323                                    20712169.268 8  84812941.91608     -1648.474 8        50.018    20712169.652 7  84812950.91407     -1648.516 7        45.273
R21        19.000    20454185.706 8 109454515.41808     -3404.685 8        51.318                                                                    20454185.118 7  85131298.16407     -2648.157 7        46.539
R20        20.000    24146927.066 3                     -5060.853 3        21.405                                                                    24146924.722 3 100430107.35903     -3935.552 3        23.943
R05        21.000    22813213.923 7 121949742.93107     -3797.220 7        44.596                                                                    22813213.343 6  94849804.75906     -2953.562 6        41.619
I06        22.000    38093651.662 7 149487898.87307      -210.441 7        42.775
S28        23.000    40909330.127 5 214979984.63805      -372.041 5        34.333
S23        25.000    38189166.871 7 200685434.97507      -373.283 7        44.375
E06        26.000    24078964.001 7 126535870.53807     -1869.160 7        46.625                                                                    24078963.409 8  94491071.88208     -1395.802 8        49.060    24078963.349 8  96956054.84108     -1432.134 8        50.739
R15        27.000    22319814.103 7 119270334.03207       255.440 7        47.047                                                                    22319814.311 7  92765829.50807       198.734 7        43.164
G26        28.000    24945266.058 5 131088261.37605      1628.765 5        35.752                                    24945265.790 4 102146697.94204      1269.173 4        27.293    24945265.836 5 102146698.97205      1269.076 5        34.462
C22        30.000                                                                                                                                    25072612.199 7 130559688.41207      2279.079 7        43.609                                                                    25072606.940 7 106090425.87507      1851.931 7        43.738
I01        31.000   335239748.935 7  12411972.73707     -2639.580 7        42.152
G02        32.000    24220451.555 6 127279359.46506     -3839.999 6        40.660                                    24220445.998 4  99178714.53804     -2992.217 4        26.168
G19        33.000    22755632.410 7 119581680.49707     -2083.922 7        44.163                                    22755626.759 5  93180549.62305     -1623.831 5        30.400
G17        34.000    23886468.337 7 125524278.44707     -3036.671 7        42.834                                    23886464.328 5  97811133.53805     -2366.234 5        35.633    23886464.829 6  97811133.55206     -2366.254 6        37.089
E11        35.000    26309297.263 6 138256347.34306     -3343.282 6        37.694                                                                    26309293.585 6 103243391.79306     -2496.457 6        41.118    26309293.504 6 105936690.50706     -2561.599 6        41.928
G11        36.000    25414942.735 6 133556431.52406      3207.172 6        38.501                                    25414941.745 3 104069939.80003      2499.093 3        20.143    25414941.052 6 104069939.81106      2499.208 6        37.595
C35        37.000                                                                                                                                    23181412.598 7 120711714.51007     -1419.965 7        47.779                                                                    23181411.394 7  98088154.97407     -1153.794 7        47.603
I09        38.000    37429666.696 7 146882047.34207      -529.659 7        42.800
C29        39.000                                                                                                                                    25042867.705 7 130404769.86807     -3709.573 7        43.503                                                                    25042865.596 7 105964548.64007     -3014.395 7        43.088
R22        40.000    20403414.612 8 108914849.12008      1145.217 8        51.050                                                                    20403412.905 7  84711564.68307       890.727 7        47.700
S44        42.000    40718813.022 6 213979003.24006      -455.137 6        37.240
C09        43.000                                                                                                                                    38502081.553 7 200490465.88307      -284.391 7        42.808    38502077.857 7 155031937.38407      -219.905 7        46.214    38502075.853 7 162914907.67207      -231.092 7        42.413
C05        44.000                                                                                                                                    39174803.341 6 203993510.67106      -400.720 6        39.060    39174797.333 7 157740745.71107      -309.802 7        42.900    39174799.698 6 165761539.79406      -325.696 6        39.814
R06        45.000    19475639.175 6 103925801.08206      -740.116 6        41.399
C44        46.000                                                                                                                                    24552350.396 7 127850567.45807      1200.829 7        43.841                                                                    24552348.970 7 103889062.66107       975.889 7        43.786
C39        47.000                                                                                                                                    39444728.149 6 205399061.41306     -1244.150 6        41.702                                                                    39444724.263 7 166903551.39107     -1010.839 7        42.074
C20        48.000                                                                                                                                    22913478.399 8 119316541.99108     -2141.504 8        50.226                                                                    22913472.763 8  96954455.81908     -1740.130 8        49.546
C06        49.000                                                                                                                                    38405560.960 6 199987860.81806      -788.898 6        40.732    38405555.474 7 154643283.59807      -609.991 7        44.206    38405555.228 6 162506498.09906      -640.921 6        41.604
C16        50.000                                                                                                                                    38928884.248 7 202712935.44507      -872.927 7        42.645    38928884.063 7 156750509.63807      -674.917 7        43.244    38928881.713 6 164720863.73806      -709.402 6        39.601
S48        51.000    77223003.536 6 405810741.94706      -370.133 6        37.580
C19        52.000                                                                                                                                    22103665.284 8 115099646.83008       344.210 8        51.078                                                                    22103660.176 8  93527894.92608       279.716 8        49.982
C60        54.000                                                                                                                                    40718815.806 6 212033758.98606      -451.076 6        40.164                                                                    40718800.864 6 172294766.02506      -366.590 6        40.131
R16        55.000    23049657.495 7 123127136.78407      3206.121 7        45.238                                                                    23049657.715 6  95765568.03306      2493.746 6        41.871
C37        56.000                                                                                                                                    24899154.287 7 129656445.57807       538.436 7        43.850                                                                    24899157.973 7 105356500.65807       437.563 7        44.795
C02        57.000                                                                                                                                    40665911.481 5 211758118.67205      -444.302 5        34.081    40665905.777 6 163744802.42006      -343.511 6        39.715    40665909.475 6 172070819.48906      -361.030 6        36.265
I03        58.000   131191837.914 6 439039702.60206       952.397 6        40.057
R07        59.000    21094430.406 8 112920159.27008      2099.183 8        49.978                                                                    21094429.351 7  87826791.64407      1632.669 7        45.845
> 2025 01 01 02 45 30.0000000  0 54
G28         1.000    24949201.886 6 131108931.31806     -3438.453 6        38.517                                    24949199.180 3 102162779.52603     -2679.304 3        20.262    24949199.683 6 102162785.50106     -2679.211 6        37.403
G31         2.000    22782673.916 7 119723776.83707     -2331.020 7        44.381                                    22782668.885 6  93291243.32106     -1816.380 6        39.529    22782669.784 6  93291242.32906     -1816.398 6        40.679
G09         3.000    20839956.238 8 109514751.67708      1621.584 8        48.820                                    20839953.957 8  85336180.57108      1263.571 8        50.449    20839954.072 7  85336181.57207      1263.547 7        44.430
E34         4.000    24944728.031 7 131085441.27507      1499.665 7        45.183                                                                    24944727.711 7  97888487.24207      1119.873 7        47.396    24944727.581 8 100442099.20508      1149.077 8        48.740
S21         5.000    38476522.450 7 202195265.56007      -377.219 7        42.591
E05         6.000    23632089.738 7 124187507.54907      1818.772 7        44.933                                                                    23632089.948 7  92737452.30007      1358.196 7        47.237    23632089.648 8  95156682.45808      1393.648 8        48.670
E04         8.000    25914989.741 6 136184213.53306     -2786.483 6        41.697                                                                    25914988.173 7 101696008.29107     -2080.892 7        45.458    25914987.656 7 104348939.60307     -2135.052 7        46.069
R14         9.000    24044449.123 7 128170426.29507     -2913.748 7        43.608                                                                    24044450.738 6  99688093.18306     -2266.306 6        38.748
G04        10.000    20093468.319 8 105591934.07708      -191.867 8        49.086                                    20093464.825 7  82279438.85907      -149.505 7        42.914    20093464.912 8  82279433.85808      -149.524 8        49.213
E09        11.000    23484057.977 8 123409607.23408      -686.039 8        48.290                                                                    23484057.052 8  92156542.47308      -512.335 8        50.253    23484056.650 8  94560625.36808      -525.682 8        51.265
S27        12.000    39105738.027 5 205502057.80205      -372.324 5        35.881
G06        13.000    22117618.521 7 116228900.93507      1945.151 7        45.354                                    22117617.483 7  90567979.55907      1515.702 7        44.617    22117618.239 7  90567990.57507      1515.681 7        43.054
S36        14.000    38243949.054 7 200973820.60507      -377.310 7        44.588
E21        15.000    28836123.025 5 151534848.10205      -292.362 5        30.996                                                                    28836124.556 6 113159178.72106      -218.035 6        36.355    28836124.298 6 116111152.15806      -223.690 6        37.452
E36        16.000    23642152.218 8 124240375.16408     -1362.975 8        48.179                                                                    23642152.467 8  92776920.27608     -1017.802 8        49.922    23642152.192 8  95197182.54108     -1044.348 8        50.907
S45        17.000    63437089.997 6 333364905.47506      -416.859 6        37.456
G03        18.000    20714184.719 8 108853832.06308     -2117.099 8        48.179                                    20714182.840 8  84821187.08708     -1649.686 8        49.720    20714182.978 7  84821196.08507     -1649.634 7        44.822
R21        19.000    20457369.136 8 109471546.83308     -3408.033 8        51.681                                                                    20457367.816 7  85144544.81807     -2650.691 7        46.166
R20        20.000    24151649.381 3                     -5060.558 3        19.642                                                                    24151654.703 3                     -3934.336 3        22.914
R05        21.000    22816766.076 7 121968729.16607     -3797.371 7        45.342                                                                    22816764.827 6  94864571.83606     -2953.539 6        40.775
I06        22.000    38093919.725 7 149488950.74107      -210.402 7        42.940
S28        23.000    40909685.854 5 214981843.98005      -371.936 5        35.029
S23        25.000    38189524.489 7 200687299.92407      -373.068 7        44.594
E06        26.000    24080742.630 7 126545218.54007     -1870.252 7        46.846                                                                    24080742.221 8  94498052.53508     -1396.659 8        48.990    24080742.205 8  96963217.59708     -1433.139 8        50.613
R15        27.000    22319576.395 7 119269066.44307       251.309 7        47.144                                                                    22319576.873 7  92764843.61707       195.479 7        43.431
G26        28.000    24943716.652 5 131080122.24105      1627.061 5        35.810                                    24943716.950 4 102140355.77904      1267.856 4        27.138    24943717.129 5 102140356.75005      1268.000 5        33.725
C22        30.000                                                                                                                                    25070424.049 7 130548292.63207      2278.915 7        43.875                                                                    25070418.433 7 106081165.86707      1851.883 7        43.591
I01        31.000   335243111.746 7  12425170.24107     -2639.611 7        42.163
G02        32.000    24224105.177 6 127298560.32206     -3840.652 6        40.236                                    24224099.751 4  99193676.23404     -2992.709 4        25.609
G19        33.000    22757616.594 7 119592106.80007     -2086.685 7        44.036                                    22757610.800 5  93188674.01205     -1625.988 5        30.113
G17        34.000    23889357.683 7 125539463.90307     -3037.699 7        42.391                                    23889354.145 5  97822966.35305     -2367.038 5        35.576    23889354.722 6  97822966.37806     -2367.114 6        36.983
E11        35.000    26312478.291 6 138273064.57806     -3343.795 6        37.989                                                                    26312474.680 6 103255875.44506     -2497.057 6        40.901    26312474.839 7 105949499.81807     -2562.255 7        42.070
G11        36.000    25411891.771 6 133540396.10206      3206.747 6        39.171                                    25411890.221 3 104057444.71403      2498.755 3        20.048    25411890.405 6 104057444.72806      2498.542 6        37.822
C35        37.000                                                                                                                                    23182776.889 7 120718819.90407     -1422.439 7        47.864                                                                    23182775.870 7  98093928.67707     -1155.687 7        47.498
I09        38.000    37430341.399 7 146884695.31607      -529.633 7        42.976
C29        39.000                                                                                                                                    25046429.821 7 130423318.04207     -3709.941 7        43.490                                                                    25046427.711 7 105979620.53707     -3014.602 7        43.128
R22        40.000    20402343.691 8 108909132.56308      1141.139 8        51.166                                                                    20402341.929 7  84707118.46407       887.611 7        47.380
S44        42.000    40719247.825 6 213981278.71206      -455.011 6        37.263
C09        43.000                                                                                                                                    38502354.865 7 200491888.49707      -285.036 7        43.003    38502351.057 7 155033037.45207      -220.367 7        46.300    38502348.984 7 162916063.66407      -231.452 7        42.411
C05        44.000                                                                                                                                    39175187.793 6 203995513.18406      -400.616 6        39.387    39175182.187 7 157742294.17707      -309.750 7        42.688    39175184.275 6 165763166.98806      -325.353 6        39.970
R06        45.000    19476333.252 6 103929506.74306      -742.252 6        41.600
C44        46.000                                                                                                                                    24551198.405 7 127844567.96707      1198.672 7        43.884                                                                    24551196.919 7 103884187.59507       974.065 7        43.721
C39        47.000                                                                                                                                    39445922.611 6 205405281.77806     -1244.324 6        41.719                                                                    39445918.832 7 166908605.94007     -1011.025 7        42.070
C20        48.000                                                                                                                                    22915534.893 8 119327250.85008     -2142.331 8        50.383                                                                    22915529.355 8  96963157.64308     -1740.729 8        49.495
C06        49.000                                                                                                                                    38406318.664 6 199991806.29306      -789.371 6        40.684    38406313.309 7 154646334.49807      -610.554 7        44.211    38406312.904 6 162509704.13306      -641.439 6        41.335
C16        50.000                                                                                                                                    38929722.955 7 202717300.89307      -873.490 7        42.923    38929722.280 7 156753885.29507      -675.497 7        43.363    38929719.909 6 164724411.01306      -709.635 6        39.508
S48        51.000    77223356.231 6 405812591.15206      -369.875 6        37.985
C19        52.000                                                                                                                                    22103335.180 8 115097928.15408       342.980 8        51.181                                                                    22103330.162 8  93526498.35408       278.845 8        49.875
C60        54.000                                                                                                                                    40719248.878 6 212036013.77006      -451.035 6        40.365                                                                    40719233.927 6 172296598.21606      -366.395 6        40.062
R16        55.000    23046656.924 7 123111109.48607      3204.483 7        45.594                                                                    23046657.642 6  95753102.36406      2492.468 6        41.845
C37        56.000                                                                                                                                    24898638.552 7 129653758.67507       536.133 7        44.024                                                                    24898641.975 7 105354317.33507       435.723 7        44.793
C02        57.000                                                                                                                                    40666338.100 5 211760339.61905      -443.960 5        34.000    40666331.999 6 163746519.77906      -343.310 6        39.589    40666335.763 6 172072624.17806      -360.922 6        36.389
I03        58.000   131190624.091 6 439034939.45806       952.606 6        40.102
R07        59.000    21092470.455 8 112909667.15008      2097.481 8        49.642                                                                    21092468.765 7  87818631.10307      1631.390 7        45.502
> 2025 01 01 02 45 35.0000000  0 54
G28         1.000    24952474.059 6 131126127.71006     -3440.120 6        38.321                                    24952471.518 3 102176179.26703     -2680.606 3        20.048    24952472.238 6 102176185.25306     -2680.531 6        38.033
G31         2.000    22784893.443 7 119735439.39807     -2333.970 7        44.316                                    22784888.227 6  93300331.03106     -1818.681 6        39.592    22784888.859 6  93300330.04206     -1818.721 6        40.327
G09         3.000    20838414.552 8 109506649.05208      1619.406 8        48.641                                    20838412.075 8  85329866.83508      1261.874 8        50.475    20838412.257 7  85329867.83307      1261.914 7        44.650
E34         4.000    24943301.896 7 131077946.63307      1498.159 7        45.159                                                                    24943301.595 7  97882890.59707      1118.789 7        47.476    24943301.409 8 100436356.56708      1147.919 8        48.634
S21         5.000    38476873.101 7 202197151.67907      -377.205 7        43.045
E05         6.000    23630359.601 7 124178415.75607      1817.699 7        44.682                                                                    23630359.897 7  92730662.97407      1357.401 7        47.358    23630359.522 8  95149716.02408      1392.802 8        48.707
E04         8.000    25917641.100 7 136198147.19107     -2787.015 7        42.042                                                                    25917639.664 7 101706413.29607     -2081.276 7        45.403    25917639.087 7 104359616.04707     -2135.545 7        46.010
R14         9.000    24047183.724 7 128185002.44007     -2916.860 7        42.809                                                                    24047184.712 6  99699430.39306     -2268.664 6        38.949
G04        10.000    20093652.119 8 105592899.60508      -194.380 8        48.814                                    20093648.564 7  82280191.22107      -151.466 7        42.938    20093648.636 8  82280186.22208      -151.492 8        49.367
E09        11.000    23484711.426 8 123413041.48808      -687.644 8        48.375                                                                    23484710.576 8  92159107.01108      -513.493 8        50.284    23484710.166 8  94563256.81108      -526.934 8        51.181
S27        12.000    39106093.342 5 205503919.59405      -372.288 5        35.895
G06        13.000    22115768.947 7 116219180.46207      1942.991 7        45.309                                    22115767.752 7  90560405.16907      1514.019 7        44.615    22115768.572 7  90560416.16307      1514.018 7        43.162
S36        14.000    38244311.761 7 200975707.46307      -377.306 7        44.214
E21        15.000    28836401.504 5 151536312.67405      -293.880 5        31.162                                                                    28836403.562 6 113160272.43206      -219.826 6        36.526    28836402.691 6 116112274.38406      -225.337 6        37.611
E36        16.000    23643450.156 8 124247195.11708     -1365.125 8        48.133                                                                    23643450.270 8  92782013.09908     -1019.428 8        50.057    23643450.003 8  95202408.22008     -1045.989 8        50.883
S45        17.000    63437444.208 6 333366989.77206      -416.826 6        37.728
G03        18.000    20716199.827 8 108864422.32708     -2118.890 8        48.085                                    20716198.115 8  84829439.23908     -1651.082 8        49.744    20716198.730 7  84829448.24307     -1651.109 7        45.184
R21        19.000    20460555.193 8 109488595.51908     -3411.505 8        51.502                                                                    20460553.656 7  85157804.89107     -2653.379 7        46.286
R20        20.000    24156378.784 3                     -5062.191 3        19.970                                                                    24156382.558 3                     -3931.707 3        21.024
R05        21.000    22820318.111 7 121987716.35807     -3797.511 7        44.895                                                                    22820316.840 6  94879339.65106     -2953.691 6        40.977
I06        22.000    38094187.890 7 149490002.67107      -210.298 7        42.982
S28        23.000    40910042.287 5 214983703.35205      -371.542 5        34.462
S23        25.000    38189877.032 7 200689164.98007      -373.091 7        44.488
E06        26.000    24082522.603 7 126554572.98007     -1871.527 7        46.875                                                                    24082522.329 8  94505037.99308     -1397.576 8        49.045    24082522.275 8  96970385.28508     -1434.031 8        50.547
R15        27.000    22319343.165 7 119267820.23807       247.166 7        46.912                                                                    22319343.704 7  92763874.36507       192.068 7        43.014
G26        28.000    24942171.052 6 131071992.67206      1624.723 6        36.488                                    24942169.853 4 102134021.05104      1266.009 4        27.090    24942170.474 5 102134022.05705      1266.141 5        34.157
C22        30.000                                                                                                                                    25068236.413 7 130536899.54007      2278.328 7        44.081                                                                    25068230.493 7 106071908.07007      1851.283 7        43.657
I01        31.000   335246475.125 7  12438368.21707     -2639.625 7        42.205
G02        32.000    24227759.702 6 127317764.42206     -3841.129 6        40.141                                    24227754.176 4  99208640.46404     -2993.085 4        25.789
G19        33.000    22759603.309 7 119602547.35407     -2089.567 7        43.426                                    22759597.605 5  93196809.51305     -1628.235 5        30.158
G17        34.000    23892248.237 6 125554655.06106     -3038.772 6        41.738                                    23892245.049 5  97834803.61805     -2367.872 5        35.657    23892245.832 6  97834803.60806     -2367.993 6        37.580
E11        35.000    26315660.527 6 138289786.23006     -3344.779 6        38.628                                                                    26315656.795 6 103268362.40906     -2497.774 6        40.996    26315656.627 6 105962312.51706     -2562.816 6        41.948
G11        36.000    25408841.323 6 133524363.46406      3206.286 6        37.932                                    25408839.264 3 104044951.78003      2498.392 3        20.167    25408838.895 6 104044951.80706      2498.102 6        38.360
C35        37.000                                                                                                                                    23184144.087 8 120725938.66108     -1425.074 8        48.060                                                                    23184142.982 7  98099713.28507     -1158.029 7        47.705
I09        38.000    37431016.151 7 146887343.84007      -529.811 7        43.010
C29        39.000                                                                                                                                    25049992.180 7 130441868.59707     -3710.400 7        43.185                                                                    25049990.311 7 105994694.40207     -3015.044 7        43.329
R22        40.000    20401276.701 8 108903436.98308      1137.027 8        51.282                                                                    20401274.800 7  84702688.58307       884.292 7        47.247
S44        42.000    40719678.120 6 213983554.08806      -454.955 6        37.388
C09        43.000                                                                                                                                    38502628.670 7 200493314.83807      -285.626 7        42.849    38502625.011 7 155034140.37707      -220.821 7        46.504    38502622.917 7 162917222.71507      -232.272 7        42.468
C05        44.000                                                                                                                                    39175572.603 6 203997515.69806      -400.456 6        39.303    39175566.497 7 157743842.66907      -309.722 7        42.957    39175568.978 6 165764794.25406      -325.610 6        40.129
R06        45.000    19477030.845 7 103933223.87907      -744.587 7        42.275
C44        46.000                                                                                                                                    24550048.478 7 127838580.70307      1196.204 7        43.865                                                                    24550047.237 7 103879322.46107       972.007 7        43.934
C39        47.000                                                                                                                                    39447117.600 7 205411504.71307     -1244.979 7        42.017                                                                    39447113.942 7 166913662.60707     -1011.550 7        42.110
C20        48.000                                                                                                                                    22917592.576 8 119337964.80308     -2143.309 8        50.539                                                                    22917586.910 8  96971863.63808     -1741.706 8        49.662
C06        49.000                                                                                                                                    38407077.251 6 199995755.25006      -790.176 6        40.877    38407071.720 7 154649388.07607      -611.003 7        44.342    38407071.286 6 162512913.00006      -642.168 6        41.583
C16        50.000                                                                                                                                    38930562.287 7 202721669.54707      -874.115 7        43.045    38930561.198 7 156757263.41207      -675.870 7        43.467    38930558.996 6 164727960.94606      -710.456 6        39.709
S48        51.000    77223704.360 6 405814440.24206      -369.819 6        37.342
C19        52.000                                                                                                                                    22103006.627 8 115096216.74408       341.546 8        51.251                                                                    22103001.487 8  93525107.72708       277.449 8        50.060
C60        54.000                                                                                                                                    40719682.389 6 212038268.45606      -450.918 6        40.246                                                                    40719666.874 6 172298430.37106      -366.525 6        40.141
R16        55.000    23043658.636 7 123095090.70307      3202.896 7        45.210                                                                    23043658.962 6  95740643.33406      2491.081 6        41.986
C37        56.000                                                                                                                                    24898125.225 7 129651084.52507       533.618 7        44.054                                                                    24898128.394 7 105352144.39707       433.505 7        44.916
C02        57.000                                                                                                                                    40666764.707 5 211762560.54205      -443.925 5        34.457    40666758.971 6 163748237.14006      -343.436 6        39.646    40666762.387 6 172074428.89106      -361.157 6        36.393
I03        58.000   131189410.527 6 439030176.42606       952.426 6        40.179
R07        59.000    21090511.859 8 112899183.24408      2095.966 8        49.718                                                                    21090510.375 7  87810476.97207      1630.192 7        45.654
> 2025 01 01 02 45 40.0000000  0 54
G28         1.000    24955748.145 6 131143332.48406     -3441.834 6        38.435                                    24955745.408 3 102189585.55503     -2681.929 3        20.286    24955745.869 6 102189591.56106     -2681.843 6        37.769
G31         2.000    22787115.299 7 119747117.27707     -2337.064 7        44.611                                    22787110.444 6  93309430.67906     -1821.087 6        39.562    22787110.991 6  93309429.68306     -1821.081 6        40.150
G09         3.000    20836874.507 8 109498557.16508      1617.289 8        49.024                                    20836872.227 8  85323561.47408      1260.225 8        50.525    20836872.652 7  85323562.48207      1260.260 7        44.363
E34         4.000    24941877.219 7 131070459.91707      1496.608 7        45.387                                                                    24941876.940 7  97877299.88307      1117.523 7        47.290    24941876.748 8 100430620.00308      1146.699 8        48.607
S21         5.000    38477232.387 7 202199037.44407      -377.254 7        43.077
E05         6.000    23628630.552 7 124169329.87507      1816.607 7        44.539                                                                    23628630.907 7  92723878.07307      1356.553 7        47.253    23628630.622 8  95142754.12608      1391.927 8        48.679
E04         8.000    25920293.528 7 136212083.83907     -2787.623 7        42.114                                                                    25920291.631 7 101716820.53807     -2081.663 7        45.371    25920291.205 7 104370294.77607     -2135.994 7        46.065
R14         9.000    24049920.879 7 128199594.62907     -2919.917 7        42.891                                                                    24049922.525 6  99710780.03306     -2271.059 6        39.288
G04        10.000    20093838.276 8 105593877.96208      -196.932 8        48.932                                    20093834.726 7  82280953.58207      -153.452 7        42.988    20093834.992 8  82280948.58108      -153.433 8        49.320
E09        11.000    23485366.483 8 123416484.10408      -689.339 8        48.273                                                                    23485365.664 8  92161677.80108      -514.734 8        50.222    23485365.296 8  94565894.66208      -528.173 8        51.292
S27        12.000    39106446.878 5 205505780.79605      -372.260 5        35.538
G06        13.000    22113921.313 7 116209471.57507      1940.608 7        44.901                                    22113920.220 7  90552839.80407      1512.160 7        44.643    22113920.840 7  90552850.80507      1512.188 7        42.749
S36        14.000    38244668.163 7 200977594.59307      -377.362 7        44.172
E21        15.000    28836681.724 5 151537789.11305      -296.382 5        30.966                                                                    28836684.371 5 113161375.10305      -221.583 5        35.514    28836683.693 6 116113405.82406      -227.356 6        36.612
E36        16.000    23644749.914 8 124254025.87208     -1367.232 8        48.128                                                                    23644750.075 8  92787113.98708     -1020.962 8        49.950    23644749.867 8  95207642.17708     -1047.610 8        50.941
S45        17.000    63437797.448 6 333369074.07506      -416.896 6        37.282
G03        18.000    20718217.051 8 108875021.53908     -2120.750 8        48.032                                    20718215.094 8  84837698.36608     -1652.533 8        49.755    20718215.657 7  84837707.37207     -1652.542 7        44.942
R21        19.000    20463744.091 8 109505661.42408     -3414.893 8        51.570                                                                    20463742.933 7  85171078.38107     -2656.051 7        46.241
R20        20.000    24161108.276 3                     -5060.565 3        21.119                                                                    24161110.919 3                     -3937.836 3        19.463
R05        21.000    22823869.564 7 122006704.48107     -3797.715 7        44.653                                                                    22823869.472 6  94894108.18406     -2953.708 6        41.366
I06        22.000    38094455.887 7 149491054.66107      -210.407 7        43.141
S28        23.000    40910390.859 5 214985562.47105      -371.776 5        34.343
S23        25.000    38190231.256 7 200691029.97507      -372.850 7        44.445
E06        26.000    24084304.144 7 126563933.81007     -1872.811 7        46.497                                                                    24084303.670 8  94512028.22608     -1398.527 8        48.958    24084303.608 8  96977557.87308     -1435.040 8        50.555
R15        27.000    22319114.213 7 119266595.29207       242.915 7        46.857                                                                    22319113.782 7  92762921.62207       188.930 7        42.116
G26        28.000    24940625.489 6 131063872.60206      1622.990 6        36.601                                    24940624.671 4 102127693.72604      1264.694 4        27.329    24940624.775 5 102127694.73005      1264.781 5        34.657
C22        30.000                                                                                                                                    25066048.775 7 130525509.09107      2277.832 7        43.941                                                                    25066042.961 7 106062652.37907      1850.903 7        43.471
I01        31.000   335249838.657 7  12451566.62007     -2639.673 7        42.288
G02        32.000    24231414.795 6 127336971.71706     -3841.780 6        40.713                                    24231409.298 4  99223607.18704     -2993.591 4        26.192
G19        33.000    22761592.627 7 119613002.13107     -2092.293 7        42.976                                    22761587.115 5  93204956.09705     -1630.352 5        30.158
G17        34.000    23895140.140 7 125569851.89207     -3039.801 7        42.656                                    23895136.892 5  97846645.28905     -2368.675 5        35.600    23895137.427 6  97846645.29806     -2368.754 6        37.486
E11        35.000    26318843.357 6 138306512.27006     -3345.584 6        38.465                                                                    26318839.564 6 103280852.62606     -2498.400 6        40.975    26318839.442 7 105975128.56707     -2563.524 7        42.049
G11        36.000    25405791.112 6 133508333.67206      3205.543 6        37.614                                    25405789.036 3 104032461.06303      2497.831 3        20.762    25405788.888 6 104032461.04806      2498.078 6        37.720
C35        37.000                                                                                                                                    23185513.973 8 120733070.77808     -1427.751 8        48.307                                                                    23185512.642 7  98105508.69307     -1160.198 7        47.481
I09        38.000    37431691.096 7 146889992.87307      -529.790 7        42.969
C29        39.000                                                                                                                                    25053555.041 7 130460421.50107     -3710.853 7        43.299                                                                    25053553.161 7 106009770.13107     -3015.310 7        42.923
R22        40.000    20400214.053 8 108897762.39408      1132.851 8        51.389                                                                    20400211.979 7  84698275.00707       881.081 7        47.345
S44        42.000    40720111.823 6 213985829.35506      -455.196 6        37.251
C09        43.000                                                                                                                                    38502903.218 7 200494744.86207      -286.408 7        42.840    38502899.535 7 155035246.16107      -221.388 7        46.448    38502897.595 7 162918384.70007      -232.727 7        42.265
C05        44.000                                                                                                                                    39175956.653 6 203999518.21506      -400.507 6        39.264    39175951.302 7 157745391.13407      -309.680 7        42.840    39175953.462 6 165766421.43106      -325.454 6        39.733
R06        45.000    19477730.227 7 103936952.47307      -746.838 7        42.210
C44        46.000                                                                                                                                    24548901.253 7 127832605.63107      1193.788 7        44.160                                                                    24548899.750 7 103874467.22607       970.067 7        43.712
C39        47.000                                                                                                                                    39448312.671 7 205417730.17807     -1245.387 7        42.121                                                                    39448309.556 7 166918721.29207     -1011.995 7        42.074
C20        48.000                                                                                                                                    22919651.029 8 119348683.80708     -2144.293 8        50.649                                                                    22919645.346 8  96980573.69308     -1742.487 8        49.351
C06        49.000                                                                                                                                    38407835.984 6 199999707.66306      -790.874 6        40.956    38407830.686 7 154652444.34507      -611.512 7        44.494    38407830.341 6 162516124.65406      -642.585 6        41.318
C16        50.000                                                                                                                                    38931401.729 7 202726041.39007      -874.724 7        42.954    38931400.565 7 156760644.00307      -676.303 7        43.460    38931398.651 6 164731513.40306      -710.739 6        39.673
S48        51.000    77224053.581 6 405816289.26106      -369.727 6        37.459
C19        52.000                                                                                                                                    22102679.306 8 115094512.55808       340.120 8        51.296                                                                    22102674.166 8  93523722.92108       276.336 8        49.777
C60        54.000                                                                                                                                    40720115.112 6 212040523.03206      -451.020 6        40.057                                                                    40720100.031 6 172300262.36106      -366.426 6        39.940
R16        55.000    23040661.181 7 123079080.55907      3201.180 7        45.479                                                                    23040662.658 7  95728191.00407      2489.819 7        42.059
C37        56.000                                                                                                                                    24897614.162 7 129648423.11207       531.029 7        44.269                                                                    24897617.242 7 105349981.76607       431.466 7        44.652
C02        57.000                                                                                                                                    40667191.510 5 211764781.39305      -444.134 5        34.457    40667185.444 6 163749954.46406      -343.587 6        39.655    40667188.748 6 172076233.50006      -360.945 6        36.457
I03        58.000   131188196.439 6 439025413.39606       952.719 6        40.098
R07        59.000    21088554.442 8 112888707.72908      2094.230 8        49.633                                                                    21088553.447 7  87802329.36107      1628.863 7        46.110
> 2025 01 01 02 45 45.0000000  0 53
G28         1.000    24959023.754 6 131160545.51506     -3443.321 6        38.465                                    24959020.840 3 102202998.30803     -2683.104 3        20.024    24959021.467 6 102203004.29806     -2683.217 6        38.556
G31         2.000    22789340.706 7 119758810.44307     -2340.084 7        44.004                                    22789335.551 6  93318542.23806     -1823.440 6        39.399    22789335.962 6  93318541.24006     -1823.423 6        40.122
G09         3.000    20835336.728 8 109490475.99008      1615.180 8        49.201                                    20835334.427 8  85317264.45408      1258.582 8        50.405    20835334.618 7  85317265.46007      1258.510 7        44.573
E34         4.000    24940453.841 7 131062981.11907      1494.985 7        45.318                                                                    24940453.719 7  97871715.05807      1116.402 7        47.433    24940453.601 8 100424889.49108      1145.479 8        48.762
S21         5.000    38477592.639 7 202200923.10607      -377.097 7        43.018
E05         6.000    23626902.867 7 124160249.90407      1815.438 7        44.694                                                                    23626903.122 7  92717097.57307      1355.771 7        47.481    23626902.653 8  95135796.73908      1391.032 8        48.741
E04         8.000    25922945.972 7 136226023.43707     -2788.236 7        42.241                                                                    25922944.168 7 101727229.98107     -2082.075 7        45.375    25922943.808 7 104380975.76807     -2136.377 7        46.104
R14         9.000    24052660.363 7 128214202.26207     -2923.041 7        42.222                                                                    24052663.144 6  99722141.54606     -2273.432 6        40.050
G04        10.000    20094026.717 8 105594869.13108      -199.477 8        48.990                                    20094023.348 7  82281725.91807      -155.438 7        42.861    20094023.492 8  82281720.91808      -155.452 8        49.215
E09        11.000    23486023.173 8 123419935.06608      -690.995 8        48.311                                                                    23486022.369 8  92164254.81608      -516.010 8        50.284    23486021.965 8  94568538.90208      -529.475 8        51.328
S27        12.000    39106800.699 6 205507642.20606      -372.178 6        36.098
G06        13.000    22112075.756 7 116199774.23807      1938.387 7        44.734                                    22112074.885 7  90545283.44107      1510.429 7        44.537    22112075.652 7  90545294.44507      1510.367 7        42.919
S36        14.000    38245028.030 7 200979481.25507      -377.296 7        44.361
E21        15.000    28836965.146 5 151539277.02205      -299.036 5        31.494                                                                    28836967.259 6 113162486.29606      -223.087 6        36.824    28836966.404 6 116114545.99006      -229.035 6        37.096
E36        16.000    23646051.659 8 124260867.41108     -1369.310 8        48.254                                                                    23646052.011 8  92792222.93108     -1022.572 8        50.014    23646051.736 8  95212884.39608     -1049.227 8        50.987
S45        17.000    63438149.919 6 333371158.19906      -417.048 6        37.762
G03        18.000    20720235.387 7 108885629.63907     -2122.453 7        47.996                                    20720233.755 8  84845964.41608     -1653.859 8        49.577    20720234.411 7  84845973.41807     -1653.915 7        45.240
R21        19.000    20466936.333 8 109522744.55108     -3418.326 8        51.449                                                                    20466935.690 7  85184365.24307     -2658.617 7        46.359
R05        21.000    22827422.084 7 122025693.75407     -3797.994 7        44.916                                                                    22827421.673 7  94908877.64007     -2954.010 7        42.023
I06        22.000    38094723.873 7 149492106.69107      -210.399 7        42.895
S28        23.000    40910744.748 5 214987421.31305      -371.672 5        34.743
S23        25.000    38190587.264 7 200692894.68407      -372.796 7        44.506
E06        26.000    24086086.558 7 126573301.02207     -1874.015 7        46.738                                                                    24086086.156 8  94519023.21308     -1399.458 8        49.012    24086086.089 8  96984735.34108     -1435.958 8        50.636
R15        27.000    22318888.865 7 119265391.44207       238.679 7        46.308                                                                    22318888.660 7  92761985.28507       185.567 7        42.006
G26        28.000    24939081.841 6 131055762.10906      1620.887 6        36.616                                    24939081.330 4 102121373.85304      1263.030 4        27.317    24939082.067 5 102121374.83505      1263.260 5        35.057
C22        30.000                                                                                                                                    25063861.820 7 130514121.29707      2277.307 7        43.790                                                                    25063856.020 7 106053398.87607      1850.414 7        43.429
I01        31.000   335253201.874 7  12464765.48007     -2639.823 7        42.138
G02        32.000    24235070.960 6 127356182.16306     -3842.376 6        41.588                                    24235064.841 4  99238576.35904     -2994.055 4        26.539
G19        33.000    22763584.680 7 119623471.10207     -2095.129 7        43.500                                    22763579.249 5  93213113.73605     -1632.571 5        30.113
G17        34.000    23898033.727 6 125585054.48406     -3041.168 6        41.974                                    23898029.840 5  97858491.45605     -2369.745 5        35.424    23898029.945 6  97858491.47106     -2369.779 6        37.599
E11        35.000    26322026.613 6 138323242.64606     -3346.626 6        38.147                                                                    26322023.249 6 103293346.08706     -2499.089 6        40.953    26322023.186 7 105987947.94707     -2564.262 7        42.341
G11        36.000    25402740.878 6 133492306.71706      3205.069 6        36.983                                    25402739.206 3 104019972.54603      2497.454 3        20.095    25402738.881 6 104019972.54906      2497.337 6        37.943
C35        37.000                                                                                                                                    23186886.044 8 120740216.21608     -1430.323 8        48.461                                                                    23186884.900 7  98111314.96207     -1162.323 7        47.456
I09        38.000    37432366.448 7 146892642.43007      -529.979 7        42.863
C29        39.000                                                                                                                                    25057117.969 7 130478976.71207     -3711.210 7        43.403                                                                    25057116.142 7 106024847.77507     -3015.780 7        42.656
R22        40.000    20399154.620 8 108892108.76308      1128.623 8        51.718                                                                    20399152.993 7  84693877.74407       877.841 7        47.764
S44        42.000    40720545.660 6 213988104.45006      -454.978 6        36.900
C09        43.000                                                                                                                                    38503178.136 7 200496178.54607      -286.945 7        42.868    38503174.898 7 155036354.78707      -221.958 7        46.582    38503172.954 7 162919549.71007      -233.356 7        42.337
C05        44.000                                                                                                                                    39176341.798 6 204001520.68706      -400.435 6        39.456    39176335.580 7 157746939.58307      -309.730 7        42.751    39176337.878 6 165768048.61006      -325.418 6        39.871
R06        45.000    19478430.355 7 103940692.45407      -749.084 7        42.131
C44        46.000                                                                                                                                    24547756.375 7 127826642.75007      1191.350 7        43.920                                                                    24547754.687 7 103869621.91507       967.973 7        43.568
C39        47.000                                                                                                                                    39449508.674 7 205423958.14507     -1245.810 7        42.303                                                                    39449505.554 7 166923782.04807     -1012.349 7        42.125
C20        48.000                                                                                                                                    22921710.344 8 119359407.86908     -2145.335 8        50.846                                                                    22921704.860 8  96989287.88208     -1743.328 8        49.457
C06        49.000                                                                                                                                    38408595.960 6 200003663.48006      -791.572 6        40.820    38408590.437 7 154655503.22507      -611.941 7        44.311    38408589.979 6 162519339.09706      -643.304 6        41.240
C16        50.000                                                                                                                                    38932241.834 7 202730416.39007      -875.227 7        43.160    38932240.859 7 156764027.03007      -676.841 7        43.390    38932238.770 6 164735068.45806      -711.152 6        39.553
S48        51.000    77224408.735 6 405818138.11506      -369.754 6        37.928
C19        52.000                                                                                                                                    22102353.320 8 115092815.58508       338.709 8        51.393                                                                    22102348.309 8  93522343.99808       275.183 8        49.859
C60        54.000                                                                                                                                    40720547.916 6 212042777.44606      -450.834 6        40.369                                                                    40720532.795 6 172302094.28806      -366.524 6        40.069
R16        55.000    23037665.776 7 123063078.90907      3199.516 7        45.863                                                                    23037666.681 7  95715745.28407      2488.568 7        42.070
C37        56.000                                                                                                                                    24897105.794 7 129645774.40607       528.474 7        44.807                                                                    24897108.691 7 105347829.50507       429.380 7        44.825
C02        57.000                                                                                                                                    40667617.669 5 211767002.21505      -444.097 5        34.067    40667611.884 6 163751671.73206      -343.629 6        39.745    40667615.233 6 172078038.10906      -361.018 6        36.291
I03        58.000   131186982.713 6 439020650.47006       952.501 6        40.110
R07        59.000    21086599.157 8 112878240.71208      2092.547 8        50.115                                                                    21086598.530 7  87794188.33907      1627.598 7        46.134
> 2025 01 01 02 45 50.0000000  0 53
G28         1.000    24962299.856 6 131177766.61206     -3444.976 6        38.354                                    24962298.047 3 102216417.29503     -2684.376 3        20.262    24962298.331 6 102216423.29006     -2684.317 6        38.117
G31         2.000    22791568.449 7 119770518.67807     -2343.292 7        43.223                                    22791563.572 6  93327665.54106     -1825.941 6        39.450    22791563.984 6  93327664.54006     -1825.887 6        40.079
G09         3.000    20833800.835 8 109482405.34308      1612.998 8        48.592                                    20833798.639 8  85310975.63608      1256.884 8        50.446    20833798.797 7  85310976.65207      1256.865 7        44.534
E34         4.000    24939032.177 7 131055510.06007      1493.319 7        45.345                                                                    24939032.020 7  97866136.02207      1115.214 7        47.339    24939031.899 8 100419164.91108      1144.285 8        48.809
S21         5.000    38477949.957 7 202202808.16707      -376.973 7        43.350
E05         6.000    23625175.959 7 124151175.65607      1814.181 7        44.772                                                                    23625176.332 7  92710321.34907      1354.713 7        47.309    23625175.835 8  95128843.74308      1390.085 8        48.785
E04         8.000    25925599.194 7 136239965.81807     -2788.888 7        42.146                                                                    25925597.377 7 101737641.49207     -2082.504 7        45.210    25925597.048 7 104391658.89307     -2136.777 7        46.147
R14         9.000    24055403.840 6 128228825.64806     -2926.252 6        41.733                                                                    24055406.609 6  99733515.37206     -2275.892 6        41.142
G04        10.000    20094217.937 8 105595872.92908      -202.089 8        49.326                                    20094214.389 7  82282508.09907      -157.472 7        42.919    20094214.314 8  82282503.09908      -157.446 8        49.246
E09        11.000    23486681.487 8 123423394.19108      -692.752 8        48.437                                                                    23486680.628 8  92166837.92508      -517.255 8        50.174    23486680.204 8  94571189.39708      -530.751 8        51.337
S27        12.000    39107151.682 5 205509503.32105      -372.257 5        35.590
G06        13.000    22110233.048 7 116190088.32307      1935.923 7        44.980                                    22110231.722 7  90537735.97507      1508.512 7        44.608    22110232.771 7  90537746.97707      1508.531 7        43.482
S36        14.000    38245385.527 7 200981367.06807      -377.003 7        44.418
E21        15.000    28837250.595 5 151540776.38305      -300.999 5        31.826                                                                    28837252.490 6 113163606.04706      -224.587 6        36.881    28837251.624 6 116115694.92406      -230.431 6        37.826
E36        16.000    23647355.718 8 124267719.56508     -1371.600 8        48.237                                                                    23647355.937 8  92797339.79608     -1024.236 8        49.915    23647355.653 8  95218134.74908     -1050.976 8        51.058
S45        17.000    63438507.976 6 333373241.88706      -416.626 6        38.084
G03        18.000    20722255.775 8 108896246.47308     -2124.368 8        48.020                                    20722254.056 8  84854237.27108     -1655.349 8        49.595    20722254.717 7  84854246.27907     -1655.321 7        45.041
R21        19.000    20470132.047 8 109539844.68508     -3421.777 8        51.794                                                                    20470130.679 7  85197665.35307     -2661.349 7        46.060
R05        21.000    22830974.594 7 122044683.91207     -3798.212 7        45.199                                                                    22830974.735 7  94923647.75407     -2954.123 7        42.675
I06        22.000    38094992.218 7 149493158.63007      -210.328 7        42.827
S28        23.000    40911097.165 5 214989280.22805      -371.853 5        34.514
S23        25.000    38190941.059 7 200694759.23607      -372.892 7        44.731
E06        26.000    24087870.301 7 126582674.42107     -1875.338 7        46.849                                                                    24087869.892 8  94526022.82508     -1400.399 8        48.943    24087869.773 8  96991917.55408     -1436.926 8        50.683
R15        27.000    22318668.067 7 119264208.64407       234.434 7        46.942                                                                    22318667.960 7  92761065.32407       182.385 7        42.864
G26        28.000    24937540.304 6 131047660.89506      1619.391 6        36.612                                    24937539.734 4 102115061.21904      1261.870 4        27.820    24937539.748 5 102115062.23805      1261.771 5        34.109
C22        30.000                                                                                                                                    25061675.898 7 130502735.94607      2276.652 7        44.181                                                                    25061669.615 7 106044147.34407      1850.005 7        43.407
I01        31.000   335256565.108 6  12477964.62806     -2639.795 6        41.933
G02        32.000    24238727.063 7 127375395.61707     -3842.980 7        42.057                                    24238721.152 4  99253547.88104     -2994.525 4        27.090
G19        33.000    22765579.635 7 119633954.05907     -2098.042 7        42.698                                    22765574.009 5  93221282.27705     -1634.844 5        30.166
G17        34.000    23900927.538 6 125600262.60106     -3042.178 6        41.623                                    23900923.874 5  97870341.93105     -2370.523 5        35.381    23900923.931 6  97870341.93106     -2370.529 6        37.153
E11        35.000    26325211.292 6 138339977.15806     -3347.419 6        38.282                                                                    26325207.917 6 103305842.63606     -2499.793 6        40.982    26325207.758 7 106000770.49207     -2564.887 7        42.411
G11        36.000    25399691.486 6 133476282.46106      3204.500 6        37.297                                    25399689.510 3 104007486.14503      2497.013 3        20.286    25399688.965 6 104007486.12206      2497.156 6        36.911
C35        37.000                                                                                                                                    23188260.975 8 120747374.81008     -1433.174 8        48.343                                                                    23188259.595 7  98117131.89907     -1164.531 7        47.474
I09        38.000    37433041.871 7 146895292.37807      -530.131 7        42.736
C29        39.000                                                                                                                                    25060682.002 7 130497534.05807     -3711.721 7        43.450                                                                    25060679.782 7 106039927.12807     -3016.029 7        42.525
R22        40.000    20398099.405 8 108886475.92708      1124.423 8        51.632                                                                    20398097.504 7  84689496.64907       874.577 7        47.718
S44        42.000    40720978.991 6 213990379.24406      -454.894 6        37.221
C09        43.000                                                                                                                                    38503454.222 7 200497615.72507      -287.899 7        42.633    38503450.702 7 155037466.08807      -222.512 7        46.630    38503448.937 7 162920717.52207      -233.906 7        42.330
C05        44.000                                                                                                                                    39176726.688 6 204003522.96106      -400.345 6        39.228    39176720.376 7 157748487.86707      -309.758 7        43.043    39176722.370 6 165769675.61406      -325.299 6        39.901
R06        45.000    19479132.759 6 103944443.66206      -751.437 6        41.940
C44        46.000                                                                                                                                    24546613.143 7 127820691.87507      1188.935 7        43.894                                                                    24546611.840 7 103864786.34307       966.041 7        43.752
C39        47.000                                                                                                                                    39450705.646 7 205430188.47507     -1246.547 7        42.235                                                                    39450702.028 7 166928844.69007     -1012.746 7        42.254
C20        48.000                                                                                                                                    22923770.954 8 119370136.78108     -2146.380 8        50.662                                                                    22923765.186 8  96998005.99508     -1744.118 8        49.466
C06        49.000                                                                                                                                    38409356.136 6 200007622.56906      -792.168 6        40.560    38409350.586 7 154658564.64107      -612.441 7        44.373    38409350.395 6 162522556.17706      -643.790 6        41.304
C16        50.000                                                                                                                                    38933082.348 7 202734794.38807      -876.004 7        42.933    38933081.413 7 156767412.37807      -677.350 7        43.479    38933079.536 6 164738625.94506      -711.788 6        39.363
S48        51.000    77224761.546 6 405819986.70206      -369.877 6        37.868
C19        52.000                                                                                                                                    22102028.798 8 115091125.63708       337.221 8        51.323                                                                    22102023.738 8  93520970.77908       274.024 8        49.854
C60        54.000                                                                                                                                    40720980.707 6 212045031.56206      -450.800 6        40.119                                                                    40720965.666 6 172303925.93206      -366.304 6        39.979
R16        55.000    23034671.696 7 123047085.69907      3197.734 7        45.299                                                                    23034672.422 6  95703306.13106      2487.054 6        41.826
C37        56.000                                                                                                                                    24896599.391 7 129643138.25407       525.894 7        44.298                                                                    24896602.388 7 105345687.40907       427.386 7        44.859
C02        57.000                                                                                                                                    40668043.613 5 211769222.78305      -444.211 5        34.429    40668038.468 6 163753388.81406      -343.410 6        39.748    40668041.719 6 172079842.48206      -360.862 6        36.284
I03        58.000   131185768.934 6 439015887.39606       952.506 6        39.907
R07        59.000    21084646.177 8 112867781.94808      2090.864 8        50.079                                                                    21084644.246 7  87786053.75007      1626.265 7        46.007
> 2025 01 01 02 45 55.0000000  0 53
G28         1.000    24965578.382 6 131194996.02706     -3446.590 6        38.351                                    24965576.654 3 102229842.77003     -2685.645 3        20.095    24965576.513 6 102229848.74606     -2685.521 6        37.437
G31         2.000    22793799.507 7 119782242.22607     -2346.128 7        44.134                                    22793794.487 6  93336800.77006     -1828.152 6        39.411    22793795.295 6  93336799.77006     -1827.971 6        40.298
G09         3.000    20832267.112 8 109474345.48408      1611.085 8        48.798                                    20832264.904 8  85304695.23008      1255.388 8        50.318    20832265.484 7  85304696.22907      1255.423 7        44.719
E34         4.000    24937611.811 7 131048046.97107      1491.945 7        44.965                                                                    24937611.843 7  97860562.93507      1114.086 7        47.384    24937611.741 8 100413446.43408      1143.236 8        48.842
S21         5.000    38478314.104 7 202204692.86607      -376.619 7        43.005
E05         6.000    23623450.132 7 124142107.33107      1813.224 7        44.477                                                                    23623450.631 7  92703549.55007      1354.093 7        47.274    23623450.199 8  95121895.29008      1389.390 8        48.845
E04         8.000    25928252.862 7 136253911.16307     -2789.183 7        42.190                                                                    25928251.121 7 101748055.23107     -2082.857 7        45.290    25928250.807 7 104402344.29607     -2137.264 7        46.221
R14         9.000    24058149.716 6 128243464.73906     -2929.291 6        41.292                                                                    24058151.761 6  99744901.35006     -2278.343 6        39.541
G04        10.000    20094411.409 8 105596889.56308      -204.449 8        49.468                                    20094407.854 7  82283300.28107      -159.309 7        42.749    20094408.088 8  82283295.27708      -159.272 8        49.349
E09        11.000    23487341.273 8 123426861.68208      -694.103 8        48.022                                                                    23487340.463 8  92169427.28908      -518.351 8        50.221    23487340.064 8  94573846.31108      -531.900 8        51.434
S27        12.000    39107510.762 6 205511364.32406      -372.171 6        36.439
G06        13.000    22108392.220 7 116180414.01507      1933.900 7        45.023                                    22108390.769 7  90530197.55407      1506.933 7        44.497    22108391.771 7  90530208.55407      1507.021 7        43.611
S36        14.000    38245743.821 7 200983251.93807      -376.718 7        44.468
E21        15.000    28837537.900 5 151542286.93505      -303.317 5        31.894                                                                    28837539.839 6 113164733.90806      -226.250 6        36.087    28837539.287 6 116116852.23906      -232.140 6        37.531
E36        16.000    23648661.739 7 124274582.53407     -1373.545 7        47.855                                                                    23648661.909 8  92802464.74108     -1025.668 8        49.913    23648661.655 8  95223393.38708     -1052.494 8        51.118
S45        17.000    63438859.074 6 333373625.46816      -416.613 6        38.003
G03        18.000    20724278.053 8 108906872.25708     -2125.902 8        48.184                                    20724276.061 8  84862517.10108     -1656.546 8        49.458    20724276.345 7  84862526.10107     -1656.535 7        44.986
R21        19.000    20473331.211 8 109556962.00708     -3425.021 8        51.725                                                                    20473329.486 7  85210978.82007     -2663.901 7        45.866
R05        21.000    22834527.406 7 122063674.93107     -3798.165 7        45.090                                                                    22834527.306 7  94938418.55107     -2954.186 7        42.976
I06        22.000    38095260.087 7 149494210.62907      -210.258 7        42.817
S28        23.000    40911450.267 5 214991138.99605      -371.482 5        34.500
S23        25.000    38191296.714 7 200696623.81907      -372.806 7        44.748
E06        26.000    24089655.334 7 126592054.21807     -1876.417 7        46.705                                                                    24089654.832 8  94533027.22208     -1401.212 8        48.935    24089654.668 8  96999104.67208     -1437.764 8        50.674
R15        27.000    22318450.900 7 119263047.19007       230.323 7        46.924                                                                    22318450.322 7  92760161.96807       179.122 7        42.186
G26        28.000    24936000.782 6 131039569.33106      1617.384 6        36.703                                    24935999.926 4 102108756.10104      1260.303 4        27.341    24936000.025 5 102108757.07305      1260.807 5        34.310
C22        30.000                                                                                                                                    25059489.561 7 130491353.28607      2276.484 7        43.881                                                                    25059483.867 7 106034897.99407      1849.655 7        43.249
I01        31.000   335259928.843 6  12491164.22506     -2639.813 6        41.957
G02        32.000    24242383.401 7 127394612.28007     -3843.429 7        42.188                                    24242377.992 4  99268521.90004     -2994.880 4        27.257
G19        33.000    22767576.681 7 119644451.25107     -2100.728 7        42.942                                    22767571.505 4  93229461.90404     -1636.929 4        29.981
G17        34.000    23903822.801 6 125615476.40806     -3042.929 6        41.836                                    23903818.972 5  97882196.83905     -2371.115 5        35.114    23903818.577 6  97882196.85606     -2371.442 6        37.202
E11        35.000    26328396.310 6 138356716.08506     -3348.168 6        37.686                                                                    26328393.230 6 103318342.46906     -2500.227 6        41.242    26328392.849 7 106013596.40907     -2565.345 7        42.269
G11        36.000    25396642.978 6 133460261.03306      3204.094 6        38.093                                    25396640.548 3 103995001.91303      2496.689 3        19.403    25396640.105 6 103995001.93506      2496.584 6        37.679
C35        37.000                                                                                                                                    23189638.108 8 120754546.74308     -1435.553 8        48.009                                                                    23189636.891 7  98122959.67607     -1166.549 7        47.279
I09        38.000    37433717.159 7 146897942.84207      -530.110 7        42.637
C29        39.000                                                                                                                                    25064246.556 7 130516093.73107     -3712.010 7        43.077                                                                    25064244.225 7 106055008.37607     -3016.336 7        42.442
R22        40.000    20397047.975 8 108880864.12008      1120.441 8        51.642                                                                    20397046.288 8  84685131.92108       871.488 8        48.179
S44        42.000    40721409.564 6 213992653.93406      -454.799 6        37.508
C09        43.000                                                                                                                                    38503731.161 7 200499056.60807      -288.467 7        42.643    38503727.335 7 155038580.27507      -222.933 7        46.653    38503725.642 7 162921888.35507      -234.464 7        42.256
C05        44.000                                                                                                                                    39177110.868 6 204005525.23306      -400.301 6        39.120    39177105.146 7 157750036.14607      -309.527 7        43.162    39177106.975 6 165771302.63406      -325.296 6        39.709
R06        45.000    19479838.432 6 103948206.40406      -753.565 6        41.957
C44        46.000                                                                                                                                    24545472.479 7 127814753.23907      1186.616 7        43.503                                                                    24545471.347 7 103859960.70807       964.123 7        43.623
C39        47.000                                                                                                                                    39451902.322 6 205436421.33606     -1246.703 6        41.907                                                                    39451898.869 7 166933909.39707     -1013.089 7        42.036
C20        48.000                                                                                                                                    22925832.221 8 119380870.76208     -2147.109 8        50.457                                                                    22925826.524 8  97006728.22308     -1744.754 8        49.204
C06        49.000                                                                                                                                    38410116.933 6 200011585.09206      -792.713 6        40.644    38410111.338 7 154661628.73407      -613.040 7        44.296    38410111.217 6 162525776.04906      -644.272 6        41.135
C16        50.000                                                                                                                                    38933923.774 7 202739175.57207      -876.414 7        42.897    38933922.930 7 156770800.18707      -677.664 7        43.462    38933920.876 6 164742186.02306      -712.180 6        39.459
S48        51.000    77225115.734 6 405821835.08606      -369.320 6        38.162
C19        52.000                                                                                                                                    22101705.837 8 115089442.93608       336.000 8        51.255                                                                    22101700.622 8  93519603.44508       272.930 8        49.644
C60        54.000                                                                                                                                    40721413.264 6 212047285.55806      -450.555 6        39.805                                                                    40721398.514 6 172305757.49606      -366.311 6        39.829
R16        55.000    23031679.551 7 123031101.22307      3196.203 7        45.902                                                                    23031680.303 6  95690873.74106      2485.993 6        41.645
C37        56.000                                                                                                                                    24896095.130 7 129640514.86007       523.552 7        43.778                                                                    24896098.622 7 105343555.68807       425.348 7        44.689
C02        57.000                                                                                                                                    40668470.483 5 211771443.29805      -443.753 5        34.390    40668464.511 6 163755105.86106      -343.165 6        39.799    40668468.164 6 172081646.85506      -360.881 6        36.136
I03        58.000   131184555.379 6 439011124.37306       952.861 6        40.174
R07        59.000    21082693.934 8 112857331.64608      2089.390 8        50.196                                                                    21082691.999 7  87777925.74207      1625.130 7        45.621
> 2025 01 01 02 46  0.0000000  0 53
G28         1.000    24968859.065 6 131212233.61606     -3448.203 6        38.276                                    24968856.889 3 102243274.60603     -2686.898 3        19.761    24968857.504 6 102243280.59406     -2686.860 6        37.319
G31         2.000    22796033.508 7 119793980.92007     -2349.087 7        44.074                                    22796028.300 6  93345947.80606     -1830.462 6        39.336    22796029.244 6  93345946.80806     -1830.339 6        40.434
G09         3.000    20830735.429 8 109466296.24908      1608.937 8        48.705                                    20830733.186 8  85298423.10108      1253.715 8        50.400    20830733.466 7  85298424.10507      1253.636 7        44.468
E34         4.000    24936193.529 7 131040591.72007      1490.349 7        44.871                                                                    24936193.197 7  97854995.70007      1112.965 7        47.427    24936193.001 8 100407733.97408      1141.963 8        48.902
S21         5.000    38478663.503 7 202206577.28507      -376.588 7        43.577
E05         6.000    23621725.957 7 124133044.83107      1812.078 7        44.761                                                                    23621726.011 7  92696782.10207      1353.170 7        47.439    23621725.661 8  95114951.29908      1388.494 8        48.841
E04         8.000    25930907.044 7 136267859.36807     -2789.734 7        42.068                                                                    25930905.515 7 101758471.10307     -2083.223 7        45.347    25930905.149 7 104413031.87607     -2137.610 7        46.281
R14         9.000    24060900.045 7 128258119.58607     -2932.535 7        42.275                                                                    24060901.331 6  99756299.55906     -2280.766 6        39.856
G04        10.000    20094607.100 8 105597918.90208      -206.961 8        49.403                                    20094603.725 7  82284102.36707      -161.271 7        42.834    20094603.664 8  82284097.36808      -161.279 8        49.048
E09        11.000    23488002.795 8 123430337.42408      -695.792 8        48.166                                                                    23488001.840 8  92172022.81108      -519.594 8        50.309    23488001.503 8  94576509.53708      -533.142 8        51.455
S27        12.000    39107862.289 5 205513225.08905      -371.946 5        35.733
G06        13.000    22106553.330 7 116170751.21707      1931.576 7        45.579                                    22106551.997 7  90522668.10807      1505.125 7        44.618    22106552.581 7  90522679.11907      1505.005 7        43.640
S36        14.000    38246106.027 7 200985136.69107      -376.834 7        44.640
E21        15.000    28837827.843 5 151543809.26705      -305.772 5        32.090                                                                    28837829.473 6 113165870.82306      -227.950 6        36.794    28837828.951 6 116118018.78006      -233.841 6        38.087
E36        16.000    23649969.887 8 124281456.19508     -1375.613 8        48.070                                                                    23649969.930 8  92807597.67108     -1027.290 8        50.038    23649969.672 8  95228660.21708     -1054.059 8        51.099
S45        17.000    63439213.665 6 333375708.82106      -416.385 6        38.198
G03        18.000    20726301.777 8 108917506.83908     -2127.627 8        48.249                                    20726299.730 8  84870803.78308     -1657.893 8        49.533    20726300.342 7  84870812.79207     -1657.878 7        44.655
R21        19.000    20476532.562 8 109574096.40308     -3428.424 8        51.710                                                                    20476531.377 7  85224305.57007     -2666.589 7        46.155
R05        21.000    22838080.000 7 122082666.91707     -3798.339 7        44.182                                                                    22838079.835 7  94953190.08807     -2954.207 7        42.785
I06        22.000    38095527.821 7 149495262.59807      -210.347 7        42.991
S28        23.000    40911807.478 5 214992997.50605      -371.530 5        34.819
S23        25.000    38191648.402 7 200698488.20107      -372.752 7        44.573
E06        26.000    24091441.401 7 126601440.29607     -1877.759 7        46.538                                                                    24091440.890 8  94540036.30008     -1402.137 8        48.998    24091440.804 8  97006296.59208     -1438.702 8        50.747
R15        27.000    22318236.895 7 119261906.92907       226.100 7        46.532                                                                    22318236.606 6  92759275.10706       175.869 6        41.962
G26        28.000    24934463.118 6 131031487.22106      1615.475 6        36.314                                    24934461.930 4 102102458.36304      1258.784 4        27.210    24934462.559 5 102102459.32505      1259.053 5        34.390
C22        30.000                                                                                                                                    25057304.131 7 130479973.16707      2275.993 7        43.736                                                                    25057298.420 7 106025650.69407      1849.371 7        43.327
I01        31.000   335263292.557 7  12504364.19707     -2639.914 7        42.089
G02        32.000    24246040.511 6 127413832.00006     -3844.125 6        41.538                                    24246035.359 4  99283498.30804     -2995.427 4        27.102
G19        33.000    22769577.718 7 119654962.50607     -2103.504 7        42.918                                    22769571.626 5  93237652.49305     -1639.094 5        30.038
G17        34.000    23906718.564 7 125630695.78507     -3044.363 7        42.629                                    23906715.086 5  97894056.08305     -2372.232 5        35.100    23906715.578 6  97894056.07906     -2372.086 6        37.002
E11        35.000    26331582.505 6 138373459.24106     -3349.018 6        37.482                                                                    26331579.468 6 103330845.47006     -2500.828 6        41.614    26331578.758 7 106026425.58107     -2566.085 7        42.171
G11        36.000    25393594.792 6 133444242.43306      3203.526 6        38.541                                    25393592.270 3 103982519.92403      2496.247 3        20.405    25393592.410 6 103982519.91906      2496.466 6        38.138
C35        37.000                                                                                                                                    23191017.841 7 120761731.90507     -1438.194 7        47.892                                                                    23191016.728 7  98128798.19307     -1168.694 7        47.458
I09        38.000    37434392.763 7 146900593.74407      -530.047 7        42.919
C29        39.000                                                                                                                                    25067811.248 7 130534655.61207     -3712.466 7        42.555                                                                    25067809.178 7 106070091.40107     -3016.723 7        42.946
R22        40.000    20396000.975 8 108875273.21308      1116.245 8        51.563                                                                    20395998.553 8  84680783.44408       868.229 8        48.032
S44        42.000    40721845.444 6 213994928.39906      -454.652 6        37.607
C09        43.000                                                                                                                                    38504008.513 7 200500501.05707      -289.138 7        42.675    38504004.775 7 155039697.21807      -223.526 7        46.611    38504003.014 7 162923062.07207      -234.974 7        42.307
C05        44.000                                                                                                                                    39177495.401 6 204007527.38106      -400.152 6        39.276    39177489.464 7 157751584.33007      -309.422 7        43.001    39177491.418 6 165772929.52206      -325.169 6        39.991
R06        45.000    19480545.464 7 103951980.50607      -755.953 7        42.451
C44        46.000                                                                                                                                    24544334.739 7 127808826.71107      1184.230 7        43.439                                                                    24544333.243 7 103855144.90407       962.227 7        43.536
C39        47.000                                                                                                                                    39453099.739 7 205442656.63307     -1247.186 7        42.019                                                                    39453096.423 7 166938976.06307     -1013.394 7        42.083
C20        48.000                                                                                                                                    22927894.590 8 119391609.68908     -2148.120 8        50.514                                                                    22927888.796 8  97015454.46008     -1745.555 8        49.373
C06        49.000                                                                                                                                    38410878.762 6 200015550.98406      -793.390 6        40.753    38410873.051 7 154664695.40507      -613.432 7        44.166    38410872.870 6 162528998.63806      -644.661 6        41.387
C16        50.000                                                                                                                                    38934765.681 7 202743559.84407      -877.006 7        42.800    38934765.089 7 156774190.38307      -678.181 7        43.253    38934762.825 6 164745748.57906      -712.660 6        39.462
S48        51.000    77225464.302 6 405823683.15806      -369.572 6        37.645
C19        52.000                                                                                                                                    22101383.910 8 115087767.34208       334.564 8        51.292                                                                    22101378.828 8  93518241.87308       271.854 8        49.832
C60        54.000                                                                                                                                    40721846.533 6 212049539.34806      -450.691 6        39.919                                                                    40721831.233 6 172307588.84906      -366.096 6        39.847
R16        55.000    23028689.449 7 123015125.26607      3194.456 7        45.961                                                                    23028689.264 6  95678448.01406      2484.581 6        41.630
C37        56.000                                                                                                                                    24895594.212 7 129637904.11507       521.070 7        44.307                                                                    24895597.279 7 105341434.22907       423.301 7        44.792
C02        57.000                                                                                                                                    40668897.684 5 211773663.68305      -444.051 5        33.982    40668890.894 6 163756822.79806      -343.225 6        39.751    40668894.359 6 172083451.05706      -360.724 6        36.000
I03        58.000   131183341.813 6 439006361.34006       952.769 6        40.234
R07        59.000    21080742.572 8 112846889.56008      2087.729 8        50.027                                                                    21080741.513 7  87769804.12507      1623.849 7        45.320
> 2025 01 01 02 46  5.0000000  0 53
G28         1.000    24972141.043 6 131229478.94306     -3449.683 6        38.267                                    24972138.675 3 102256712.50203     -2688.056 3        20.190    24972139.046 6 102256718.49406     -2688.053 6        37.055
G31         2.000    22798270.203 7 119805734.33907     -2352.102 7        44.363                                    22798264.965 6  93355106.31806     -1832.806 6        39.450    22798265.280 6  93355105.31106     -1832.792 6        40.067
G09         3.000    20829205.599 8 109458257.24408      1606.805 8        48.825                                    20829203.412 8  85292158.94508      1252.055 8        50.463    20829203.344 7  85292159.96007      1251.966 7        44.309
E34         4.000    24934776.175 7 131033143.91007      1488.827 7        45.031                                                                    24934775.941 7  97849434.02507      1111.816 7        47.621    24934775.774 8 100402027.21108      1140.801 8        48.885
S21         5.000    38479021.282 7 202208461.19907      -376.703 7        43.120
E05         6.000    23620002.243 7 124123987.73707      1810.864 7        44.614                                                                    23620002.513 7  92690018.69107      1352.338 7        47.609    23620002.180 8  95108011.45308      1387.570 8        48.800
E04         8.000    25933561.668 7 136281810.01207     -2790.342 7        42.034                                                                    25933560.249 7 101768888.79407     -2083.705 7        45.564    25933559.883 7 104423721.33307     -2138.059 7        46.347
R14         9.000    24063651.698 6 128272789.47906     -2935.415 6        41.573                                                                    24063653.430 6  99767709.41306     -2283.154 6        40.772
G04        10.000    20094805.351 8 105598960.53708      -209.491 8        49.443                                    20094801.938 7  82284914.02907      -163.240 7        42.961    20094802.185 8  82284909.02508      -163.228 8        49.011
E09        11.000    23488665.660 8 123433820.98308      -697.425 8        48.341                                                                    23488664.754 8  92174624.16908      -520.797 8        50.435    23488664.409 8  94579178.76308      -534.429 8        51.458
S27        12.000    39108220.654 6 205515085.58706      -371.781 6        36.064
G06        13.000    22104716.786 7 116161099.52707      1929.335 7        45.502                                    22104715.354 7  90515147.31407      1503.380 7        44.721    22104716.101 7  90515158.31607      1503.372 7        43.090
S36        14.000    38246463.112 7 200987020.63407      -376.693 7        44.539
E21        15.000    28838119.629 5 151545343.02505      -307.648 5        31.117                                                                    28838121.261 5 113167016.48805      -229.890 5        35.790    28838120.170 6 116119194.32906      -236.140 6        36.975
E36        16.000    23651279.482 8 124288340.12808     -1377.688 8        48.300                                                                    23651279.886 8  92812738.27308     -1028.846 8        50.151    23651279.631 8  95233934.92108     -1055.679 8        51.132
S45        17.000    63439567.348 6 333377791.60506      -416.310 6        37.713
G03        18.000    20728326.897 8 108928149.81208     -2129.349 8        48.340                                    20728325.008 8  84879097.00608     -1659.233 8        49.606    20728325.644 7  84879106.02107     -1659.395 7        44.712
R21        19.000    20479737.515 8 109591247.45208     -3431.782 8        51.500                                                                    20479736.708 7  85237645.27107     -2669.101 7        46.183
R05        21.000    22841633.089 7 122101659.45807     -3798.518 7        44.801                                                                    22841632.583 7  94967962.07607     -2954.481 7        42.309
I06        22.000    38095796.018 7 149496314.22907      -210.310 7        42.868
S28        23.000    40912161.501 5 214994855.32005      -371.518 5        34.914
S23        25.000    38192003.789 7 200700351.86707      -372.577 7        44.391
E06        26.000    24093228.719 7 126610832.19707     -1878.854 7        46.813                                                                    24093228.146 8  94547049.73708     -1403.058 8        49.175    24093228.024 8  97013492.99308     -1439.708 8        50.748
R15        27.000    22318027.553 7 119260787.33707       221.852 7        46.751                                                                    22318027.275 6  92758404.31306       172.670 6        41.964
G26        28.000    24932925.877 5 131023414.12405      1614.027 5        35.919                                    24932925.587 4 102096167.63104      1257.668 4        27.198    24932925.312 5 102096168.64405      1257.633 5        34.667
C22        30.000                                                                                                                                    25055119.587 7 130468595.19007      2275.392 7        44.044                                                                    25055113.373 7 106016405.17207      1848.797 7        43.300
I01        31.000   335266656.572 6  12517564.22306     -2639.985 6        41.981
G02        32.000    24249698.451 6 127433054.38706     -3844.701 6        41.197                                    24249693.293 4  99298476.78504     -2995.871 4        26.874
G19        33.000    22771580.551 7 119665487.40007     -2106.320 7        43.617                                    22771574.533 5  93245853.70705     -1641.288 5        30.158
G17        34.000    23909616.034 6 125645920.25706     -3045.348 6        41.838                                    23909612.183 5  97905919.30505     -2373.000 5        35.205    23909612.287 6  97905919.32006     -2373.297 6        36.563
E11        35.000    26334769.648 6 138390206.17306     -3349.625 6        38.099                                                                    26334766.279 6 103343351.30006     -2501.362 6        41.628    26334765.502 7 106039257.65407     -2566.624 7        42.191
G11        36.000    25390547.184 6 133428226.17406      3203.140 6        39.159                                    25390544.389 3 103970039.74703      2495.956 3        20.643    25390544.187 6 103970039.74906      2495.900 6        38.027
C35        37.000                                                                                                                                    23192400.005 7 120768929.87107     -1440.813 7        47.608                                                                    23192399.011 7  98134647.13407     -1170.873 7        47.399
I09        38.000    37435068.039 7 146903244.79407      -530.157 7        42.584
C29        39.000                                                                                                                                    25071375.732 7 130553219.24907     -3712.786 7        42.432                                                                    25071374.431 7 106085175.87407     -3017.054 7        43.156
R22        40.000    20394957.320 8 108869702.81808      1112.136 8        51.500                                                                    20394955.490 7  84676450.92007       864.966 7        47.755
S44        42.000    40722280.636 6 213997202.19806      -454.553 6        37.304
C09        43.000                                                                                                                                    38504286.786 7 200501948.68407      -289.806 7        42.370    38504282.882 7 155040816.62207      -224.197 7        46.606    38504280.988 7 162924238.39307      -235.528 7        42.336
C05        44.000                                                                                                                                    39177879.813 6 204009528.96706      -400.142 6        39.084    39177873.787 7 157753132.08507      -309.424 7        42.895    39177875.749 6 165774555.98406      -325.096 6        39.634
R06        45.000    19481255.012 7 103955765.53007      -758.057 7        42.417
C44        46.000                                                                                                                                    24543198.858 7 127802911.90407      1181.832 7        42.876                                                                    24543197.312 7 103850338.65607       960.178 7        43.619
C39        47.000                                                                                                                                    39454297.807 6 205448893.92206     -1247.493 6        41.793                                                                    39454294.174 7 166944044.40107     -1013.862 7        42.114
C20        48.000                                                                                                                                    22929957.724 8 119402353.12408     -2149.013 8        50.024                                                                    22929951.967 8  97024184.39208     -1746.390 8        49.390
C06        49.000                                                                                                                                    38411640.944 6 200019519.78106      -794.001 6        40.439    38411635.193 7 154667764.33907      -613.981 7        44.014    38411635.055 6 162532223.62806      -645.358 6        41.333
C16        50.000                                                                                                                                    38935608.132 7 202747946.75607      -877.596 7        42.453    38935607.624 7 156777582.61307      -678.531 7        43.173    38935605.299 6 164749313.31306      -713.329 6        39.556
S48        51.000    77225816.446 6 405825530.50406      -369.232 6        37.539
C19        52.000                                                                                                                                    22101063.225 8 115086098.45308       333.182 8        51.046                                                                    22101058.349 8  93516885.77808       270.654 8        49.819
C60        54.000                                                                                                                                    40722279.243 6 212051792.50006      -450.456 6        39.985                                                                    40722264.077 6 172309419.73706      -366.168 6        39.877
R16        55.000    23025699.431 7 122999157.34707      3192.872 7        45.705                                                                    23025699.849 6  95666028.52306      2483.295 6        41.907
C37        56.000                                                                                                                                    24895095.179 7 129635305.60907       518.576 7        43.869                                                                    24895098.273 7 105339322.74707       421.256 7        44.793
C02        57.000                                                                                                                                    40669322.984 5 211775883.52205      -444.157 5        33.443    40669317.267 6 163758539.31006      -343.155 6        39.604    40669320.683 6 172085254.87606      -360.908 6        36.064
I03        58.000   131182127.650 6 439001597.96006       952.767 6        39.964
R07        59.000    21078793.555 8 112836455.51008      2086.102 8        50.236                                                                    21078792.229 7  87761688.76707      1622.526 7        45.371
> 2025 01 01 02 46 10.0000000  0 53
G28         1.000    24975424.355 6 131246732.89906     -3451.556 6        37.894                                    24975422.103 3 102270157.09703     -2689.524 3        20.048    24975422.257 6 102270163.12706     -2689.754 6        37.682
G31         2.000    22800509.658 7 119817503.35707     -2355.374 7        44.126                                    22800504.644 6  93364276.99106     -1835.356 6        39.417    22800504.954 6  93364275.99506     -1835.467 6        40.498
G09         3.000    20827678.148 8 109450229.37408      1604.335 8        48.856                                    20827675.750 8  85285903.46408      1250.132 8        50.534    20827676.108 7  85285904.46607      1250.125 7        44.760
E34         4.000    24933360.273 7 131025704.45407      1486.956 7        45.064                                                                    24933360.232 7  97843878.58707      1110.393 7        47.766    24933360.071 8 100396326.85008      1139.317 8        48.965
S21         5.000    38479382.889 7 202210345.33107      -376.897 7        43.173
E05         6.000    23618279.766 7 124114936.94707      1809.453 7        44.570                                                                    23618280.241 7  92683259.98907      1351.165 7        47.724    23618279.823 8  95101076.43408      1386.425 8        48.978
E04         8.000    25936217.035 6 136295763.98106     -2791.165 6        41.774                                                                    25936215.555 7 101779308.95907     -2084.329 7        45.737    25936215.180 7 104434413.33507     -2138.747 7        46.366
R14         9.000    24066405.928 7 128287475.38007     -2938.873 7        42.474                                                                    24066408.612 6  99779131.70806     -2285.838 6        40.992
G04        10.000    20095006.037 8 105600015.36008      -212.352 8        49.454                                    20095002.674 7  82285735.97207      -165.471 7        43.022    20095002.881 8  82285730.97108      -165.501 8        49.261
E09        11.000    23489330.020 8 123437313.26308      -699.350 8        48.244                                                                    23489329.329 8  92177232.04908      -522.343 8        50.560    23489328.978 8  94581854.67108      -535.946 8        51.507
S27        12.000    39108574.570 5 205516946.13505      -372.285 5        35.981
G06        13.000    22102882.238 7 116151459.86507      1926.631 7        44.975                                    22102880.983 7  90507635.88907      1501.274 7        44.796    22102881.329 7  90507646.88807      1501.301 7        43.448
S36        14.000    38246822.032 7 200988904.40007      -376.752 7        44.519
E21        15.000    28838412.838 5 151546888.51705      -310.189 5        32.006                                                                    28838415.218 6 113168170.72006      -231.956 6        36.344    28838414.487 6 116120378.62906      -237.669 6        38.072
E36        16.000    23652591.521 8 124295235.24208     -1380.198 8        48.255                                                                    23652591.995 8  92817887.22408     -1030.692 8        50.276    23652591.683 8  95239218.19208     -1057.620 8        51.205
S45        17.000    63439921.022 6 333379874.74806      -416.585 6        37.781
G03        18.000    20730354.059 8 108938802.08908     -2131.468 8        48.327                                    20730352.053 8  84887397.48208     -1660.884 8        49.669    20730352.743 7  84887406.48307     -1660.866 7        44.897
R21        19.000    20482946.196 8 109608416.03208     -3435.604 8        51.317                                                                    20482945.062 7  85250998.61507     -2672.205 7        45.898
R05        21.000    22845186.753 7 122120653.22307     -3798.982 7        45.082                                                                    22845185.444 7  94982735.00207     -2954.784 7        42.394
I06        22.000    38096064.392 7 149497366.20407      -210.510 7        43.037
S28        23.000    40912516.480 5 214996713.32105      -371.845 5        34.781
S23        25.000    38192360.862 7 200702215.67807      -372.890 7        44.611
E06        26.000    24095017.174 7 126620230.86907     -1880.465 7        46.655                                                                    24095016.631 8  94554068.21908     -1404.257 8        49.297    24095016.584 8  97020694.56708     -1440.896 8        50.787
R15        27.000    22317822.064 7 119259689.50307       217.286 7        46.742                                                                    22317821.554 7  92757550.45307       168.972 7        42.123
G26        28.000    24931391.213 5 131015351.07005      1611.757 5        35.890                                    24931391.289 4 102089884.73504      1255.892 4        26.982    24931391.273 5 102089885.75705      1255.559 5        34.748
C22        30.000                                                                                                                                    25052934.742 7 130457220.25607      2274.602 7        43.958                                                                    25052928.985 7 106007162.10207      1848.231 7        43.498
I01        31.000   335270020.491 7  12530764.98607     -2640.254 7        42.045
G02        32.000    24253356.714 6 127452280.31206     -3845.591 6        40.515                                    24253352.011 4  99313458.00804     -2996.559 4        26.551
G19        33.000    22773586.071 7 119676026.79707     -2109.453 7        44.166                                    22773580.163 5  93254066.22805     -1643.734 5        30.121
G17        34.000    23912513.850 7 125661150.72807     -3046.812 7        42.040                                    23912510.376 5  97917787.19505     -2374.137 5        35.148    23912511.204 6  97917787.20406     -2374.173 6        36.718
E11        35.000    26337957.443 6 138406957.85306     -3350.824 6        38.285                                                                    26337953.873 6 103355860.67006     -2502.261 6        41.669    26337953.551 7 106052093.36307     -2567.593 7        42.205
G11        36.000    25387500.059 6 133412213.18606      3202.004 6        38.459                                    25387497.184 3 103957562.07603      2495.052 3        19.970    25387496.881 6 103957562.09906      2495.102 6        36.612
C35        37.000                                                                                                                                    23193785.159 7 120776141.53307     -1443.770 7        47.751                                                                    23193783.871 7  98140507.19407     -1173.259 7        47.498
I09        38.000    37435743.901 7 146905896.67307      -530.522 7        42.749
C29        39.000                                                                                                                                    25074941.154 7 130571785.53707     -3713.452 7        42.682                                                                    25074939.878 7 106100262.50507     -3017.735 7        43.390
R22        40.000    20393917.377 8 108864153.87408      1107.569 8        51.661                                                                    20393915.985 8  84672135.08108       861.419 8        48.180
S44        42.000    40722711.584 6 213999476.28506      -454.909 6        37.463
C09        43.000                                                                                                                                    38504565.426 7 200503400.37207      -290.885 7        42.392    38504561.688 7 155041939.15607      -224.828 7        46.658    38504559.727 7 162925418.00207      -236.332 7        42.396
C05        44.000                                                                                                                                    39178264.533 6 204011530.94306      -400.526 6        39.072    39178257.984 7 157754680.15207      -309.720 7        42.840    39178260.313 6 165776182.76306      -325.544 6        39.997
R06        45.000    19481966.442 7 103959562.28607      -760.647 7        42.235
C44        46.000                                                                                                                                    24542065.609 7 127797009.69507      1179.121 7        43.189                                                                    24542063.882 7 103845542.62407       958.080 7        43.818
C39        47.000                                                                                                                                    39455496.162 6 205455134.11306     -1248.326 6        41.702                                                                    39455492.632 7 166949115.07007     -1014.544 7        42.184
C20        48.000                                                                                                                                    22932021.692 8 119413101.99508     -2150.358 8        49.757                                                                    22932016.178 8  97032918.72008     -1747.455 8        49.468
C06        49.000                                                                                                                                    38412403.707 6 200023492.39506      -794.977 6        40.462    38412397.972 7 154670836.22007      -614.736 7        44.033    38412397.880 6 162535451.70206      -646.073 6        41.557
C16        50.000                                                                                                                                    38936451.056 7 202752337.21407      -878.559 7        42.425    38936450.295 7 156780977.61307      -679.365 7        43.069    38936448.422 6 164752880.90506      -713.679 6        39.595
S48        51.000    77226169.682 6 405827377.85006      -369.656 6        37.637
C19        52.000                                                                                                                                    22100744.052 8 115084437.17708       331.435 8        50.930                                                                    22100739.312 8  93515535.84708       269.235 8        49.886
C60        54.000                                                                                                                                    40722712.155 6 212054045.89606      -450.777 6        39.679                                                                    40722696.819 6 172311250.80606      -366.317 6        39.919
R16        55.000    23022711.942 7 122983198.66707      3190.753 7        45.105                                                                    23022713.062 7  95653616.22007      2481.704 7        42.692
C37        56.000                                                                                                                                    24894598.473 7 129632720.26807       515.681 7        43.822                                                                    24894601.716 7 105337221.94307       418.828 7        44.879
C02        57.000                                                                                                                                    40669748.133 5 211778103.69405      -444.272 5        33.635    40669743.332 6 163760256.09706      -343.559 6        39.508    40669747.352 6 172087058.94606      -361.038 6        36.560
I03        58.000   131180914.004 6 438996834.91806       952.558 6        40.145
R07        59.000    21076846.536 8 112826030.07308      2084.126 8        50.244                                                                    21076844.678 7  87753580.09207      1620.986 7        45.309
> 2025 01 01 02 46 15.0000000  0 53
G28         1.000    24978709.031 6 131263994.93806     -3452.833 6        38.093                                    24978707.096 3 102283608.00203     -2690.486 3        20.024    24978707.455 6 102283613.98206     -2690.797 6        37.871
G31         2.000    22802752.163 7 119829287.53407     -2358.224 7        43.718                                    22802747.199 6  93373459.46206     -1837.577 6        39.309    22802747.452 6  93373458.46506     -1837.580 6        40.181
G09         3.000    20826152.623 8 109442212.16708      1602.451 8        48.861                                    20826150.121 8  85279656.29108      1248.664 8        50.409    20826150.422 7  85279657.28807      1248.807 7        44.318
E34         4.000    24931945.910 7 131018272.88207      1485.616 7        45.011                                                                    24931946.048 7  97838329.03807      1109.445 7        47.668    24931945.875 8 100390632.52908      1138.380 8        48.898
S21         5.000    38479742.470 7 202212229.21407      -376.591 7        42.995
E05         6.000    23616558.648 7 124105891.99807      1808.519 7        44.921                                                                    23616559.040 7  92676505.65407      1350.530 7        47.632    23616558.622 8  95094145.89908      1385.782 8        48.862
E04         8.000    25938872.956 6 136309720.80706     -2791.429 6        41.752                                                                    25938871.421 7 101789731.26407     -2084.535 7        45.652    25938870.990 7 104445107.53007     -2138.925 7        46.336
R14         9.000    24069165.368 6 128302177.32006     -2941.709 6        41.926                                                                    24069166.491 6  99790566.63106     -2288.147 6        39.703
G04        10.000    20095209.160 8 105601082.91208      -214.660 8        49.710                                    20095205.829 7  82286567.83107      -167.269 7        42.870    20095205.940 8  82286562.83708      -167.299 8        49.109
E09        11.000    23489996.446 8 123440813.81308      -700.809 8        48.321                                                                    23489995.487 8  92179846.08708      -523.290 8        50.517    23489995.079 8  94584536.90308      -536.951 8        51.427
S27        12.000    39108923.947 5 205518806.75905      -372.029 5        35.900
G06        13.000    22101049.567 7 116141831.74607      1924.554 7        44.325                                    22101048.811 7  90500133.46007      1499.650 7        44.605    22101049.367 7  90500144.46607      1499.734 7        43.185
S36        14.000    38247180.343 7 200990788.16707      -376.678 7        44.506
E21        15.000    28838709.553 5 151548445.21305      -312.404 5        32.653                                                                    28838711.325 5 113169333.14805      -232.973 5        35.910    28838710.832 6 116121571.38906      -239.142 6        37.909
E36        16.000    23653905.727 8 124302141.07908     -1382.172 8        48.180                                                                    23653906.159 8  92823044.17808     -1032.089 8        50.236    23653905.807 8  95244509.67608     -1059.008 8        51.132
S45        17.000    63440274.128 6 333381957.68106      -416.490 6        37.735
G03        18.000    20732382.708 8 108949463.18708     -2132.941 8        48.262                                    20732380.783 8  84895704.82808     -1662.031 8        49.517    20732381.374 7  84895713.82707     -1662.025 7        44.932
R21        19.000    20486158.193 8 109625601.65508     -3438.701 8        51.637                                                                    20486156.548 7  85264365.20607     -2674.553 7        45.819
R05        21.000    22848740.196 7 122139647.86807     -3798.894 7        45.509                                                                    22848738.090 6  94997508.60706     -2954.615 6        41.642
I06        22.000    38096332.416 7 149498418.16107      -210.263 7        42.954
S28        23.000    40912869.560 5 214998571.22205      -371.447 5        34.567
S23        25.000    38192715.984 7 200704079.21707      -372.659 7        44.540
E06        26.000    24096806.804 7 126629635.80407     -1881.496 7        46.766                                                                    24096806.277 8  94561091.38708     -1404.948 8        49.257    24096806.279 8  97027900.94508     -1441.609 8        50.744
R15        27.000    22317620.805 7 119258612.82907       213.291 7        46.644                                                                    22317620.587 7  92756713.03807       165.915 7        42.303
G26        28.000    24929859.092 6 131007297.53806      1609.384 6        36.049                                    24929858.721 4 102083609.26704      1254.055 4        26.611    24929858.763 5 102083610.25305      1254.518 5        34.648
C22        30.000                                                                                                                                    25050750.430 7 130445847.91507      2274.351 7        43.731                                                                    25050744.991 7 105997921.16307      1848.004 7        43.547
I01        31.000   335273384.325 7  12543966.10407     -2640.224 7        42.009
G02        32.000    24257015.850 6 127471509.29106     -3845.948 6        40.644                                    24257011.224 4  99328441.62104     -2996.844 4        26.108
G19        33.000    22775594.032 7 119686580.24507     -2112.031 7        43.714                                    22775588.485 5  93262289.69405     -1645.735 5        30.098
G17        34.000    23915413.448 7 125676386.74207     -3047.625 7        42.182                                    23915409.583 5  97929659.40705     -2374.773 5        35.033    23915410.455 6  97929659.41206     -2374.762 6        36.665
E11        35.000    26341145.813 6 138423713.79606     -3351.246 6        38.646                                                                    26341142.379 6 103368373.22006     -2502.583 6        41.447    26341142.155 7 106064932.32107     -2568.041 7        42.233
G11        36.000    25384452.686 6 133396203.04906      3201.978 6        38.162                                    25384450.552 3 103945086.70303      2495.032 3        19.433    25384450.431 6 103945086.71306      2494.968 6        36.541
C35        37.000                                                                                                                                    23195172.791 7 120783366.41407     -1446.179 7        47.890                                                                    23195171.386 7  98146378.02007     -1175.220 7        47.622
I09        38.000    37436419.838 7 146908548.99207      -530.405 7        42.555
C29        39.000                                                                                                                                    25078507.114 7 130590354.02807     -3713.878 7        42.802                                                                    25078505.571 7 106115350.93007     -3017.839 7        43.543
R22        40.000    20392882.316 8 108858625.90008      1103.597 8        51.531                                                                    20392880.550 7  84667835.54307       858.340 7        47.863
S44        42.000    40723146.825 6 214001750.16306      -454.627 6        37.539
C09        43.000                                                                                                                                    38504845.126 7 200504855.64907      -291.317 7        42.398    38504841.056 7 155043064.48007      -225.228 7        46.662    38504839.272 7 162926600.56507      -236.715 7        42.406
C05        44.000                                                                                                                                    39178648.601 6 204013532.81406      -400.148 6        39.054    39178642.405 7 157756228.11607      -309.375 7        42.734    39178644.721 6 165777809.46006      -325.294 6        39.967
R06        45.000    19482680.117 7 103963370.45107      -762.611 7        42.182
C44        46.000                                                                                                                                    24540934.383 7 127791119.65207      1176.820 7        43.183                                                                    24540932.755 7 103840756.48907       956.306 7        43.979
C39        47.000                                                                                                                                    39456694.732 6 205461376.75806     -1248.724 6        41.557                                                                    39456691.458 7 166954187.72807     -1014.623 7        42.262
C20        48.000                                                                                                                                    22934086.926 8 119423855.80708     -2151.120 8        50.111                                                                    22934081.298 8  97041657.09208     -1748.056 8        49.505
C06        49.000                                                                                                                                    38413167.082 6 200027468.37806      -795.477 6        40.231    38413161.575 7 154673910.69807      -615.021 7        44.205    38413161.506 6 162538682.53206      -646.522 6        41.404
C16        50.000                                                                                                                                    38937294.731 7 202756730.77107      -878.986 7        42.336    38937294.032 7 156784374.98007      -679.656 7        43.058    38937292.151 6 164756451.06606      -714.303 6        39.658
S48        51.000    77226516.966 6 405829224.92906      -369.325 6        37.887
C19        52.000                                                                                                                                    22100426.542 8 115082783.04208       330.179 8        50.991                                                                    22100421.687 8  93514191.74308       268.227 8        49.985
C60        54.000                                                                                                                                    40723144.583 6 212056299.11006      -450.371 6        39.658                                                                    40723129.381 6 172313081.73006      -366.122 6        39.892
R16        55.000    23019725.695 7 122967248.51307      3189.262 7        45.263                                                                    23019727.248 7  95641210.55107      2480.578 7        42.663
C37        56.000                                                                                                                                    24894104.730 7 129630147.59007       513.424 7        44.036                                                                    24894107.635 7 105335131.45607       417.034 7        44.742
C02        57.000                                                                                                                                    40670174.963 5 211780323.71005      -443.718 5        34.067    40670169.903 6 163761972.74506      -343.090 6        39.432    40670173.650 6 172088862.91606      -360.673 6        36.261
I03        58.000   131179700.053 6 438992071.87806       952.824 6        39.862
R07        59.000    21074900.295 8 112815613.25908      2082.662 8        50.343                                                                    21074899.098 7  87745478.13407      1619.824 7        45.974
> 2025 01 01 02 46 20.0000000  0 53
G28         1.000    24981996.147 6 131281265.23406     -3454.876 6        37.890                                    24981993.394 3 102297065.31803     -2692.099 3        19.373    24981994.008 6 102297071.28806     -2691.972 6        37.565
G31         2.000    22804997.364 7 119841086.88007     -2361.404 7        43.558                                    22804992.579 6  93382653.75606     -1840.054 6        39.318    22804992.967 6  93382652.77006     -1840.156 6        39.898
G09         3.000    20824628.682 8 109434205.71308      1600.227 8        48.463                                    20824626.537 8  85273417.49608      1246.930 8        50.481    20824626.667 7  85273418.49707      1246.923 7        44.403
E34         4.000    24930533.143 7 131010849.27407      1483.950 7        45.296                                                                    24930533.396 7  97832785.44507      1108.085 7        47.842    24930533.206 8 100384944.31408      1137.072 8        49.018
S21         5.000    38480100.204 7 202214113.00907      -376.797 7        42.946
E05         6.000    23614838.500 7 124096852.97407      1807.297 7        45.183                                                                    23614838.951 7  92669755.73107      1349.550 7        47.706    23614838.590 8  95087219.89308      1384.796 8        48.966
E04         8.000    25941529.669 7 136323680.56107     -2792.155 7        42.487                                                                    25941527.912 7 101800155.75707     -2085.039 7        45.895    25941527.417 7 104455803.96407     -2139.421 7        46.348
R14         9.000    24071926.958 7 128316895.07307     -2945.021 7        42.681                                                                    24071927.630 6  99802013.74006     -2290.496 6        40.868
G04        10.000    20095414.611 8 105602163.26208      -217.358 8        49.562                                    20095411.416 7  82287409.66507      -169.369 7        42.923    20095411.623 8  82287404.66208      -169.325 8        49.326
E09        11.000    23490664.079 8 123444322.68208      -702.536 8        48.424                                                                    23490663.186 8  92182466.34908      -524.648 8        50.642    23490662.795 8  94587225.52108      -538.328 8        51.553
S27        12.000    39109277.777 6 205520667.14306      -372.223 6        36.000
G06        13.000    22099220.036 7 116132215.29107      1922.151 7        44.790                                    22099218.863 7  90492640.12307      1497.780 7        44.637    22099219.860 7  90492651.12607      1497.778 7        43.374
S36        14.000    38247537.523 7 200992672.36507      -376.787 7        44.468
E21        15.000    28839008.414 5 151550013.80905      -314.964 5        32.599                                                                    28839009.583 5 113170504.63705      -235.112 5        35.243    28839009.125 6 116122773.43206      -241.097 6        37.962
E36        16.000    23655222.227 8 124309057.69208     -1384.396 8        48.256                                                                    23655222.333 8  92828209.18308     -1033.801 8        50.325    23655222.003 8  95249809.41608     -1060.712 8        51.203
S45        17.000    63440629.380 6 333384040.46206      -416.511 6        37.754
G03        18.000    20734413.337 8 108960133.18508     -2134.878 8        48.629                                    20734411.213 8  84904019.10908     -1663.543 8        49.577    20734412.094 7  84904028.11407     -1663.512 7        44.990
R21        19.000    20489372.253 8 109642804.37308     -3442.234 8        51.084                                                                    20489371.448 7  85277745.09107     -2677.252 7        46.201
R05        21.000    22852293.762 7 122158643.69507     -3799.141 7        45.217                                                                    22852291.377 6  95012283.15506     -2954.974 6        41.726
I06        22.000    38096600.477 7 149499470.15507      -210.368 7        42.918
S28        23.000    40913224.933 5 215000429.35205      -371.427 5        34.686
S23        25.000    38193069.180 7 200705942.75807      -372.584 7        44.716
E06        26.000    24098597.796 7 126639047.08307     -1882.910 7        46.686                                                                    24098597.213 8  94568119.29308     -1406.011 8        49.338    24098597.124 8  97035112.18508     -1442.683 8        50.791
R15        27.000    22317423.149 7 119257557.49307       209.041 7        46.151                                                                    22317422.937 7  92755892.22307       162.509 7        42.229
G26        28.000    24928328.494 5 130999253.63805      1607.797 5        35.890                                    24928328.107 4 102077341.30604      1252.851 4        26.539    24928328.109 5 102077342.29405      1252.597 5        34.467
C22        30.000                                                                                                                                    25048567.076 7 130434478.21207      2273.806 7        44.125                                                                    25048561.549 7 105988682.32807      1847.639 7        43.530
I01        31.000   335276748.749 7  12557167.64507     -2640.322 7        42.078
G02        32.000    24260676.164 6 127490741.45306     -3846.698 6        41.354                                    24260670.899 4  99343427.71104     -2997.426 4        26.503
G19        33.000    22777604.789 7 119697147.80207     -2114.978 7        43.409                                    22777599.392 5  93270524.15705     -1648.031 5        30.226
G17        34.000    23918313.943 7 125691628.34607     -3048.917 7        42.172                                    23918309.954 5  97941535.98105     -2375.780 5        35.162    23918310.573 6  97941535.96806     -2375.596 6        37.682
E11        35.000    26344335.274 6 138440474.02606     -3352.385 6        38.847                                                                    26344331.809 6 103380888.97506     -2503.396 6        41.468    26344331.619 7 106077774.57807     -2568.735 7        42.222
G11        36.000    25381406.612 6 133380195.87806      3201.139 6        39.120                                    25381404.800 3 103932613.62003      2494.392 3        21.190    25381404.484 6 103932613.63806      2494.542 6        38.778
C35        37.000                                                                                                                                    23196562.681 7 120790604.61507     -1448.961 7        47.736                                                                    23196561.396 7  98152259.61807     -1177.326 7        47.478
I09        38.000    37437095.952 7 146911201.82007      -530.722 7        42.483
C29        39.000                                                                                                                                    25082073.422 7 130608924.74607     -3714.356 7        42.739                                                                    25082071.818 7 106130441.12507     -3018.201 7        43.350
R22        40.000    20391850.264 8 108853118.95408      1099.293 8        51.000                                                                    20391848.476 8  84663552.35508       855.024 8        48.100
S44        42.000    40723575.197 6 214004023.91206      -454.946 6        37.081
C09        43.000                                                                                                                                    38505125.063 7 200506314.60307      -292.103 7        42.455    38505121.230 7 155044192.64207      -225.927 7        46.588    38505119.381 7 162927786.05707      -237.238 7        42.294
C05        44.000                                                                                                                                    39179033.160 6 204015534.65606      -400.404 6        38.991    39179027.242 7 157757776.07307      -309.511 7        42.935    39179029.298 6 165779436.09606      -325.259 6        39.802
R06        45.000    19483396.276 7 103967189.99307      -764.981 7        42.271
C44        46.000                                                                                                                                    24539805.571 7 127785241.84307      1174.289 7        43.333                                                                    24539803.934 7 103835980.26607       954.290 7        43.913
C39        47.000                                                                                                                                    39457894.201 6 205467621.89406     -1249.159 6        41.592                                                                    39457890.724 7 166959262.38607     -1015.130 7        42.154
C20        48.000                                                                                                                                    22936153.366 8 119434614.64408     -2152.271 8        50.369                                                                    22936147.488 8  97050399.50008     -1748.847 8        49.498
C06        49.000                                                                                                                                    38413931.703 6 200031447.76806      -796.268 6        40.398    38413926.085 7 154676987.82107      -615.655 7        44.203    38413925.713 6 162541916.07406      -646.962 6        41.569
C16        50.000                                                                                                                                    38938139.246 7 202761127.48007      -879.714 7        42.389    38938138.386 7 156787774.78707      -680.100 7        42.889    38938136.519 6 164760023.70506      -714.715 6        39.580
S48        51.000    77226874.481 6 405831071.69506      -369.452 6        37.584
C19        52.000                                                                                                                                    22100110.423 8 115081136.11208       328.693 8        51.008                                                                    22100105.384 8  93512853.45308       267.123 8        49.969
C60        54.000                                                                                                                                    40723577.624 6 212058552.18006      -450.641 6        39.961                                                                    40723561.979 6 172314912.51206      -366.156 6        39.760
R16        55.000    23016741.423 7 122951307.10107      3187.397 7        45.648                                                                    23016742.564 7  95628811.67007      2479.115 7        42.609
C37        56.000                                                                                                                                    24893612.729 7 129627587.67407       510.877 7        44.209                                                                    24893615.960 7 105333051.28807       415.040 7        44.605
C02        57.000                                                                                                                                    40670602.021 5 211782543.69505      -444.105 5        33.120    40670596.098 6 163763689.39406      -343.345 6        39.270    40670599.921 6 172090666.79506      -360.595 6        36.473
I03        58.000   131178486.595 6 438987308.86006       952.709 6        39.916
R07        59.000    21072956.129 8 112805204.72108      2080.912 8        50.343                                                                    21072954.466 7  87737382.60907      1618.598 7        45.520
> 2025 01 01 02 46 25.0000000  0 53
G28         1.000    24985283.443 6 131298543.49706     -3456.162 6        38.351                                    24985281.525 3 102310528.85803     -2693.108 3        19.612    24985281.059 6 102310534.83606     -2692.953 6        37.353
G31         2.000    22807245.532 7 119852901.15907     -2364.060 7        43.647                                    22807240.737 6  93391859.68506     -1842.128 6        39.501    22807240.987 6  93391858.69606     -1842.153 6        39.814
G09         3.000    20823107.337 8 109426209.72808      1598.442 8        48.904                                    20823104.937 8  85267186.86008      1245.539 8        50.603    20823105.447 7  85267187.86307      1245.624 7        44.849
E34         4.000    24929122.138 7 131003433.37807      1482.685 7        45.171                                                                    24929122.175 7  97827247.59807      1107.210 7        47.853    24929121.957 8 100379262.00608      1136.052 8        48.806
S21         5.000    38480456.414 7 202215996.68207      -376.460 7        42.957
E05         6.000    23613119.873 7 124087819.60007      1806.447 7        44.847                                                                    23613120.058 7  92663010.03607      1348.918 7        47.827    23613119.614 8  95080298.22008      1384.151 8        48.767
E04         8.000    25944186.586 7 136337642.95507     -2792.460 7        42.631                                                                    25944184.848 7 101810582.21807     -2085.332 7        45.989    25944184.271 7 104466502.41707     -2139.698 7        46.136
R14         9.000    24074689.912 7 128331627.95607     -2948.142 7        42.250                                                                    24074691.690 6  99813472.61706     -2292.838 6        40.119
G04        10.000    20095622.637 8 105603256.11808      -219.581 8        49.842                                    20095619.360 7  82288261.24207      -171.100 7        43.062    20095619.628 8  82288256.23808      -171.089 8        49.367
E09        11.000    23491333.238 8 123447839.59608      -703.907 8        48.264                                                                    23491332.433 8  92185092.61708      -525.630 8        50.622    23491332.042 8  94589920.29508      -539.337 8        51.278
S27        12.000    39109636.222 5 205522527.27005      -371.402 5        35.790
G06        13.000    22097393.191 7 116122610.22507      1920.209 7        45.145                                    22097391.069 7  90485155.65307      1496.266 7        44.807    22097391.747 7  90485166.65507      1496.179 7        43.630
S36        14.000    38247900.073 7 200994556.60407      -376.564 7        44.477
E21        15.000    28839308.495 5 151551593.69505      -316.602 5        32.036                                                                    28839309.790 5 113171684.65005      -236.758 5        34.433    28839309.798 6 116123984.18006      -242.545 6        37.085
E36        16.000    23656540.376 8 124315984.81808     -1386.142 8        48.056                                                                    23656540.545 8  92833382.03208     -1035.101 8        50.318    23656540.225 8  95255117.21308     -1062.124 8        50.942
S45        17.000    63440982.120 6 333386122.85906      -416.173 6        37.769
G03        18.000    20736445.227 8 108970811.80608     -2136.270 8        48.510                                    20736443.301 8  84912340.11108     -1664.624 8        49.704    20736443.868 7  84912349.10807     -1664.599 7        44.927
R21        19.000    20492589.993 8 109660023.87008     -3445.321 8        51.247                                                                    20492589.320 7  85291138.03907     -2679.674 7        46.142
R05        21.000    22855846.755 7 122177639.91307     -3799.022 7        44.448                                                                    22855845.964 7  95027057.97007     -2954.826 7        42.243
I06        22.000    38096868.478 7 149500522.00707      -210.138 7        42.936
S28        23.000    40913576.134 5 215002286.60905      -371.232 5        34.900
S23        25.000    38193421.656 7 200707805.86007      -372.346 7        44.406
E06        26.000    24100389.849 7 126648464.42507     -1883.804 7        46.625                                                                    24100389.274 8  94575151.72108     -1406.738 8        49.333    24100389.225 8  97042328.06708     -1443.417 8        50.573
R15        27.000    22317229.457 7 119256523.17707       205.055 7        46.077                                                                    22317229.199 7  92755087.74207       159.502 7        42.165
G26        28.000    24926799.926 6 130991219.03606      1606.426 6        36.643                                    24926799.058 4 102071080.58704      1251.776 4        26.922    24926799.386 5 102071081.62705      1251.593 5        34.624
C22        30.000                                                                                                                                    25046384.232 7 130423110.90407      2273.441 7        43.975                                                                    25046378.590 7 105979445.45907      1847.397 7        43.481
I01        31.000   335280112.702 7  12570369.41207     -2640.253 7        42.474
G02        32.000    24264337.108 6 127509976.43406     -3846.927 6        41.988                                    24264331.172 4  99358416.00204     -2997.602 4        26.910
G19        33.000    22779618.336 7 119707729.22807     -2117.329 7        43.310                                    22779612.990 5  93278769.41705     -1649.866 5        30.211
G17        34.000    23921215.231 6 125706875.26206     -3049.727 6        41.805                                    23921211.438 5  97953416.68405     -2376.408 5        35.171    23921212.094 6  97953416.66806     -2376.366 6        37.055
E11        35.000    26347525.159 6 138457238.29906     -3352.977 6        37.819                                                                    26347521.849 6 103393407.75806     -2503.850 6        41.373    26347521.828 7 106090619.92307     -2569.194 7        42.157
G11        36.000    25378360.684 6 133364191.25306      3200.915 6        39.399                                    25378359.343 3 103920142.51003      2494.236 3        21.738    25378358.799 6 103920142.49106      2494.206 6        38.592
C35        37.000                                                                                                                                    23197955.216 7 120797855.82207     -1451.227 7        47.732                                                                    23197953.925 7  98158151.82707     -1179.242 7        47.519
I09        38.000    37437772.084 7 146913854.97207      -530.486 7        42.372
C29        39.000                                                                                                                                    25085640.046 7 130627497.43007     -3714.386 7        42.590                                                                    25085638.573 7 106145532.95907     -3018.297 7        43.357
R22        40.000    20390822.249 8 108847632.79508      1095.427 8        51.237                                                                    20390820.884 7  84659285.34407       852.088 7        47.749
S44        42.000    40724008.529 6 214006297.25306      -454.497 6        37.433
C09        43.000                                                                                                                                    38505405.932 7 200507776.96607      -292.535 7        42.538    38505402.246 7 155045323.42107      -226.126 7        46.479    38505400.287 7 162928974.34607      -237.664 7        42.375
C05        44.000                                                                                                                                    39179417.720 6 204017536.19106      -399.965 6        39.120    39179411.247 7 157759323.79407      -309.350 7        42.743    39179413.634 6 165781062.52006      -324.889 6        39.862
R06        45.000    19484113.822 7 103971020.64007      -766.896 7        42.106
C44        46.000                                                                                                                                    24538679.034 7 127779376.01707      1172.240 7        43.039                                                                    24538677.446 7 103831213.80707       952.536 7        43.839
C39        47.000                                                                                                                                    39459094.060 6 205473869.26706     -1249.424 6        41.552                                                                    39459090.387 7 166964338.89207     -1015.161 7        42.008
C20        48.000                                                                                                                                    22938220.342 8 119445378.23708     -2152.931 8        50.287                                                                    22938214.481 8  97059145.80508     -1749.426 8        49.480
C06        49.000                                                                                                                                    38414696.159 6 200035430.28406      -796.650 6        40.298    38414691.168 7 154680067.34807      -615.953 7        44.436    38414690.440 6 162545152.20106      -647.351 6        41.256
C16        50.000                                                                                                                                    38938984.155 7 202765527.06707      -880.007 7        42.155    38938983.550 7 156791176.82707      -680.395 7        42.688    38938981.309 6 164763598.74206      -714.973 6        39.529
S48        51.000    77227225.052 6 405832918.10106      -368.895 6        37.580
C19        52.000                                                                                                                                    22099795.366 8 115079496.11808       327.560 8        51.064                                                                    22099790.425 8  93511520.83208       266.194 8        49.893
C60        54.000                                                                                                                                    40724010.043 6 212060804.84706      -450.226 6        40.014                                                                    40723994.774 6 172316742.98906      -365.764 6        39.784
R16        55.000    23013759.233 7 122935374.21307      3185.970 7        45.928                                                                    23013760.278 7  95616419.43107      2477.981 7        42.997
C37        56.000                                                                                                                                    24893123.257 7 129625040.27507       508.517 7        43.909                                                                    24893126.871 7 105330981.32807       413.178 7        44.679
C02        57.000                                                                                                                                    40671028.671 5 211784763.36905      -443.689 5        33.826    40671022.319 6 163765405.77706      -343.019 6        39.459    40671026.111 6 172092470.49106      -360.608 6        36.382
I03        58.000   131177272.693 6 438982545.70906       952.942 6        39.904
R07        59.000    21071013.108 8 112794804.42408      2079.509 8        50.008                                                                    21071011.500 7  87729293.49307      1617.347 7        45.097
> 2025 01 01 02 46 30.0000000  0 53
G28         1.000    24988573.077 6 131315829.74606     -3458.275 6        38.237                                    24988570.887 3 102323998.61503     -2694.741 3        20.286    24988570.807 6 102324004.58006     -2694.281 6        37.713
G31         2.000    22809496.734 7 119864730.47207     -2367.378 7        43.939                                    22809491.756 6  93401077.33306     -1844.712 6        39.547    22809492.242 6  93401076.33706     -1844.754 6        39.910
G09         3.000    20821587.851 8 109418224.33108      1595.938 8        49.046                                    20821585.368 8  85260964.47708      1243.591 8        50.721    20821585.737 7  85260965.47407      1243.581 7        44.822
E34         4.000    24927712.368 7 130996025.30607      1480.745 7        45.171                                                                    24927712.428 7  97821715.59607      1105.777 7        47.957    24927712.272 8 100373585.68608      1134.670 8        48.932
S21         5.000    38480821.566 7 202217880.22207      -376.700 7        43.299
E05         6.000    23611401.710 7 124078791.98307      1804.902 7        44.748                                                                    23611402.129 7  92656268.63307      1347.876 7        47.891    23611401.651 8  95073380.95608      1382.996 8        48.870
E04         8.000    25946843.806 7 136351608.12007     -2793.467 7        42.262                                                                    25946842.342 7 101821010.74507     -2085.927 7        45.913    25946841.843 7 104477202.99707     -2140.354 7        46.224
R14         9.000    24077456.582 7 128346376.77907     -2951.263 7        42.914                                                                    24077458.716 6  99824943.96706     -2295.321 6        41.261
G04        10.000    20095832.916 8 105604361.59408      -222.398 8        49.820                                    20095829.718 7  82289122.65007      -173.298 7        43.172    20095829.830 8  82289117.64808      -173.285 8        49.550
E09        11.000    23492004.179 8 123451364.66608      -705.891 8        48.137                                                                    23492003.207 8  92187724.97008      -527.122 8        50.574    23492002.847 8  94592621.32108      -540.847 8        51.438
S27        12.000    39109990.160 5 205524386.99605      -371.921 5        35.905
G06        13.000    22095567.206 7 116113016.65007      1917.661 7        44.922                                    22095565.458 7  90477680.14307      1494.283 7        44.948    22095566.249 7  90477691.15007      1494.194 7        43.683
S36        14.000    38248258.178 7 200996440.06707      -376.741 7        44.451
E21        15.000    28839610.909 5 151553184.79405      -319.275 5        32.461                                                                    28839612.402 5 113172872.82905      -238.638 5        34.738    28839612.454 6 116125203.36106      -244.690 6        37.550
E36        16.000    23657860.419 8 124322922.55608     -1388.571 8        48.032                                                                    23657860.738 8  92838562.81108     -1036.940 8        50.248    23657860.415 8  95260433.14308     -1063.962 8        51.092
S45        17.000    63441337.793 6 333386504.97816      -416.408 6        37.811
G03        18.000    20738478.761 8 108981499.15508     -2138.457 8        48.462                                    20738477.049 8  84920667.90708     -1666.328 8        49.825    20738477.779 7  84920676.91407     -1666.416 7        45.121
R21        19.000    20495811.715 8 109677260.31608     -3449.031 8        51.577                                                                    20495810.087 7  85304544.15507     -2682.614 7        46.023
R05        21.000    22859399.684 7 122196637.04007     -3799.593 7        44.277                                                                    22859400.118 7  95041833.53007     -2955.239 7        42.229
I06        22.000    38097136.179 7 149501573.76407      -210.295 7        42.701
S28        23.000    40913932.482 5 215004143.41405      -371.377 5        34.705
S23        25.000    38193775.115 7 200709668.63707      -372.549 7        44.367
E06        26.000    24102182.970 7 126657887.93307     -1885.322 7        46.600                                                                    24102182.487 8  94582188.75808     -1407.845 8        49.288    24102182.461 8  97049548.68508     -1444.632 8        50.696
R15        27.000    22317039.631 7 119255509.95007       200.473 7        46.454                                                                    22317040.017 7  92754299.67507       155.960 7        42.557
G26        28.000    24925272.690 6 130983193.99906      1604.049 6        36.885                                    24925271.860 4 102064827.31404      1249.914 4        27.461    24925272.189 5 102064828.30705      1249.835 5        34.633
C22        30.000                                                                                                                                    25044201.534 7 130411746.08507      2272.618 7        43.649                                                                    25044196.047 7 105970210.60107      1846.777 7        43.492
I01        31.000   335283477.154 7  12583571.53207     -2640.514 7        42.451
G02        32.000    24267997.839 7 127529214.33007     -3847.917 7        42.265                                    24267992.000 4  99373406.56604     -2998.378 4        27.222
G19        33.000    22781635.136 7 119718324.57107     -2120.471 7        43.536                                    22781629.209 5  93287025.52405     -1652.315 5        30.377
G17        34.000    23924117.953 7 125722127.55707     -3051.020 7        42.440                                    23924113.968 5  97965301.57905     -2377.415 5        35.343    23924114.484 6  97965301.59006     -2377.599 6        37.543
E11        35.000    26350715.892 6 138474006.70006     -3353.918 6        37.274                                                                    26350712.864 6 103405929.60806     -2504.723 6        41.726    26350712.564 7 106103468.43207     -2570.003 7        42.324
G11        36.000    25375315.320 6 133348189.39106      3200.048 6        38.829                                    25375314.347 3 103907673.52303      2493.549 3        21.286    25375313.845 6 103907673.51406      2493.659 6        38.387
C35        37.000                                                                                                                                    23199350.075 7 120805120.16007     -1454.269 7        47.635                                                                    23199348.965 7  98164054.68107     -1181.588 7        47.423
I09        38.000    37438448.084 7 146916508.50607      -530.822 7        42.402
C29        39.000                                                                                                                                    25089206.710 7 130646072.20107     -3715.149 7        42.559                                                                    25089205.779 7 106160626.45707     -3018.871 7        43.251
R22        40.000    20389798.751 8 108842167.53308      1090.967 8        50.877                                                                    20389796.748 7  84655034.58907       848.535 7        47.625
S44        42.000    40724441.462 6 214008570.27906      -454.501 6        36.987
C09        43.000                                                                                                                                    38505687.685 7 200509242.83207      -293.471 7        42.508    38505683.778 7 155046456.93207      -226.991 7        46.454    38505681.850 7 162930165.49907      -238.505 7        42.332
C05        44.000                                                                                                                                    39179801.707 6 204019537.53006      -400.301 6        38.919    39179795.873 7 157760871.35207      -309.579 7        42.868    39179797.859 6 165782688.76206      -325.316 6        39.892
R06        45.000    19484833.725 7 103974862.57807      -769.458 7        42.154
C44        46.000                                                                                                                                    24537555.086 7 127773522.27307      1169.500 7        42.935                                                                    24537553.323 7 103826457.14107       950.400 7        43.547
C39        47.000                                                                                                                                    39460294.244 6 205480118.99306     -1250.296 6        41.521                                                                    39460290.578 7 166969417.29707     -1015.906 7        42.038
C20        48.000                                                                                                                                    22940288.115 8 119456146.66408     -2154.193 8        50.450                                                                    22940282.454 8  97067896.02808     -1750.365 8        49.310
C06        49.000                                                                                                                                    38415461.829 6 200039416.07506      -797.633 6        40.462    38415456.627 7 154683149.41207      -616.708 7        44.590    38415455.645 6 162548390.98506      -648.090 6        41.399
C16        50.000                                                                                                                                    38939829.531 7 202769929.63707      -880.822 7        42.135    38939829.050 7 156794581.18707      -681.150 7        42.756    38939826.796 6 164767176.20306      -715.769 6        39.447
S48        51.000    77227577.684 6 405834764.10006      -369.417 6        37.550
C19        52.000                                                                                                                                    22099481.854 8 115077863.16908       325.855 8        50.993                                                                    22099476.839 8  93510193.92308       264.844 8        49.840
C60        54.000                                                                                                                                    40724442.547 6 212063057.21906      -450.509 6        40.064                                                                    40724427.372 6 172318573.20906      -365.835 6        39.784
R16        55.000    23010777.992 7 122919449.79907      3183.894 7        45.958                                                                    23010778.803 7  95604033.76207      2476.344 7        42.459
C37        56.000                                                                                                                                    24892636.378 7 129622505.47007       505.661 7        43.837                                                                    24892640.179 7 105328921.58507       411.021 7        44.688
C02        57.000                                                                                                                                    40671454.097 5 211786982.76705      -443.519 5        33.683    40671448.975 6 163767121.97606      -343.246 6        39.384    40671452.458 6 172094273.94206      -360.757 6        36.204
I03        58.000   131176059.007 6 438977782.47006       952.606 6        40.086
R07        59.000    21069071.461 8 112784412.37008      2077.604 8        49.542                                                                    21069069.900 7  87721210.78507      1615.935 7        45.518
> 2025 01 01 02 46 35.0000000  0 54
G28         1.000    24991864.442 6 131333123.89406     -3459.503 6        38.177                                    24991861.974 3 102337474.53003     -2695.704 3        20.524    24991862.427 6 102337480.52506     -2695.776 6        37.561
G31         2.000    22811750.748 7 119876574.68507     -2370.323 7        43.858                                    22811745.597 6  93410306.59806     -1847.004 6        39.607    22811745.864 6  93410305.61706     -1847.022 6        39.931
G09         3.000    20820070.044 8 109410249.43508      1593.962 8        49.138                                    20820067.798 8  85254750.27408      1242.045 8        50.770    20820068.035 7  85254751.27107      1242.099 7        45.017
E34         4.000    24926304.278 7 130988624.95107      1479.311 7        44.963                                                                    24926304.187 7  97816189.36107      1104.712 7        47.842    24926304.015 8 100367915.29108      1133.521 8        49.127
S21         5.000    38481181.630 7 202219763.21307      -376.544 7        42.762
E05         6.000    23609684.975 7 124069770.03107      1803.879 7        44.853                                                                    23609685.345 7  92649531.46507      1347.018 7        47.724    23609684.822 8  95066468.03508      1382.164 8        49.112
E04         8.000    25949501.839 6 136365575.89606     -2793.853 6        41.940                                                                    25949500.324 7 101831441.23907     -2086.318 7        45.908    25949499.949 7 104487905.59007     -2140.681 7        46.495
R14         9.000    24080226.392 6 128361140.79506     -2954.309 6        41.778                                                                    24080228.048 6  99836427.14006     -2297.897 6        40.122
G04        10.000    20096045.776 8 105605479.60208      -224.829 8        49.861                                    20096042.447 7  82289993.82607      -175.191 7        43.234    20096042.704 8  82289988.82308      -175.137 8        49.511
E09        11.000    23492676.458 8 123454897.78308      -707.362 8        48.247                                                                    23492675.537 8  92190363.34108      -528.218 8        50.565    23492675.168 8  94595328.52108      -542.038 8        51.697
S27        12.000    39110338.813 5 205526246.41905      -372.001 5        35.590
G06        13.000    22093743.758 7 116103434.51007      1915.320 7        45.261                                    22093742.033 7  90470213.54507      1492.456 7        44.983    22093742.750 7  90470224.54607      1492.519 7        43.655
S36        14.000    38248613.865 7 200998323.12307      -376.535 7        44.382
E21        15.000    28839916.232 5 151554787.20205      -321.793 5        31.457                                                                    28839917.170 5 113174069.41405      -239.703 5        34.033    28839917.181 6 116126431.18306      -246.454 6        37.108
E36        16.000    23659182.626 8 124329870.81808     -1390.676 8        48.106                                                                    23659182.928 8  92843751.45208     -1038.437 8        50.303    23659182.610 8  95265757.14208     -1065.585 8        51.366
S45        17.000    63441692.571 6 333388586.62506      -415.916 6        37.958
G03        18.000    20740514.287 7 108992195.14407     -2140.085 7        47.963                                    20740512.451 8  84929002.44408     -1667.597 8        49.855    20740513.168 7  84929011.44307     -1667.601 7        45.162
R21        19.000    20499035.815 8 109694513.54208     -3452.298 8        51.421                                                                    20499034.636 7  85317963.33007     -2685.068 7        46.031
R20        20.000                                                                                                                                    24213166.580 3                     -3935.773 3        23.295
R05        21.000    22862953.510 7 122215634.81007     -3799.585 7        43.498                                                                    22862953.854 6  95056609.56706     -2955.265 6        41.857
I06        22.000    38097404.369 7 149502625.36907      -210.193 7        42.760
S28        23.000    40914281.658 5 215006000.23205      -371.502 5        34.395
S23        25.000    38194131.119 7 200711530.86807      -372.463 7        44.233
E06        26.000    24103977.311 7 126667317.51207     -1886.455 7        46.634                                                                    24103976.846 8  94589230.32308     -1408.755 8        49.223    24103976.835 8  97056773.93908     -1445.431 8        50.901
R15        27.000    22316854.842 7 119254517.78507       196.378 7        47.175                                                                    22316854.549 7  92753527.96907       152.732 7        43.219
G26        28.000    24923747.596 6 130975178.29706      1602.233 6        36.488                                    24923746.545 4 102058581.30704      1248.488 4        27.880    24923747.662 5 102058582.32905      1248.465 5        34.876
C22        30.000                                                                                                                                    25042019.915 7 130400383.65007      2272.247 7        44.014                                                                    25042014.053 7 105960977.70507      1846.313 7        43.386
I01        31.000   335286841.554 7  12596773.91207     -2640.508 7        42.328
G02        32.000    24271659.034 7 127548455.03807     -3848.356 7        42.083                                    24271653.392 4  99388399.33104     -2998.718 4        27.234
G19        33.000    22783653.970 7 119728933.73307     -2123.115 7        42.853                                    22783648.057 5  93295292.41005     -1654.372 5        30.287
G17        34.000    23927021.232 7 125737385.18507     -3052.031 7        42.840                                    23927017.473 5  97977190.62905     -2378.202 5        35.367    23927017.524 6  97977190.64406     -2378.330 6        37.728
E11        35.000    26353907.775 6 138490779.15506     -3354.854 6        37.701                                                                    26353904.583 6 103418454.47706     -2505.260 6        41.597    26353904.172 7 106116320.04207     -2570.576 7        42.301
G11        36.000    25372271.321 6 133332190.22206      3199.566 6        38.093                                    25372269.642 3 103895206.63403      2493.195 3        20.690    25372269.398 6 103895206.63606      2493.174 6        37.233
C35        37.000                                                                                                                                    23200747.674 7 120812397.50707     -1456.745 7        47.631                                                                    23200746.505 7  98169968.13107     -1183.815 7        47.504
I09        38.000    37439124.349 7 146919162.35607      -530.867 7        42.309
C29        39.000                                                                                                                                    25092773.956 7 130664648.90407     -3715.570 7        43.416                                                                    25092773.051 7 106175721.55907     -3019.332 7        42.931
R22        40.000    20388779.353 8 108836723.11408      1086.821 8        51.541                                                                    20388777.173 7  84650800.04307       845.328 7        47.672
S44        42.000    40724873.537 6 214010842.92406      -454.458 6        37.399
C09        43.000                                                                                                                                    38505969.780 7 200510712.07707      -294.048 7        42.554    38505965.859 7 155047593.05107      -227.515 7        46.559    38505963.853 7 162931359.38807      -239.089 7        42.394
C05        44.000                                                                                                                                    39180186.052 6 204021538.57606      -400.012 6        38.991    39180179.713 7 157762418.68107      -309.369 7        42.671    39180182.235 6 165784314.77706      -325.240 6        39.859
R06        45.000    19485555.882 7 103978715.60307      -771.655 7        42.097
C44        46.000                                                                                                                                    24536433.217 7 127767680.50407      1167.259 7        43.092                                                                    24536431.541 7 103821710.24807       948.285 7        43.655
C39        47.000                                                                                                                                    39461494.778 6 205486370.93806     -1250.508 6        41.576                                                                    39461491.078 7 166974497.52507     -1016.370 7        42.009
C20        48.000                                                                                                                                    22942357.264 8 119466919.85708     -2155.057 8        50.333                                                                    22942351.432 8  97076650.14208     -1751.269 8        49.349
C06        49.000                                                                                                                                    38416227.549 6 200043405.02406      -797.986 6        40.350    38416222.496 7 154686233.93707      -617.232 7        44.807    38416221.918 6 162551632.34406      -648.612 6        41.325
C16        50.000                                                                                                                                    38940675.306 7 202774335.10507      -881.262 7        42.074    38940674.956 7 156797987.77307      -681.575 7        42.878    38940672.859 6 164770756.00506      -716.268 6        39.610
S48        51.000    77227924.705 6 405836609.66606      -368.920 6        37.293
C19        52.000                                                                                                                                    22099169.587 8 115076237.17308       324.540 8        50.982                                                                    22099164.615 8  93508872.67508       263.645 8        49.916
C60        54.000                                                                                                                                    40724875.257 6 212065309.21306      -450.406 6        40.191                                                                    40724859.760 6 172320403.14106      -366.032 6        39.877
R16        55.000    23007798.623 7 122903533.91007      3182.359 7        46.094                                                                    23007799.370 7  95591654.75707      2475.122 7        42.214
C37        56.000                                                                                                                                    24892152.433 7 129619983.19807       503.213 7        44.051                                                                    24892155.850 7 105326872.04107       408.766 7        44.805
C02        57.000                                                                                                                                    40671880.131 5 211789201.94205      -443.687 5        33.778    40671875.049 6 163768837.97306      -343.232 6        39.598    40671878.894 6 172096077.17706      -360.730 6        36.318
I03        58.000   131174845.133 6 438973019.05606       952.715 6        40.081
R07        59.000    21067132.097 8 112774028.47708      2076.050 8        50.649                                                                    21067130.770 7  87713134.44107      1614.697 7        45.505
> 2025 01 01 02 46 40.0000000  0 54
G28         1.000    24995157.166 6 131350426.25806     -3461.263 6        38.393                                    24995154.797 3 102350956.85303     -2697.094 3        20.429    24995154.757 6 102350962.85406     -2697.224 6        38.183
G31         2.000    22814007.142 7 119888434.06707     -2373.512 7        43.623                                    22814002.367 6  93419547.67406     -1849.490 6        39.601    22814002.640 6  93419546.67206     -1849.459 6        40.086
G09         3.000    20818554.894 8 109402285.29808      1591.605 8        48.967                                    20818552.276 8  85248544.45208      1240.208 8        50.667    20818552.284 7  85248545.46307      1240.121 7        44.901
E34         4.000    24924897.734 7 130981232.60307      1477.502 7        45.047                                                                    24924897.496 7  97810669.09907      1103.361 7        47.816    24924897.238 8 100362251.02508      1132.095 8        49.147
S21         5.000    38481539.029 7 202221646.16407      -376.742 7        42.857
E05         6.000    23607969.339 7 124060754.00407      1802.482 7        44.927                                                                    23607969.686 7  92642798.71707      1346.060 7        47.833    23607969.155 8  95059559.65508      1381.080 8        49.185
E04         8.000    25952160.432 6 136379546.60006     -2794.508 6        41.595                                                                    25952158.748 7 101841873.90507     -2086.830 7        45.738    25952158.522 7 104498610.41107     -2141.349 7        46.552
R14         9.000    24082998.724 7 128375920.58507     -2957.591 7        42.051                                                                    24083000.750 6  99847922.55806     -2300.339 6        40.288
G04        10.000    20096260.772 8 105606610.39108      -227.605 8        49.953                                    20096257.635 7  82290874.96207      -177.354 7        43.143    20096257.678 8  82290869.96508      -177.372 8        49.407
E09        11.000    23493350.214 8 123458439.21408      -709.271 8        48.221                                                                    23493349.481 8  92193007.92008      -529.675 8        50.572    23493349.077 8  94598042.08208      -543.459 8        51.719
S27        12.000    39110695.022 5 205528105.94105      -371.830 5        35.467
G06        13.000    22091922.293 7 116093864.06607      1912.803 7        45.362                                    22091920.857 7  90462756.05707      1490.495 7        44.891    22091921.705 7  90462767.05107      1490.522 7        43.427
S36        14.000    38248971.670 7 201000206.13207      -376.731 7        44.241
E21        15.000    28840223.067 5 151556401.19805      -324.060 5        31.872                                                                    28840224.562 5 113175274.77205      -241.956 5        34.605    28840224.455 6 116127667.95006      -248.349 6        37.539
E36        16.000    23660507.185 8 124336829.87108     -1393.095 8        48.202                                                                    23660507.230 8  92848948.14708     -1040.268 8        50.263    23660506.906 8  95271089.39908     -1067.422 8        51.409
S45        17.000    63442046.791 6 333390668.23206      -416.517 6        38.030
G03        18.000    20742551.469 8 109002900.02708     -2142.072 8        48.011                                    20742549.521 8  84937343.91108     -1669.147 8        49.736    20742549.826 7  84937352.90907     -1669.135 7        44.822
R21        19.000    20502262.885 8 109711783.75908     -3455.872 8        51.421                                                                    20502262.108 7  85331395.72107     -2687.940 7        45.762
R20        20.000                                                                                                                                    24217900.038 3                     -3937.287 3        22.324
R05        21.000    22866508.171 7 122234633.44307     -3799.925 7        43.162                                                                    22866507.944 6  95071386.28906     -2955.525 6        41.642
I06        22.000    38097672.669 7 149503677.01207      -210.486 7        42.984
S28        23.000    40914638.493 5 215007856.96505      -371.284 5        34.390
S23        25.000    38194484.958 7 200713392.91507      -372.532 7        44.212
E06        26.000    24105772.906 7 126676753.41807     -1887.988 7        46.501                                                                    24105772.468 8  94596276.61508     -1409.802 8        49.284    24105772.442 8  97064004.05008     -1446.621 8        50.988
R15        27.000    22316673.359 7 119253547.02007       191.865 7        47.039                                                                    22316672.070 7  92752772.93107       149.263 7        42.375
G26        28.000    24922223.803 6 130967172.35606      1600.040 6        36.805                                    24922223.108 4 102052342.91504      1246.785 4        28.000    24922223.479 5 102052343.92105      1246.846 5        35.290
C22        30.000                                                                                                                                    25039838.304 7 130389023.89207      2271.585 7        43.437                                                                    25039832.587 7 105951746.95707      1845.917 7        43.367
I01        31.000   335290206.128 7  12609976.71307     -2640.752 7        42.404
G02        32.000    24275320.913 6 127567698.84906     -3849.264 6        41.874                                    24275315.239 4  99403394.50404     -2999.429 4        27.389
G19        33.000    22785674.973 7 119739557.01207     -2126.208 7        42.993                                    22785669.566 5  93303570.28505     -1656.782 5        30.181
G17        34.000    23929925.946 7 125752648.34007     -3053.381 7        42.525                                    23929922.109 5  97989083.98705     -2379.256 5        35.514    23929922.060 6  97989083.99706     -2379.367 6        37.066
E11        35.000    26357100.383 6 138507555.89506     -3356.130 6        38.048                                                                    26357097.028 6 103430982.55306     -2506.031 6        41.249    26357096.392 7 106129174.93707     -2571.462 7        42.099
G11        36.000    25369227.120 6 133316194.06506      3198.827 6        38.018                                    25369225.298 3 103882742.12303      2492.590 3        20.381    25369225.376 6 103882742.17006      2492.492 6        37.444
C35        37.000                                                                                                                                    23202147.814 7 120819688.12507     -1459.549 7        47.687                                                                    23202146.563 7  98175892.34607     -1185.966 7        47.302
I09        38.000    37439800.584 7 146921816.73807      -531.055 7        42.345
C29        39.000                                                                                                                                    25096342.803 7 130683227.81107     -3716.078 7        43.583                                                                    25096340.802 7 106190818.44007     -3019.671 7        42.546
R22        40.000    20387763.076 8 108831299.77808      1082.366 8        51.442                                                                    20387761.267 7  84646581.88907       841.833 7        47.597
S44        42.000    40725304.168 6 214013115.43406      -454.569 6        36.983
C09        43.000                                                                                                                                    38506252.809 7 200512185.00607      -295.075 7        42.271    38506248.591 7 155048732.01407      -228.195 7        46.495    38506246.756 7 162932556.23307      -239.790 7        42.231
C05        44.000                                                                                                                                    39180570.254 6 204023539.63106      -400.427 6        38.868    39180564.402 7 157763966.03907      -309.627 7        43.031    39180566.526 6 165785940.78806      -325.217 6        39.787
R06        45.000    19486280.003 7 103982580.06907      -774.289 7        42.148
C44        46.000                                                                                                                                    24535313.778 7 127761851.01807      1164.577 7        42.705                                                                    24535311.961 7 103816973.29807       946.252 7        43.490
C39        47.000                                                                                                                                    39462695.603 6 205492625.38606     -1251.303 6        41.647                                                                    39462692.326 6 166979579.75706     -1016.711 6        41.828
C20        48.000                                                                                                                                    22944427.089 8 119477698.06208     -2156.304 8        49.943                                                                    22944421.278 8  97085408.28908     -1752.110 8        49.174
C06        49.000                                                                                                                                    38416994.239 6 200047397.39406      -798.867 6        40.505    38416989.027 7 154689321.08307      -617.769 7        44.701    38416988.720 6 162554876.45506      -649.207 6        41.073
C16        50.000                                                                                                                                    38941522.113 6 202778743.72606      -882.094 6        41.988    38941521.762 7 156801396.79207      -682.120 7        43.073    38941519.444 6 164774338.33806      -716.563 6        39.450
S48        51.000    77228277.990 6 405838455.29606      -369.339 6        37.259
C19        52.000                                                                                                                                    22098858.597 8 115074618.39608       322.900 8        50.898                                                                    22098853.731 8  93507557.27508       262.341 8        49.733
C60        54.000                                                                                                                                    40725307.408 6 212067561.06006      -450.476 6        39.973                                                                    40725292.197 6 172322232.94506      -366.058 6        39.628
R16        55.000    23004820.359 7 122887627.00207      3180.388 7        45.582                                                                    23004821.193 7  95579282.70007      2473.584 7        42.631
C37        56.000                                                                                                                                    24891670.459 7 129617473.70207       500.505 7        43.564                                                                    24891673.937 7 105324832.86507       406.605 7        44.688
C02        57.000                                                                                                                                    40672307.305 5 211791421.04315      -444.165 5        33.599    40672301.051 6 163770553.89406      -343.232 6        39.399    40672304.660 6 172097880.34206      -360.572 6        36.246
I03        58.000   131173631.222 6 438968255.69806       952.633 6        40.093
R07        59.000    21065194.020 8 112763652.89708      2074.114 8        49.889                                                                    21065192.115 7  87705064.55307      1613.127 7        46.108
> 2025 01 01 02 46 45.0000000  0 54
G28         1.000    24998450.897 6 131367736.92906     -3462.936 6        37.864                                    24998449.233 3 102364445.65903     -2698.389 3        20.310    24998449.011 6 102364451.65106     -2698.499 6        37.924
G31         2.000    22816266.989 7 119900308.75007     -2376.530 7        44.030                                    22816262.039 6  93428800.67006     -1851.840 6        39.670    22816262.368 6  93428799.67306     -1851.790 6        40.210
G09         3.000    20817041.197 8 109394332.08508      1589.558 8        49.143                                    20817038.833 8  85242347.14608      1238.617 8        50.720    20817039.024 7  85242348.15307      1238.583 7        44.932
E34         4.000    24923492.388 7 130973848.42407      1475.990 7        45.023                                                                    24923492.339 7  97805154.94407      1102.237 7        47.812    24923492.081 8 100356593.02408      1130.919 8        49.213
S21         5.000    38481897.841 7 202223529.36507      -376.578 7        42.764
E05         6.000    23606254.733 7 124051744.07307      1801.321 7        44.873                                                                    23606255.161 7  92636070.53307      1345.124 7        47.821    23606254.580 8  95052655.94408      1380.274 8        49.218
E04         8.000    25954819.546 6 136393520.37506     -2795.137 6        41.759                                                                    25954817.814 7 101852308.87107     -2087.290 7        45.681    25954817.635 7 104509317.59207     -2141.754 7        46.524
R14         9.000    24085774.866 6 128390716.46606     -2960.776 6        41.802                                                                    24085775.904 6  99859430.56106     -2302.854 6        39.441
G04        10.000    20096478.515 8 105607754.12708      -230.062 8        49.749                                    20096475.273 7  82291766.18507      -179.270 7        43.198    20096475.529 8  82291761.18708      -179.248 8        49.628
E09        11.000    23494025.685 8 123461989.11008      -710.848 8        48.277                                                                    23494024.947 8  92195658.81508      -530.846 8        50.599    23494024.589 8  94600762.13608      -544.708 8        51.739
S27        12.000    39111049.716 5 205529965.03305      -372.009 5        35.524
G06        13.000    22090103.328 7 116084305.48607      1910.511 7        45.088                                    22090101.917 7  90455307.81807      1488.710 7        44.981    22090102.629 7  90455318.82707      1488.641 7        43.390
S36        14.000    38249330.496 7 201002089.56207      -376.809 7        44.262
E21        15.000    28840532.102 5 151558026.86905      -326.379 5        32.605                                                                    28840534.064 5 113176488.77005      -243.685 5        34.795    28840533.560 6 116128913.62206      -250.267 6        37.471
E36        16.000    23661833.410 8 124343799.86108     -1395.080 8        48.156                                                                    23661833.518 8  92854153.00708     -1041.765 8        50.309    23661833.216 8  95276430.04208     -1068.961 8        51.409
S45        17.000    63442399.074 6 333392749.76006      -416.360 6        37.667
G03        18.000    20744590.403 7 109013613.94807     -2143.681 7        47.853                                    20744588.317 8  84945692.42008     -1670.398 8        49.770    20744589.027 7  84945701.42807     -1670.404 7        44.977
R21        19.000    20505493.325 8 109729071.18908     -3459.189 8        51.542                                                                    20505492.588 7  85344841.49807     -2690.424 7        46.577
R20        20.000                                                                                                                                    24222630.183 3                     -3936.000 3        22.876
R05        21.000    22870063.583 7 122253633.40307     -3800.158 7        44.536                                                                    22870062.416 7  95086164.01407     -2955.578 7        42.169
I06        22.000    38097940.619 7 149504728.84007      -210.422 7        43.189
S28        23.000    40914992.561 5 215009713.55705      -371.537 5        34.433
S23        25.000    38194840.712 7 200715255.20607      -372.525 7        44.173
E06        26.000    24107569.730 7 126686195.79707     -1889.152 7        46.569                                                                    24107569.297 8  94603327.74008     -1410.689 8        49.289    24107569.264 8  97071239.12008     -1447.521 8        50.995
R15        27.000    22316495.694 7 119252597.58007       187.722 7        46.534                                                                    22316494.518 7  92752034.49307       145.893 7        42.476
G26        28.000    24920702.075 6 130959176.17806      1597.987 6        36.979                                    24920701.544 4 102046112.13004      1245.185 4        28.028    24920701.633 5 102046113.15205      1245.319 5        35.405
C22        30.000                                                                                                                                    25037657.065 7 130377666.97207      2271.024 7        43.458                                                                    25037651.510 7 105942518.51507      1845.510 7        43.327
I01        31.000   335293570.715 7  12623180.09207     -2640.758 7        42.667
G02        32.000    24278983.480 6 127586945.87506     -3849.727 6        41.909                                    24278977.860 4  99418392.19204     -2999.790 4        26.958
G19        33.000    22787699.766 7 119750194.48607     -2128.862 7        42.942                                    22787693.802 5  93311859.23105     -1658.853 5        30.264
G17        34.000    23932830.910 7 125767917.20907     -3054.398 7        42.990                                    23932827.617 5  98000981.79905     -2380.051 5        35.519    23932827.590 6  98000981.80506     -2380.068 6        37.399
E11        35.000    26360293.617 6 138524337.05806     -3356.766 6        37.614                                                                    26360290.285 6 103443513.95406     -2506.588 6        41.058    26360289.636 7 106142033.23307     -2571.921 7        42.047
G11        36.000    25366184.360 6 133300201.02006      3198.396 6        37.792                                    25366181.639 3 103870280.05303      2492.259 3        20.476    25366181.500 6 103870280.08406      2492.227 6        38.003
C35        37.000                                                                                                                                    23203550.741 7 120826992.17807     -1462.161 7        47.622                                                                    23203549.217 7  98181827.48707     -1188.143 7        47.344
I09        38.000    37440477.313 7 146924471.74707      -531.032 7        42.322
C29        39.000                                                                                                                                    25099911.585 7 130701809.06507     -3716.508 7        43.399                                                                    25099908.973 7 106205917.22707     -3019.970 7        42.521
R22        40.000    20386751.386 8 108825897.74008      1078.265 8        51.933                                                                    20386749.107 7  84642380.30607       838.583 7        47.851
S44        42.000    40725739.624 6 214015387.98106      -454.457 6        36.794
C09        43.000                                                                                                                                    38506536.229 7 200513661.74007      -295.707 7        42.186    38506532.350 7 155049873.91807      -228.728 7        46.465    38506530.399 7 162933756.20407      -240.381 7        42.209
C05        44.000                                                                                                                                    39180954.326 6 204025540.79506      -400.098 6        38.817    39180948.832 7 157765513.46607      -309.496 7        42.955    39180950.647 6 165787566.90006      -325.249 6        39.550
R06        45.000    19487006.480 7 103986456.09207      -776.310 7        42.080
C44        46.000                                                                                                                                    24534196.905 7 127756033.96507      1162.174 7        42.830                                                                    24534194.951 7 103812246.46807       944.316 7        43.600
C39        47.000                                                                                                                                    39463897.482 6 205498882.47706     -1251.713 6        41.628                                                                    39463893.815 6 166984664.16006     -1017.114 6        41.907
C20        48.000                                                                                                                                    22946497.531 8 119488481.44608     -2157.296 8        49.816                                                                    22946492.099 8  97094170.66708     -1752.886 8        49.259
C06        49.000                                                                                                                                    38417762.255 6 200051393.33006      -799.609 6        40.548    38417756.476 7 154692411.00507      -618.302 7        44.655    38417755.991 6 162558123.49306      -649.831 6        41.321
C16        50.000                                                                                                                                    38942369.250 6 202783155.64206      -882.794 6        41.948    38942369.151 7 156804808.36307      -682.517 7        42.918    38942366.732 6 164777923.39006      -717.299 6        39.312
S48        51.000    77228633.242 6 405840301.11606      -369.148 6        37.183
C19        52.000                                                                                                                                    22098549.158 8 115073006.98008       321.559 8        50.866                                                                    22098544.293 8  93506247.87308       261.210 8        49.714
C60        54.000                                                                                                                                    40725739.622 6 212069812.94306      -450.313 6        39.730                                                                    40725724.729 6 172324062.78406      -365.921 6        39.889
R16        55.000    23001844.144 7 122871728.97007      3178.710 7        45.157                                                                    23001845.330 7  95566917.57007      2472.333 7        43.314
C37        56.000                                                                                                                                    24891191.103 7 129614977.17407       497.888 7        43.700                                                                    24891194.511 7 105322804.21907       404.670 7        44.859
C02        57.000                                                                                                                                    40672733.835 5 211793640.21405      -444.026 5        34.005    40672727.251 6 163772269.93406      -343.254 6        39.583    40672730.836 6 172099683.61406      -360.586 6        36.140
I03        58.000   131172417.498 6 438963492.50906       952.587 6        40.317
R07        59.000    21063256.914 8 112753285.94108      2072.523 8        49.934                                                                    21063255.666 7  87697001.36607      1611.953 7        46.018
> 2025 01 01 02 46 50.0000000  0 54
G28         1.000    25001746.855 6 131385055.93006     -3464.687 6        37.913                                    25001744.689 3 102377940.94503     -2699.749 3        19.522    25001744.252 6 102377946.94306     -2699.624 6        37.890
G31         2.000    22818529.463 7 119912198.73007     -2379.583 7        43.718                                    22818524.662 6  93438065.59006     -1854.226 6        39.814    22818525.256 6  93438064.59506     -1854.211 6        40.334
G09         3.000    20815529.722 8 109386389.82608      1587.347 8        48.906                                    20815527.473 8  85236158.37708      1236.893 8        50.825    20815527.601 7  85236159.38207      1236.852 7        44.743
E34         4.000    24922088.890 7 130966472.43807      1474.323 7        44.844                                                                    24922088.704 7  97799646.89707      1100.953 7        47.718    24922088.553 8 100350941.28608      1129.675 8        49.230
S21         5.000    38482252.463 7 202225412.59607      -376.688 7        43.041
E05         6.000    23604541.467 7 124042740.25607      1800.095 7        44.838                                                                    23604541.718 7  92629346.90007      1344.212 7        47.706    23604541.277 8  95045756.91508      1379.237 8        49.122
E04         8.000    25957479.415 7 136407497.20107     -2795.698 7        42.127                                                                    25957477.553 7 101862746.10507     -2087.647 7        45.502    25957477.329 7 104520027.10107     -2142.146 7        46.423
R14         9.000    24088552.484 6 128405528.11506     -2963.920 6        41.395                                                                    24088554.491 6  99870950.85306     -2305.290 6        39.994
G04        10.000    20096698.624 8 105608910.80908      -232.694 8        49.666                                    20096695.402 7  82292667.50007      -181.321 7        43.299    20096695.545 8  82292662.50008      -181.321 8        49.504
E09        11.000    23494703.042 8 123465547.48808      -712.563 8        48.157                                                                    23494702.096 8  92198316.04008      -532.088 8        50.513    23494701.748 8  94603488.68308      -545.982 8        51.693
S27        12.000    39111404.499 5 205531824.71905      -372.206 5        35.695
G06        13.000    22088286.513 7 116074758.79907      1908.145 7        45.109                                    22088285.263 7  90447868.84407      1486.867 7        45.099    22088285.871 7  90447879.85207      1486.810 7        43.943
S36        14.000    38249690.654 7 201003973.69807      -376.699 7        44.315
E21        15.000    28840843.775 5 151559664.38505      -328.916 5        32.862                                                                    28840845.818 5 113177711.65305      -245.566 5        35.148    28840845.261 6 116130168.40306      -252.044 6        37.803
E36        16.000    23663161.637 8 124350780.80508     -1397.279 8        48.248                                                                    23663161.947 8  92859366.04708     -1043.369 8        50.233    23663161.687 8  95281779.07508     -1070.653 8        51.389
S45        17.000    63442749.220 6 333394831.38906      -416.529 6        37.871
G03        18.000    20746630.825 8 109024336.91808     -2145.536 8        48.255                                    20746628.839 8  84954047.98208     -1671.844 8        49.888    20746629.699 7  84954056.98007     -1671.918 7        45.284
R21        19.000    20508727.093 8 109746375.74208     -3462.727 8        51.340                                                                    20508726.214 7  85358300.59007     -2693.166 7        45.818
R20        20.000                                                                                                                                    24227360.699 4                     -3935.442 4        24.045
R05        21.000    22873618.196 7 122272634.30407     -3800.325 7        44.734                                                                    22873617.063 7  95100942.49407     -2955.744 7        42.485
I06        22.000    38098208.675 7 149505780.80707      -210.363 7        43.014
S28        23.000    40915343.105 5 215011570.11705      -371.138 5        34.505
S23        25.000    38195196.300 7 200717117.67707      -372.576 7        44.182
E06        26.000    24109367.659 7 126695644.65807     -1890.492 7        46.477                                                                    24109367.367 8  94610383.70708     -1411.699 8        49.141    24109367.291 8  97078479.15108     -1448.539 8        50.981
R15        27.000    22316321.120 7 119251669.61807       183.358 7        45.983                                                                    22316321.604 7  92751312.75707       142.673 7        43.304
G26        28.000    24919182.281 6 130951189.88406      1596.483 6        36.631                                    24919181.872 4 102039889.04804      1243.995 4        28.218    24919182.164 5 102039890.05205      1243.993 5        35.181
C22        30.000                                                                                                                                    25035476.740 7 130366312.86707      2270.626 7        43.917                                                                    25035471.050 7 105933292.42207      1844.926 7        43.304
I01        31.000   335296935.449 7  12636384.04407     -2640.784 7        42.561
G02        32.000    24282646.732 6 127606196.14806     -3850.399 6        41.271                                    24282641.049 4  99433392.40104     -3000.310 4        26.814
G19        33.000    22789726.640 7 119760846.21507     -2131.797 7        43.627                                    22789720.699 5  93320159.27805     -1661.144 5        30.385
G17        34.000    23935737.435 7 125783191.75107     -3055.490 7        42.099                                    23935734.145 5  98012884.03305     -2380.900 5        35.538    23935734.638 6  98012884.02806     -2380.739 6        37.198
E11        35.000    26363487.614 6 138541122.66706     -3357.513 6        37.399                                                                    26363484.684 6 103456048.64406     -2507.154 6        40.844    26363483.972 6 106154894.93106     -2572.604 6        41.909
G11        36.000    25363141.329 6 133284211.09706      3197.597 6        38.634                                    25363138.955 3 103857820.39603      2491.625 3        20.690    25363139.597 6 103857820.41506      2491.708 6        37.713
C35        37.000                                                                                                                                    23204955.960 7 120834309.67407     -1464.905 7        47.749                                                                    23204954.567 7  98187773.57007     -1190.335 7        47.284
I09        38.000    37441154.002 7 146927127.39207      -531.187 7        42.284
C29        39.000                                                                                                                                    25103480.131 7 130720392.70607     -3717.033 7        42.574                                                                    25103477.738 7 106221017.96207     -3020.395 7        42.425
R22        40.000    20385743.255 8 108820516.96408      1073.997 8        51.534                                                                    20385741.177 7  84638195.26007       835.311 7        47.926
S44        42.000    40726168.761 6 214017660.55206      -454.592 6        37.180
C09        43.000                                                                                                                                    38506820.439 7 200515142.30707      -296.629 7        42.345    38506816.741 7 155051018.77107      -229.296 7        46.323    38506814.754 7 162934959.30907      -241.075 7        42.269
C05        44.000                                                                                                                                    39181338.581 6 204027542.11706      -400.332 6        38.922    39181332.886 7 157767061.01507      -309.646 7        42.973    39181335.167 6 165789193.16706      -325.315 6        39.712
R06        45.000    19487735.231 7 103990343.65507      -778.671 7        42.324
C44        46.000                                                                                                                                    24533082.466 7 127750229.36707      1159.649 7        43.530                                                                    24533080.287 7 103807529.77307       942.344 7        43.617
C39        47.000                                                                                                                                    39465099.663 7 205505142.24007     -1252.151 7        42.072                                                                    39465095.982 6 166989750.75606     -1017.624 6        41.776
C20        48.000                                                                                                                                    22948569.341 8 119499269.98108     -2158.305 8        50.346                                                                    22948563.892 8  97102937.26708     -1753.825 8        49.243
C06        49.000                                                                                                                                    38418530.859 6 200055392.83806      -800.308 6        40.961    38418524.326 7 154695503.67807      -618.865 7        44.451    38418523.908 6 162561373.44206      -650.396 6        41.020
C16        50.000                                                                                                                                    38943217.165 7 202787570.90107      -883.460 7        42.292    38943217.002 7 156808222.51407      -683.112 7        42.955    38943214.661 6 164781511.17106      -717.877 6        39.300
S48        51.000    77228983.205 6 405842147.04306      -369.447 6        37.157
C19        52.000                                                                                                                                    22098241.249 8 115071402.95208       320.030 8        51.279                                                                    22098236.251 8  93504944.49308       260.010 8        49.754
C60        54.000                                                                                                                                    40726172.260 6 212072064.86406      -450.482 6        40.107                                                                    40726157.237 6 172325892.66506      -365.970 6        39.715
R16        55.000    22998869.944 7 122855839.94107      3176.840 7        45.831                                                                    22998871.117 7  95554559.45307      2470.802 7        43.484
C37        56.000                                                                                                                                    24890714.284 7 129612493.59207       495.384 7        44.048                                                                    24890717.531 7 105320786.14707       402.494 7        45.001
C02        57.000                                                                                                                                    40673158.827 5 211795859.52905      -443.615 5        33.832    40673153.378 6 163773986.06006      -343.326 6        39.255    40673157.192 6 172101487.03806      -360.682 6        36.329
I03        58.000   131171203.610 6 438958729.45306       952.675 6        40.143
R07        59.000    21061321.861 8 112742927.58408      2070.789 8        49.407                                                                    21061320.539 7  87688944.88307      1610.527 7        45.857
> 2025 01 01 02 46 55.0000000  0 54
G28         1.000    25005043.509 6 131402383.04306     -3466.369 6        37.414                                    25005041.916 3 102391442.56103     -2701.062 3        19.075    25005041.045 6 102391448.55906     -2700.924 6        37.153
G31         2.000    22820794.932 7 119924103.87907     -2382.425 7        43.871                                    22820790.116 6  93447342.32906     -1856.436 6        39.712    22820790.568 6  93447341.34006     -1856.512 6        40.110
G09         3.000    20814020.437 8 109378458.31508      1585.216 8        49.076                                    20814018.153 8  85229977.98308      1235.233 8        50.777    20814018.227 7  85229978.99007      1235.171 7        44.515
E34         4.000    24920686.745 7 130959104.46907      1472.739 7        44.767                                                                    24920686.659 7  97794144.85207      1099.824 7        47.920    24920686.445 8 100345295.71008      1128.449 8        49.026
S21         5.000    38482607.032 7 202227295.72007      -376.522 7        42.718
E05         6.000    23602829.155 7 124033742.37307      1798.940 7        44.787                                                                    23602829.451 7  92622627.70707      1343.371 7        47.895    23602828.971 8  95038862.44208      1378.389 8        49.043
E04         8.000    25960139.813 7 136421476.93707     -2796.200 7        42.125                                                                    25960137.869 7 101873185.52507     -2088.082 7        45.684    25960137.458 7 104530738.86107     -2142.671 7        46.263
R14         9.000    24091334.319 7 128420355.23907     -2967.088 7        42.165                                                                    24091335.854 6  99882483.09506     -2307.652 6        40.753
G04        10.000    20096921.207 8 105610080.28108      -235.194 8        49.584                                    20096917.941 7  82293578.77807      -183.269 7        43.240    20096918.145 8  82293573.77708      -183.287 8        49.333
E09        11.000    23495381.874 8 123469114.17508      -714.188 8        48.081                                                                    23495380.812 8  92200979.47808      -533.307 8        50.625    23495380.446 8  94606221.59808      -547.235 8        51.561
S27        12.000    39111755.177 5 205533684.70305      -371.948 5        35.519
G06        13.000    22086471.997 7 116065223.83807      1905.845 7        44.867                                    22086470.821 7  90440439.01007      1485.073 7        45.010    22086471.506 7  90440450.01207      1485.182 7        43.581
S36        14.000    38250050.950 7 201005857.81907      -376.889 7        44.114
E21        15.000    28841157.937 5 151561313.47005      -330.983 5        32.994                                                                    28841159.469 5 113178943.21805      -247.440 5        35.310    28841158.821 6 116131432.05506      -253.622 6        37.040
E36        16.000    23664492.242 8 124357772.55408     -1399.482 8        48.147                                                                    23664492.477 8  92864587.15508     -1045.013 8        50.327    23664492.173 8  95287136.38308     -1072.277 8        51.177
S45        17.000    63443106.972 6 333396912.82506      -416.212 6        37.251
G03        18.000    20748673.149 8 109035068.80508     -2147.250 8        48.070                                    20748671.056 8  84962410.48708     -1673.183 8        49.796    20748671.505 7  84962419.49207     -1673.140 7        44.873
R21        19.000    20511964.322 8 109763697.30108     -3466.026 8        51.270                                                                    20511962.842 7  85371772.91307     -2695.824 7        45.482
R20        20.000                                                                                                                                    24232094.113 3                     -3936.797 3        23.600
R05        21.000    22877172.434 7 122291636.30507     -3800.512 7        44.456                                                                    22877171.307 7  95115721.82407     -2955.901 7        42.269
I06        22.000    38098476.664 7 149506832.86107      -210.450 7        42.976
S28        23.000    40915695.321 5 215013426.65705      -371.590 5        34.624
S23        25.000    38195550.054 7 200718979.91807      -372.419 7        44.245
E06        26.000    24111167.168 7 126705099.83407     -1891.761 7        46.559                                                                    24111166.627 8  94617444.39308     -1412.582 8        49.324    24111166.554 8  97085724.02908     -1449.453 8        50.751
R15        27.000    22316151.239 7 119250763.05407       179.126 7        46.617                                                                    22316151.402 7  92750607.65707       139.348 7        42.700
G26        28.000    24917664.649 6 130943213.35106      1593.996 6        36.794                                    24917663.908 4 102033673.56704      1242.079 4        28.142    24917664.215 5 102033674.54005      1242.398 5        34.733
C22        30.000                                                                                                                                    25033296.788 7 130354961.45407      2270.055 7        43.723                                                                    25033291.215 7 105924068.46507      1844.661 7        43.431
I01        31.000   335300300.095 7  12649588.45607     -2641.014 7        42.514
G02        32.000    24286309.900 6 127625449.48606     -3851.015 6        40.956                                    24286304.886 4  99448394.99904     -3000.802 4        26.491
G19        33.000    22791756.206 7 119771512.01207     -2134.541 7        43.420                                    22791750.364 5  93328470.28805     -1663.281 5        30.355
G17        34.000    23938645.181 6 125798471.77106     -3056.508 6        41.907                                    23938641.724 5  98024790.53605     -2381.695 5        35.324    23938642.439 6  98024790.54306     -2381.753 6        37.312
E11        35.000    26366683.212 6 138557912.54906     -3358.304 6        37.830                                                                    26366679.600 6 103468586.55706     -2507.889 6        41.032    26366679.006 6 106167759.92306     -2573.311 6        41.752
G11        36.000    25360099.436 6 133268224.17606      3197.152 6        39.024                                    25360096.678 3 103845363.07003      2491.284 3        20.262    25360097.401 6 103845363.08406      2491.165 6        38.285
C35        37.000                                                                                                                                    23206363.277 7 120841640.44207     -1467.513 7        47.517                                                                    23206362.342 7  98193730.41207     -1192.412 7        47.268
I09        38.000    37441831.002 7 146929783.56707      -531.279 7        42.178
C29        39.000                                                                                                                                    25107048.511 7 130738978.54107     -3717.405 7        42.260                                                                    25107047.110 7 106236120.44607     -3020.585 7        42.574
R22        40.000    20384738.788 8 108815157.35408      1069.753 8        51.564                                                                    20384737.142 7  84634026.67907       832.119 7        47.553
S44        42.000    40726602.307 6 214019933.02506      -454.514 6        37.289
C09        43.000                                                                                                                                    38507105.162 7 200516626.53707      -297.085 7        42.265    38507101.764 7 155052166.48107      -229.784 7        46.238    38507099.813 7 162936165.37507      -241.489 7        42.256
C05        44.000                                                                                                                                    39181723.226 6 204029543.39206      -400.138 6        39.006    39181717.169 7 157768608.54407      -309.612 7        42.745    39181719.409 6 165790819.36406      -325.121 6        39.775
R06        45.000    19488466.002 7 103994242.66607      -780.968 7        42.148
C44        46.000                                                                                                                                    24531970.163 7 127744437.04307      1157.194 7        43.820                                                                    24531967.803 7 103802823.04707       940.333 7        43.577
C39        47.000                                                                                                                                    39466302.126 7 205511404.51607     -1252.770 7        42.383                                                                    39466298.642 6 166994839.35706     -1017.934 6        41.909
C20        48.000                                                                                                                                    22950642.455 8 119510063.53308     -2159.207 8        50.567                                                                    22950636.642 8  97111707.90508     -1754.441 8        49.208
C06        49.000                                                                                                                                    38419299.622 6 200059395.78106      -801.026 6        41.073    38419292.983 7 154698599.00507      -619.336 7        44.488    38419292.602 6 162564626.15706      -650.926 6        41.154
C16        50.000                                                                                                                                    38944065.816 7 202791989.28607      -884.055 7        42.246    38944065.429 7 156811639.10707      -683.591 7        42.946    38944063.113 6 164785101.48106      -718.244 6        39.607
S48        51.000    77229333.391 6 405843992.84906      -369.147 6        37.270
C19        52.000                                                                                                                                    22097934.498 8 115069806.14208       318.649 8        51.288                                                                    22097929.576 8  93503646.95008       258.934 8        49.718
C60        54.000                                                                                                                                    40726604.975 6 212074316.66606      -450.408 6        40.255                                                                    40726589.549 6 172327722.45506      -365.896 6        39.754
R16        55.000    22995897.148 7 122839959.80907      3175.143 7        45.512                                                                    22995898.196 7  95542208.22407      2469.577 7        42.806
C37        56.000                                                                                                                                    24890239.467 7 129610022.83707       492.872 7        44.078                                                                    24890243.002 7 105318778.44907       400.572 7        45.052
C02        57.000                                                                                                                                    40673584.982 5 211798078.82405      -443.796 5        34.100    40673579.426 6 163775702.14006      -343.272 6        39.652    40673583.177 6 172103290.37506      -360.367 6        36.204
I03        58.000   131169990.167 6 438953966.48406       952.604 6        40.276
R07        59.000    21059388.074 8 112732577.59508      2069.134 8        49.961                                                                    21059386.759 7  87680894.88207      1609.349 7        45.428
