     3.04           OBSERVATION DATA    M                   RINEX VERSION / TYPE
ssrcrin-15.6.1x                         20250101 000000 UTC PGM / RUN BY / DATE 
(00000000023479385599111004) Septentrio proprietary         COMMENT             
rref                                                        MARKER NAME         
01                                                          MARKER NUMBER       
geodetic                                                    MARKER TYPE         
NFB                 CLIMERS@TUW                             OBSERVER / AGENCY   
3297213             SEPT ASTERX SB3 PROB4.14.4              REC # / TYPE / VERS 
Unknown             Unknown                                 ANT # / TYPE        
  4127831.9488  1207193.3655  4695247.2003                  APPROX POSITION XYZ 
        0.0000        0.0000        0.0000                  ANTENNA: DELTA H/E/N
G   23 X1  C1C L1C D1C S1C C1W S1W C2W L2W D2W S2W C2L L2L  SYS / # / OBS TYPES 
       D2L S2L C5Q L5Q D5Q S5Q C1L L1L D1L S1L              SYS / # / OBS TYPES 
E   21 X1  C1C L1C D1C S1C C6C L6C D6C S6C C5Q L5Q D5Q S5Q  SYS / # / OBS TYPES 
       C7Q L7Q D7Q S7Q C8Q L8Q D8Q S8Q                      SYS / # / OBS TYPES 
S    9 X1  C1C L1C D1C S1C C5I L5I D5I S5I                  SYS / # / OBS TYPES 
R   17 X1  C1C L1C D1C S1C C2P L2P D2P S2P C2C L2C D2C S2C  SYS / # / OBS TYPES 
       C3Q L3Q D3Q S3Q                                      SYS / # / OBS TYPES 
C   25 X1  C1P L1P D1P S1P C5P L5P D5P S5P C2I L2I D2I S2I  SYS / # / OBS TYPES 
       C7I L7I D7I S7I C6I L6I D6I S6I C7D L7D D7D S7D      SYS / # / OBS TYPES 
J   17 X1  C1C L1C D1C S1C C2L L2L D2L S2L C5Q L5Q D5Q S5Q  SYS / # / OBS TYPES 
       C1L L1L D1L S1L                                      SYS / # / OBS TYPES 
I    5 X1  C5A L5A D5A S5A                                  SYS / # / OBS TYPES 
SEPTENTRIO RECEIVERS OUTPUT ALIGNED CARRIER PHASES.         COMMENT             
NO FURTHER PHASE SHIFT APPLIED IN THE RINEX ENCODER.        COMMENT             
G L1C                                                       SYS / PHASE SHIFT   
G L2W                                                       SYS / PHASE SHIFT   
G L2L  0.00000                                              SYS / PHASE SHIFT   
G L5Q  0.00000                                              SYS / PHASE SHIFT   
G L1L  0.00000                                              SYS / PHASE SHIFT   
E L1C  0.00000                                              SYS / PHASE SHIFT   
E L6C  0.00000                                              SYS / PHASE SHIFT   
E L5Q  0.00000                                              SYS / PHASE SHIFT   
E L7Q  0.00000                                              SYS / PHASE SHIFT   
E L8Q  0.00000                                              SYS / PHASE SHIFT   
S L1C                                                       SYS / PHASE SHIFT   
S L5I                                                       SYS / PHASE SHIFT   
R L1C                                                       SYS / PHASE SHIFT   
R L2P  0.00000                                              SYS / PHASE SHIFT   
R L2C                                                       SYS / PHASE SHIFT   
R L3Q  0.00000                                              SYS / PHASE SHIFT   
C L1P  0.00000                                              SYS / PHASE SHIFT   
C L5P  0.00000                                              SYS / PHASE SHIFT   
C L2I                                                       SYS / PHASE SHIFT   
C L7I                                                       SYS / PHASE SHIFT   
C L6I                                                       SYS / PHASE SHIFT   
C L7D                                                       SYS / PHASE SHIFT   
J L1C                                                       SYS / PHASE SHIFT   
J L2L  0.00000                                              SYS / PHASE SHIFT   
J L5Q  0.00000                                              SYS / PHASE SHIFT   
J L1L  0.00000                                              SYS / PHASE SHIFT   
I L5A                                                       SYS / PHASE SHIFT   
  2025     1     1     0     0    0.0000000     GPS         TIME OF FIRST OBS   
 C1C    0.000 C2C    0.000 C2P    0.000                     GLONASS COD/PHS/BIS 
DBHZ                                                        SIGNAL STRENGTH UNIT
    18                                                      LEAP SECONDS        
 24 R01  1 R02 -4 R03  5 R04  6 R05  1 R06 -4 R07  5 R08  6 GLONASS SLOT / FRQ #
    R09 -2 R10 -7 R11  0 R12 -1 R13 -2 R14 -7 R15  0 R16 -1 GLONASS SLOT / FRQ #
    R17  4 R18 -3 R19  3 R20  2 R21  4 R22 -3 R23  3 R24  2 GLONASS SLOT / FRQ #
                                                            END OF HEADER       
> 2025 01 01 00 00  0.0000000  0 56
G28         1.000    24378208.344 6 128108354.94906      1965.265 6        40.451                                    24378204.843 4  99824671.15304      1531.362 4        24.271    24378204.925 6  99824677.16206      1531.420 6        40.024
G31         2.000    25125062.625 5 132033095.83205      2826.318 5        33.994
G14         3.000    24801526.577 6 130332944.18606     -2413.781 6        37.645                                    24801523.160 3 101558142.77403     -1880.865 3        18.627    24801525.564 6 101558144.77506     -1880.911 6        36.068
G10         4.000    25223246.210 6 132549111.16406     -3533.592 6        38.234                                    25223244.899 4 103285030.49304     -2753.451 4        28.910    25223244.932 5 103285029.48105     -2753.239 5        34.390
S21         5.000    38597721.169 7 202832280.00807      -417.331 7        42.112
R12         6.000    23994118.384 6 128172301.92806     -1072.197 6        41.893                                                                    23994120.903 6  99689584.63606      -833.774 6        40.677
G21         7.000    21159236.880 7 111192604.66607     -1650.870 7        45.032                                    21159231.626 6  86643592.98606     -1286.393 6        37.267
E04         8.000    24098112.896 7 126636460.68707       562.097 7        47.412                                                                    24098111.155 8  94566192.89508       419.813 8        50.075    24098110.945 8  97033129.02608       430.714 8        50.978
G04        10.000    24845748.326 6 130565296.27706      3429.080 6        36.552                                    24845748.081 3 101739191.71103      2671.984 3        20.452    24845747.489 6 101739186.73706      2672.090 6        38.523
E09        11.000    26440454.101 7 138945556.31007      2607.648 7        42.902                                                                    26440454.271 7 103758057.98907      1947.320 7        45.699    26440453.514 7 106464789.68007      1998.114 7        46.169
S27        12.000    39254942.648 5 206286090.51605      -393.755 5        35.686
S36        14.000    38365546.486 7 201612819.42607      -416.672 7        43.911
E02        15.000    27567385.302 6 144867620.99506     -2103.976 6        38.715                                                                    27567385.016 6 108180385.62806     -1571.115 6        40.775    27567384.264 6 111002478.13806     -1612.153 6        41.230
E36        16.000    25355400.048 7 133243553.17807      1664.292 7        44.400                                                                    25355400.786 7  99500072.15107      1242.865 7        47.499    25355400.469 8 102095721.05608      1275.285 8        48.384
S45        17.000    63568033.921 6 334053043.82806      -459.360 6        37.565
G03        18.000    21229962.395 7 111564257.30907      1751.002 7        47.133                                    21229960.586 8  86933205.91508      1364.414 8        48.016    21229961.311 7  86933214.92207      1364.419 7        44.638
R21        19.000    22269480.252 7 119168517.05207      3372.910 7        46.851                                                                    22269479.116 7  92686632.28507      2623.334 7        42.133
R20        20.000    19384013.745 6 103655073.69306       254.047 6        41.483                                                                    19384014.064 7  80620612.70107       197.576 7        47.715
R05        21.000    19340633.609 8 103386811.97308       530.378 8        52.369                                                                    19340632.056 7  80411970.58207       412.522 7        47.242
I06        22.000    38449278.129 7 150883455.93407      -205.083 7        42.535
S28        23.000    41044124.985 5 215688350.84005      -409.019 5        34.471
E10        24.000    24442598.935 7 128446849.37907     -1814.658 7        47.252                                                                    24442597.623 8  95918169.92208     -1355.106 8        49.950    24442597.547 8  98420373.42508     -1390.419 8        50.718
S23        25.000    38317834.269 7 201361542.31207      -414.072 7        45.077
E06        26.000    24801312.905 7 130331833.75707      1858.153 7        46.459                                                                    24801312.839 8  97325717.85208      1387.568 8        48.443    24801312.659 8  99864648.31408      1423.771 8        49.315
E30        27.000    28670745.874 6 150665788.51506        95.974 6        36.514                                                                    28670747.348 6 112510167.91406        71.742 6        40.479    28670746.681 6 115445213.53206        73.712 6        41.342
E12        28.000    26323892.453 6 138333134.21006     -2620.563 6        39.535                                                                    26323889.286 7 103300791.08807     -1956.925 7        42.882    26323889.409 7 105995581.97607     -2007.794 7        44.322
E19        30.000    25838670.679 6 135783143.46106     -2470.570 6        38.333                                                                    25838668.894 6 101396502.06406     -1845.001 6        39.997    25838668.709 6 104041625.53206     -1893.176 6        41.066
G32        31.000    22848087.988 7 120067531.04007     -2624.656 7        46.301                                    22848085.943 7  93559112.38407     -2045.190 7        44.321    22848086.590 7  93559117.38107     -2045.137 7        42.529
G02        32.000    20846648.411 8 109549922.32608      -175.584 8        50.419                                    20846641.685 7  85363573.28007      -136.821 7        44.017
G19        33.000    25552585.065 6 134279736.15906      3294.041 6        36.945                                    25552581.180 2 104633572.19302      2566.828 2        17.208
G17        34.000    23399787.505 7 122966762.23607      1925.931 7        43.200                                    23399782.700 6  95818266.18506      1500.725 6        39.360    23399783.083 6  95818266.19006      1500.681 6        39.387
E11        35.000    23407975.311 7 123009811.98407      -495.747 7        44.233                                                                    23407970.646 7  91857996.09407      -370.194 7        46.973    23407970.648 8  94254283.99808      -379.787 8        48.043
C32        36.000                                                                                                                                    22712311.330 8 118268995.77708     -2055.980 8        49.816                                                                    22712311.412 8  96103258.14408     -1670.490 8        50.367
C35        37.000                                                                                                                                    26068899.505 6 135747601.19906      2732.153 6        40.963                                                                    26068898.689 6 110306041.86906      2220.293 6        41.199
C41        38.000                                                                                                                                    27062756.347 6 140922878.36906     -3607.013 6        38.153                                                                    27062761.436 6 114511408.59106     -2930.813 6        40.184
C29        39.000                                                                                                                                    22032521.174 8 114729125.43708       355.303 8        50.523                                                                    22032518.730 8  93226807.41708       288.876 8        48.931
G08        40.000    23722137.031 6 124660715.19106     -4027.612 6        41.731                                    23722136.733 6  97138241.52006     -3138.398 6        37.028    23722137.504 6  97138248.52506     -3138.398 6        39.324
S44        42.000    40704133.951 6 213901850.83106      -477.697 6        37.709
C09        43.000                                                                                                                                    40323472.384 6 209974914.49106      1217.646 6        38.435    40323469.326 7 162365911.69207       941.528 7        43.088    40323467.574 6 170621796.68106       989.670 6        39.450
C05        44.000                                                                                                                                    39285907.676 6 204572065.86606      -397.205 6        38.105    39285903.372 7 158188121.94807      -306.993 7        43.875    39285904.950 6 166231663.90006      -322.490 6        40.198
R06        45.000    23545255.614 5 125642018.75105      3749.283 5        34.933
R13        46.000    24374544.442 5 130158712.59905      1450.949 5        34.995
C39        47.000                                                                                                                                    39371857.809 6 205019604.47006       409.118 6        41.728                                                                    39371853.509 7 166595211.60607       332.502 7        42.929
C20        48.000                                                                                                                                    22566770.981 8 117511143.34808      1267.889 8        51.691                                                                    22566765.560 8  95487420.99108      1030.386 8        48.952
C06        49.000                                                                                                                                    39363966.640 6 204978520.13706       916.747 6        39.177    39363961.259 7 158502376.10107       709.036 7        42.728    39363960.664 6 166561816.10606       745.327 6        39.871
C16        50.000                                                                                                                                    39668447.512 6 206564034.08406       797.901 6        39.339    39668448.265 6 159728421.87906       616.949 6        41.659    39668446.058 6 167850195.63806       648.489 6        37.856
S48        51.000    77352800.855 6 406493006.51306      -425.939 6        37.074
C19        52.000                                                                                                                                    26228531.099 7 136578871.47607      2808.425 7        42.205                                                                    26228526.255 6 110981518.39106      2282.217 6        41.814
R04        53.000    20598014.800 8 110301463.30108     -3333.374 8        50.628                                                                    20598012.568 7  85790035.36607     -2592.564 7        45.780
C60        54.000                                                                                                                                    40704133.135 6 211957307.98406      -473.366 6        38.498                                                                    40704117.603 6 172232644.64706      -384.533 6        39.907
C30        55.000                                                                                                                                    23040984.259 8 119980446.39608     -2878.062 8        49.008                                                                    23040984.659 7  97493938.92907     -2338.474 7        47.632
R19        56.000    22004293.683 6 117708174.05706     -3953.670 6        38.096                                                                    22004293.622 6  91550840.30606     -3075.030 6        41.452
C02        57.000                                                                                                                                    40691349.477 5 211890580.03705      -439.456 5        33.838    40691341.971 6 163847231.20906      -339.790 6        39.856    40691345.924 6 172178456.21906      -356.915 6        36.287
I03        58.000   134522703.423 6 452110741.49906       997.752 6        40.982
C13        59.000                                                                                                                                    41023906.850 6 213622312.22906     -1144.731 6        36.401    41023908.130 6 165186364.19606      -885.166 6        37.822    41023906.444 6 173585657.28706      -930.222 6        36.552
E25        60.000    28616805.756 6 150382310.74906     -3193.242 6        36.612                                                                    28616807.812 6 112298475.67106     -2384.753 6        38.321    28616806.806 6 115228000.45706     -2446.659 6        38.393
> 2025 01 01 00 00  5.0000000  0 56
G28         1.000    24376339.417 6 128098532.24006      1963.642 6        40.417                                    24376335.513 4  99817017.09904      1530.112 4        24.602    24376336.216 6  99817023.09806      1530.187 6        39.931
G31         2.000    25122372.738 5 132018966.76505      2825.502 5        32.653
G14         3.000    24803823.885 6 130345017.47406     -2415.543 6        37.429                                    24803820.796 3 101567550.52903     -1882.253 3        18.866    24803821.016 6 101567552.52806     -1882.273 6        36.023
G10         4.000    25226608.124 6 132566777.71406     -3533.177 6        38.544                                    25226606.768 4 103298796.63304     -2753.126 4        29.403    25226606.443 5 103298795.68005     -2753.496 5        34.614
S21         5.000    38598118.978 7 202834366.12107      -417.160 7        42.271
R12         6.000    23995124.859 7 128177673.19307     -1076.256 7        43.010                                                                    23995126.339 6  99693762.22006      -836.739 6        40.572
G21         7.000    21160808.153 7 111200862.90607     -1652.486 7        44.862                                    21160803.115 6  86650027.97206     -1287.650 6        37.440
E04         8.000    24097579.052 7 126633655.40407       559.991 7        47.545                                                                    24097577.366 8  94564098.04908       418.148 8        50.045    24097577.096 8  97030979.52608       429.095 8        51.073
G04        10.000    24842486.104 6 130548150.58906      3429.210 6        36.344                                    24842485.492 3 101725831.45203      2672.115 3        19.881    24842484.868 6 101725826.47606      2672.079 6        38.213
E09        11.000    26437973.022 7 138932519.51507      2607.059 7        42.935                                                                    26437973.300 7 103748322.74007      1946.815 7        45.552    26437972.675 7 106454800.47007      1997.543 7        46.245
S27        12.000    39255309.992 5 206288058.19805      -393.536 5        35.833
S36        14.000    38365943.817 7 201614901.85207      -416.463 7        44.000
E02        15.000    27569387.428 6 144878144.32106     -2105.428 6        38.423                                                                    27569387.484 6 108188243.95306     -1572.265 6        40.880    27569386.632 6 111010541.47106     -1613.310 6        41.449
E36        16.000    25353816.769 7 133235232.41707      1663.908 7        44.167                                                                    25353817.448 7  99493858.60407      1242.532 7        47.485    25353817.045 8 102089345.41408      1274.948 8        48.418
S45        17.000    63568425.961 6 334055340.25706      -459.217 6        37.611
G03        18.000    21228297.019 7 111555506.39707      1749.365 7        47.063                                    21228295.332 8  86926387.02708      1363.141 8        48.128    21228295.930 7  86926396.02307      1363.074 7        44.551
R21        19.000    22266329.274 7 119151654.21607      3372.067 7        46.420                                                                    22266327.928 6  92673516.74706      2622.786 6        41.812
R20        20.000    19383777.176 6 103653811.49106       250.772 6        41.421                                                                    19383777.859 7  80619630.98307       195.103 7        47.051
R05        21.000    19340139.296 8 103384169.12308       526.657 8        52.083                                                                    19340137.644 7  80409915.02407       409.671 7        47.106
I06        22.000    38449539.246 7 150884480.94207      -204.978 7        42.383
S28        23.000    41044518.855 5 215690395.85305      -408.816 5        34.538
E10        24.000    24444325.730 7 128455925.04007     -1815.703 7        47.395                                                                    24444324.663 8  95924947.19908     -1355.849 8        49.926    24444324.651 8  98427327.49908     -1391.227 8        50.839
S23        25.000    38318228.129 7 201363611.83207      -413.814 7        45.208
E06        26.000    24799545.418 7 130322546.38807      1856.702 7        46.222                                                                    24799545.555 8  97318782.48208      1386.517 8        48.380    24799545.345 8  99857532.02008      1422.675 8        49.331
E30        27.000    28670655.420 6 150665313.25006        93.635 6        36.688                                                                    28670656.792 6 112509813.07706        70.117 6        41.194    28670656.464 7 115444849.43607        71.932 7        42.466
E12        28.000    26326386.286 6 138346238.48906     -2621.150 6        39.844                                                                    26326382.947 7 103310576.74907     -1957.260 7        42.792    26326383.280 7 106005622.92507     -2008.456 7        44.348
E19        30.000    25841022.099 6 135795500.15006     -2472.019 6        37.826                                                                    25841020.505 6 101405729.45006     -1846.089 6        39.685    25841020.171 6 104051093.63306     -1894.267 6        40.968
G32        31.000    22850586.312 7 120080659.70407     -2626.897 7        45.992                                    22850584.211 7  93569342.51107     -2046.933 7        44.433    22850584.739 7  93569347.51707     -2047.034 7        42.318
G02        32.000    20846816.345 8 109550804.66508      -177.427 8        50.312                                    20846809.595 7  85364260.81707      -138.256 7        44.113
G19        33.000    25549451.427 6 134263267.08106      3293.527 6        36.790                                    25549447.136 3 104620739.16003      2566.401 3        18.806
G17        34.000    23397955.312 7 122957137.63107      1923.964 7        43.283                                    23397951.195 6  95810766.49406      1499.188 6        39.504    23397951.377 6  95810766.51106      1499.158 6        39.003
E11        35.000    23408447.438 7 123012293.40207      -496.842 7        44.065                                                                    23408442.887 7  91859849.10507      -371.027 7        46.977    23408442.885 8  94256185.34808      -380.644 8        48.128
C32        36.000                                                                                                                                    22714286.146 8 118279279.43508     -2057.595 8        49.754                                                                    22714286.299 8  96111614.46208     -1671.999 8        50.336
C35        37.000                                                                                                                                    26066276.725 6 135733941.57206      2731.608 6        40.927                                                                    26066275.366 6 110294942.32006      2219.594 6        40.942
C41        38.000                                                                                                                                    27066219.533 6 140940912.92706     -3606.762 6        38.027                                                                    27066224.822 6 114526063.17006     -2930.959 6        40.095
C29        39.000                                                                                                                                    22032181.076 8 114727354.24608       353.072 8        50.504                                                                    22032178.608 8  93225368.18408       286.844 8        48.936
G08        40.000    23725969.356 6 124680854.53306     -4028.083 6        41.323                                    23725968.972 6  97153934.51206     -3138.765 6        36.907    23725969.762 6  97153941.51606     -3138.866 6        39.192
S44        42.000    40704587.342 6 213904238.42706      -477.475 6        37.660
C09        43.000                                                                                                                                    40322303.218 6 209968827.13706      1217.185 6        38.315    40322300.669 7 162361204.57307       941.255 7        43.194    40322298.552 6 170616850.22306       989.065 6        39.378
C05        44.000                                                                                                                                    39286289.284 6 204574050.52106      -396.894 6        38.192    39286284.381 7 158189656.61707      -306.811 7        43.824    39286286.035 6 166233276.59706      -322.460 6        40.417
R06        45.000    23541741.826 5 125623273.81605      3748.385 5        35.238
R13        46.000    24373187.028 5 130151465.70805      1447.378 5        35.914
C39        47.000                                                                                                                                    39371465.768 6 205017561.15706       408.261 6        41.671                                                                    39371461.091 7 166593551.24507       331.642 7        43.065
C20        48.000                                                                                                                                    22565554.575 8 117504808.33808      1266.021 8        51.525                                                                    22565548.960 8  95482273.28608      1028.684 8        49.003
C06        49.000                                                                                                                                    39363087.099 6 204973937.25906       916.257 6        39.216    39363081.348 7 158498832.33907       708.419 7        42.648    39363080.456 6 166558092.16006       744.400 6        39.760
C16        50.000                                                                                                                                    39667682.343 6 206560046.35506       797.124 6        39.565    39667682.607 6 159725338.31706       616.384 6        41.652    39667680.132 6 167846955.26106       647.791 6        37.803
S48        51.000    77353197.931 6 406495135.36906      -425.596 6        37.331
C19        52.000                                                                                                                                    26225834.344 7 136564830.14507      2808.069 7        42.396                                                                    26225829.983 6 110970108.67106      2281.623 6        41.897
R04        53.000    20601128.449 8 110318135.54808     -3335.633 8        51.168                                                                    20601126.260 7  85803002.67007     -2594.362 7        45.952
C60        54.000                                                                                                                                    40704587.501 6 211959673.88206      -473.166 6        38.541                                                                    40704571.767 6 172234567.12506      -384.599 6        39.748
C30        55.000                                                                                                                                    23043748.217 8 119994840.43608     -2879.697 8        48.957                                                                    23043749.003 7  97505635.26307     -2339.979 7        47.718
R19        56.000    22007990.558 6 117727947.08306     -3955.537 6        37.599                                                                    22007989.951 6  91566219.32106     -3076.570 6        41.311
C02        57.000                                                                                                                                    40691770.794 5 211892776.80405      -439.282 5        33.485    40691763.994 6 163848929.86906      -339.592 6        39.859    40691767.844 6 172180241.26706      -356.890 6        36.095
I03        58.000   134521432.739 6 452105752.81606       997.715 6        40.794
C13        59.000                                                                                                                                    41025005.334 6 213628034.61806     -1144.298 6        36.560    41025007.755 6 165190789.09806      -884.847 6        38.123    41025005.486 6 173590307.17706      -929.931 6        36.461
E25        60.000    28619843.870 6 150398276.33806     -3193.001 6        36.507                                                                    28619846.192 6 112310398.01406     -2384.348 6        38.204    28619844.935 6 115240233.80706     -2446.512 6        38.532
> 2025 01 01 00 00 10.0000000  0 56
G28         1.000    24374471.919 6 128088719.06206      1961.832 6        40.555                                    24374468.195 4  99809370.46504      1528.688 4        24.617    24374468.752 6  99809376.46806      1528.706 6        39.444
G31         2.000    25119685.816 5 132004839.78105      2825.241 5        33.898                                    25119682.021 3 102860898.64213      2201.484 3        19.284
G14         3.000    24806122.979 6 130357100.66106     -2417.579 6        36.733                                    24806119.984 3 101576965.98103     -1883.827 3        18.418    24806121.041 6 101576967.96306     -1883.938 6        36.042
G10         4.000    25229970.676 6 132584445.17506     -3533.529 6        38.330                                    25229968.659 4 103312563.48704     -2753.411 4        29.507    25229968.011 5 103312562.48905     -2753.277 5        34.871
S21         5.000    38598513.858 6 202836452.69906      -417.236 6        41.797
R12         6.000    23996133.928 7 128183064.86707     -1080.523 7        42.637                                                                    23996135.790 6  99697955.49006      -840.243 6        40.215
G21         7.000    21162381.621 7 111209130.83907     -1654.402 7        44.924                                    21162376.415 6  86656470.51806     -1289.145 6        37.384
E04         8.000    24097047.673 7 126630862.19507       557.601 7        47.560                                                                    24097045.809 8  94562012.21408       416.359 8        50.151    24097045.534 8  97028839.28308       427.243 8        50.957
G04        10.000    24839224.399 6 130531006.38706      3428.675 6        36.922                                    24839223.134 3 101712472.35103      2671.708 3        20.238    24839222.463 6 101712467.35506      2671.757 6        38.018
E09        11.000    26435493.010 7 138919487.71307      2605.900 7        42.840                                                                    26435493.431 7 103738591.20707      1945.993 7        45.655    26435492.943 7 106444815.06607      1996.752 7        46.305
S27        12.000    39255686.802 5 206290026.09405      -393.415 5        35.624
S36        14.000    38366339.050 7 201616986.22407      -416.719 7        43.731
E02        15.000    27571392.293 6 144888677.11906     -2107.379 6        39.009                                                                    27571391.681 6 108196109.33906     -1573.739 6        40.994    27571391.176 6 111018612.04306     -1614.799 6        41.421
E36        16.000    25352233.912 7 133226915.32007      1663.226 7        44.322                                                                    25352234.766 7  99487647.79207      1241.992 7        47.517    25352234.362 8 102082972.57808      1274.352 8        48.377
S45        17.000    63568818.037 6 334057637.46506      -459.475 6        37.569
G03        18.000    21226633.419 7 111546765.18407      1747.430 7        46.879                                    21226631.919 8  86919575.69308      1361.634 8        48.125    21226632.459 7  86919584.69807      1361.579 7        44.464
R21        19.000    22263178.310 7 119134797.12207      3370.980 7        46.400                                                                    22263177.187 7  92660405.71307      2621.770 7        42.370
R20        20.000    19383543.945 6 103652567.17006       247.252 6        41.154                                                                    19383545.116 7  80618663.19007       192.297 7        46.998
R05        21.000    19339648.141 8 103381546.65108       522.581 8        51.919                                                                    19339647.308 7  80407875.33307       406.437 7        47.238
I06        22.000    38449800.864 7 150885506.48307      -205.002 7        42.491
S28        23.000    41044909.956 5 215692441.77405      -408.944 5        34.467
E10        24.000    24446054.041 7 128465007.69107     -1817.102 7        47.467                                                                    24446053.047 8  95931729.70208     -1356.964 8        49.982    24446053.013 8  98434286.93708     -1392.319 8        50.737
S23        25.000    38318620.845 7 201365682.02407      -414.050 7        44.823
E06        26.000    24797780.006 7 130313267.92507      1854.935 7        46.270                                                                    24797779.896 8  97311853.76508      1385.200 8        48.475    24797779.697 8  99850422.55208      1421.288 8        49.292
E30        27.000    28670567.166 6 150664850.18106        91.262 6        37.289                                                                    28670568.643 6 112509467.26206        68.236 6        41.585    28670568.181 7 115444494.61107        69.948 7        42.603
E12        28.000    26328880.619 6 138359347.83706     -2622.182 6        39.733                                                                    26328877.588 7 103320366.20407     -1958.250 7        42.916    26328877.799 7 106015667.75607     -2009.307 7        44.388
E19        30.000    25843375.178 6 135807865.78606     -2473.980 6        37.928                                                                    25843373.480 6 101414963.50606     -1847.283 6        40.102    25843373.407 6 104060568.59506     -1895.587 6        41.027
G32        31.000    22853086.645 7 120093800.45407     -2629.249 7        46.096                                    22853084.779 7  93579582.05507     -2048.763 7        44.391    22853085.273 7  93579587.04907     -2048.761 7        42.263
G02        32.000    20846986.253 8 109551697.92208      -179.633 8        50.389                                    20846979.574 7  85364956.86007      -139.975 7        44.027
G19        33.000    25546318.352 6 134246802.72106      3292.569 6        37.966                                    25546314.049 3 104607909.83203      2565.609 3        18.298
G17        34.000    23396126.421 7 122947524.12607      1921.697 7        44.078                                    23396121.814 6  95803275.45606      1497.428 6        39.390    23396122.314 6  95803275.45106      1497.433 6        39.712
E11        35.000    23408921.127 7 123014782.49307      -498.415 7        44.196                                                                    23408916.562 7  91861707.84207      -372.215 7        47.057    23408916.513 8  94258092.57208      -381.828 8        48.151
C32        36.000                                                                                                                                    22716262.923 8 118289572.85808     -2059.595 8        50.024                                                                    22716263.018 8  96119978.71108     -1673.516 8        50.360
C35        37.000                                                                                                                                    26063654.457 6 135720285.61106      2730.988 6        41.979                                                                    26063652.601 6 110283845.76506      2219.079 6        40.920
C41        38.000                                                                                                                                    27069682.947 6 140958948.25406     -3607.107 6        38.213                                                                    27069688.449 6 114540718.36106     -2930.968 6        40.055
C29        39.000                                                                                                                                    22031843.518 8 114725596.06908       350.401 8        50.586                                                                    22031840.901 8  93223939.52508       284.739 8        48.939
G08        40.000    23729802.629 6 124700997.80906     -4028.925 6        41.578                                    23729802.074 6  97169630.56106     -3139.424 6        36.896    23729803.395 6  97169637.57206     -3139.455 6        39.787
S44        42.000    40705039.320 6 213906626.75806      -477.719 6        37.543
C09        43.000                                                                                                                                    40321135.162 6 209962743.30606      1216.547 6        38.459    40321132.492 7 162356500.17907       940.703 7        43.289    40321130.129 6 170611906.61106       988.588 6        39.586
C05        44.000                                                                                                                                    39286670.316 6 204576035.97206      -397.186 6        38.084    39286665.685 7 158191191.89007      -307.101 7        43.708    39286667.281 6 166234889.92306      -322.490 6        40.253
R06        45.000    23538229.189 5 125604534.58405      3747.530 5        35.390
R13        46.000    24371835.138 6 130144236.73306      1444.174 6        36.310
C39        47.000                                                                                                                                    39371074.626 6 205015523.38106       407.184 6        41.819                                                                    39371069.790 7 166591895.39607       330.727 7        42.882
C20        48.000                                                                                                                                    22564339.928 8 117498484.39808      1263.739 8        51.541                                                                    22564334.548 8  95477134.56208      1026.963 8        49.050
C06        49.000                                                                                                                                    39362207.770 6 204969359.10606       915.364 6        39.399    39362202.043 7 158495292.23707       707.815 7        42.487    39362201.244 6 166554372.05006       743.755 6        39.679
C16        50.000                                                                                                                                    39666918.026 6 206556063.46906       796.202 6        39.745    39666917.570 6 159722258.50306       615.714 6        41.661    39666915.294 6 167843718.85806       646.938 6        37.819
S48        51.000    77353595.284 6 406497264.85706      -425.811 6        37.108
C19        52.000                                                                                                                                    26223137.545 6 136550792.68106      2807.188 6        41.495                                                                    26223134.256 6 110958702.07606      2281.221 6        41.738
R04        53.000    20604244.206 8 110334821.07508     -3338.285 8        50.983                                                                    20604242.221 7  85815980.30107     -2596.433 7        46.081
C60        54.000                                                                                                                                    40705041.926 6 211962040.48606      -473.181 6        38.625                                                                    40705026.223 6 172236490.20706      -384.621 6        39.829
C30        55.000                                                                                                                                    23046514.297 8 120009244.11808     -2881.569 8        49.054                                                                    23046515.043 7  97517339.43607     -2341.455 7        47.768
R19        56.000    22011689.178 6 117747730.59106     -3957.662 6        37.902                                                                    22011688.810 6  91581606.49106     -3078.151 6        41.216
C02        57.000                                                                                                                                    40692191.882 5 211894974.35405      -439.423 5        33.665    40692185.928 6 163850629.17306      -339.746 6        39.841    40692190.099 6 172182026.97106      -356.903 6        36.348
I03        58.000   134520161.396 6 452100764.83206       997.642 6        40.963
C13        59.000                                                                                                                                    41026104.011 6 213633756.85506     -1144.402 6        36.374    41026106.873 6 165195213.89606      -885.030 6        38.456    41026104.478 6 173594956.96406      -930.001 6        36.348
E25        60.000    28622881.857 6 150414242.24806     -3192.784 6        36.715                                                                    28622884.309 6 112322320.60206     -2384.490 6        37.966    28622883.334 6 115252467.44706     -2446.678 6        38.538
> 2025 01 01 00 00 15.0000000  0 56
G28         1.000    24372605.947 6 128078914.56906      1959.978 6        39.991                                    24372602.531 4  99801730.59704      1527.244 4        24.586    24372603.352 6  99801736.61706      1527.150 6        39.946
G31         2.000    25116998.452 5 131990714.08405      2824.946 5        33.677                                    25116994.169 3 102849891.61703      2201.258 3        20.119
G14         3.000    24808424.032 6 130369192.85006     -2419.564 6        37.221                                    24808420.947 3 101586388.46303     -1885.372 3        18.687    24808421.750 6 101586390.43006     -1885.153 6        36.960
G10         4.000    25233332.463 6 132602112.64206     -3533.364 6        38.288                                    25233330.599 4 103326330.34604     -2753.272 4        29.735    25233330.746 5 103326329.36705     -2753.291 5        34.752
S21         5.000    38598912.790 6 202838538.67806      -417.022 6        41.993
R12         6.000    23997147.766 7 128188476.91707     -1084.537 7        42.832                                                                    23997149.603 6  99702164.85906      -843.357 6        41.287
G21         7.000    21163956.835 7 111217407.65907     -1656.344 7        44.634                                    21163951.441 6  86662919.98806     -1290.658 6        37.164
E04         8.000    24096518.310 7 126628080.20907       555.340 7        47.825                                                                    24096516.482 8  94559934.75708       414.731 8        50.120    24096516.158 8  97026707.63308       425.461 8        51.066
G04        10.000    24835961.358 6 130513862.78206      3428.617 6        37.505                                    24835960.840 3 101699113.70603      2671.651 3        19.940    24835960.205 6 101699108.70306      2671.806 6        38.003
E09        11.000    26433014.235 7 138906460.02107      2605.076 7        43.331                                                                    26433014.291 7 103728862.74207      1945.331 7        45.595    26433013.977 7 106434832.82007      1996.144 7        46.466
S27        12.000    39256063.170 5 206291994.25305      -393.501 5        35.648
S36        14.000    38366735.227 7 201619070.26407      -416.890 7        43.759
E02        15.000    27573398.082 6 144899218.46606     -2109.187 6        39.051                                                                    27573397.728 6 108203981.12506     -1575.060 6        40.796    27573397.286 6 111026689.18106     -1616.141 6        41.454
E36        16.000    25350651.835 7 133218601.02607      1662.551 7        44.491                                                                    25350652.535 7  99481439.06907      1241.529 7        47.542    25350652.199 8 102076601.88708      1273.922 8        48.385
S45        17.000    63569209.488 6 334059934.44606      -459.464 6        37.293
G03        18.000    21224971.749 7 111538032.84007      1745.665 7        46.842                                    21224970.197 7  86912771.27407      1360.258 7        47.983    21224970.895 7  86912780.28107      1360.200 7        44.542
R21        19.000    22260029.301 7 119117944.83007      3369.963 7        46.831                                                                    22260028.315 7  92647298.36807      2621.049 7        42.639
R20        20.000    19383314.235 6 103651339.79706       243.786 6        41.263                                                                    19383315.635 7  80617708.56907       189.595 7        47.313
R05        21.000    19339161.330 8 103378943.79708       518.601 8        51.838                                                                    19339160.558 7  80405850.89307       403.377 7        47.450
I06        22.000    38450061.900 7 150886531.91807      -205.162 7        42.650
S28        23.000    41045298.106 5 215694487.33105      -409.112 5        34.367
E10        24.000    24447783.826 7 128474096.49307     -1818.414 7        47.513                                                                    24447782.615 8  95938516.79108     -1357.895 8        49.938    24447782.573 8  98441251.08208     -1393.348 8        50.834
S23        25.000    38319016.418 7 201367752.11307      -414.090 7        44.983
E06        26.000    24796016.069 7 130303997.52507      1853.212 7        46.568                                                                    24796015.808 8  97304931.06708      1383.899 8        48.453    24796015.599 8  99843319.26208      1419.998 8        49.361
E30        27.000    28670481.476 6 150664398.46106        89.288 6        37.100                                                                    28670482.902 6 112509129.84706        66.575 6        40.813    28670482.313 7 115444148.38707        68.492 7        42.298
E12        28.000    26331376.139 6 138372461.43306     -2623.279 6        39.931                                                                    26331372.941 7 103330158.81607     -1958.792 7        42.847    26331372.998 7 106025715.82707     -2009.871 7        44.378
E19        30.000    25845729.818 6 135820239.26006     -2475.587 6        37.868                                                                    25845727.919 6 101424203.44206     -1848.554 6        39.886    25845728.024 6 104070049.55606     -1896.767 6        41.111
G32        31.000    22855589.507 7 120106952.41307     -2631.600 7        45.872                                    22855587.483 7  93589830.33707     -2050.596 7        44.175    22855588.115 7  93589835.33807     -2050.547 7        42.061
G02        32.000    20847158.144 8 109552601.32708      -181.724 8        50.289                                    20847151.486 7  85365660.81207      -141.602 7        43.926
G19        33.000    25543186.026 6 134230342.05206      3291.601 6        36.582                                    25543181.740 3 104595083.41803      2564.885 3        18.418
G17        34.000    23394299.166 7 122937920.87407      1919.602 7        43.924                                    23394294.347 6  95795792.40706      1495.794 6        39.360    23394294.876 6  95795792.41206      1495.704 6        39.471
E11        35.000    23409396.012 7 123017278.38307      -499.789 7        44.355                                                                    23409391.530 7  91863571.66207      -373.279 7        46.999    23409391.482 8  94260005.00908      -382.997 8        48.123
C32        36.000                                                                                                                                    22718241.581 8 118299875.19208     -2061.393 8        49.956                                                                    22718241.477 8  96128350.19408     -1675.034 8        50.390
C35        37.000                                                                                                                                    26061032.204 7 135706632.37407      2730.425 7        42.034                                                                    26061030.475 6 110272751.40706      2218.620 6        41.433
C41        38.000                                                                                                                                    27073146.345 6 140976983.43306     -3606.961 6        38.345                                                                    27073151.777 6 114555373.42706     -2930.883 6        40.274
C29        39.000                                                                                                                                    22031508.047 8 114723850.07908       347.983 8        50.490                                                                    22031505.618 8  93222520.75208       282.796 8        48.956
G08        40.000    23733636.610 6 124721144.14306     -4029.569 6        41.533                                    23733635.945 6  97185328.99706     -3139.923 6        37.028    23733637.155 6  97185335.99906     -3139.887 6        40.200
S44        42.000    40705495.560 6 213909014.97106      -477.682 6        37.448
C09        43.000                                                                                                                                    40319967.278 6 209956662.16006      1215.926 6        38.535    40319964.361 7 162351797.86107       940.144 7        43.278    40319962.424 6 170606965.20006       987.918 6        39.498
C05        44.000                                                                                                                                    39287051.115 6 204578021.28906      -397.075 6        37.864    39287046.775 7 158192727.06807      -307.025 7        43.702    39287048.523 6 166236503.16306      -322.780 6        40.362
R06        45.000    23534720.649 5 125585800.38105      3746.178 5        35.471
R13        46.000    24370484.723 6 130137024.85606      1440.829 6        36.280
C39        47.000                                                                                                                                    39370684.244 6 205013490.29606       406.216 6        41.828                                                                    39370679.284 7 166590243.32907       330.059 7        43.035
C20        48.000                                                                                                                                    22563127.522 8 117492170.66008      1261.726 8        51.519                                                                    22563122.019 8  95472004.12808      1025.272 8        49.014
C06        49.000                                                                                                                                    39361328.958 6 204964784.83306       914.554 6        39.291    39361323.324 7 158491755.11407       707.101 7        42.328    39361322.950 6 166550655.04906       743.104 6        39.805
C16        50.000                                                                                                                                    39666154.103 6 206552084.58806       795.231 6        40.160    39666153.713 6 159719181.77706       615.055 6        41.690    39666151.331 6 167840485.67006       646.273 6        37.709
S48        51.000    77353989.730 6 406499394.11306      -425.758 6        37.089
C19        52.000                                                                                                                                    26220442.567 6 136536758.22606      2806.599 6        41.259                                                                    26220438.792 6 110947297.93906      2280.577 6        41.395
R04        53.000    20607362.542 8 110351518.88308     -3340.806 8        51.138                                                                    20607360.123 7  85828967.48807     -2598.494 7        45.834
C60        54.000                                                                                                                                    40705496.296 6 211964406.98806      -473.178 6        38.523                                                                    40705480.777 6 172238413.16206      -384.562 6        39.865
C30        55.000                                                                                                                                    23049282.305 8 120023656.58908     -2883.328 8        49.076                                                                    23049282.783 7  97529050.74507     -2342.963 7        47.805
R19        56.000    22015389.234 6 117767523.91806     -3959.796 6        37.656                                                                    22015388.613 6  91597001.28506     -3079.823 6        40.636
C02        57.000                                                                                                                                    40692615.398 5 211897171.91205      -439.721 5        33.748    40692607.789 6 163852328.46406      -339.901 6        39.991    40692611.974 6 172183812.66606      -357.232 6        36.314
I03        58.000   134518890.256 6 452095776.93306       997.614 6        41.032
C13        59.000                                                                                                                                    41027202.874 6 213639478.11606     -1143.937 6        36.628    41027205.236 6 165199637.94606      -884.779 6        38.183    41027203.139 6 173599605.95506      -929.678 6        36.185
E25        60.000    28625920.194 6 150430207.66506     -3193.028 6        36.662                                                                    28625922.132 6 112334242.80506     -2384.353 6        37.607    28625921.553 6 115264700.66106     -2446.578 6        38.592
> 2025 01 01 00 00 20.0000000  0 56
G28         1.000    24370742.178 6 128069119.19906      1958.203 6        39.673                                    24370738.566 4  99794097.85104      1525.872 4        24.857    24370739.300 6  99794103.85006      1525.941 6        40.095
G31         2.000    25114309.856 5 131976590.21205      2824.424 5        33.401                                    25114306.317 3 102838885.99503      2200.853 3        20.595
G14         3.000    24810726.529 6 130381294.45106     -2421.296 6        37.592                                    24810724.123 3 101595818.27003     -1886.728 3        18.836    24810724.367 6 101595820.26606     -1886.588 6        36.578
G10         4.000    25236694.253 6 132619780.54006     -3533.523 6        38.213                                    25236692.633 5 103340097.53905     -2753.389 5        30.053    25236693.227 5 103340096.52505     -2753.236 5        34.314
S21         5.000    38599307.978 7 202840624.79307      -417.264 7        42.119
R12         6.000    23998164.726 7 128193909.21307     -1088.450 7        42.737                                                                    23998166.424 6  99706389.98606      -846.543 6        41.645
G21         7.000    21165533.401 7 111225693.75907     -1657.968 7        44.852                                    21165528.207 6  86669376.68506     -1291.919 6        37.395
E04         8.000    24095991.049 7 126625309.85707       553.005 7        47.957                                                                    24095989.249 8  94557865.99208       412.943 8        50.192    24095988.961 8  97024584.89908       423.693 8        51.068
G04        10.000    24832699.414 6 130496720.20506      3428.387 6        37.928                                    24832698.626 3 101685755.87703      2671.490 3        20.524    24832698.092 6 101685750.85906      2671.653 6        37.501
E09        11.000    26430535.923 7 138893436.87807      2604.279 7        43.316                                                                    26430536.021 7 103719137.68107      1944.747 7        45.544    26430535.632 7 106424854.06307      1995.486 7        46.351
S27        12.000    39256436.890 5 206293962.51505      -393.351 5        35.733
S36        14.000    38367132.200 7 201621154.89107      -416.859 7        43.591
E02        15.000    27575405.846 6 144909768.81506     -2110.917 6        39.009                                                                    27575405.340 6 108211859.63606     -1576.325 6        40.870    27575405.003 6 111034773.20506     -1617.339 6        41.209
E36        16.000    25349070.487 7 133210289.96207      1661.973 7        44.519                                                                    25349071.031 7  99475232.75207      1241.117 7        47.588    25349070.645 8 102070233.66708      1273.451 8        48.434
S45        17.000    63569603.111 6 334060631.54516      -459.195 6        37.497
G03        18.000    21223311.826 7 111529309.78607      1743.762 7        47.246                                    21223310.255 8  86905974.09408      1358.776 8        48.139    21223310.699 7  86905983.09107      1358.842 7        44.191
R21        19.000    22256881.511 7 119101097.77107      3368.985 7        46.788                                                                    22256879.936 7  92634195.10007      2620.327 7        42.400
R20        20.000    19383088.352 6 103650129.92406       240.384 6        40.834                                                                    19383089.459 7  80616767.55207       186.906 7        47.320
R05        21.000    19338678.080 8 103376360.81308       514.685 8        51.716                                                                    19338677.057 7  80403841.91307       400.299 7        47.405
I06        22.000    38450323.444 7 150887557.50907      -205.071 7        42.626
S28        23.000    41045686.216 5 215696533.04005      -409.230 5        34.476
E10        24.000    24449514.575 7 128483191.84207     -1819.618 7        47.816                                                                    24449513.449 8  95945308.77408     -1358.860 8        50.019    24449513.292 8  98448220.24508     -1394.275 8        50.819
S23        25.000    38319409.313 7 201369822.51807      -414.023 7        44.963
E06        26.000    24794253.655 7 130294735.59807      1851.645 7        47.225                                                                    24794253.374 8  97298014.69608      1382.746 8        48.415    24794253.148 8  99836222.46808      1418.774 8        49.377
E30        27.000    28670397.798 6 150663958.98906        86.795 6        37.550                                                                    28670399.408 6 112508801.74406        64.723 6        41.068    28670398.762 7 115443811.72707        66.436 7        42.624
E12        28.000    26333872.494 6 138385579.62006     -2623.964 6        39.607                                                                    26333869.147 7 103339954.86407     -1959.422 7        42.684    26333869.234 7 106035767.42707     -2010.587 7        44.247
E19        30.000    25848085.871 6 135832621.12506     -2477.205 6        38.168                                                                    25848084.231 6 101433449.62706     -1849.719 6        40.019    25848084.084 6 104079536.94606     -1897.903 6        41.104
G32        31.000    22858094.141 7 120120115.99207     -2633.742 7        45.323                                    22858092.446 7  93600087.67507     -2052.263 7        44.376    22858092.959 6  93600092.67306     -2052.236 6        41.836
G02        32.000    20847332.058 8 109553515.29608      -183.748 8        50.326                                    20847325.405 7  85366372.99707      -143.182 7        44.089
G19        33.000    25540054.218 6 134213885.74806      3290.926 6        37.452                                    25540050.281 3 104582260.37403      2564.326 3        19.194
G17        34.000    23392473.323 7 122928328.38007      1917.504 7        44.006                                    23392468.928 6  95788317.73606      1494.157 6        39.441    23392469.499 6  95788317.73806      1494.253 6        39.189
E11        35.000    23409872.457 7 123019781.50407      -501.229 7        44.588                                                                    23409867.856 7  91865440.87307      -374.392 7        46.993    23409867.822 8  94261922.98808      -384.108 8        48.300
C32        36.000                                                                                                                                    22720221.678 8 118310186.84508     -2063.135 8        49.794                                                                    22720221.699 8  96136729.27308     -1676.637 8        50.429
C35        37.000                                                                                                                                    26058410.169 6 135692982.28806      2729.824 6        41.940                                                                    26058409.758 6 110261659.62406      2218.119 6        41.268
C41        38.000                                                                                                                                    27076609.801 6 140995018.90706     -3607.047 6        38.441                                                                    27076615.260 6 114570028.75606     -2931.131 6        40.238
C29        39.000                                                                                                                                    22031175.251 8 114722116.68308       345.512 8        50.461                                                                    22031172.734 8  93221112.23908       280.653 8        48.989
G08        40.000    23737470.876 6 124741293.95706     -4030.231 6        41.442                                    23737470.589 6  97201030.13706     -3140.434 6        37.569    23737471.224 6  97201037.14306     -3140.488 6        40.107
S44        42.000    40705949.416 6 213911403.46406      -477.723 6        37.312
C09        43.000                                                                                                                                    40318800.631 6 209950584.06406      1215.421 6        38.607    40318796.919 7 162347097.90007       939.893 7        43.598    40318795.115 6 170602026.25006       987.594 6        39.529
C05        44.000                                                                                                                                    39287432.629 6 204580006.92106      -397.056 6        37.962    39287428.186 7 158194262.49107      -307.009 7        44.032    39287429.885 6 166238116.67106      -322.700 6        40.462
R06        45.000    23531210.793 5 125567071.50105      3745.465 5        35.881
R13        46.000    24369135.840 6 130129830.48306      1437.363 6        36.083
C39        47.000                                                                                                                                    39370294.703 6 205011462.31306       405.147 6        41.940                                                                    39370289.898 7 166588595.44807       329.091 7        43.137
C20        48.000                                                                                                                                    22561917.095 8 117485867.56408      1259.624 8        51.562                                                                    22561911.545 8  95466882.36208      1023.440 8        49.011
C06        49.000                                                                                                                                    39360450.991 6 204960214.85606       913.698 6        39.078    39360445.738 7 158488221.30707       706.517 7        42.303    39360445.414 6 166546941.59906       742.292 6        39.823
C16        50.000                                                                                                                                    39665390.798 6 206548110.10406       794.500 6        40.603    39665390.455 6 159716108.46206       614.322 6        41.928    39665388.005 6 167837256.09806       645.532 6        37.905
S48        51.000    77354385.013 6 406501523.47106      -425.585 6        37.221
C19        52.000                                                                                                                                    26217748.486 6 136522727.22306      2806.005 6        41.836                                                                    26217744.299 6 110935896.61706      2279.888 6        41.380
R04        53.000    20610482.667 8 110368229.35708     -3343.271 8        51.070                                                                    20610480.900 7  85841964.51507     -2600.280 7        45.842
C60        54.000                                                                                                                                    40705950.966 6 211966773.77706      -473.198 6        38.390                                                                    40705935.129 6 172240336.39006      -384.636 6        39.919
C30        55.000                                                                                                                                    23052051.589 8 120038078.27308     -2885.180 8        48.949                                                                    23052052.305 7  97540769.55707     -2344.609 7        47.680
R19        56.000    22019091.179 6 117787327.37606     -3961.742 6        37.709                                                                    22019090.980 6  91612403.99006     -3081.280 6        40.656
C02        57.000                                                                                                                                    40693037.045 5 211899369.78005      -439.475 5        33.713    40693030.156 6 163854027.99806      -339.720 6        39.910    40693033.836 6 172185598.62606      -357.166 6        36.389
I03        58.000   134517619.356 6 452090789.41806       997.562 6        41.075
C13        59.000                                                                                                                                    41028301.681 6 213645198.89506     -1144.067 6        36.972    41028303.669 6 165204061.58706      -884.567 6        38.339    41028301.809 6 173604254.54806      -929.690 6        36.541
E25        60.000    28628958.125 6 150446172.95306     -3193.060 6        36.783                                                                    28628960.099 6 112346164.92106     -2384.302 6        37.913    28628959.853 6 115276933.80106     -2446.696 6        39.087
> 2025 01 01 00 00 25.0000000  0 56
G28         1.000    24368879.896 6 128059332.87806      1956.497 6        39.222                                    24368876.422 4  99786472.15504      1524.542 4        24.767    24368877.002 6  99786478.16206      1524.488 6        40.305
G31         2.000    25111622.276 5 131962467.96405      2824.484 5        34.109                                    25111618.711 3 102827881.65603      2200.894 3        20.619
G14         3.000    24813031.924 6 130393405.38606     -2422.804 6        36.779                                    24813028.811 3 101605255.34903     -1887.896 3        18.746    24813029.084 6 101605257.37206     -1888.193 6        37.036
G10         4.000    25240056.526 6 132637448.78906     -3533.552 6        38.453                                    25240054.779 5 103353865.01005     -2753.419 5        30.143    25240054.424 5 103353864.01905     -2753.575 5        35.171
S21         5.000    38599705.318 6 202842710.81506      -417.196 6        41.998
R12         6.000    23999185.445 7 128199361.66907     -1092.611 7        42.954                                                                    23999186.680 7  99710630.77307      -849.615 7        42.157
G21         7.000    21167112.361 7 111233989.04307     -1659.879 7        44.760                                    21167106.766 6  86675840.54606     -1293.412 6        37.357
E04         8.000    24095465.940 7 126622551.05907       550.729 7        47.707                                                                    24095464.221 8  94555805.84908       411.240 8        50.189    24095463.975 8  97022471.01108       421.958 8        51.230
G04        10.000    24829437.957 6 130479578.62006      3428.117 6        38.360                                    24829436.380 3 101672398.79303      2671.272 3        20.810    24829436.137 6 101672393.80106      2671.439 6        37.667
E09        11.000    26428058.354 7 138880418.22107      2603.387 7        42.546                                                                    26428058.578 7 103709415.96107      1944.151 7        45.410    26428058.128 7 106414878.73207      1994.762 7        46.502
S27        12.000    39256816.366 5 206295931.01405      -393.606 5        35.671
S36        14.000    38367527.759 7 201623239.37607      -416.815 7        43.645
E02        15.000    27577415.142 6 144920328.08906     -2112.660 6        38.372                                                                    27577414.719 6 108219744.79606     -1577.578 6        40.715    27577414.265 6 111042864.07206     -1618.707 6        41.657
E36        16.000    25347489.342 7 133201982.05307      1661.300 7        44.489                                                                    25347490.014 7  99469028.80007      1240.615 7        47.736    25347489.732 8 102063867.87008      1272.974 8        48.599
S45        17.000    63569992.979 6 334062928.70506      -459.423 6        37.388
G03        18.000    21221653.697 7 111520595.93007      1741.961 7        46.944                                    21221652.061 8  86899184.07708      1357.373 8        48.039    21221652.551 7  86899193.07007      1357.437 7        44.333
R21        19.000    22253733.581 7 119084255.93907      3368.033 7        46.439                                                                    22253732.958 7  92621095.93807      2619.432 7        43.259
R20        20.000    19382864.642 6 103648937.57906       236.835 6        41.268                                                                    19382866.087 7  80615840.16607       184.207 7        47.551
R05        21.000    19338198.601 8 103373797.80708       510.731 8        51.605                                                                    19338197.963 7  80401848.47007       397.186 7        47.732
I06        22.000    38450584.851 7 150888583.25407      -205.055 7        42.730
S28        23.000    41046074.975 5 215698578.74605      -409.076 5        34.462
E10        24.000    24451246.515 7 128492293.68407     -1820.871 7        47.643                                                                    24451245.442 8  95952105.59608     -1359.756 8        50.001    24451245.296 8  98455194.38208     -1395.274 8        50.949
S23        25.000    38319803.442 7 201371893.08407      -414.031 7        45.020
E06        26.000    24792492.564 7 130285482.08407      1850.050 7        46.898                                                                    24792492.422 8  97291104.60908      1381.427 8        48.525    24792492.275 8  99829132.11708      1417.480 8        49.507
E30        27.000    28670316.187 6 150663531.09406        84.431 6        37.713                                                                    28670317.943 6 112508482.05806        63.085 6        41.793    28670317.321 7 115443483.71407        64.882 7        43.124
E12        28.000    26336369.626 6 138398702.33906     -2624.825 6        39.081                                                                    26336366.223 7 103349754.27807     -1960.067 7        42.698    26336366.432 7 106045822.48207     -2011.378 7        44.357
E19        30.000    25850443.828 6 135845011.26006     -2478.708 6        38.324                                                                    25850442.047 6 101442701.99706     -1851.014 6        40.179    25850441.933 6 104089030.68606     -1899.236 6        41.211
G32        31.000    22860601.274 7 120133291.11507     -2636.182 7        45.771                                    22860599.595 7  93610354.00107     -2054.167 7        44.281    22860600.380 7  93610359.00007     -2054.222 7        42.353
G02        32.000    20847507.934 8 109554439.76308      -185.818 8        50.138                                    20847501.332 7  85367093.35907      -144.793 7        44.023
G19        33.000    25536923.824 5 134197433.36705      3290.196 5        35.410                                    25536919.559 3 104569440.39203      2563.800 3        19.701
G17        34.000    23390650.066 7 122918746.50807      1915.438 7        43.820                                    23390645.552 6  95780851.34406      1492.547 6        39.417    23390646.019 6  95780851.34506      1492.547 6        39.234
E11        35.000    23410350.182 7 123022291.77707      -502.855 7        44.221                                                                    23410345.529 7  91867315.41807      -375.414 7        47.051    23410345.455 8  94263846.43808      -385.261 8        48.264
C32        36.000                                                                                                                                    22722203.671 8 118320507.72708     -2064.982 8        49.823                                                                    22722203.709 8  96145115.82808     -1678.054 8        50.594
C35        37.000                                                                                                                                    26055789.353 7 135679335.32907      2729.215 7        42.089                                                                    26055788.856 6 110250570.35706      2217.483 6        41.373
C41        38.000                                                                                                                                    27080073.884 6 141013054.56806     -3606.927 6        38.694                                                                    27080078.994 6 114584684.24306     -2931.122 6        40.470
C29        39.000                                                                                                                                    22030844.785 8 114720395.81408       343.072 8        50.432                                                                    22030842.290 8  93219713.89508       278.592 8        49.119
G08        40.000    23741306.322 6 124761447.16406     -4031.005 6        40.918                                    23741305.739 6  97216733.92606     -3141.041 6        37.335    23741306.087 6  97216740.92106     -3140.808 6        39.871
S44        42.000    40706403.733 6 213913792.21006      -477.676 6        37.316
C09        43.000                                                                                                                                    40317634.462 6 209944509.00806      1214.852 6        38.928    40317630.225 7 162342400.29807       939.283 7        43.469    40317628.414 6 170597089.77706       987.067 6        39.658
C05        44.000                                                                                                                                    39287813.669 6 204581992.82006      -397.059 6        37.815    39287809.803 7 158195798.11707      -307.004 7        43.881    39287811.274 6 166239730.36806      -322.646 6        40.698
R06        45.000    23527702.098 5 125548347.86505      3744.399 5        35.376
R13        46.000    24367791.722 5 130122652.93605      1433.908 5        34.286
C39        47.000                                                                                                                                    39369906.097 7 205009439.35707       404.204 7        42.108                                                                    39369901.271 7 166586951.63807       328.325 7        43.187
C20        48.000                                                                                                                                    22560708.581 8 117479575.02108      1257.587 8        51.424                                                                    22560703.090 8  95461769.16108      1021.783 8        49.100
C06        49.000                                                                                                                                    39359574.596 6 204955649.11606       912.820 6        38.994    39359569.046 7 158484690.79207       705.848 7        42.466    39359568.686 6 166543231.55906       741.626 6        40.069
C16        50.000                                                                                                                                    39664628.904 6 206544139.96306       793.701 6        40.880    39664628.322 6 159713038.50706       613.618 6        41.871    39664625.695 6 167834030.05706       644.952 6        38.117
S48        51.000    77354778.435 6 406503652.87906      -425.891 6        37.225
C19        52.000                                                                                                                                    26215054.510 6 136508699.58806      2805.218 6        41.585                                                                    26215050.551 6 110924498.02106      2279.333 6        41.821
R04        53.000    20613605.736 8 110384952.48308     -3345.746 8        51.016                                                                    20613603.870 7  85854971.39607     -2602.323 7        46.129
C60        54.000                                                                                                                                    40706405.444 6 211969140.82506      -473.447 6        38.201                                                                    40706389.799 6 172242259.79506      -384.571 6        40.052
C30        55.000                                                                                                                                    23054823.072 8 120052509.06608     -2886.897 8        49.250                                                                    23054823.559 7  97552495.76007     -2345.929 7        47.886
R19        56.000    22022795.086 6 117807140.70506     -3963.541 6        38.171                                                                    22022795.327 6  91627814.34706     -3082.741 6        41.237
C02        57.000                                                                                                                                    40693459.408 5 211901567.90205      -439.491 5        33.515    40693452.287 6 163855727.72806      -339.819 6        40.119    40693456.261 6 172187384.78706      -357.201 6        36.416
I03        58.000   134516348.131 6 452085802.20806       997.516 6        41.154
C13        59.000                                                                                                                                    41029400.373 6 213650919.03606     -1143.918 6        37.176    41029402.352 6 165208484.76706      -884.643 6        38.375    41029400.249 6 173608902.63806      -929.447 6        36.594
E25        60.000    28631996.039 6 150462138.02506     -3192.703 6        36.287                                                                    28631998.226 6 112358086.89706     -2384.222 6        37.686    28631998.157 6 115289166.78006     -2446.599 6        38.970
> 2025 01 01 00 00 30.0000000  0 56
G28         1.000    24367019.371 6 128049555.82106      1954.549 6        39.042                                    24367016.043 4  99778853.66904      1523.014 4        24.722    24367016.688 6  99778859.68606      1523.074 6        40.846
G31         2.000    25108935.739 5 131948347.64505      2823.866 5        34.067                                    25108931.681 3 102816878.80303      2200.410 3        20.881
G14         3.000    24815338.410 6 130405525.89106     -2424.942 6        36.178                                    24815335.238 3 101614699.89103     -1889.562 3        18.806    24815335.694 6 101614701.90406     -1889.788 6        36.654
G10         4.000    25243419.388 6 132655117.61706     -3533.671 6        38.483                                    25243417.050 5 103367632.92205     -2753.518 5        30.106    25243418.164 5 103367631.93705     -2753.640 5        34.971
S21         5.000    38600103.350 6 202844796.97506      -417.127 6        41.864
R12         6.000    24000209.595 7 128204834.39907     -1096.612 7        43.446                                                                    24000210.956 6  99714887.25006      -852.861 6        40.586
G21         7.000    21168692.516 7 111242293.75007     -1661.863 7        44.754                                    21168687.100 6  86682311.74306     -1294.962 6        37.406
E04         8.000    24094943.259 7 126619804.04607       548.292 7        47.742                                                                    24094941.465 8  94553754.51608       409.420 8        50.210    24094941.218 8  97020366.16408       420.130 8        51.166
G04        10.000    24826175.667 6 130462438.21206      3428.131 6        38.682                                    24826174.510 3 101659042.64003      2671.267 3        21.190    24826174.193 6 101659037.65506      2671.179 6        37.648
E09        11.000    26425582.042 7 138867404.27007      2602.368 7        42.751                                                                    26425582.187 7 103699697.76307      1943.266 7        45.461    26425581.651 7 106404907.01007      1994.007 7        46.446
S27        12.000    39257191.235 5 206297899.64505      -393.853 5        35.614
S36        14.000    38367925.430 7 201625323.60107      -416.863 7        43.592
E02        15.000    27579426.735 6 144930896.47906     -2114.507 6        38.937                                                                    27579425.877 6 108227636.76306     -1579.052 6        40.837    27579425.219 6 111050961.92106     -1620.204 6        41.530
E36        16.000    25345909.003 7 133193677.50707      1660.655 7        44.539                                                                    25345909.765 7  99462827.36307      1240.129 7        47.626    25345909.376 8 102057504.66108      1272.403 8        48.379
S45        17.000    63570383.682 6 334065226.21106      -459.610 6        37.361
G03        18.000    21219997.011 7 111511891.51007      1739.957 7        47.107                                    21219995.678 8  86892401.41808      1355.813 8        48.135    21219996.130 7  86892410.41307      1355.805 7        44.223
R21        19.000    22250587.749 7 119067419.51007      3366.796 7        46.629                                                                    22250586.706 7  92608000.93207      2618.610 7        42.409
R20        20.000    19382645.575 6 103647762.95306       233.215 6        41.132                                                                    19382646.533 7  80614926.57107       181.346 7        47.267
R05        21.000    19337723.214 8 103371254.94408       506.576 8        51.926                                                                    19337721.868 7  80399870.68807       394.028 7        47.548
I06        22.000    38450846.169 7 150889609.28407      -205.236 7        42.866
S28        23.000    41046464.829 5 215700625.01405      -409.183 5        34.505
E10        24.000    24452979.721 7 128501402.22007     -1822.339 7        47.462                                                                    24452978.754 8  95958907.42908     -1360.862 8        50.020    24452978.551 8  98462173.65008     -1396.352 8        50.872
S23        25.000    38320197.249 7 201373964.03407      -414.280 7        44.886
E06        26.000    24790733.198 7 130276237.20407      1848.144 7        46.858                                                                    24790733.317 8  97284200.96208      1380.091 8        48.541    24790733.020 8  99822048.37208      1416.155 8        49.481
E30        27.000    28670236.989 6 150663115.13206        81.912 6        37.346                                                                    28670238.992 6 112508171.27506        61.178 6        41.759    28670238.240 7 115443164.85407        62.801 7        43.024
E12        28.000    26338867.822 6 138411829.82006     -2625.915 6        39.390                                                                    26338864.489 7 103359557.28907     -1960.970 7        42.775    26338864.723 7 106055881.20707     -2012.072 7        44.098
E19        30.000    25852803.359 6 135857409.90806     -2480.484 6        38.414                                                                    25852801.349 6 101451960.72406     -1852.467 6        40.100    25852801.225 6 104098530.94806     -1900.826 6        41.018
G32        31.000    22863111.291 7 120146477.94207     -2638.465 7        46.212                                    22863108.980 7  93620629.45007     -2055.949 7        44.393    22863109.933 7  93620634.45307     -2055.999 7        42.677
G02        32.000    20847685.847 8 109555374.93708      -188.065 8        50.051                                    20847679.280 7  85367822.06607      -146.544 7        44.105
G19        33.000    25533794.327 6 134180985.61006      3289.150 6        36.204                                    25533789.741 3 104556623.93303      2562.944 3        19.851
G17        34.000    23388828.684 7 122909175.47407      1913.108 7        44.047                                    23388824.252 6  95773393.39406      1490.732 6        39.447    23388824.741 6  95773393.40406      1490.750 6        39.213
E11        35.000    23410829.232 7 123024809.40907      -504.357 7        44.390                                                                    23410824.598 7  91869195.47207      -376.647 7        47.121    23410824.590 8  94265775.53308      -386.429 8        48.173
C32        36.000                                                                                                                                    22724187.578 8 118330838.05708     -2066.957 8        49.848                                                                    22724187.545 8  96153510.06508     -1679.646 8        50.397
C35        37.000                                                                                                                                    26053168.875 6 135665691.68406      2728.534 6        41.821                                                                    26053168.564 6 110239483.77506      2216.953 6        41.170
C41        38.000                                                                                                                                    27083537.534 6 141031090.64506     -3607.224 6        38.805                                                                    27083542.532 6 114599340.02506     -2931.072 6        40.200
C29        39.000                                                                                                                                    22030516.777 8 114718687.68608       340.414 8        50.537                                                                    22030514.261 8  93218325.89708       276.566 8        48.997
G08        40.000    23745141.891 6 124781603.95206     -4031.792 6        40.825                                    23745141.389 6  97232440.51006     -3141.652 6        36.900    23745141.131 6  97232447.51706     -3141.601 6        39.168
S44        42.000    40706856.615 6 213916181.39406      -477.910 6        37.108
C09        43.000                                                                                                                                    40316468.394 6 209938437.18406      1213.976 6        39.429    40316464.401 7 162337705.15707       938.788 7        43.287    40316462.362 6 170592155.91006       986.633 6        39.393
C05        44.000                                                                                                                                    39288195.465 6 204583979.17006      -397.365 6        37.921    39288191.041 7 158197334.08907      -307.305 7        43.922    39288192.547 6 166241344.44906      -322.829 6        40.346
R06        45.000    23524194.340 6 125529629.89106      3743.111 6        36.140
R13        46.000    24366451.100 5 130115493.18005      1430.340 5        35.510
C39        47.000                                                                                                                                    39369518.540 7 205007421.64407       403.004 7        42.318                                                                    39369513.898 7 166585312.07607       327.534 7        43.041
C20        48.000                                                                                                                                    22559502.321 8 117473293.25608      1255.279 8        51.519                                                                    22559496.783 8  95456664.71108      1020.016 8        49.120
C06        49.000                                                                                                                                    39358698.430 6 204951087.77006       911.874 6        38.934    39358692.578 7 158481163.67907       705.134 7        42.307    39358692.800 6 166539525.10806       740.833 6        40.253
C16        50.000                                                                                                                                    39663867.152 6 206540174.38606       792.565 6        41.302    39663866.681 6 159709972.06306       612.841 6        41.874    39663864.263 6 167830807.68306       644.142 6        37.868
S48        51.000    77355176.195 6 406504182.90216      -426.097 6        36.885
C19        52.000                                                                                                                                    26212360.692 6 136494675.54206      2804.430 6        41.049                                                                    26212357.736 7 110913102.32607      2278.909 7        42.066
R04        53.000    20616731.221 8 110401688.38208     -3348.430 8        50.499                                                                    20616729.449 7  85867988.20707     -2604.353 7        46.400
C60        54.000                                                                                                                                    40706859.989 6 211971508.25606      -473.523 6        38.429                                                                    40706844.501 6 172244183.54606      -384.673 6        39.958
C30        55.000                                                                                                                                    23057595.896 8 120066949.19508     -2888.978 8        49.442                                                                    23057596.564 7  97564229.54307     -2347.527 7        47.738
R19        56.000    22026501.784 6 117826964.11906     -3965.771 6        38.189                                                                    22026500.665 6  91643232.54706     -3084.410 6        41.716
C02        57.000                                                                                                                                    40693880.729 5 211903766.56905      -439.993 5        33.850    40693874.569 6 163857427.88406      -340.078 6        40.248    40693878.383 6 172189171.38006      -357.529 6        36.284
I03        58.000   134515077.699 6 452080815.51506       997.325 6        41.104
C13        59.000                                                                                                                                    41030498.886 6 213656638.76906     -1143.664 6        37.074    41030500.888 6 165212907.63906      -884.526 6        38.237    41030498.770 6 173613550.39006      -929.398 6        36.280
E25        60.000    28635034.137 5 150478103.13305     -3193.013 5        35.895                                                                    28635036.590 6 112370008.87106     -2384.427 6        38.027    28635036.096 6 115301399.74706     -2446.510 6        38.982
> 2025 01 01 00 00 35.0000000  0 56
G28         1.000    24365160.583 6 128039788.24406      1952.418 6        39.255                                    24365157.624 4  99771242.57404      1521.368 4        24.782    24365157.957 6  99771248.58006      1521.554 6        41.294
G31         2.000    25106249.015 5 131934229.37105      2823.341 5        34.310                                    25106244.974 3 102805877.55603      2200.006 3        21.500
G14         3.000    24817646.798 6 130417656.03306     -2426.840 6        37.648                                    24817643.512 3 101624151.94703     -1891.042 3        18.567    24817643.846 6 101624153.96406     -1891.203 6        36.442
G10         4.000    25246780.924 6 132672787.16106     -3533.873 6        37.611                                    25246779.549 4 103381401.39504     -2753.668 4        29.867    25246779.268 5 103381400.37305     -2753.621 5        35.100
S21         5.000    38600500.614 7 202846883.64507      -417.546 7        42.097
R12         6.000    24001238.285 7 128210327.86007     -1100.710 7        43.657                                                                    24001239.586 6  99719159.91206      -856.198 6        40.336
G21         7.000    21170274.501 7 111250608.02607     -1663.744 7        45.090                                    21170269.272 6  86688790.39506     -1296.426 6        37.425
E04         8.000    24094422.803 7 126617068.97307       545.866 7        47.750                                                                    24094420.978 8  94551712.08308       407.692 8        50.188    24094420.804 8  97018270.45508       418.310 8        51.079
G04        10.000    24822914.418 6 130445299.19306      3427.745 6        38.868                                    24822912.994 3 101645687.56103      2670.959 3        21.214    24822913.038 6 101645682.57006      2670.943 6        37.701
E09        11.000    26423106.688 7 138854395.17507      2601.359 7        42.878                                                                    26423106.848 7 103689983.19207      1942.546 7        45.478    26423106.270 7 106394939.01107      1993.190 7        46.518
S27        12.000    39257562.746 5 206299869.04205      -393.940 5        35.890
S36        14.000    38368320.055 7 201627408.26807      -416.897 7        43.683
E02        15.000    27581439.407 6 144941474.13006     -2116.404 6        38.432                                                                    27581438.586 6 108235535.64506     -1580.449 6        40.770    27581438.061 6 111059066.85806     -1621.681 6        41.485
E36        16.000    25344329.318 7 133185376.50907      1659.834 7        44.370                                                                    25344330.160 7  99456628.56507      1239.520 7        47.535    25344329.757 8 102051144.15308      1271.856 8        48.457
S45        17.000    63570776.572 6 334067524.23306      -459.601 6        37.633
G03        18.000    21218342.593 7 111503196.67107      1737.989 7        47.056                                    21218341.120 8  86885626.22108      1354.277 8        48.135    21218342.067 7  86885635.21307      1354.332 7        44.278
R21        19.000    22247442.656 7 119050588.67007      3365.652 7        46.477                                                                    22247440.820 7  92594910.29007      2617.715 7        42.413
R20        20.000    19382429.085 6 103646606.20806       229.665 6        41.375                                                                    19382430.063 7  80614026.87607       178.603 7        47.172
R05        21.000    19337251.262 8 103368732.33108       502.542 8        52.217                                                                    19337250.060 7  80397908.64307       390.904 7        47.530
I06        22.000    38451107.762 7 150890635.71907      -205.247 7        42.595
S28        23.000    41046857.531 5 215702671.91305      -409.488 5        34.648
E10        24.000    24454714.318 7 128510517.61207     -1823.725 7        47.328                                                                    24454713.348 8  95965714.36808     -1361.886 8        49.930    24454713.214 8  98469158.16108     -1397.379 8        50.807
S23        25.000    38320589.642 7 201376035.57107      -414.217 7        44.936
E06        26.000    24788975.641 7 130267001.11307      1846.286 7        46.736                                                                    24788975.688 8  97277303.87508      1378.788 8        48.563    24788975.444 8  99814971.36808      1414.716 8        49.445
E30        27.000    28670160.631 6 150662711.64806        79.803 6        36.491                                                                    28670162.205 6 112507869.93706        59.664 6        40.758    28670161.433 7 115442855.66507        61.175 7        42.036
E12        28.000    26341366.835 6 138424962.21006     -2627.022 6        39.724                                                                    26341363.676 7 103369363.92907     -1961.669 7        42.597    26341363.872 7 106065943.68107     -2012.801 7        44.235
E19        30.000    25855164.124 6 135869817.20506     -2482.524 6        38.342                                                                    25855162.499 6 101461225.88206     -1853.747 6        39.919    25855162.228 6 104108037.81006     -1901.992 6        40.956
G32        31.000    22865622.603 7 120159676.66707     -2640.908 7        46.087                                    22865620.606 7  93630914.16707     -2057.849 7        44.415    22865621.277 7  93630919.16507     -2057.889 7        42.423
G02        32.000    20847865.959 8 109556320.95508      -190.257 8        50.245                                    20847859.304 7  85368559.22407      -148.253 7        44.147
G19        33.000    25530664.346 5 134164542.29405      3288.305 5        35.633                                    25530660.813 3 104543811.01003      2562.337 3        18.955
G17        34.000    23387009.483 7 122899615.49407      1910.846 7        43.839                                    23387005.097 6  95765944.06306      1488.969 6        39.529    23387005.544 6  95765944.07806      1489.015 6        39.667
E11        35.000    23411309.792 7 123027334.54107      -505.849 7        44.247                                                                    23411305.112 7  91871081.12207      -377.702 7        47.004    23411305.023 8  94267710.37408      -387.572 8        48.114
C32        36.000                                                                                                                                    22726173.274 8 118341177.96108     -2068.951 8        50.003                                                                    22726173.236 8  96161912.07408     -1681.139 8        50.336
C35        37.000                                                                                                                                    26050549.035 6 135652051.56906      2727.807 6        41.337                                                                    26050549.001 6 110228400.05806      2216.595 6        41.406
C41        38.000                                                                                                                                    27087000.781 6 141049127.28606     -3607.280 6        39.168                                                                    27087006.210 6 114613996.28806     -2931.192 6        40.389
C29        39.000                                                                                                                                    22030191.252 8 114716992.45008       337.775 8        50.646                                                                    22030188.684 8  93216948.37608       274.467 8        48.895
G08        40.000    23748978.468 6 124801764.46006     -4032.411 6        41.106                                    23748977.666 6  97248149.99206     -3142.137 6        36.556    23748977.934 6  97248157.00306     -3142.264 6        39.234
S44        42.000    40707315.430 6 213918571.15906      -477.820 6        37.040
C09        43.000                                                                                                                                    40315302.650 6 209932368.71706      1213.419 6        39.643    40315298.982 7 162333012.65007       938.204 7        43.198    40315297.118 6 170587224.79106       986.027 6        39.405
C05        44.000                                                                                                                                    39288577.400 6 204585966.12706      -397.366 6        38.144    39288572.466 7 158198870.53407      -307.346 7        44.081    39288574.330 6 166242959.02006      -322.992 6        40.377
R06        45.000    23520688.043 5 125510917.57705      3741.839 5        35.890
R13        46.000    24365113.946 5 130108351.10105      1426.466 5        35.567
C39        47.000                                                                                                                                    39369132.077 7 205005409.31907       402.025 7        42.605                                                                    39369127.481 7 166583676.89307       326.702 7        42.804
C20        48.000                                                                                                                                    22558298.082 8 117467022.42408      1253.098 8        51.549                                                                    22558292.555 8  95451569.13908      1018.279 8        48.880
C06        49.000                                                                                                                                    39357823.022 6 204946531.04006       910.812 6        39.006    39357817.771 7 158477640.10907       704.458 7        42.622    39357817.738 6 166535822.37006       740.208 6        39.979
C16        50.000                                                                                                                                    39663106.797 6 206536213.51106       791.601 6        41.607    39663105.902 7 159706909.25907       612.306 7        42.212    39663103.652 6 167827589.16206       643.274 6        37.784
S48        51.000    77355572.599 6 406506313.18206      -425.891 6        37.043
C19        52.000                                                                                                                                    26209668.614 6 136480655.24106      2803.711 6        41.321                                                                    26209665.469 7 110901709.68107      2278.281 7        42.082
R04        53.000    20619859.003 8 110418437.32108     -3351.011 8        50.838                                                                    20619856.734 7  85881015.15707     -2606.381 7        46.001
C60        54.000                                                                                                                                    40707314.735 6 211973876.31506      -473.726 6        38.402                                                                    40707299.238 6 172246107.77906      -384.828 6        39.934
C30        55.000                                                                                                                                    23060371.027 8 120081398.77608     -2890.766 8        49.789                                                                    23060371.546 7  97575971.01607     -2348.970 7        47.611
R19        56.000    22030210.825 6 117846797.83706     -3967.794 6        38.273                                                                    22030208.544 6  91658658.77106     -3085.999 6        41.600
C02        57.000                                                                                                                                    40694303.534 5 211905965.83005      -439.737 5        33.892    40694296.949 6 163859128.50306      -340.278 6        40.248    40694300.692 6 172190958.44206      -357.342 6        36.348
I03        58.000   134513806.980 6 452075829.41206       997.160 6        41.089
C13        59.000                                                                                                                                    41031597.284 6 213662358.26206     -1143.804 6        37.062    41031599.259 6 165217330.30906      -884.515 6        38.595    41031597.108 6 173618197.94806      -929.441 6        36.382
E25        60.000    28638072.363 5 150494068.39205     -3193.248 5        35.310                                                                    28638074.583 6 112381930.94806     -2384.357 6        38.090    28638074.177 6 115313632.84906     -2446.541 6        39.126
> 2025 01 01 00 00 40.0000000  0 56
G28         1.000    24363303.952 6 128030029.94506      1950.457 6        39.529                                    24363300.849 4  99763638.70504      1519.838 4        25.113    24363300.652 6  99763644.71206      1519.889 6        41.247
G31         2.000    25103562.698 5 131920113.03105      2822.691 5        34.510                                    25103558.723 3 102794877.79403      2199.498 3        21.690
G14         3.000    24819956.824 6 130429795.69706     -2429.096 6        37.380                                    24819953.543 3 101633611.43703     -1892.806 3        18.418    24819953.547 5 101633613.44005     -1892.864 5        35.729
G10         4.000    25250143.087 6 132690457.23606     -3534.117 6        36.733                                    25250142.147 4 103395170.27304     -2753.852 4        29.498    25250142.002 5 103395169.27405     -2754.034 5        35.090
S21         5.000    38600894.577 6 202848970.78906      -417.704 6        41.967
R12         6.000    24002270.782 7 128215841.94407     -1105.068 7        43.354                                                                    24002272.029 6  99723448.73806      -859.493 6        41.063
G21         7.000    21171858.451 7 111258931.68307     -1665.912 7        44.992                                    21171853.232 6  86695276.36406     -1298.117 6        37.486
E04         8.000    24093904.628 7 126614345.66907       543.225 7        47.595                                                                    24093902.721 8  94549678.45408       405.691 8        50.137    24093902.571 8  97016183.76508       416.287 8        51.092
G04        10.000    24819653.152 6 130428161.36106      3427.171 6        38.661                                    24819651.741 3 101632333.41203      2670.523 3        21.714    24819651.864 6 101632328.41106      2670.733 6        38.027
E09        11.000    26420631.865 7 138841390.78507      2600.177 7        42.554                                                                    26420632.369 7 103680272.12607      1941.711 7        45.652    26420631.717 7 106384974.60907      1992.340 7        46.446
S27        12.000    39257935.027 5 206301838.86805      -394.485 5        35.738
S36        14.000    38368719.411 7 201629493.58207      -417.443 7        43.875
E02        15.000    27583453.451 6 144952060.84606     -2118.416 6        38.598                                                                    27583453.369 6 108243441.30306     -1581.924 6        40.546    27583452.667 6 111067178.75306     -1623.187 6        41.378
E36        16.000    25342750.383 7 133177078.88207      1658.971 7        44.160                                                                    25342751.177 7  99450432.28307      1238.879 7        47.559    25342750.783 8 102044786.22708      1271.211 8        48.413
S45        17.000    63571169.767 6 334069822.63906      -459.881 6        37.641
G03        18.000    21216689.732 7 111494511.23707      1735.876 7        46.997                                    21216688.332 8  86878858.35208      1352.629 8        48.193    21216688.875 7  86878867.36207      1352.639 7        44.513
R21        19.000    22244298.150 7 119033763.30907      3364.305 7        46.926                                                                    22244297.478 7  92581823.87807      2616.748 7        42.474
R20        20.000    19382216.414 6 103645467.14406       225.797 6        41.242                                                                    19382217.174 7  80613140.93807       175.634 7        47.162
R05        21.000    19336783.313 8 103366229.68708       498.262 8        52.090                                                                    19336781.745 7  80395962.15607       387.526 7        47.118
I06        22.000    38451369.361 7 150891662.42507      -205.434 7        42.421
S28        23.000    41047240.387 5 215704718.94705      -409.901 5        34.338
E10        24.000    24456450.275 7 128519639.68107     -1825.312 7        47.184                                                                    24456449.216 8  95972526.30508     -1363.030 8        49.917    24456449.095 8  98476147.79908     -1398.573 8        50.830
S23        25.000    38320986.960 7 201378107.51707      -414.722 7        45.056
E06        26.000    24787219.826 7 130257773.64607      1844.407 7        46.836                                                                    24787219.602 8  97270413.24408      1377.337 8        48.502    24787219.482 8  99807900.97108      1413.292 8        49.405
E30        27.000    28670085.900 6 150662319.96006        76.924 6        37.047                                                                    28670087.730 6 112507577.24806        57.469 6        40.768    28670087.017 6 115442555.35206        59.017 6        41.919
E12        28.000    26343866.738 6 138438099.31906     -2628.131 6        39.574                                                                    26343863.547 7 103379174.11307     -1962.527 7        42.895    26343863.795 7 106076009.77907     -2013.786 7        44.184
E19        30.000    25857526.535 6 135882232.93006     -2484.303 6        37.792                                                                    25857525.148 6 101470497.37806     -1855.122 6        40.031    25857524.819 6 104117551.16706     -1903.414 6        40.953
G32        31.000    22868136.308 7 120172887.08807     -2643.417 7        46.154                                    22868134.445 7  93641207.99407     -2059.803 7        44.468    22868134.541 7  93641212.99907     -2059.870 7        42.091
G02        32.000    20848048.077 8 109557277.63208      -192.634 8        50.185                                    20848041.343 7  85369304.68307      -150.105 7        44.190
G19        33.000    25527536.611 6 134148103.30606      3287.056 6        36.699                                    25527532.671 3 104531001.35503      2561.348 3        19.104
G17        34.000    23385191.971 7 122890066.45007      1908.486 7        43.625                                    23385187.968 6  95758503.27206      1487.125 6        39.583    23385188.450 6  95758503.28506      1487.116 6        39.646
E11        35.000    23411791.708 7 123029867.04107      -507.400 7        44.156                                                                    23411787.015 7  91872972.27407      -378.875 7        47.060    23411786.950 8  94269650.86108      -388.778 8        48.122
C32        36.000                                                                                                                                    22728160.612 8 118351527.27108     -2071.015 8        49.920                                                                    22728160.786 8  96170321.70408     -1682.784 8        50.457
C35        37.000                                                                                                                                    26047931.190 6 135638414.80306      2726.763 6        41.809                                                                    26047930.072 6 110217319.07306      2215.901 6        41.385
C41        38.000                                                                                                                                    27090464.789 6 141067164.29306     -3607.586 6        39.195                                                                    27090470.002 6 114628652.81506     -2931.360 6        40.358
C29        39.000                                                                                                                                    22029868.291 8 114715309.95908       334.995 8        50.570                                                                    22029865.578 8  93215581.18208       272.335 8        48.924
G08        40.000    23752815.450 6 124821928.51206     -4033.321 6        41.509                                    23752814.680 6  97263862.23806     -3142.845 6        36.979    23752815.381 6  97263869.23006     -3142.869 6        40.012
S44        42.000    40707764.756 6 213920961.35006      -478.368 6        36.934
C09        43.000                                                                                                                                    40314137.789 6 209926303.48406      1212.384 6        39.835    40314134.161 7 162328322.62807       937.473 7        42.794    40314132.446 6 170582296.26206       985.518 6        39.396
C05        44.000                                                                                                                                    39288958.678 6 204587953.53906      -397.645 6        37.981    39288954.078 7 158200407.31607      -307.534 7        44.032    39288955.853 6 166244573.90806      -323.080 6        40.493
R06        45.000    23517181.690 6 125492210.83006      3740.467 6        36.060
R13        46.000    24363779.615 5 130101226.67405      1422.808 5        35.533
C39        47.000                                                                                                                                    39368746.216 7 205003402.22907       400.730 7        42.601                                                                    39368742.034 7 166582045.94707       325.594 7        42.919
C20        48.000                                                                                                                                    22557095.891 8 117460762.34008      1250.747 8        51.520                                                                    22557090.403 8  95446482.28608      1016.436 8        49.009
C06        49.000                                                                                                                                    39356948.788 6 204941978.70406       909.878 6        38.976    39356943.461 7 158474119.97207       703.561 7        42.722    39356943.388 6 166532123.20106       739.343 6        40.105
C16        50.000                                                                                                                                    39662346.797 6 206532257.17206       790.588 6        41.690    39662345.998 6 159703849.97106       611.373 6        41.988    39662343.988 6 167824374.27806       642.593 6        38.030
S48        51.000    77355967.940 6 406508443.75406      -426.563 6        37.142
C19        52.000                                                                                                                                    26206977.574 7 136466638.50307      2802.836 7        42.231                                                                    26206973.747 7 110890319.92107      2277.588 7        42.434
R04        53.000    20622989.442 8 110435199.03008     -3353.867 8        50.937                                                                    20622986.496 7  85894052.03107     -2608.469 7        45.691
C60        54.000                                                                                                                                    40707769.843 6 211976244.77106      -473.937 6        38.565                                                                    40707754.132 6 172248032.32906      -385.114 6        39.976
C30        55.000                                                                                                                                    23063147.680 8 120095857.68108     -2892.965 8        49.487                                                                    23063148.256 7  97587720.02107     -2350.654 7        47.652
R19        56.000    22033919.238 6 117866641.72406     -3970.027 6        38.571                                                                    22033917.376 6  91674092.90706     -3087.734 6        40.679
C02        57.000                                                                                                                                    40694726.066 5 211908165.56305      -440.084 5        33.814    40694719.540 6 163860829.46506      -340.448 6        40.427    40694723.314 6 172192745.87806      -357.428 6        36.363
I03        58.000   134512536.720 6 452070843.78506       996.910 6        40.913
C13        59.000                                                                                                                                    41032694.788 6 213668077.33506     -1143.956 6        36.707    41032697.501 6 165221752.64506      -884.647 6        38.793    41032695.198 6 173622845.12006      -929.433 6        36.170
E25        60.000    28641110.914 5 150510033.58605     -3193.238 5        35.990                                                                    28641112.653 6 112393853.01706     -2384.521 6        38.306    28641112.211 6 115325865.93206     -2446.886 6        39.123
> 2025 01 01 00 00 45.0000000  0 56
G28         1.000    24361448.653 6 128020280.60606      1948.846 6        39.622                                    24361445.895 4  99756041.83304      1518.578 4        25.068    24361446.098 6  99756047.83906      1518.607 6        41.125
G31         2.000    25100877.096 5 131905998.24905      2822.676 5        34.819                                    25100872.659 3 102783879.27003      2199.488 3        21.857
G14         3.000    24822268.495 6 130441944.50906     -2430.830 6        37.380                                    24822265.381 3 101643078.02503     -1894.162 3        18.866    24822265.965 6 101643080.01606     -1894.101 6        36.435
G10         4.000    25253505.462 6 132708127.49806     -3534.099 6        36.741                                    25253504.744 4 103408939.30404     -2753.841 4        29.100    25253505.186 5 103408938.30105     -2753.601 5        35.105
S21         5.000    38601292.476 7 202851058.13707      -417.609 7        42.011
R12         6.000    24003306.540 7 128221375.88607     -1109.127 7        42.554                                                                    24003308.375 6  99727752.90106      -862.615 6        40.262
G21         7.000    21173444.246 7 111267264.41007     -1667.575 7        45.041                                    21173438.910 6  86701769.39506     -1299.408 6        37.380
E04         8.000    24093388.693 7 126611633.79907       541.116 7        47.518                                                                    24093386.662 8  94547653.35808       404.129 8        50.199    24093386.558 8  97014105.84808       414.612 8        50.968
G04        10.000    24816391.486 6 130411024.40406      3427.257 6        38.568                                    24816390.699 3 101618979.94803      2670.601 3        21.524    24816391.027 6 101618974.96306      2670.496 6        37.939
E09        11.000    26418158.289 7 138828390.74807      2599.546 7        42.248                                                                    26418158.492 7 103670564.32207      1941.145 7        45.673    26418157.805 7 106375013.56807      1991.707 7        46.509
S27        12.000    39258312.029 5 206303808.97605      -394.245 5        35.895
S36        14.000    38369116.674 7 201631578.36407      -416.930 7        43.778
E02        15.000    27585469.741 6 144962656.32106     -2120.142 6        38.033                                                                    27585469.644 6 108251353.50106     -1583.220 6        40.703    27585468.821 6 111075297.36106     -1624.533 6        41.139
E36        16.000    25341172.287 7 133168784.28007      1658.526 7        44.006                                                                    25341172.740 7  99444238.27207      1238.469 7        47.585    25341172.393 8 102038430.63508      1270.741 8        48.351
S45        17.000    63571564.186 6 334072121.05406      -459.680 6        37.565
G03        18.000    21215038.923 7 111485834.89607      1734.361 7        47.450                                    21215037.266 8  86872097.57208      1351.450 8        48.126    21215037.837 7  86872106.57407      1351.395 7        44.292
R21        19.000    22241154.506 7 119016942.98907      3363.395 7        47.077                                                                    22241153.504 6  92568741.42506      2615.986 6        41.585
R20        20.000    19382006.108 6 103644345.29106       222.626 6        40.901                                                                    19382007.637 7  80612268.39707       173.099 7        47.020
R05        21.000    19336318.456 8 103363746.87608       494.500 8        51.793                                                                    19336317.103 7  80394031.08007       384.620 7        47.167
I06        22.000    38451631.181 7 150892689.18807      -205.433 7        42.432
S28        23.000    41047631.949 5 215706766.19805      -409.492 5        34.152
E10        24.000    24458187.309 7 128528768.10307     -1826.428 7        47.268                                                                    24458186.246 8  95979342.98108     -1363.853 8        49.987    24458186.180 8  98483142.30408     -1399.459 8        50.684
S23        25.000    38321379.139 7 201380179.39107      -414.459 7        44.898
E06        26.000    24785465.459 7 130248554.47007      1842.892 7        46.866                                                                    24785465.194 8  97263528.79508      1376.244 8        48.537    24785465.128 8  99800836.93108      1412.123 8        49.285
E30        27.000    28670013.839 6 150661940.21706        74.985 6        38.054                                                                    28670015.426 6 112507293.61706        55.881 6        41.349    28670014.759 7 115442264.33207        57.285 7        42.108
E12        28.000    26346367.558 6 138451240.84806     -2628.860 6        39.351                                                                    26346364.194 7 103388987.58107     -1963.053 7        43.067    26346364.534 7 106086079.25707     -2014.334 7        44.214
E19        30.000    25859891.075 6 135894656.77906     -2485.727 6        37.531                                                                    25859889.322 6 101479774.91506     -1856.122 6        40.038    25859889.042 6 104127070.73706     -1904.775 6        40.749
G32        31.000    22870652.476 7 120186108.87307     -2645.660 7        46.228                                    22870650.403 7  93651510.67407     -2061.552 7        44.342    22870650.977 7  93651515.68007     -2061.594 7        42.072
G02        32.000    20848232.043 8 109558244.64008      -194.557 8        50.235                                    20848225.359 7  85370058.19507      -151.602 7        44.132
G19        33.000    25524408.892 6 134131668.59606      3286.460 6        36.488                                    25524405.259 3 104518195.07203      2560.849 3        18.746
G17        34.000    23383377.388 7 122880527.99107      1906.467 7        43.638                                    23383372.847 6  95751070.72406      1485.557 6        39.529    23383372.780 6  95751070.73906      1485.535 6        39.526
E11        35.000    23412274.920 7 123032406.56907      -508.642 7        43.892                                                                    23412270.293 7  91874868.66907      -379.781 7        47.068    23412270.234 8  94271596.73008      -389.739 8        48.007
C32        36.000                                                                                                                                    22730150.059 8 118361885.63608     -2072.703 8        49.971                                                                    22730149.978 8  96178738.75508     -1684.307 8        50.245
C35        37.000                                                                                                                                    26045312.993 7 135624780.99907      2726.371 7        42.047                                                                    26045311.914 6 110206240.53206      2215.142 6        40.913
C41        38.000                                                                                                                                    27093929.127 6 141085201.37406     -3607.706 6        38.964                                                                    27093933.850 6 114643309.46806     -2931.543 6        40.231
C29        39.000                                                                                                                                    22029547.367 8 114713639.88708       332.686 8        50.518                                                                    22029544.862 8  93214224.14408       270.237 8        48.777
G08        40.000    23756653.148 7 124842095.77207     -4033.868 7        42.061                                    23756652.450 6  97279576.97606     -3143.271 6        37.346    23756653.235 6  97279583.98306     -3143.271 6        39.748
S44        42.000    40708219.748 6 213923351.60906      -478.057 6        37.074
C09        43.000                                                                                                                                    40312973.842 6 209920241.14106      1211.934 6        39.964    40312969.777 7 162323634.83407       937.108 7        42.627    40312968.165 6 170577370.14106       984.972 6        39.348
C05        44.000                                                                                                                                    39289340.192 6 204589941.05906      -397.792 6        38.024    39289335.610 7 158201944.19507      -307.489 7        43.979    39289337.788 6 166246188.95806      -323.164 6        40.403
R06        45.000    23513676.278 5 125473509.14305      3739.641 5        35.800
R13        46.000    24362449.122 6 130094119.44006      1419.592 6        36.730
C39        47.000                                                                                                                                    39368361.764 7 205001400.04807       399.866 7        42.527                                                                    39368357.522 7 166580419.03607       324.842 7        42.737
C20        48.000                                                                                                                                    22555895.758 8 117454512.69508      1248.768 8        51.547                                                                    22555890.231 8  95441403.97008      1014.598 8        48.808
C06        49.000                                                                                                                                    39356075.312 6 204937430.49206       909.110 6        38.787    39356069.996 7 158470602.99707       703.085 7        42.853    39356070.024 6 166528427.44306       738.540 6        40.091
C16        50.000                                                                                                                                    39661587.433 6 206528305.04006       789.905 6        41.456    39661587.000 6 159700793.95506       610.738 6        41.905    39661584.940 6 167821162.87806       641.862 6        38.069
S48        51.000    77356363.728 6 406510574.03406      -426.119 6        37.062
C19        52.000                                                                                                                                    26204286.231 7 136452625.03507      2802.187 7        42.432                                                                    26204282.442 7 110878932.87107      2276.997 7        42.391
R04        53.000    20626121.885 8 110451973.16208     -3356.119 8        50.793                                                                    20626119.536 7  85907098.58207     -2610.316 7        45.735
C60        54.000                                                                                                                                    40708224.420 6 211978613.31406      -473.892 6        38.234                                                                    40708208.838 6 172249956.99506      -385.119 6        39.718
C30        55.000                                                                                                                                    23065926.103 8 120110325.54508     -2894.627 8        49.110                                                                    23065926.627 7  97599476.37007     -2352.171 7        47.474
R19        56.000    22037629.737 6 117886495.49706     -3971.826 6        37.724                                                                    22037628.983 6  91689534.73806     -3089.248 6        40.291
C02        57.000                                                                                                                                    40695148.934 5 211910365.49105      -439.937 5        33.880    40695141.755 6 163862530.60206      -340.403 6        40.405    40695145.886 6 172194533.55406      -357.819 6        36.098
I03        58.000   134511266.174 6 452065858.38806       996.950 6        40.825
C13        59.000                                                                                                                                    41033792.937 6 213673795.69206     -1143.657 6        36.601    41033795.723 6 165226174.45306      -884.504 6        38.550    41033793.563 6 173627491.76506      -929.362 6        36.113
E25        60.000    28644148.883 6 150525998.42706     -3193.015 6        36.045                                                                    28644150.803 6 112405774.79506     -2384.333 6        38.526    28644150.248 6 115338098.72106     -2446.625 6        39.135
> 2025 01 01 00 00 50.0000000  0 56
G28         1.000    24359595.181 6 128010540.98206      1947.093 6        39.501                                    24359592.667 4  99748452.52704      1517.209 4        25.233    24359592.357 6  99748458.53106      1517.154 6        41.178
G31         2.000    25098191.449 5 131891885.86205      2822.340 5        34.452                                    25098187.007 3 102772882.59503      2199.221 3        22.248
G14         3.000    24824582.011 6 130454103.15406     -2432.761 6        37.168                                    24824579.182 3 101652552.30203     -1895.660 3        18.090    24824579.749 5 101652554.29005     -1895.410 5        35.857
G10         4.000    25256868.830 6 132725798.67506     -3534.183 6        37.508                                    25256867.445 4 103422709.05504     -2753.908 4        29.166    25256867.250 5 103422708.05105     -2753.745 5        34.981
S21         5.000    38601694.613 6 202853146.24306      -417.564 6        41.878
R12         6.000    24004346.317 7 128226930.60907     -1112.943 7        43.090                                                                    24004348.411 6  99732073.25606      -865.522 6        40.822
G21         7.000    21175031.743 7 111275606.90907     -1669.370 7        44.769                                    21175026.443 6  86708270.04606     -1300.809 6        37.520
E04         8.000    24092874.785 7 126608934.05907       538.816 7        47.431                                                                    24092872.910 8  94545637.32808       402.385 8        50.236    24092872.780 8  97012037.22408       412.865 8        50.920
G04        10.000    24813130.628 6 130393889.05106      3427.031 6        38.096                                    24813129.835 3 101605627.73303      2670.404 3        21.786    24813129.932 6 101605622.75006      2670.450 6        38.147
E09        11.000    26415685.417 7 138815395.81307      2598.564 7        43.079                                                                    26415685.354 7 103660860.32407      1940.468 7        45.521    26415684.812 7 106365056.41307      1991.100 7        46.448
S27        12.000    39258686.979 5 206305779.30405      -393.936 5        35.705
S36        14.000    38369511.925 7 201633663.62907      -416.699 7        43.716
E02        15.000    27587487.888 6 144973261.23006     -2121.726 6        38.243                                                                    27587487.545 6 108259272.75006     -1584.525 6        40.801    27587486.951 6 111083423.18706     -1625.758 6        41.287
E36        16.000    25339594.579 7 133160493.42107      1657.934 7        44.396                                                                    25339594.950 7  99438047.05907      1238.078 7        47.689    25339594.688 8 102032077.90808      1270.331 8        48.287
S45        17.000    63571954.988 6 334074420.16106      -459.971 6        37.319
G03        18.000    21213389.789 7 111477168.35307      1732.472 7        46.787                                    21213388.064 8  86865344.42708      1349.977 8        48.217    21213388.896 7  86865353.43907      1349.896 7        44.495
R21        19.000    22238013.397 7 119000128.47007      3362.453 7        46.961                                                                    22238011.482 6  92555663.46106      2615.274 6        41.726
R20        20.000    19381799.767 6 103643241.42206       219.050 6        41.061                                                                    19381801.223 7  80611409.83107       170.358 7        47.219
R05        21.000    19335857.713 8 103361284.45408       490.554 8        51.841                                                                    19335857.140 7  80392115.86407       381.562 7        47.818
I06        22.000    38451892.872 7 150893716.49607      -205.367 7        42.574
S28        23.000    41048020.162 5 215708813.95005      -409.523 5        34.205
E10        24.000    24459925.962 7 128537903.57707     -1827.705 7        47.134                                                                    24459924.717 8  95986164.92508     -1364.814 8        50.024    24459924.644 8  98490142.21608     -1400.448 8        50.734
S23        25.000    38321773.898 7 201382251.85607      -414.562 7        44.942
E06        26.000    24783712.665 7 130239344.31307      1841.279 7        46.791                                                                    24783712.580 8  97256651.09208      1374.984 8        48.518    24783712.470 8  99793779.80508      1410.872 8        49.219
E30        27.000    28669943.859 6 150661572.97306        72.248 6        37.301                                                                    28669945.655 6 112507019.36306        53.927 6        41.242    28669944.923 7 115441982.92207        55.386 7        42.059
E12        28.000    26348869.026 6 138464387.48706     -2629.704 6        38.703                                                                    26348865.937 7 103398804.87307     -1963.775 7        42.963    26348866.412 7 106096152.64707     -2014.987 7        44.305
E19        30.000    25862256.870 6 135907089.44006     -2487.185 6        37.656                                                                    25862255.161 6 101489059.05806     -1857.435 6        40.224    25862254.883 6 104136597.06506     -1905.802 6        40.720
G32        31.000    22873170.647 7 120199342.71907     -2647.877 7        46.287                                    22873168.624 7  93661822.76407     -2063.280 7        44.406    22873169.589 7  93661827.75707     -2063.237 7        42.146
G02        32.000    20848418.222 8 109559222.68608      -196.600 8        50.000                                    20848411.468 7  85370820.31307      -153.194 7        44.178
G19        33.000    25521281.812 6 134115238.82806      3285.507 6        37.274                                    25521278.834 3 104505392.75303      2560.116 3        19.164
G17        34.000    23381564.087 7 122871000.76607      1904.402 7        43.765                                    23381559.859 6  95743646.91906      1483.949 6        39.508    23381560.251 6  95743646.92606      1483.949 6        39.610
E11        35.000    23412759.571 7 123034953.82307      -510.052 7        43.977                                                                    23412755.019 7  91876770.85007      -380.920 7        46.986    23412755.000 8  94273548.52908      -390.797 8        48.017
C32        36.000                                                                                                                                    22732141.224 8 118372253.78408     -2074.503 8        49.863                                                                    22732141.016 8  96187163.70508     -1685.757 8        50.481
C35        37.000                                                                                                                                    26042694.494 6 135611150.95206      2725.656 6        41.256                                                                    26042694.481 6 110195164.96806      2214.838 6        41.180
C41        38.000                                                                                                                                    27097393.013 6 141103239.18906     -3607.591 6        38.682                                                                    27097397.712 6 114657966.65806     -2931.380 6        40.567
C29        39.000                                                                                                                                    22029229.168 8 114711982.94408       330.178 8        50.516                                                                    22029226.652 8  93212877.72508       268.224 8        49.015
G08        40.000    23760491.416 7 124862266.93507     -4034.623 7        42.209                                    23760490.887 6  97295294.76106     -3143.861 6        37.463    23760491.378 6  97295301.77706     -3144.022 6        39.423
S44        42.000    40708676.207 6 213925742.70206      -478.291 6        37.410
C09        43.000                                                                                                                                    40311810.389 6 209914182.36406      1211.370 6        39.604    40311806.220 7 162318949.81607       936.736 7        42.470    40311804.646 6 170572446.88206       984.290 6        39.640
C05        44.000                                                                                                                                    39289722.323 6 204591929.37006      -397.440 6        37.989    39289717.755 7 158203481.69607      -307.390 7        43.992    39289719.624 6 166247804.62706      -323.215 6        40.417
R06        45.000    23510172.470 5 125454813.54405      3738.676 5        34.886
R13        46.000    24361121.525 6 130087030.13806      1416.268 6        36.605
C39        47.000                                                                                                                                    39367977.960 7 204999403.45907       398.941 7        42.618                                                                    39367974.195 7 166578796.62407       324.079 7        42.923
C20        48.000                                                                                                                                    22554697.793 8 117448274.18508      1246.731 8        51.627                                                                    22554692.146 8  95436334.65308      1012.999 8        49.002
C06        49.000                                                                                                                                    39355202.695 6 204932887.04006       908.294 6        39.000    39355197.346 7 158467089.72607       702.406 7        43.064    39355197.547 6 166524735.49606       738.024 6        40.169
C16        50.000                                                                                                                                    39660828.518 6 206524357.84206       788.980 6        41.204    39660829.048 7 159697741.71907       610.153 7        42.078    39660826.783 6 167817955.44106       641.106 6        38.156
S48        51.000    77356756.824 6 406512705.10206      -426.100 6        37.009
C19        52.000                                                                                                                                    26201595.045 7 136438615.52507      2801.618 7        42.260                                                                    26201591.820 7 110867548.96807      2276.546 7        42.445
R04        53.000    20629256.457 8 110468760.39108     -3358.574 8        51.003                                                                    20629254.176 7  85920155.32307     -2612.252 7        45.607
C60        54.000                                                                                                                                    40708679.626 6 211980982.65506      -473.714 6        38.477                                                                    40708663.839 6 172251882.24206      -385.048 6        40.069
C30        55.000                                                                                                                                    23068706.155 8 120124803.05808     -2896.360 8        48.988                                                                    23068706.868 7  97611240.51407     -2353.588 7        47.640
R19        56.000    22041342.194 6 117906359.81506     -3973.958 6        37.705                                                                    22041343.547 6  91704984.75606     -3090.734 6        41.218
C02        57.000                                                                                                                                    40695571.033 5 211912566.22005      -440.107 5        34.033    40695564.677 6 163864232.33206      -340.122 6        40.267    40695568.339 6 172196321.79206      -357.692 6        36.348
I03        58.000   134509995.793 6 452060873.73606       996.944 6        40.937
C13        59.000                                                                                                                                    41034892.255 6 213679514.05306     -1143.515 6        37.002    41034893.375 6 165230596.22606      -884.154 6        38.501    41034891.575 6 173632138.38606      -929.192 6        36.136
E25        60.000    28647186.598 6 150541963.61106     -3193.200 6        36.008                                                                    28647189.003 6 112417696.82606     -2384.371 6        38.309    28647188.390 6 115350331.76306     -2446.423 6        39.018
> 2025 01 01 00 00 55.0000000  0 56
G28         1.000    24357743.648 6 128000810.64506      1945.097 6        38.985                                    24357741.192 4  99740870.45204      1515.658 4        25.068    24357740.646 6  99740876.44806      1515.726 6        41.030
G31         2.000    25095506.030 5 131877775.36405      2821.754 5        34.119                                    25095501.820 3 102761887.42103      2198.759 3        22.533
G14         3.000    24826897.593 6 130466271.21506     -2434.649 6        36.370                                    24826894.798 3 101662033.90803     -1897.100 3        18.030    24826894.739 5 101662035.92605     -1897.342 5        35.676
G10         4.000    25260232.280 6 132743470.36806     -3534.358 6        37.739                                    25260230.145 4 103436479.18704     -2754.041 4        29.346    25260229.920 5 103436478.20905     -2754.246 5        34.800
S21         5.000    38602091.228 7 202855234.45107      -417.943 7        42.093
R12         6.000    24005390.160 7 128232505.23207     -1116.948 7        44.090                                                                    24005391.621 6  99736408.87506      -868.780 6        39.928
G21         7.000    21176620.975 7 111283958.79007     -1671.412 7        44.767                                    21176615.770 6  86714778.00306     -1302.398 6        37.338
E04         8.000    24092363.250 7 126606246.09307       536.295 7        47.518                                                                    24092361.377 8  94543630.08208       400.501 8        50.183    24092361.214 8  97009977.61408       410.926 8        51.038
G04        10.000    24809869.898 6 130376754.89706      3426.588 6        37.705                                    24809869.401 3 101592276.46003      2670.068 3        21.262    24809869.508 6 101592271.46106      2670.101 6        38.099
E09        11.000    26413213.153 7 138802405.58307      2597.581 7        43.486                                                                    26413213.134 7 103651159.82507      1939.679 7        45.433    26413213.012 7 106355102.86207      1990.283 7        46.525
S27        12.000    39259062.658 5 206307750.04805      -394.496 5        35.519
S36        14.000    38369908.277 7 201635748.61607      -417.223 7        43.873
E02        15.000    27589507.822 6 144983875.19906     -2123.677 6        38.586                                                                    27589507.307 6 108267198.73006     -1585.889 6        40.789    27589506.891 6 111091555.94706     -1627.391 6        41.137
E36        16.000    25338017.388 7 133152205.92607      1657.109 7        44.292                                                                    25338017.928 7  99431858.34007      1237.474 7        47.627    25338017.594 8 102025727.74608      1269.739 8        48.363
S45        17.000    63572348.182 6 334075119.64216      -459.741 6        37.467
G03        18.000    21211741.875 7 111468511.22607      1730.360 7        46.663                                    21211740.647 8  86858598.61008      1348.332 8        48.122    21211741.361 7  86858607.60507      1348.313 7        44.299
R21        19.000    22234871.924 7 118983319.53907      3361.117 7        47.271                                                                    22234870.533 6  92542589.83206      2614.203 6        41.743
R20        20.000    19381596.934 6 103642155.20306       215.501 6        41.201                                                                    19381597.865 7  80610564.98707       167.536 7        47.194
R05        21.000    19335401.031 8 103358842.14708       486.310 8        52.107                                                                    19335399.966 7  80390216.29007       378.360 7        47.751
I06        22.000    38452154.617 7 150894744.05707      -205.541 7        42.445
S28        23.000    41048415.105 5 215710861.90705      -409.801 5        33.994
E10        24.000    24461665.581 7 128547045.71307     -1829.168 7        47.081                                                                    24461664.432 8  95992991.84208     -1365.956 8        49.976    24461664.355 8  98497147.22708     -1401.605 8        50.757
S23        25.000    38322167.294 7 201384324.55307      -414.654 7        44.897
E06        26.000    24781961.602 7 130230142.78407      1839.295 7        46.637                                                                    24781961.607 8  97249779.81708      1373.530 8        48.608    24781961.478 8  99786729.28008      1409.389 8        49.321
E30        27.000    28669876.437 6 150661217.76606        69.664 6        37.149                                                                    28669877.886 6 112506754.09606        51.972 6        41.390    28669877.275 6 115441710.73306        53.324 6        41.893
E12        28.000    26351371.862 6 138477538.84106     -2630.934 6        39.036                                                                    26351368.583 7 103408625.68707     -1964.577 7        43.014    26351368.885 7 106106229.66107     -2015.917 7        44.370
E19        30.000    25864624.504 6 135919530.52406     -2489.136 6        37.637                                                                    25864622.635 6 101498349.46506     -1858.796 6        40.036    25864622.359 6 104146129.82306     -1907.161 6        40.832
G32        31.000    22875691.254 7 120212588.21707     -2650.398 7        46.503                                    22875689.086 7  93672143.92707     -2065.243 7        44.343    22875690.094 6  93672148.92506     -2065.193 6        41.673
G02        32.000    20848606.306 8 109560211.40608      -198.935 8        49.940                                    20848599.630 7  85371590.74207      -155.012 7        44.125
G19        33.000    25518156.486 6 134098813.47806      3284.747 6        37.410                                    25518153.103 3 104492593.84603      2559.521 3        19.433
G17        34.000    23379753.185 7 122861484.43807      1902.124 7        43.564                                    23379748.986 6  95736231.61406      1482.171 6        39.529    23379749.444 6  95736231.61906      1482.147 6        39.285
E11        35.000    23413245.605 7 123037508.42007      -511.696 7        44.048                                                                    23413241.151 7  91878678.50007      -382.064 7        47.089    23413241.102 8  94275505.95108      -392.092 8        48.038
C32        36.000                                                                                                                                    22734134.043 8 118382631.29008     -2076.572 8        49.797                                                                    22734133.914 8  96195596.27208     -1687.210 8        50.328
C35        37.000                                                                                                                                    26040077.921 6 135597524.19806      2724.875 6        41.266                                                                    26040077.670 6 110184092.12706      2214.335 6        41.039
C41        38.000                                                                                                                                    27100856.704 6 141121277.34506     -3607.837 6        39.123                                                                    27100861.598 6 114672624.16106     -2931.597 6        40.358
C29        39.000                                                                                                                                    22028913.349 8 114710338.71608       327.443 8        50.597                                                                    22028910.938 8  93211541.65408       266.259 8        48.802
G08        40.000    23764330.433 6 124882441.59306     -4035.527 6        41.721                                    23764329.833 6  97311015.26606     -3144.568 6        36.907    23764330.060 6  97311022.26706     -3144.653 6        38.904
S44        42.000    40709132.702 6 213928134.16006      -478.570 6        37.433
C09        43.000                                                                                                                                    40310647.183 6 209908126.81006      1210.468 6        39.709    40310643.328 7 162314267.25707       936.263 7        42.406    40310641.863 6 170567526.23606       983.885 6        39.390
C05        44.000                                                                                                                                    39290104.110 6 204593918.12106      -397.982 6        38.174    39290099.788 7 158205019.52407      -307.762 7        44.020    39290101.443 6 166249420.64306      -323.214 6        40.310
R06        45.000    23506671.186 5 125436123.38905      3737.253 5        34.924
R13        46.000    24359798.622 6 130079958.46306      1412.454 6        36.140
C39        47.000                                                                                                                                    39367595.356 7 204997412.07907       397.608 7        42.453                                                                    39367591.668 7 166577178.45507       323.240 7        42.768
C20        48.000                                                                                                                                    22553501.625 8 117442046.41408      1244.371 8        51.565                                                                    22553496.134 8  95431274.08208      1011.280 8        48.873
C06        49.000                                                                                                                                    39354331.604 6 204928347.99606       907.209 6        39.153    39354325.697 7 158463579.84907       701.557 7        43.200    39354325.723 6 166521047.15406       737.349 6        39.946
C16        50.000                                                                                                                                    39660071.612 6 206520415.14206       788.017 6        40.808    39660071.825 7 159694692.97607       609.299 7        42.032    39660069.635 6 167814751.66506       640.380 6        38.042
S48        51.000    77357154.163 6 406514836.60706      -426.457 6        37.051
C19        52.000                                                                                                                                    26198905.067 6 136424609.59006      2800.659 6        41.957                                                                    26198902.196 7 110856168.00107      2276.065 7        42.284
R04        53.000    20632393.861 8 110485560.38708     -3361.405 8        51.218                                                                    20632391.933 7  85933221.97607     -2614.372 7        45.998
C60        54.000                                                                                                                                    40709134.359 6 211983352.38406      -474.285 6        38.276                                                                    40709119.045 6 172253807.84806      -385.093 6        39.730
C30        55.000                                                                                                                                    23071488.271 8 120139289.82608     -2898.457 8        49.193                                                                    23071488.884 7  97623012.19407     -2355.031 7        47.494
R19        56.000    22045058.017 6 117926234.22906     -3976.083 6        37.176                                                                    22045058.020 6  91720442.61506     -3092.371 6        40.875
C02        57.000                                                                                                                                    40695993.579 5 211914767.42905      -440.485 5        34.010    40695987.071 6 163865934.44406      -340.576 6        40.348    40695990.849 6 172198110.44306      -357.757 6        36.215
I03        58.000   134508726.093 6 452055889.52406       996.739 6        40.691
C13        59.000                                                                                                                                    41035990.747 6 213685231.94006     -1143.652 6        36.881    41035991.411 6 165235017.66506      -884.378 6        38.504    41035989.434 5 173636784.62705      -929.201 5        35.743
E25        60.000    28650224.088 5 150557928.70005     -3193.056 5        35.762                                                                    28650226.787 6 112429618.79606     -2384.424 6        38.279    28650226.320 6 115362564.73306     -2446.573 6        39.171
> 2025 01 01 00 01  0.0000000  0 56
G28         1.000    24355894.028 6 127991089.93506      1942.947 6        38.982                                    24355891.357 4  99733295.87504      1513.986 4        24.421    24355890.484 6  99733301.87806      1514.116 6        40.803
G31         2.000    25092821.909 5 131863667.09205      2821.462 5        34.267                                    25092816.973 3 102750893.97003      2198.540 3        23.048
G14         3.000    24829216.546 6 130478449.02706     -2436.636 6        36.393                                    24829212.087 3 101671523.09003     -1898.665 3        18.358    24829212.713 5 101671525.07605     -1898.658 5        35.467
G10         4.000    25263595.126 6 132761142.84606     -3534.774 6        38.465                                    25263592.962 4 103450249.94504     -2754.366 4        29.554    25263592.568 5 103450248.94805     -2754.456 5        34.281
S21         5.000    38602487.941 7 202857322.80307      -418.012 7        42.227
R12         6.000    24006437.891 7 128238100.70907     -1121.206 7        43.300                                                                    24006439.176 6  99740760.81106      -871.859 6        40.591
G21         7.000    21178212.228 7 111292320.31707     -1673.465 7        45.121                                    21178206.894 6  86721293.47706     -1304.001 6        37.357
E04         8.000    24091854.113 7 126603570.14007       533.847 7        47.517                                                                    24091852.196 8  94541631.81208       398.614 8        50.349    24091851.975 8  97007927.21308       409.070 8        51.064
G04        10.000    24806609.564 6 130359622.25606      3426.163 6        37.403                                    24806608.993 3 101578926.36603      2669.727 3        20.714    24806609.174 6 101578921.35906      2669.869 6        37.939
E09        11.000    26410742.106 7 138789420.33507      2596.320 7        43.240                                                                    26410742.328 7 103641463.04907      1938.870 7        45.624    26410741.977 7 106345153.13407      1989.402 7        46.593
S27        12.000    39259434.000 5 206309721.69205      -394.623 5        35.624
S36        14.000    38370305.674 7 201637834.26107      -417.282 7        43.846
E02        15.000    27591529.481 6 144994498.48306     -2125.718 6        38.429                                                                    27591528.923 6 108275131.68506     -1587.422 6        40.863    27591528.540 6 111099695.84806     -1628.850 6        41.330
E36        16.000    25336440.974 7 133143922.05807      1656.268 7        44.328                                                                    25336441.576 7  99425672.34307      1236.828 7        47.747    25336441.201 8 102019380.37208      1269.071 8        48.368
S45        17.000    63572741.757 6 334077419.81506      -460.306 6        37.561
G03        18.000    21210096.770 7 111459863.76607      1728.377 7        46.883                                    21210095.063 8  86851860.33208      1346.786 8        48.107    21210095.815 7  86851869.33807      1346.763 7        44.468
R21        19.000    22231730.589 7 118966516.29807      3359.915 7        47.286                                                                    22231730.174 6  92529520.67106      2613.246 6        41.044
R20        20.000    19381397.010 6 103641086.95906       211.812 6        40.996                                                                    19381397.897 7  80609734.13107       164.643 7        47.066
R05        21.000    19334948.177 8 103356420.06208       482.244 8        51.857                                                                    19334946.837 7  80388332.45907       375.065 7        47.613
I06        22.000    38452416.500 7 150895772.10607      -205.814 7        42.497
S28        23.000    41048799.865 5 215712910.90005      -409.907 5        34.238
E10        24.000    24463406.386 7 128556194.77907     -1830.629 7        47.034                                                                    24463405.457 8  95999823.94508     -1367.070 8        50.152    24463405.333 8  98504157.55108     -1402.678 8        50.803
S23        25.000    38322563.046 7 201386397.84507      -414.844 7        44.954
E06        26.000    24780212.334 7 130220950.15207      1837.430 7        46.525                                                                    24780212.341 8  97242915.19208      1372.102 8        48.730    24780212.230 8  99779685.57408      1408.005 8        49.422
E30        27.000    28669811.516 6 150660874.81106        67.100 6        37.153                                                                    28669812.903 6 112506497.90606        50.222 6        41.366    28669812.116 6 115441447.88006        51.499 6        41.507
E12        28.000    26353875.440 6 138490695.19606     -2632.001 6        39.568                                                                    26353872.143 7 103418450.23707     -1965.428 7        43.196    26353872.338 7 106116310.50207     -2016.645 7        44.433
E19        30.000    25866993.396 6 135931980.31606     -2491.076 6        37.947                                                                    25866991.621 6 101507646.37506     -1860.125 6        40.193    25866991.548 6 104155669.27606     -1908.711 6        40.927
G32        31.000    22878214.189 7 120225845.64007     -2652.878 7        46.557                                    22878211.854 7  93682474.38807     -2067.179 7        44.358    22878212.930 6  93682479.38406     -2067.075 6        41.743
G02        32.000    20848796.636 8 109561211.03108      -201.187 8        50.269                                    20848789.857 7  85372369.67107      -156.772 7        44.081
G19        33.000    25515031.392 6 134082392.85806      3283.542 6        37.664                                    25515028.293 3 104479798.60803      2558.609 3        19.493
G17        34.000    23377944.304 7 122851979.21707      1899.728 7        43.335                                    23377940.148 6  95728824.97006      1480.305 6        39.423    23377940.442 6  95728824.97106      1480.321 6        39.324
E11        35.000    23413733.386 7 123040070.66207      -513.414 7        44.056                                                                    23413728.801 7  91880591.86607      -383.437 7        47.185    23413728.691 8  94277469.22008      -393.369 8        48.027
C32        36.000                                                                                                                                    22736128.715 8 118393018.42608     -2078.541 8        50.019                                                                    22736128.661 8  96204036.66708     -1688.978 8        50.392
C35        37.000                                                                                                                                    26037462.411 6 135583901.07706      2724.063 6        41.895                                                                    26037461.519 6 110173022.21906      2213.534 6        41.249
C41        38.000                                                                                                                                    27104320.958 6 141139316.11306     -3607.995 6        39.009                                                                    27104325.944 6 114687282.14006     -2931.712 6        40.467
C29        39.000                                                                                                                                    22028600.161 8 114708707.50908       324.790 8        50.840                                                                    22028597.654 8  93210216.15508       263.974 8        48.888
G08        40.000    23768169.631 6 124902619.99206     -4036.188 6        41.168                                    23768169.441 6  97326738.69306     -3145.083 6        36.333    23768170.509 6  97326745.69906     -3145.167 6        38.808
S44        42.000    40709588.923 6 213930526.30306      -478.533 6        37.259
C09        43.000                                                                                                                                    40309484.689 6 209902074.70306      1209.859 6        39.769    40309481.257 7 162309587.40107       935.612 7        42.483    40309479.415 6 170562608.40206       983.208 6        39.438
C05        44.000                                                                                                                                    39290486.233 6 204595907.54906      -398.168 6        38.267    39290481.822 7 158206557.87707      -307.832 7        44.065    39290483.364 6 166251037.21306      -323.458 6        40.436
R06        45.000    23503168.078 5 125417439.10705      3736.092 5        35.390
R13        46.000    24358476.038 5 130072904.73805      1408.716 5        35.748
C39        47.000                                                                                                                                    39367213.980 7 204995426.17107       396.491 7        42.362                                                                    39367210.231 7 166575564.74707       322.079 7        42.808
C20        48.000                                                                                                                                    22552307.722 8 117435829.66608      1242.095 8        51.677                                                                    22552302.327 8  95426222.45608      1009.316 8        49.007
C06        49.000                                                                                                                                    39353460.623 6 204923813.63706       906.255 6        39.261    39353454.972 7 158460073.59407       700.773 7        43.103    39353454.927 6 166517362.60406       736.484 6        40.017
C16        50.000                                                                                                                                    39659315.244 6 206516477.25306       786.721 6        40.656    39659315.541 6 159691647.94306       608.489 6        41.969    39659313.574 6 167811551.80606       639.472 6        38.099
S48        51.000    77357552.129 6 406516968.58506      -426.532 6        36.945
C19        52.000                                                                                                                                    26196216.452 6 136410607.50906      2799.964 6        41.774                                                                    26196213.224 7 110844790.17207      2275.134 7        42.220
R04        53.000    20635533.977 8 110502373.26308     -3364.094 8        51.599                                                                    20635530.932 7  85946298.66707     -2616.566 7        45.657
C60        54.000                                                                                                                                    40709589.597 6 211985722.78206      -474.374 6        38.613                                                                    40709574.149 6 172255733.98906      -385.549 6        39.676
C30        55.000                                                                                                                                    23074272.231 8 120153786.11408     -2900.417 8        49.479                                                                    23074272.832 7  97634791.60907     -2356.774 7        47.535
R19        56.000    22048775.854 6 117946119.00306     -3978.172 6        37.316                                                                    22048775.459 6  91735908.57806     -3094.165 6        40.486
C02        57.000                                                                                                                                    40696416.751 5 211916969.35005      -440.503 5        34.024    40696409.858 6 163867637.11506      -340.601 6        40.324    40696413.985 6 172199899.69506      -357.967 6        36.106
I03        58.000   134507455.811 6 452050906.00106       996.526 6        40.749
C13        59.000                                                                                                                                    41037088.246 6 213690949.69806     -1143.567 6        36.919    41037089.323 6 165239438.96706      -884.419 6        38.288    41037087.646 5 173641430.74405      -929.467 5        35.824
E25        60.000    28653262.114 5 150573893.98005     -3193.494 5        35.581                                                                    28653264.754 6 112441540.91006     -2384.594 6        37.686    28653264.162 6 115374797.86606     -2446.776 6        39.105
> 2025 01 01 00 01  5.0000000  0 56
G28         1.000    24354045.699 6 127981378.50506      1941.636 6        39.231                                    24354043.133 4  99725728.54204      1512.967 4        24.331    24354042.198 6  99725734.53706      1512.862 6        40.138
G31         2.000    25090137.514 5 131849560.75505      2821.532 5        35.176                                    25090132.815 3 102739902.02703      2198.583 3        22.952
G14         3.000    24831534.835 5 130490636.15805     -2437.990 5        35.671                                    24831531.289 3 101681019.57003     -1899.714 3        18.060    24831532.283 5 101681021.57205     -1899.987 5        35.652
G10         4.000    25266957.930 6 132778815.77306     -3534.464 6        38.778                                    25266955.926 4 103464021.06104     -2754.128 4        29.848    25266955.607 5 103464020.06705     -2753.925 5        34.010
S21         5.000    38602887.114 7 202859411.22007      -417.708 7        42.136
R12         6.000    24007488.012 6 128243716.92206     -1125.059 6        41.588                                                                    24007490.467 6  99745129.09506      -875.168 6        40.091
G21         7.000    21179805.245 7 111300691.17307     -1674.856 7        44.992                                    21179799.851 6  86727816.22206     -1305.081 6        37.289
E04         8.000    24091347.066 7 126600905.90707       531.932 7        47.621                                                                    24091345.247 8  94539642.28608       397.216 8        50.242    24091345.007 8  97005885.78808       407.607 8        51.031
G04        10.000    24803349.600 6 130342490.78806      3426.382 6        37.202                                    24803348.885 3 101565577.19803      2669.899 3        20.833    24803349.650 6 101565572.19506      2670.037 6        37.732
E09        11.000    26408272.022 7 138776439.75107      2595.934 7        42.944                                                                    26408272.373 7 103631769.77407      1938.457 7        45.687    26408271.670 7 106335206.97207      1989.125 7        46.493
S27        12.000    39259813.851 6 206311693.73306      -394.017 6        36.019
S36        14.000    38370701.574 7 201639920.14107      -417.209 7        43.892
E02        15.000    27593553.222 6 145005130.74206     -2127.235 6        38.234                                                                    27593552.252 6 108283071.35106     -1588.334 6        40.908    27593551.849 6 111107842.63106     -1629.792 6        41.309
E36        16.000    25334865.205 7 133135641.52907      1655.967 7        44.260                                                                    25334865.806 7  99419488.83207      1236.609 7        47.729    25334865.460 8 102013035.55408      1268.842 8        48.413
S45        17.000    63573135.961 6 334079720.22706      -459.563 6        37.716
G03        18.000    21208453.219 7 111451225.66607      1726.914 7        46.822                                    21208451.263 8  86845129.34908      1345.646 8        48.072    21208452.015 7  86845138.35007      1345.637 7        44.160
R21        19.000    22228591.789 7 118949718.51807      3359.232 7        46.255                                                                    22228591.412 6  92516455.74406      2612.645 6        41.740
R20        20.000    19381201.056 6 103640036.45806       208.596 6        40.965                                                                    19381201.982 7  80608917.08007       162.224 7        47.136
R05        21.000    19334498.261 8 103354018.10908       478.640 8        52.087                                                                    19334497.328 7  80386464.27707       372.249 7        47.689
I06        22.000    38452678.825 7 150896800.36207      -205.518 7        42.432
S28        23.000    41049191.423 5 215714959.67505      -409.841 5        34.467
E10        24.000    24465148.807 7 128565350.47107     -1831.556 7        47.109                                                                    24465147.769 8  96006660.98608     -1367.699 8        50.078    24465147.596 8  98511172.95508     -1403.407 8        50.796
S23        25.000    38322958.632 7 201388471.30507      -414.476 7        44.959
E06        26.000    24778464.783 7 130211766.10707      1836.146 7        46.631                                                                    24778464.682 8  97236056.97908      1371.173 8        48.652    24778464.553 8  99772648.45708      1406.953 8        49.430
E30        27.000    28669748.368 6 150660543.99306        65.100 6        37.448                                                                    28669749.997 6 112506250.88406        48.445 6        40.834    28669749.134 6 115441194.41006        49.800 6        41.089
E12        28.000    26356379.847 6 138503856.23006     -2632.476 6        39.649                                                                    26356376.640 7 103428278.28307     -1965.697 7        43.075    26356376.727 7 106126394.92907     -2016.940 7        44.385
E19        30.000    25869364.177 6 135944438.39406     -2492.089 6        37.996                                                                    25869362.359 6 101516949.51806     -1861.203 6        40.291    25869362.272 6 104165215.09506     -1909.673 6        41.099
G32        31.000    22880739.111 7 120239114.64207     -2654.727 7        46.701                                    22880736.890 7  93692813.87107     -2068.621 7        44.334    22880737.800 7  93692818.87307     -2068.641 7        42.324
G02        32.000    20848988.942 8 109562221.30808      -202.885 8        50.224                                    20848982.097 7  85373156.90207      -158.093 7        44.009
G19        33.000    25511907.510 6 134065976.54906      3282.903 6        37.032                                    25511904.413 3 104467006.71303      2558.135 3        19.045
G17        34.000    23376137.759 7 122842484.79607      1898.132 7        43.098                                    23376133.380 6  95721426.72006      1479.059 6        39.405    23376133.686 6  95721426.73306      1479.120 6        39.183
E11        35.000    23414222.211 7 123042640.20507      -514.544 7        43.909                                                                    23414217.705 7  91882510.67807      -384.237 7        47.121    23414217.712 8  94279438.09508      -394.265 8        48.127
C32        36.000                                                                                                                                    22738125.338 8 118403414.86008     -2079.953 8        49.920                                                                    22738125.170 8  96212484.63308     -1690.118 8        50.436
C35        37.000                                                                                                                                    26034846.949 6 135570281.22706      2723.933 6        41.771                                                                    26034845.961 6 110161954.97106      2213.436 6        41.290
C41        38.000                                                                                                                                    27107785.302 6 141157355.15106     -3607.532 6        38.793                                                                    27107790.027 6 114701940.36906     -2931.390 6        40.203
C29        39.000                                                                                                                                    22028289.301 8 114707089.00008       322.635 8        50.846                                                                    22028286.806 8  93208900.99408       262.213 8        48.915
G08        40.000    23772010.472 6 124922801.82506     -4036.452 6        40.334                                    23772009.831 6  97342464.79606     -3145.285 6        36.155    23772010.799 6  97342471.79606     -3145.333 6        39.159
S44        42.000    40710042.945 6 213932918.82006      -478.334 6        37.202
C09        43.000                                                                                                                                    40308322.663 6 209896025.75506      1209.658 6        39.607    40308319.562 7 162304909.98407       935.414 7        42.472    40308317.635 6 170557693.17306       982.947 6        39.357
C05        44.000                                                                                                                                    39290868.409 6 204597897.36406      -397.837 6        38.267    39290863.796 7 158208096.52707      -307.589 7        43.954    39290865.558 6 166252654.10906      -323.262 6        40.355
R06        45.000    23499668.176 5 125398760.35105      3735.424 5        35.052
R13        46.000    24357156.748 5 130065868.92305      1405.518 5        35.262
C39        47.000                                                                                                                                    39366833.701 7 204993445.44407       395.758 7        42.171                                                                    39366829.884 7 166573955.24107       321.769 7        42.825
C20        48.000                                                                                                                                    22551116.012 8 117429623.62808      1240.363 8        51.510                                                                    22551110.510 8  95421179.54908      1007.963 8        49.028
C06        49.000                                                                                                                                    39352590.770 6 204919283.64606       905.797 6        39.312    39352584.958 7 158456570.72107       700.443 7        43.217    39352584.976 6 166513681.63006       736.023 6        40.067
C16        50.000                                                                                                                                    39658559.381 6 206512543.83606       786.373 6        40.391    39658560.104 6 159688606.38806       608.143 6        41.866    39658557.926 6 167808355.59206       639.241 6        38.162
S48        51.000    77357948.019 6 406519100.89206      -426.272 6        37.127
C19        52.000                                                                                                                                    26193528.663 6 136396608.98406      2799.533 6        41.473                                                                    26193524.908 7 110833415.22507      2275.049 7        42.121
R04        53.000    20638675.598 8 110519198.81108     -3366.146 8        50.952                                                                    20638673.482 7  85959385.20607     -2618.133 7        46.121
C60        54.000                                                                                                                                    40710045.014 6 211988093.53406      -474.001 6        38.294                                                                    40710029.454 6 172257660.43406      -385.104 6        39.898
C30        55.000                                                                                                                                    23077058.035 8 120168291.61708     -2901.796 8        49.174                                                                    23077058.443 7  97646578.52607     -2357.842 7        47.578
R19        56.000    22052495.212 6 117966013.80606     -3979.599 6        37.735                                                                    22052494.160 6  91751382.31806     -3095.386 6        40.441
C02        57.000                                                                                                                                    40696840.160 5 211919171.67905      -440.358 5        33.629    40696832.686 6 163869340.09606      -340.481 6        39.991    40696836.692 6 172201689.25806      -357.756 6        36.253
I03        58.000   134506185.650 6 452045922.90406       996.682 6        40.629
C13        59.000                                                                                                                                    41038185.031 6 213696666.96406     -1142.956 6        36.658    41038187.609 6 165243859.92106      -884.065 6        38.234    41038185.458 5 173646076.51105      -929.109 5        35.776
E25        60.000    28656300.237 5 150589859.13505     -3193.102 5        35.286                                                                    28656302.786 6 112453462.92706     -2384.168 6        37.289    28656302.387 6 115387030.87706     -2446.295 6        39.066
> 2025 01 01 00 01 10.0000000  0 56
G28         1.000    24352199.548 6 127971675.94106      1939.645 6        39.273                                    24352196.536 4  99718168.10104      1511.410 4        24.105    24352196.029 6  99718174.09806      1511.335 6        40.024
G31         2.000    25087453.249 5 131835455.89305      2820.643 5        34.943                                    25087448.840 3 102728911.22503      2197.897 3        22.914    25087449.873 5 102728910.26115      2197.860 5        33.096
G14         3.000    24833855.289 6 130502832.23006     -2439.946 6        36.582                                    24833852.169 3 101690523.00703     -1901.257 3        18.269    24833853.342 6 101690524.97806     -1901.273 6        36.193
G10         4.000    25270321.168 6 132796488.69006     -3534.499 6        38.736                                    25270318.957 4 103477792.16604     -2754.155 4        29.782    25270319.159 5 103477791.17705     -2754.275 5        33.677
S21         5.000    38603285.446 7 202861499.34807      -417.675 7        42.209
R12         6.000    24008542.797 7 128249353.11707     -1129.282 7        42.252                                                                    24008545.896 6  99749512.99006      -878.619 6        40.265
G21         7.000    21181399.732 7 111309070.92407     -1676.903 7        45.175                                    21181394.476 6  86734345.89706     -1306.679 6        37.161
E04         8.000    24090842.298 7 126598252.93307       529.452 7        47.555                                                                    24090840.432 8  94537661.17208       395.372 8        50.333    24090840.160 8  97003852.99308       405.651 8        50.945
G04        10.000    24800089.962 6 130325360.07706      3426.048 6        37.335                                    24800089.206 3 101552228.60003      2669.645 3        20.429    24800089.804 6 101552223.59406      2669.729 6        37.845
E09        11.000    26405802.794 7 138763463.39607      2594.864 7        42.754                                                                    26405803.102 7 103622079.64807      1937.668 7        45.743    26405802.270 7 106325264.06607      1988.179 7        46.251
S27        12.000    39260186.261 5 206313664.92905      -394.030 5        35.881
S36        14.000    38371099.235 7 201642006.81407      -417.565 7        43.860
E02        15.000    27595577.492 6 145015771.51606     -2128.983 6        38.474                                                                    27595577.143 6 108291017.39406     -1589.911 6        40.932    27595576.831 6 111115995.96206     -1631.396 6        41.302
E36        16.000    25333290.175 7 133127363.85907      1655.241 7        44.191                                                                    25333290.677 7  99413307.46707      1235.970 7        47.687    25333290.309 8 102006692.93208      1268.307 8        48.254
S45        17.000    63573526.330 6 334082020.31906      -460.141 6        37.592
G03        18.000    21206810.944 7 111442596.50807      1724.860 7        46.949                                    21206809.181 7  86838405.33707      1344.046 7        47.947    21206809.689 7  86838414.34607      1344.024 7        44.214
R21        19.000    22225453.621 7 118932925.72007      3358.055 7        46.355                                                                    22225453.101 6  92503394.68106      2611.841 6        41.590
R20        20.000    19381007.434 6 103639003.13006       205.069 6        40.892                                                                    19381008.408 7  80608113.38707       159.379 7        46.997
R05        21.000    19334052.810 8 103351635.74008       474.519 8        52.149                                                                    19334051.857 7  80384611.31707       369.090 7        47.672
I06        22.000    38452940.581 7 150897828.53007      -205.664 7        42.578
S28        23.000    41049586.187 5 215717008.48805      -409.854 5        34.414
E10        24.000    24466892.161 7 128574512.33607     -1833.035 7        47.173                                                                    24466891.167 8  96013502.63808     -1368.829 8        50.102    24466891.043 8  98518193.08408     -1404.544 8        50.685
S23        25.000    38323351.567 7 201390544.52507      -414.631 7        44.897
E06        26.000    24776718.685 7 130202590.20807      1834.408 7        46.728                                                                    24776718.599 8  97229204.85308      1369.838 8        48.605    24776718.498 8  99765617.58208      1405.519 8        49.311
E30        27.000    28669686.972 6 150660224.73706        62.785 6        37.456                                                                    28669689.216 6 112506012.47706        46.776 6        40.839    28669688.328 6 115440949.78506        47.878 6        41.237
E12        28.000    26358884.765 6 138517021.47706     -2633.392 6        39.483                                                                    26358881.999 7 103438109.47807     -1966.626 7        43.052    26358882.005 7 106136482.59507     -2017.905 7        44.193
E19        30.000    25871736.511 6 135956904.35706     -2493.977 6        37.837                                                                    25871734.721 6 101526258.50206     -1862.436 6        40.379    25871734.448 6 104174766.92306     -1910.892 6        40.965
G32        31.000    22883266.400 7 120252394.77007     -2657.098 7        46.506                                    22883264.068 7  93703162.02207     -2070.463 7        44.202    22883264.966 7  93703167.01107     -2070.434 7        42.459
G02        32.000    20849182.962 8 109563241.78508      -205.134 8        50.137                                    20849176.286 7  85373952.07807      -159.843 7        43.884
G19        33.000    25508784.455 6 134049564.17306      3282.098 6        37.766                                    25508781.360 3 104454217.84403      2557.494 3        18.925
G17        34.000    23374333.227 7 122833000.80407      1895.638 7        43.718                                    23374328.606 6  95714036.59906      1477.123 6        39.276    23374329.229 6  95714036.58906      1477.111 6        39.856
E11        35.000    23414712.554 7 123045216.60407      -516.084 7        43.810                                                                    23414707.956 7  91884434.61107      -385.412 7        47.085    23414707.935 8  94281412.21508      -395.445 8        48.060
C32        36.000                                                                                                                                    22740123.509 8 118413820.16108     -2082.000 8        50.015                                                                    22740123.378 8  96220939.77308     -1691.661 8        50.252
C35        37.000                                                                                                                                    26032231.537 6 135556664.29906      2723.204 6        41.993                                                                    26032231.282 6 110150890.09906      2212.699 6        41.552
C41        38.000                                                                                                                                    27111248.957 6 141175394.04006     -3607.703 6        39.015                                                                    27111254.142 6 114716598.46206     -2931.637 6        40.348
C29        39.000                                                                                                                                    22027980.867 8 114705482.75908       320.000 8        50.814                                                                    22027978.372 8  93207595.78308       260.050 8        48.843
G08        40.000    23775851.830 6 124942986.62506     -4037.345 6        40.627                                    23775850.982 6  97358193.20506     -3145.976 6        36.140    23775851.522 6  97358200.20506     -3145.887 6        39.120
S44        42.000    40710497.709 6 213935311.22506      -478.492 6        37.422
C09        43.000                                                                                                                                    40307161.844 6 209889979.55806      1208.873 6        39.474    40307158.063 7 162300234.67607       934.757 7        42.470    40307156.568 6 170552780.12206       982.406 6        39.384
C05        44.000                                                                                                                                    39291250.563 6 204599887.10206      -398.026 6        38.231    39291245.888 7 158209635.12007      -307.719 7        43.943    39291247.707 6 166254270.92006      -323.227 6        40.346
R06        45.000    23496168.669 5 125380086.68605      3734.083 5        35.152
R13        46.000    24355843.390 6 130058850.05706      1402.312 6        37.017
C39        47.000                                                                                                                                    39366454.498 7 204991469.43807       394.724 7        42.102                                                                    39366450.505 7 166572349.56007       320.778 7        42.836
C20        48.000                                                                                                                                    22549926.289 8 117423427.84708      1238.117 8        51.444                                                                    22549920.656 8  95416144.96508      1006.122 8        48.900
C06        49.000                                                                                                                                    39351721.616 6 204914757.56006       904.864 6        39.580    39351716.067 7 158453070.87507       699.709 7        43.164    39351715.799 6 166510003.80306       735.390 6        39.937
C16        50.000                                                                                                                                    39657805.067 6 206508614.47306       785.381 6        40.122    39657805.265 6 159685567.93506       607.417 6        41.688    39657803.496 6 167805162.66206       638.203 6        38.051
S48        51.000    77358343.101 6 406521232.97106      -426.385 6        36.983
C19        52.000                                                                                                                                    26190841.668 6 136382613.54506      2798.801 6        41.971                                                                    26190836.955 6 110822042.79206      2274.249 6        41.859
R04        53.000    20641819.859 8 110536036.60008     -3368.835 8        51.347                                                                    20641818.057 7  85972481.26807     -2620.238 7        46.386
C60        54.000                                                                                                                                    40710500.185 6 211990464.20306      -474.136 6        38.270                                                                    40710484.800 6 172259586.79906      -385.388 6        39.667
C30        55.000                                                                                                                                    23079844.933 8 120182805.87508     -2903.745 8        49.208                                                                    23079845.747 7  97658372.54207     -2359.488 7        47.517
R19        56.000    22056216.696 6 117985918.21506     -3981.925 6        38.207                                                                    22056216.072 6  91766863.50506     -3097.015 6        41.213
C02        57.000                                                                                                                                    40697262.550 5 211921373.95905      -440.529 5        33.874    40697255.737 6 163871043.04706      -340.651 6        40.007    40697259.672 6 172203478.79806      -357.929 6        36.049
I03        58.000   134504916.280 6 452040939.88706       996.513 6        40.794
C13        59.000                                                                                                                                    41039282.500 6 213702383.33106     -1143.273 6        36.628    41039285.381 6 165248280.17406      -884.137 6        38.384    41039283.020 5 173650721.51205      -928.837 5        35.438
E25        60.000    28659338.549 5 150605823.65305     -3192.917 5        35.057                                                                    28659340.765 6 112465384.47306     -2384.412 6        37.187    28659340.575 6 115399263.44606     -2446.591 6        38.994
> 2025 01 01 00 01 15.0000000  0 56
G28         1.000    24350354.583 6 127961983.29206      1937.485 6        39.495                                    24350351.920 4  99710615.39204      1509.721 4        24.120    24350351.804 6  99710621.39506      1509.624 6        40.329
G31         2.000    25084769.000 5 131821353.57805      2820.306 5        34.257                                    25084765.566 3 102717922.42103      2197.632 3        22.705    25084765.823 5 102717921.45005      2197.416 5        32.719
G14         3.000    24836177.933 6 130515038.21706     -2442.332 6        36.911                                    24836174.823 3 101700034.14803     -1903.135 3        18.567    24836175.385 6 101700036.15606     -1903.180 6        36.805
G10         4.000    25273684.050 6 132814162.66706     -3535.009 6        38.835                                    25273682.110 4 103491564.10604     -2754.553 4        29.943    25273682.885 5 103491563.09705     -2754.411 5        33.838
S21         5.000    38603679.012 7 202863588.07107      -417.879 7        42.100
R12         6.000    24009602.922 7 128255009.79707     -1133.465 7        43.287                                                                    24009604.415 6  99753912.64106      -881.744 6        41.414
G21         7.000    21182996.197 7 111317460.61107     -1679.123 7        44.823                                    21182990.975 6  86740883.31606     -1308.407 6        37.267
E04         8.000    24090339.590 7 126595612.27707       526.812 7        47.266                                                                    24090337.958 8  94535689.26008       393.325 8        50.319    24090337.659 8  97001829.64108       403.555 8        51.103
G04        10.000    24796830.319 6 130308231.17706      3425.365 6        37.535                                    24796829.487 3 101538881.42203      2669.113 3        20.810    24796830.008 6 101538876.42306      2669.326 6        37.834
E09        11.000    26403334.463 7 138750492.32507      2593.577 7        42.641                                                                    26403334.636 7 103612393.46307      1936.746 7        45.613    26403333.916 7 106315325.19507      1987.256 7        46.233
S27        12.000    39260559.480 5 206315637.28005      -394.984 5        35.757
S36        14.000    38371496.915 7 201644094.12907      -417.709 7        43.850
E02        15.000    27597604.481 6 145026421.87506     -2131.123 6        37.819                                                                    27597603.668 6 108298970.56806     -1591.456 6        40.965    27597603.478 6 111124156.61606     -1632.953 6        41.225
E36        16.000    25331715.568 7 133119090.12207      1654.193 7        44.539                                                                    25331716.207 7  99407129.02907      1235.277 7        47.735    25331715.815 8 102000353.32108      1267.484 8        48.453
S45        17.000    63573919.502 6 334084321.28006      -460.579 6        37.452
G03        18.000    21205170.781 7 111433977.31207      1722.678 7        47.804                                    21205168.994 8  86831689.08308      1342.348 8        48.049    21205169.348 7  86831698.07907      1342.385 7        44.125
R21        19.000    22222316.817 7 118916138.92607      3356.574 7        46.127                                                                    22222316.216 6  92490338.29206      2610.786 6        41.397
R20        20.000    19380817.791 6 103637988.05406       201.078 6        40.803                                                                    19380818.349 7  80607323.87107       156.326 7        46.628
R05        21.000    19333611.106 8 103349273.94008       470.082 8        52.150                                                                    19333610.090 7  80382774.36507       365.644 7        47.596
I06        22.000    38453202.822 7 150898857.37307      -205.947 7        42.574
S28        23.000    41049970.769 5 215719058.21405      -410.022 5        34.267
E10        24.000    24468636.962 7 128583681.42107     -1834.682 7        47.168                                                                    24468635.935 8  96020349.68008     -1370.080 8        50.105    24468635.852 8  98525218.74208     -1405.812 8        50.773
S23        25.000    38323747.945 7 201392618.59707      -415.181 7        45.026
E06        26.000    24774974.374 7 130193423.52307      1832.248 7        46.760                                                                    24774974.182 8  97222359.60108      1368.234 8        48.588    24774974.043 8  99758593.75308      1403.966 8        49.394
E30        27.000    28669628.320 6 150659918.14106        60.012 6        37.028                                                                    28669630.750 6 112505783.58306        44.763 6        40.849    28669629.915 6 115440714.90106        45.900 6        41.011
E12        28.000    26361390.983 6 138530192.00306     -2634.941 6        39.015                                                                    26361388.314 7 103447944.58807     -1967.536 7        43.189    26361388.244 7 106146574.27707     -2018.865 7        44.280
E19        30.000    25874109.936 6 135969379.28606     -2496.252 6        37.675                                                                    25874108.546 6 101535574.17206     -1863.783 6        40.291    25874108.285 6 104184325.62206     -1912.612 6        40.887
G32        31.000    22885795.421 7 120265687.07407     -2659.846 7        46.320                                    22885793.558 7  93713519.65607     -2072.608 7        44.292    22885794.112 6  93713524.65906     -2072.630 6        41.976
G02        32.000    20849379.230 8 109564273.48608      -207.616 8        50.371                                    20849372.604 7  85374756.00007      -161.779 7        43.989
G19        33.000    25505662.439 6 134033156.85206      3280.780 6        36.798                                    25505658.987 3 104441432.93003      2556.463 3        19.254
G17        34.000    23372530.456 7 122823528.25207      1893.210 7        43.115                                    23372526.024 6  95706655.39606      1475.229 6        39.405    23372526.910 6  95706655.40706      1475.216 6        40.212
E11        35.000    23415204.395 7 123047800.89907      -517.743 7        43.913                                                                    23415199.717 7  91886364.44107      -386.681 7        47.108    23415199.616 8  94283392.39108      -396.762 8        48.144
C32        36.000                                                                                                                                    22742123.780 8 118424235.33208     -2084.135 8        49.997                                                                    22742123.488 8  96229402.95608     -1693.524 8        50.444
C35        37.000                                                                                                                                    26029617.143 6 135543051.28506      2722.121 6        41.707                                                                    26029616.908 6 110139828.39506      2211.915 6        41.273
C41        38.000                                                                                                                                    27114713.331 6 141193433.79506     -3608.128 6        39.105                                                                    27114718.685 6 114731257.24806     -2931.925 6        40.453
C29        39.000                                                                                                                                    22027675.104 8 114703889.80508       317.099 8        50.698                                                                    22027672.437 8  93206301.38208       257.676 8        48.936
G08        40.000    23779693.575 6 124963175.40706     -4038.264 6        41.912                                    23779692.982 6  97373924.71206     -3146.698 6        36.832    23779694.135 6  97373931.71606     -3146.603 6        39.210
S44        42.000    40710951.337 6 213937704.60706      -478.916 6        37.233
C09        43.000                                                                                                                                    40306001.427 6 209883937.10906      1207.942 6        39.366    40305997.788 7 162295562.27107       934.085 7        42.483    40305996.068 6 170547870.13606       981.561 6        39.399
C05        44.000                                                                                                                                    39291632.677 6 204601877.81606      -398.442 6        38.141    39291628.176 7 158211174.46807      -308.072 7        43.725    39291629.848 6 166255888.53806      -323.625 6        40.358
R06        45.000    23492669.760 5 125361419.10205      3732.480 5        35.490
R13        46.000    24354533.538 6 130051849.68006      1397.988 6        37.293
C39        47.000                                                                                                                                    39366076.141 7 204989499.17007       393.422 7        42.025                                                                    39366072.126 7 166570748.56307       319.697 7        42.773
C20        48.000                                                                                                                                    22548738.774 8 117417243.37208      1235.612 8        51.558                                                                    22548732.942 8  95411119.57608      1004.086 8        48.997
C06        49.000                                                                                                                                    39350853.728 6 204910236.48806       903.369 6        39.532    39350847.931 7 158449574.88407       698.682 7        43.304    39350847.369 6 166506330.05506       734.262 6        39.763
C16        50.000                                                                                                                                    39657052.052 6 206504690.19006       784.148 6        40.319    39657051.870 6 159682533.43806       606.373 6        41.716    39657049.751 6 167801973.84306       637.283 6        38.135
S48        51.000    77358742.644 6 406523365.84006      -426.930 6        37.369
C19        52.000                                                                                                                                    26188154.860 7 136368622.27107      2797.681 7        42.337                                                                    26188149.811 6 110810673.74006      2273.331 6        41.583
R04        53.000    20644965.908 8 110552887.48808     -3371.657 8        50.492                                                                    20644964.450 7  85985587.50207     -2622.357 7        46.250
C60        54.000                                                                                                                                    40710955.897 6 211992835.81606      -474.513 6        38.393                                                                    40710940.091 6 172261513.91406      -385.589 6        39.949
C30        55.000                                                                                                                                    23082634.291 8 120197329.90908     -2905.915 8        49.603                                                                    23082634.841 7  97670174.51507     -2361.293 7        47.623
R19        56.000    22059939.301 6 118005833.40206     -3984.265 6        38.492                                                                    22059938.212 6  91782353.08806     -3098.782 6        41.080
C02        57.000                                                                                                                                    40697684.966 5 211923577.23405      -441.069 5        33.964    40697678.726 6 163872746.76506      -341.094 6        39.907    40697682.696 6 172205269.12806      -358.202 6        36.098
I03        58.000   134503646.624 6 452035957.75806       996.261 6        40.665
C13        59.000                                                                                                                                    41040380.986 6 213708099.78506     -1143.365 6        36.654    41040382.902 6 165252700.50606      -884.136 6        38.219    41040381.060 5 173655366.60205      -928.999 5        35.510
E25        60.000    28662376.849 5 150621788.63605     -3193.258 5        35.952                                                                    28662378.748 6 112477306.35806     -2384.382 6        37.047    28662378.759 6 115411496.32606     -2446.774 6        39.282
> 2025 01 01 00 01 20.0000000  0 56
G28         1.000    24348512.220 6 127952299.84306      1935.979 6        40.057                                    24348509.129 4  99703069.85104      1508.554 4        24.256    24348509.030 6  99703075.85206      1508.601 6        39.733
G31         2.000    25082085.959 5 131807253.11005      2820.122 5        33.198                                    25082082.307 3 102706935.06703      2197.510 3        22.210    25082082.099 5 102706934.07005      2197.488 5        33.305
G14         3.000    24838501.917 6 130527253.40806     -2443.871 6        36.839                                    24838499.285 3 101709552.46103     -1904.314 3        18.448    24838499.507 6 101709554.44506     -1904.348 6        37.440
G10         4.000    25277047.576 6 132831836.95106     -3534.700 6        39.078                                    25277045.391 4 103505336.27604     -2754.316 4        29.782    25277045.720 5 103505335.29705     -2754.392 5        34.124
S21         5.000    38604079.441 7 202865677.05207      -417.771 7        42.083
R12         6.000    24010666.215 7 128260686.46707     -1137.172 7        43.644                                                                    24010667.276 6  99758327.71206      -884.655 6        40.622
G21         7.000    21184594.338 7 111325859.47707     -1680.594 7        44.665                                    21184589.218 6  86747427.88506     -1309.553 6        37.255
E04         8.000    24089839.258 7 126592983.20307       524.743 7        47.394                                                                    24089837.658 8  94533725.98608       391.869 8        50.285    24089837.411 8  96999815.14908       402.068 8        51.236
G04        10.000    24793571.601 6 130291103.36906      3425.493 6        37.913                                    24793569.938 3 101525535.06703      2669.234 3        20.357    24793570.374 6 101525530.07106      2669.353 6        37.947
E09        11.000    26400866.826 7 138737525.79307      2593.017 7        42.646                                                                    26400867.104 7 103602710.67007      1936.350 7        45.696    26400866.680 7 106305389.81507      1986.825 7        46.536
S27        12.000    39260939.336 5 206317610.03605      -394.379 5        35.971
S36        14.000    38371892.246 7 201646181.41107      -417.387 7        43.759
E02        15.000    27599632.588 6 145037081.03706     -2132.455 6        38.078                                                                    27599632.066 6 108306930.34106     -1592.538 6        40.815    27599631.718 6 111132324.02406     -1634.044 6        41.614
E36        16.000    25330141.841 7 133110819.58407      1653.942 7        44.429                                                                    25330142.384 7  99400952.97007      1235.082 7        47.714    25330142.008 8 101994016.15108      1267.274 8        48.630
S45        17.000    63574313.170 6 334086622.34206      -460.075 6        37.607
G03        18.000    21203532.218 7 111425367.33307      1721.185 7        47.682                                    21203530.583 8  86824980.01008      1341.183 8        48.062    21203531.217 7  86824989.01807      1341.086 7        43.958
R21        19.000    22219180.850 7 118899357.45907      3355.876 7        47.218                                                                    22219179.714 6  92477286.04106      2610.007 6        41.342
R20        20.000    19380631.217 6 103636990.47906       197.884 6        41.135                                                                    19380632.206 7  80606547.99007       153.832 7        46.265
R05        21.000    19333172.708 8 103346932.16208       466.503 8        51.982                                                                    19333171.731 7  80380952.98707       362.751 7        47.543
I06        22.000    38453465.137 7 150899886.34907      -205.714 7        42.387
S28        23.000    41050361.700 5 215721108.16405      -409.874 5        34.733
E10        24.000    24470382.910 7 128592856.97907     -1835.678 7        47.078                                                                    24470382.007 8  96027201.54808     -1370.796 8        50.082    24470381.953 8  98532249.35608     -1406.575 8        50.943
S23        25.000    38324141.229 7 201394692.74807      -414.762 7        45.053
E06        26.000    24773231.691 7 130184265.28507      1830.985 7        46.808                                                                    24773231.497 8  97215520.66308      1367.218 8        48.644    24773231.225 8  99751576.40908      1402.912 8        49.600
E30        27.000    28669571.940 6 150659623.34806        58.003 6        37.588                                                                    28669574.665 6 112505563.45906        43.254 6        41.924    28669573.837 7 115440489.03807        44.286 7        42.421
E12        28.000    26363898.549 6 138543367.03606     -2635.467 6        39.495                                                                    26363895.335 7 103457783.09007     -1967.943 7        43.109    26363895.342 7 106156669.42707     -2019.263 7        44.287
E19        30.000    25876485.546 6 135981862.41406     -2497.406 6        38.120                                                                    25876484.235 6 101544896.00006     -1864.909 6        40.093    25876483.787 6 104193890.62006     -1913.546 6        41.054
G32        31.000    22888327.376 7 120278990.78007     -2661.700 7        46.011                                    22888325.158 7  93723886.17707     -2074.052 7        44.263    22888325.551 6  93723891.17306     -2074.063 6        41.685
G02        32.000    20849577.616 8 109565315.68108      -209.377 8        50.154                                    20849570.916 7  85375568.10007      -163.151 7        43.972
G19        33.000    25502540.997 6 134016753.78806      3280.288 6        38.538                                    25502537.696 3 104428651.30003      2556.089 3        20.595
G17        34.000    23370729.767 7 122814066.42607      1891.400 7        43.706                                    23370725.493 6  95699282.54406      1473.819 6        39.339    23370725.762 6  95699282.53806      1473.868 6        39.823
E11        35.000    23415697.342 7 123050392.36707      -518.930 7        44.084                                                                    23415692.912 7  91888299.62507      -387.470 7        47.088    23415692.796 8  94285378.05908      -397.598 8        48.189
C32        36.000                                                                                                                                    22744125.605 8 118434659.64608     -2085.655 8        49.838                                                                    22744125.367 8  96237873.56308     -1694.847 8        50.324
C35        37.000                                                                                                                                    26027003.790 7 135529441.48107      2721.727 7        42.051                                                                    26027003.047 6 110128769.30706      2211.656 6        41.011
C41        38.000                                                                                                                                    27118177.614 6 141211473.68606     -3607.840 6        38.823                                                                    27118183.139 6 114745916.15106     -2931.714 6        40.462
C29        39.000                                                                                                                                    22027371.640 8 114702309.42808       314.967 8        50.674                                                                    22027368.937 8  93205017.19308       255.878 8        48.823
G08        40.000    23783536.317 7 124983367.43707     -4038.605 7        42.383                                    23783535.519 6  97389658.75506     -3146.967 6        37.316    23783536.151 6  97389665.75806     -3146.936 6        39.189
S44        42.000    40711408.427 6 213940098.18206      -478.559 6        37.350
C09        43.000                                                                                                                                    40304841.491 6 209877897.68306      1207.680 6        39.168    40304838.110 7 162290892.21207       933.800 7        42.518    40304836.283 6 170542962.62106       981.280 6        39.165
C05        44.000                                                                                                                                    39292015.152 6 204603868.75106      -397.903 6        38.243    39292010.616 7 158212713.99407      -307.872 7        43.795    39292012.301 6 166257506.35206      -323.451 6        40.226
R06        45.000    23489173.832 5 125342757.03305      3732.188 5        35.210
R13        46.000    24353226.410 6 130044866.73206      1394.980 6        37.251
C39        47.000                                                                                                                                    39365699.201 7 204987533.93107       392.704 7        42.036                                                                    39365694.768 7 166569151.64207       319.121 7        42.662
C20        48.000                                                                                                                                    22547553.199 8 117411069.45408      1233.885 8        51.691                                                                    22547547.302 8  95406102.77008      1002.511 8        48.868
C06        49.000                                                                                                                                    39349986.520 6 204905719.59106       903.179 6        39.508    39349980.672 7 158446082.14707       698.280 7        43.299    39349979.858 6 166502659.71306       733.899 6        39.586
C16        50.000                                                                                                                                    39656299.685 6 206500770.23306       783.615 6        40.622    39656299.315 6 159679502.28406       606.015 6        41.597    39656296.825 6 167798788.56106       636.650 6        37.894
S48        51.000    77359140.096 6 406525498.83406      -426.445 6        36.718
C19        52.000                                                                                                                                    26185467.964 7 136354634.39607      2797.403 7        42.544                                                                    26185463.679 6 110799307.44506      2273.016 6        41.378
R04        53.000    20648114.780 8 110569750.88008     -3373.732 8        50.557                                                                    20648113.383 7  85998703.47807     -2624.062 7        46.194
C60        54.000                                                                                                                                    40711411.171 6 211995207.63506      -474.208 6        38.459                                                                    40711395.633 6 172263441.21606      -385.444 6        39.673
C30        55.000                                                                                                                                    23085425.507 8 120211862.98808     -2907.408 8        49.576                                                                    23085425.742 7  97681983.83107     -2362.565 7        47.432
R19        56.000    22063663.818 6 118025758.33506     -3985.963 6        38.357                                                                    22063662.722 6  91797850.26306     -3100.100 6        40.965
C02        57.000                                                                                                                                    40698109.439 5 211925780.78505      -440.644 5        34.190    40698101.911 6 163874450.68506      -340.811 6        39.814    40698105.908 5 172207059.69205      -357.848 5        35.857
I03        58.000   134502377.032 6 452030975.93606       996.339 6        40.722
C13        59.000                                                                                                                                    41041478.679 6 213713815.67406     -1143.026 6        36.730    41041480.453 6 165257120.36106      -883.821 6        38.006    41041479.048 5 173660011.20705      -928.782 5        35.352
E25        60.000    28665415.058 6 150637753.30606     -3192.839 6        36.552                                                                    28665416.928 6 112489228.03506     -2384.303 6        37.168    28665416.374 6 115423728.98206     -2446.408 6        39.261
> 2025 01 01 00 01 25.0000000  0 56
G28         1.000    24346671.271 6 127942625.66806      1933.663 6        40.391                                    24346668.019 4  99695531.53704      1506.755 4        24.376    24346667.513 6  99695537.53106      1506.682 6        39.090
G31         2.000    25079402.889 5 131793154.56305      2819.253 5        32.449                                    25079399.306 3 102695949.18603      2196.812 3        22.095    25079398.951 5 102695948.17305      2196.806 5        33.156
G14         3.000    24840828.477 6 130539477.81806     -2446.042 6        36.370                                    24840825.624 3 101719077.97403     -1906.002 3        19.015    24840826.379 6 101719079.97206     -1906.120 6        37.493
G10         4.000    25280410.523 6 132849511.58106     -3535.122 6        38.805                                    25280408.870 4 103519108.71604     -2754.642 4        29.772    25280409.615 5 103519107.73205     -2754.782 5        34.438
S21         5.000    38604475.296 7 202867766.46307      -418.071 7        42.045
R12         6.000    24011731.415 7 128266383.31907     -1141.857 7        42.436                                                                    24011733.281 6  99762758.51206      -888.081 6        40.529
G21         7.000    21186194.551 7 111334267.59707     -1682.833 7        44.600                                    21186189.250 6  86753979.66606     -1311.297 6        37.259
E04         8.000    24089341.171 7 126590365.75607       522.056 7        47.292                                                                    24089339.563 8  94531771.40408       389.794 8        50.306    24089339.354 8  96997809.57808       400.005 8        51.099
G04        10.000    24790312.073 6 130273976.69206      3424.951 6        38.318                                    24790310.743 3 101512189.62603      2668.794 3        20.905    24790311.091 6 101512184.63106      2668.627 6        38.189
E09        11.000    26398400.397 7 138724563.90407      2591.650 7        43.082                                                                    26398400.611 7 103593031.33807      1935.334 7        45.654    26398400.153 7 106295457.97507      1985.801 7        46.636
S27        12.000    39261310.731 5 206319583.60305      -395.038 5        35.590
S36        14.000    38372290.896 7 201648269.23107      -417.965 7        43.553
E02        15.000    27601662.530 6 145047749.09906     -2135.023 6        38.985                                                                    27601662.079 6 108314896.71406     -1594.056 6        40.915    27601661.896 6 111140498.24706     -1635.850 6        41.263
E36        16.000    25328568.742 7 133102552.28607      1652.851 7        44.483                                                                    25328569.182 7  99394779.35407      1234.172 7        47.675    25328568.804 8 101987681.47508      1266.411 8        48.472
S45        17.000    63574706.798 6 334088923.64306      -460.763 6        37.278
G03        18.000    21201895.460 7 111416766.66507      1718.847 7        47.316                                    21201893.924 8  86818278.19408      1339.363 8        48.130    21201894.648 7  86818287.19107      1339.391 7        44.089
R21        19.000    22216047.688 7 118882581.48607      3354.332 7        47.724                                                                    22216045.448 7  92464238.04907      2608.969 7        42.250
R20        20.000    19380448.084 6 103636010.58806       193.969 6        41.108                                                                    19380448.994 7  80605785.84907       150.803 7        46.479
R05        21.000    19332738.601 8 103344610.18108       462.129 8        52.120                                                                    19332737.009 7  80379146.99607       359.419 7        47.102
I06        22.000    38453727.494 7 150900915.50307      -206.123 7        42.358
S28        23.000    41050752.261 5 215723158.14605      -410.309 5        34.338
E10        24.000    24472130.317 7 128602039.07207     -1837.377 7        47.138                                                                    24472129.297 8  96034058.30608     -1372.067 8        50.044    24472129.210 8  98539284.98608     -1407.852 8        50.827
S23        25.000    38324535.867 7 201396767.12507      -415.244 7        44.897
E06        26.000    24771490.431 7 130175115.60007      1828.824 7        46.891                                                                    24771490.359 8  97208688.09808      1365.612 8        48.572    24771490.092 8  99744565.60608      1401.267 8        49.506
E30        27.000    28669518.439 6 150659340.17806        55.145 6        37.161                                                                    28669520.880 6 112505351.84306        41.101 6        40.992    28669520.114 6 115440271.90306        42.262 6        41.449
E12        28.000    26366406.655 6 138556546.63406     -2636.704 6        39.778                                                                    26366403.206 7 103467624.99107     -1968.890 7        42.916    26366403.350 7 106166768.08707     -2020.422 7        44.181
E19        30.000    25878862.610 6 135994353.80106     -2499.376 6        38.177                                                                    25878861.112 6 101554223.99506     -1866.397 6        40.210    25878860.675 6 104203461.96306     -1915.216 6        41.120
G32        31.000    22890861.455 7 120292305.97207     -2664.517 7        45.911                                    22890858.958 7  93734261.64907     -2076.246 7        44.290    22890859.643 6  93734266.65106     -2076.221 6        41.821
G02        32.000    20849778.017 8 109566368.45208      -211.917 8        50.241                                    20849771.262 7  85376388.44207      -165.131 7        44.093
G19        33.000    25499420.184 6 134000355.13606      3278.982 6        36.832                                    25499416.933 3 104415873.09803      2555.051 3        19.821
G17        34.000    23368931.845 7 122804615.43307      1888.792 7        43.879                                    23368927.025 6  95691918.13606      1471.788 6        39.501    23368927.064 6  95691918.13306      1471.859 6        40.191
E11        35.000    23416191.880 7 123052991.05307      -520.771 7        44.163                                                                    23416187.432 7  91890240.20707      -388.808 7        47.115    23416187.354 8  94287369.26008      -398.972 8        48.160
C32        36.000                                                                                                                                    22746129.095 8 118445093.15908     -2087.917 8        50.061                                                                    22746129.012 8  96246351.65608     -1696.477 8        50.510
C35        37.000                                                                                                                                    26024390.434 6 135515834.92906      2720.677 6        41.795                                                                    26024389.830 6 110117712.88406      2211.053 6        41.507
C41        38.000                                                                                                                                    27121642.313 6 141229513.77406     -3608.458 6        39.099                                                                    27121647.511 6 114760575.21306     -2931.901 6        40.741
C29        39.000                                                                                                                                    22027070.378 8 114700741.70508       311.967 8        50.738                                                                    22027067.895 8  93203743.29208       253.682 8        48.941
G08        40.000    23787379.223 7 125003562.77107     -4039.679 7        42.464                                    23787378.529 6  97405395.37406     -3147.805 6        37.539    23787379.411 6  97405402.38306     -3147.749 6        39.252
S44        42.000    40711866.442 6 213942492.04906      -479.092 6        37.251
C09        43.000                                                                                                                                    40303682.173 6 209871861.34606      1206.627 6        39.360    40303678.791 7 162286224.51307       933.094 7        42.675    40303677.186 6 170538057.61006       980.473 6        39.312
C05        44.000                                                                                                                                    39292397.646 6 204605859.99706      -398.646 6        38.408    39292393.082 7 158214253.74607      -308.323 7        43.826    39292394.611 6 166259124.40506      -323.859 6        40.625
R06        45.000    23485676.116 5 125324100.44505      3730.673 5        35.371
R13        46.000    24351921.795 6 130037901.24106      1390.815 6        36.851
C39        47.000                                                                                                                                    39365322.369 6 204985573.79006       391.259 6        41.962                                                                    39365318.406 7 166567558.88507       318.083 7        42.883
C20        48.000                                                                                                                                    22546369.393 8 117404906.19208      1231.282 8        51.740                                                                    22546363.754 8  95401094.62208      1000.668 8        49.110
C06        49.000                                                                                                                                    39349120.126 6 204901207.00306       901.885 6        39.628    39349114.001 7 158442592.72007       697.390 7        43.469    39349113.247 6 166498992.87906       732.989 6        39.859
C16        50.000                                                                                                                                    39655547.938 6 206496854.67806       782.332 6        40.846    39655547.283 6 159676474.53006       604.932 6        41.819    39655545.130 6 167795606.87006       635.834 6        38.435
S48        51.000    77359533.294 6 406527631.97706      -427.115 6        37.059
C19        52.000                                                                                                                                    26182781.809 7 136340650.02207      2796.236 7        42.174                                                                    26182778.306 6 110787944.02206      2272.246 6        41.738
R04        53.000    20651266.933 8 110586626.73908     -3376.703 8        50.653                                                                    20651264.677 7  86011829.12807     -2626.312 7        45.872
C60        54.000                                                                                                                                    40711866.565 6 211997579.74906      -474.833 6        38.435                                                                    40711851.166 6 172265368.74906      -385.706 6        39.988
C30        55.000                                                                                                                                    23088217.895 8 120226405.17408     -2909.612 8        49.385                                                                    23088218.375 7  97693800.55307     -2364.196 7        47.680
R19        56.000    22067388.859 6 118045693.11006     -3988.071 6        37.981                                                                    22067389.426 6  91813355.09506     -3101.893 6        40.834
C02        57.000                                                                                                                                    40698533.054 5 211927984.66305      -441.509 5        33.808    40698525.468 6 163876154.86006      -341.128 6        39.973    40698529.112 6 172208850.54806      -358.268 6        36.163
I03        58.000   134501107.727 6 452025994.48006       996.004 6        40.791
C13        59.000                                                                                                                                    41042576.058 6 213719530.96106     -1143.221 6        37.059    41042577.388 6 165261539.79206      -883.924 6        38.144    41042576.550 5 173664655.35805      -928.857 5        35.767
E25        60.000    28668452.600 6 150653717.73206     -3193.106 6        36.212                                                                    28668454.771 6 112501149.49606     -2384.466 6        37.093    28668454.043 6 115435961.44306     -2446.690 6        38.354
> 2025 01 01 00 01 30.0000000  0 56
G28         1.000    24344831.950 6 127932961.38506      1931.875 6        39.691                                    24344828.536 4  99688000.92504      1505.359 4        24.135    24344828.813 6  99688006.90606      1505.478 6        38.360
G31         2.000    25076720.753 5 131779058.53005      2819.051 5        32.737                                    25076716.717 3 102684965.25903      2196.664 3        21.619    25076716.584 5 102684964.26205      2196.450 5        32.677
G14         3.000    24843157.225 6 130551712.05606     -2447.733 6        37.093                                    24843153.980 3 101728611.13403     -1907.323 3        18.597    24843153.885 6 101728613.12006     -1907.381 6        37.361
G10         4.000    25283774.133 6 132867187.18406     -3535.132 6        38.102                                    25283772.558 4 103532881.91904     -2754.653 4        29.583    25283772.602 5 103532880.93005     -2754.664 5        34.486
S21         5.000    38604874.710 6 202869856.76006      -417.975 6        41.990
R12         6.000    24012801.866 7 128272101.11807     -1145.505 7        42.976                                                                    24012804.244 6  99767205.71806      -891.174 6        41.976
G21         7.000    21187796.633 7 111342685.47807     -1684.432 7        44.417                                    21187791.146 6  86760539.05006     -1312.546 6        37.142
E04         8.000    24088845.591 7 126587760.57407       519.906 7        47.499                                                                    24088843.838 8  94529825.97108       388.291 8        50.196    24088843.592 8  96995813.39508       398.396 8        50.985
G04        10.000    24787053.270 6 130256851.79306      3424.853 6        38.279                                    24787052.039 3 101498845.54803      2668.704 3        20.976    24787052.376 6 101498840.53806      2668.901 6        38.183
E09        11.000    26395935.063 7 138711607.22407      2590.837 7        43.365                                                                    26395935.182 7 103583355.90707      1934.815 7        45.667    26395934.645 7 106285530.13707      1985.238 7        46.440
S27        12.000    39261688.064 5 206321557.47805      -394.425 5        35.795
S36        14.000    38372687.761 7 201650357.76207      -417.496 7        43.441
E02        15.000    27603694.769 6 145058426.61106     -2136.457 6        39.144                                                                    27603694.024 6 108322870.18306     -1595.279 6        40.820    27603693.782 6 111148679.70506     -1636.967 6        41.466
E36        16.000    25326996.308 7 133094288.85907      1652.347 7        44.330                                                                    25326996.706 7  99388608.61907      1233.847 7        47.733    25326996.312 8 101981349.76408      1266.132 8        48.419
S45        17.000    63575095.574 6 334089525.66216      -460.585 6        37.531
G03        18.000    21200260.621 7 111408175.89207      1717.189 7        46.961                                    21200259.166 8  86811584.08708      1338.068 8        48.039    21200260.188 7  86811593.09507      1338.073 7        44.068
R21        19.000    22212912.904 7 118865811.55907      3353.445 7        46.592                                                                    22212911.274 6  92451194.78606      2608.285 6        41.578
R20        20.000    19380268.467 6 103635048.90006       190.534 6        41.159                                                                    19380269.252 7  80605037.86107       148.177 7        46.820
R05        21.000    19332308.148 8 103342308.73408       458.251 8        51.879                                                                    19332306.942 7  80377356.99007       356.398 7        47.271
I06        22.000    38453989.885 7 150901945.26607      -205.871 7        42.421
S28        23.000    41051146.269 5 215725208.68905      -410.113 5        34.371
E10        24.000    24473879.118 7 128611228.31307     -1838.508 7        47.288                                                                    24473877.960 8  96040920.40108     -1372.923 8        49.980    24473877.883 8  98546326.09008     -1408.697 8        50.736
S23        25.000    38324932.818 7 201398842.28807      -415.086 7        44.968
E06        26.000    24769750.876 7 130165975.04207      1827.265 7        46.435                                                                    24769750.936 8  97201862.36208      1364.568 8        48.544    24769750.765 8  99737561.80708      1400.124 8        49.439
E30        27.000    28669467.833 6 150659069.89306        52.982 6        37.123                                                                    28669469.489 6 112505150.04306        39.509 6        41.282    28669468.790 6 115440064.85606        40.545 6        41.864
E12        28.000    26368915.669 6 138569731.42706     -2637.421 6        39.796                                                                    26368912.025 7 103477470.79007     -1969.455 7        42.675    26368912.389 7 106176870.71407     -2020.812 7        43.992
E19        30.000    25881241.352 6 136006854.05806     -2500.849 6        37.811                                                                    25881239.882 6 101563558.60206     -1867.543 6        40.136    25881239.450 6 104213040.06306     -1916.171 6        40.765
G32        31.000    22893397.284 7 120305633.21007     -2666.582 7        45.911                                    22893395.043 7  93744646.50607     -2077.855 7        44.197    22893396.154 7  93744651.50207     -2077.800 7        42.080
G02        32.000    20849980.614 8 109567432.38108      -213.811 8        49.994                                    20849973.724 7  85377217.47707      -166.607 7        44.092
G19        33.000    25496300.863 5 133983961.37905      3278.196 5        35.314                                    25496297.265 3 104403098.69803      2554.444 3        19.015
G17        34.000    23367135.555 7 122795175.85507      1886.891 7        43.522                                    23367130.765 6  95684562.61506      1470.306 6        39.541    23367131.100 6  95684562.62006      1470.402 6        39.961
E11        35.000    23416688.164 7 123055597.58507      -521.986 7        44.132                                                                    23416683.412 7  91892186.64307      -389.751 7        47.027    23416683.325 8  94289366.47908      -399.962 8        48.085
C32        36.000                                                                                                                                    22748134.616 8 118455536.44608     -2089.546 8        49.953                                                                    22748134.592 8  96254837.69308     -1698.043 8        50.544
C35        37.000                                                                                                                                    26021777.836 6 135502232.21806      2720.270 6        40.658                                                                    26021777.881 6 110106659.55406      2210.302 6        41.409
C41        38.000                                                                                                                                    27125106.690 6 141247554.62606     -3608.110 6        39.102                                                                    27125112.017 6 114775234.90806     -2932.088 6        40.830
C29        39.000                                                                                                                                    22026771.795 8 114699187.21708       309.631 8        50.570                                                                    22026769.325 8  93202480.15208       251.547 8        49.078
G08        40.000    23791222.672 6 125023762.00206     -4040.130 6        41.409                                    23791222.341 6  97421135.03206     -3148.153 6        37.289    23791223.244 6  97421142.01506     -3148.087 6        39.541
S44        42.000    40712321.510 6 213944886.78106      -479.018 6        37.028
C09        43.000                                                                                                                                    40302524.072 6 209865828.68506      1206.067 6        39.159    40302520.332 7 162281559.70607       932.670 7        42.665    40302518.622 6 170533155.59206       980.141 6        39.159
C05        44.000                                                                                                                                    39292779.898 6 204607852.13606      -398.518 6        38.180    39292775.630 7 158215794.18807      -308.139 7        43.742    39292777.275 6 166260743.18006      -323.878 6        40.610
R06        45.000    23482182.368 5 125305449.87205      3729.532 5        35.995
R13        46.000    24350620.727 6 130030953.95906      1387.876 6        36.813
C39        47.000                                                                                                                                    39364946.871 7 204983619.34407       390.366 7        42.004                                                                    39364943.001 7 166565970.73207       317.125 7        42.990
C20        48.000                                                                                                                                    22545187.933 8 117398754.15708      1229.359 8        51.913                                                                    22545182.299 8  95396095.59808       998.870 8        49.145
C06        49.000                                                                                                                                    39348254.353 6 204896699.28606       901.229 6        39.559    39348248.423 7 158439107.08507       696.812 7        43.526    39348247.680 6 166495330.01506       732.056 6        39.592
C16        50.000                                                                                                                                    39654796.609 6 206492944.13706       781.791 6        40.574    39654796.222 6 159673450.65906       604.466 6        41.757    39654794.223 6 167792429.25106       635.170 6        38.255
S48        51.000    77359929.404 6 406529765.93506      -426.748 6        36.665
C19        52.000                                                                                                                                    26180096.626 7 136326669.73907      2795.751 7        42.002                                                                    26180093.847 7 110776583.90207      2271.644 7        42.057
R04        53.000    20654420.680 8 110603515.73608     -3379.058 8        50.412                                                                    20654418.945 7  86024965.02707     -2628.215 7        46.039
C60        54.000                                                                                                                                    40712322.581 6 211999952.70206      -474.646 6        38.387                                                                    40712306.807 6 172267296.98406      -385.632 6        40.069
C30        55.000                                                                                                                                    23091012.400 8 120240957.05108     -2911.352 8        49.141                                                                    23091012.923 7  97705625.14707     -2365.776 7        47.702
R19        56.000    22071117.574 6 118065638.50206     -3990.021 6        38.360                                                                    22071118.166 6  91828868.17606     -3103.309 6        40.815
C02        57.000                                                                                                                                    40698955.770 5 211930189.48305      -441.162 5        33.982    40698948.488 6 163877859.75806      -341.014 6        40.062    40698952.632 6 172210642.14206      -358.408 6        36.310
I03        58.000   134499838.785 6 452021013.83306       996.025 6        40.760
C13        59.000                                                                                                                                    41043673.945 6 213725246.31606     -1143.117 6        37.096    41043675.572 6 165265959.25106      -883.795 6        37.682    41043674.074 5 173669299.55405      -928.589 5        35.767
E25        60.000    28671490.392 5 150669682.49605     -3193.231 5        35.586                                                                    28671492.793 6 112513071.20906     -2384.258 6        37.036    28671491.898 6 115448194.16506     -2446.439 6        37.773
> 2025 01 01 00 01 35.0000000  0 56
G28         1.000    24342994.838 6 127923306.54306      1930.092 6        39.363                                    24342990.905 4  99680477.66904      1503.959 4        24.165    24342992.357 6  99680483.65306      1504.091 6        38.877
G31         2.000    25074038.784 5 131764964.56805      2818.948 5        32.904                                    25074034.307 3 102673982.94403      2196.576 3        21.524    25074034.870 5 102673981.95805      2196.288 5        32.731
G14         3.000    24845486.876 6 130563955.66306     -2449.593 6        37.879                                    24845483.914 3 101738151.59903     -1908.804 3        18.776    24845483.859 6 101738153.61006     -1908.834 6        37.747
G10         4.000    25287137.799 6 132884863.30706     -3535.332 6        37.766                                    25287136.547 4 103546655.51104     -2754.803 4        29.403    25287136.392 5 103546654.52605     -2754.885 5        35.205
S21         5.000    38605270.082 7 202871947.62807      -418.233 7        42.023
R12         6.000    24013876.029 7 128277839.26107     -1149.468 7        42.741                                                                    24013878.386 6  99771668.69306      -894.154 6        41.731
G21         7.000    21189400.152 7 111351112.74607     -1686.346 7        44.459                                    21189394.773 6  86767105.75306     -1314.037 6        37.100
E04         8.000    24088352.294 7 126585167.19007       517.543 7        47.493                                                                    24088350.246 8  94527889.36308       386.465 8        50.200    24088350.131 8  96993826.26108       396.574 8        51.181
G04        10.000    24783795.108 6 130239728.24306      3424.533 6        38.261                                    24783793.523 3 101485502.52903      2668.460 3        20.976    24783793.679 6 101485497.53606      2668.513 6        38.634
E09        11.000    26393470.205 7 138698655.34507      2590.039 7        43.202                                                                    26393470.472 7 103573684.05607      1934.080 7        45.514    26393469.807 7 106275605.97807      1984.525 7        46.576
S27        12.000    39262063.292 5 206323531.23405      -394.856 5        35.667
S36        14.000    38373085.060 7 201652446.25907      -417.694 7        43.799
E02        15.000    27605727.887 6 145069113.12306     -2138.282 6        39.099                                                                    27605727.611 6 108330850.38406     -1596.737 6        40.739    27605727.249 6 111156868.07506     -1638.306 6        41.545
E36        16.000    25325424.439 7 133086028.87407      1651.691 7        44.119                                                                    25325424.891 7  99382440.43907      1233.448 7        47.554    25325424.509 8 101975020.67708      1265.659 8        48.505
S45        17.000    63575489.108 6 334091827.94106      -460.345 6        37.512
G03        18.000    21198627.825 7 111399594.58707      1715.306 7        46.793                                    21198626.205 8  86804897.35908      1336.598 8        48.010    21198627.307 7  86804906.37107      1336.588 7        44.226
R21        19.000    22209778.737 7 118849047.30807      3352.408 7        46.673                                                                    22209778.039 6  92438155.92606      2607.369 6        41.774
R20        20.000    19380091.151 6 103634104.92506       187.091 6        41.266                                                                    19380092.550 7  80604303.66907       145.530 7        46.991
R05        21.000    19331881.316 8 103340027.42608       454.347 8        51.827                                                                    19331880.063 7  80375582.63907       353.437 7        47.528
I06        22.000    38454252.175 7 150902975.33607      -205.967 7        42.461
S28        23.000    41051535.371 5 215727259.63205      -410.160 5        34.390
E10        24.000    24475629.065 7 128620424.25107     -1839.835 7        47.333                                                                    24475627.938 8  96047787.49408     -1373.857 8        49.958    24475627.758 8  98553372.33108     -1409.724 8        50.865
S23        25.000    38325326.906 7 201400917.74807      -415.083 7        45.074
E06        26.000    24768013.333 7 130156843.20407      1825.588 7        46.740                                                                    24768013.187 8  97195043.13608      1363.205 8        48.503    24768013.022 8  99730564.68008      1398.848 8        49.564
E30        27.000    28669418.868 6 150658811.62106        50.551 6        37.463                                                                    28669420.233 6 112504957.19006        37.635 6        40.784    28669419.705 6 115439866.95106        38.680 6        41.859
E12        28.000    26371425.303 6 138582920.99306     -2638.482 6        39.898                                                                    26371422.046 7 103487320.12207     -1970.092 7        42.457    26371422.319 7 106186976.99807     -2021.550 7        44.033
E19        30.000    25883622.027 6 136019362.67106     -2502.725 6        37.471                                                                    25883620.185 6 101572899.43806     -1868.936 6        39.976    25883619.688 6 104222624.57906     -1917.446 6        40.977
G32        31.000    22895935.476 7 120318972.04907     -2668.920 7        46.061                                    22895933.360 7  93755040.40307     -2079.677 7        44.179    22895934.305 7  93755045.40007     -2079.667 7        42.174
G02        32.000    20850184.969 8 109568507.05008      -215.989 8        49.993                                    20850178.229 7  85378054.88307      -168.304 7        43.915
G19        33.000    25493181.782 6 133967572.32806      3277.401 6        36.159                                    25493178.568 3 104390327.95303      2553.829 3        18.209
G17        34.000    23365340.613 7 122785747.27707      1884.708 7        43.187                                    23365336.603 6  95677215.66706      1468.601 6        39.333    23365336.758 6  95677215.67706      1468.462 6        40.110
E11        35.000    23417185.478 7 123058211.55307      -523.489 7        44.169                                                                    23417180.873 7  91894138.62107      -390.913 7        47.023    23417180.766 8  94291369.37708      -401.066 8        48.179
C32        36.000                                                                                                                                    22750141.878 8 118465989.09008     -2091.428 8        49.780                                                                    22750141.847 8  96263331.31808     -1699.388 8        50.752
C35        37.000                                                                                                                                    26019166.972 6 135488633.02606      2719.583 6        41.297                                                                    26019166.429 6 110095609.09506      2209.925 6        41.712
C41        38.000                                                                                                                                    27128571.079 6 141265595.84706     -3608.359 6        38.781                                                                    27128576.663 6 114789894.89106     -2932.015 6        40.982
C29        39.000                                                                                                                                    22026475.948 8 114697645.53608       307.133 8        50.596                                                                    22026473.299 8  93201227.41608       249.586 8        49.267
G08        40.000    23795067.238 6 125043964.66406     -4040.772 6        40.129                                    23795066.899 6  97436877.35606     -3148.650 6        36.862    23795067.428 6  97436884.35106     -3148.621 6        40.119
S44        42.000    40712776.493 6 213947281.96306      -478.920 6        37.244
C09        43.000                                                                                                                                    40301365.763 6 209859799.28506      1205.511 6        38.973    40301362.548 7 162276897.38507       932.259 7        42.883    40301360.757 6 170528256.21506       979.623 6        39.703
C05        44.000                                                                                                                                    39293162.414 6 204609844.73006      -398.397 6        38.315    39293158.056 7 158217334.99507      -308.116 7        43.928    39293160.050 6 166262362.34406      -323.874 6        40.861
R06        45.000    23478689.798 6 125286805.07506      3728.494 6        36.132
R13        46.000    24349323.397 6 130024024.36606      1384.275 6        36.378
C39        47.000                                                                                                                                    39364572.691 6 204981670.14106       389.402 6        41.866                                                                    39364568.737 7 166564386.85307       316.442 7        43.304
C20        48.000                                                                                                                                    22544008.476 8 117392612.92608      1227.213 8        51.820                                                                    22544002.934 8  95391105.34708       997.308 8        49.431
C06        49.000                                                                                                                                    39347389.281 6 204892196.03906       900.187 6        39.447    39347383.819 7 158435624.89207       696.171 7        43.742    39347382.907 6 166491670.74906       731.646 6        40.100
C16        50.000                                                                                                                                    39654045.957 6 206489038.16306       780.763 6        40.250    39654046.048 7 159670430.30407       603.880 7        42.047    39654044.089 6 167789255.32106       634.571 6        38.465
S48        51.000    77360326.936 6 406531900.09106      -426.708 6        37.040
C19        52.000                                                                                                                                    26177412.978 6 136312693.10806      2794.912 6        41.926                                                                    26177409.744 7 110765226.75107      2271.121 7        42.193
R04        53.000    20657577.112 8 110620417.37708     -3381.496 8        50.711                                                                    20657575.573 7  86038110.75507     -2630.122 7        46.475
C60        54.000                                                                                                                                    40712778.087 6 212002326.11006      -474.722 6        38.381                                                                    40712762.613 6 172269225.58006      -385.610 6        40.179
C30        55.000                                                                                                                                    23093808.837 8 120255518.17608     -2913.067 8        48.791                                                                    23093809.289 8  97717457.25208     -2367.080 8        48.015
R19        56.000    22074848.696 6 118085594.05006     -3991.966 6        38.078                                                                    22074848.323 6  91844389.15406     -3104.931 6        40.691
C02        57.000                                                                                                                                    40699379.004 5 211932394.76305      -440.955 5        33.916    40699372.362 6 163879565.04106      -341.056 6        40.331    40699376.193 6 172212434.14306      -358.406 6        36.355
I03        58.000   134498569.314 6 452016033.68806       996.012 6        40.856
C13        59.000                                                                                                                                    41044772.664 6 213730961.27706     -1142.958 6        36.987    41044773.576 6 165270378.41106      -883.687 6        37.724    41044771.495 6 173673943.41406      -928.573 6        36.450
E25        60.000    28674528.476 5 150685647.13905     -3192.964 5        34.586                                                                    28674530.945 6 112524992.85006     -2384.281 6        37.240    28674530.044 6 115460426.81506     -2446.383 6        37.682
> 2025 01 01 00 01 40.0000000  0 56
G28         1.000    24341159.498 6 127913660.88206      1928.046 6        39.763                                    24341155.072 4  99672961.56904      1502.366 4        24.361    24341156.985 6  99672967.56106      1502.379 6        39.823
G31         2.000    25071356.468 5 131750872.37905      2818.057 5        33.108                                    25071352.622 3 102663002.04103      2195.895 3        21.381    25071354.101 5 102663001.03805      2195.713 5        33.066
G14         3.000    24847818.734 6 130576208.31906     -2451.467 6        37.429                                    24847815.691 3 101747699.11303     -1910.248 3        18.597    24847814.686 6 101747701.11306     -1910.109 6        36.068
G10         4.000    25290501.991 6 132902539.61506     -3535.559 6        37.743                                    25290500.463 4 103560429.26504     -2754.983 4        29.393    25290500.640 5 103560428.25705     -2754.724 5        35.467
S21         5.000    38605669.197 7 202874038.61207      -418.426 7        42.203
R12         6.000    24014954.848 7 128283597.23507     -1153.809 7        43.143                                                                    24014956.454 6  99776146.98706      -897.489 6        40.934
G21         7.000    21191005.360 7 111359549.11307     -1688.338 7        44.844                                    21191000.134 6  86773679.54106     -1315.588 6        37.077
E04         8.000    24087860.903 7 126582585.28807       515.130 7        47.496                                                                    24087858.930 8  94525961.32108       384.658 8        50.256    24087858.754 8  96991847.92408       394.686 8        51.133
G04        10.000    24780536.791 6 130222605.70106      3424.337 6        38.468                                    24780535.212 3 101472160.30103      2668.331 3        20.905    24780535.235 6 101472155.29806      2668.312 6        38.429
E09        11.000    26391006.153 7 138685707.95507      2588.913 7        43.105                                                                    26391006.561 7 103564015.56307      1933.262 7        45.552    26391006.025 7 106265685.25407      1983.779 7        46.553
S27        12.000    39262440.169 5 206325505.53405      -395.106 5        35.786
S36        14.000    38373480.790 7 201654534.64707      -417.872 7        43.687
E02        15.000    27607763.109 6 145079808.34806     -2139.880 6        38.769                                                                    27607762.944 6 108338837.05306     -1598.035 6        40.827    27607762.278 6 111165063.09906     -1639.670 6        41.461
E36        16.000    25323853.275 7 133077771.98707      1651.077 7        44.143                                                                    25323853.710 7  99376274.58507      1232.895 7        47.701    25323853.242 8 101968693.97308      1265.084 8        48.522
S45        17.000    63575880.983 6 334094130.21606      -460.567 6        37.822
G03        18.000    21196996.603 7 111391022.42107      1713.471 7        47.009                                    21196994.967 8  86798217.75208      1335.170 8        48.003    21196995.629 7  86798226.75507      1335.103 7        44.445
R21        19.000    22206647.415 7 118832288.33407      3351.188 7        46.542                                                                    22206646.637 6  92425121.20106      2606.359 6        41.600
R20        20.000    19379918.890 6 103633178.41606       183.399 6        41.185                                                                    19379919.035 7  80603583.04407       142.709 7        46.967
R05        21.000    19331458.176 8 103337765.87908       450.213 8        51.989                                                                    19331457.115 7  80373823.66807       350.129 7        47.222
I06        22.000    38454514.968 7 150904005.44107      -206.129 7        42.538
S28        23.000    41051922.144 5 215729310.86405      -410.636 5        34.705
E10        24.000    24477380.058 7 128629626.57907     -1841.236 7        47.087                                                                    24477379.117 8  96054659.36608     -1374.950 8        50.011    24477378.940 8  98560423.46308     -1410.797 8        50.819
S23        25.000    38325721.871 7 201402993.30807      -415.323 7        45.047
E06        26.000    24766277.410 7 130147719.75507      1823.759 7        46.940                                                                    24766277.046 8  97188230.16808      1361.908 8        48.578    24766276.867 8  99723573.98708      1397.431 8        49.545
E30        27.000    28669371.602 6 150658565.02106        47.951 6        37.611                                                                    28669373.387 6 112504772.95306        35.794 6        41.032    28669372.768 7 115439677.91707        36.940 7        42.100
E12        28.000    26373935.779 6 138596114.92606     -2639.432 6        39.901                                                                    26373932.771 7 103497172.73907     -1970.995 7        42.569    26373932.963 7 106197086.63907     -2022.313 7        44.113
E19        30.000    25886004.045 6 136031879.35206     -2504.437 6        37.834                                                                    25886001.933 6 101582246.31606     -1870.076 6        40.086    25886001.632 6 104232215.29506     -1918.883 6        41.025
G32        31.000    22898476.013 7 120332322.18607     -2671.351 7        46.302                                    22898473.809 7  93765443.10107     -2081.575 7        44.172    22898474.367 7  93765448.09307     -2081.564 7        42.129
G02        32.000    20850391.515 8 109569592.15608      -218.160 8        50.149                                    20850384.733 7  85378900.41907      -169.995 7        43.890
G19        33.000    25490064.244 6 133951187.64806      3276.306 6        36.442                                    25490060.684 2 104377560.72702      2552.960 2        17.849
G17        34.000    23363548.790 7 122776329.36307      1882.433 7        42.971                                    23363544.416 6  95669877.03506      1466.830 6        39.270    23363544.724 6  95669877.03306      1466.860 6        40.155
E11        35.000    23417684.026 7 123060832.56507      -525.070 7        44.125                                                                    23417679.635 7  91896095.87607      -392.131 7        47.056    23417679.476 8  94293377.69108      -402.360 8        48.100
C32        36.000                                                                                                                                    22752150.846 8 118476450.75008     -2093.340 8        49.914                                                                    22752150.894 8  96271832.28608     -1701.023 8        50.694
C35        37.000                                                                                                                                    26016556.399 7 135475036.93907      2718.714 7        42.004                                                                    26016555.441 6 110084561.17106      2209.248 6        41.998
C41        38.000                                                                                                                                    27132035.537 6 141283637.03906     -3608.338 6        38.294                                                                    27132041.177 6 114804554.85306     -2931.969 6        40.956
C29        39.000                                                                                                                                    22026182.301 8 114696116.36208       304.493 8        50.476                                                                    22026179.612 8  93199984.84008       247.476 8        49.165
G08        40.000    23798912.585 6 125064170.41206     -4041.599 6        40.224                                    23798912.074 6  97452622.09106     -3149.290 6        36.620    23798912.846 6  97452629.08406     -3149.263 6        40.226
S44        42.000    40713232.021 6 213949677.24606      -479.186 6        37.100
C09        43.000                                                                                                                                    40300208.348 6 209853772.82906      1204.798 6        38.691    40300205.600 7 162272237.34007       931.841 7        43.084    40300203.376 6 170523359.22006       979.084 6        39.601
C05        44.000                                                                                                                                    39293545.972 6 204611837.46306      -398.618 6        37.981    39293540.782 7 158218875.90007      -308.286 7        43.884    39293542.535 6 166263981.60206      -323.998 6        40.763
R06        45.000    23475195.090 5 125268165.63805      3727.135 5        35.381
R13        46.000    24348027.118 6 130017112.53706      1380.282 6        36.522
C39        47.000                                                                                                                                    39364199.167 6 204979725.87506       388.253 6        41.774                                                                    39364195.372 7 166562806.98107       315.546 7        43.096
C20        48.000                                                                                                                                    22542831.043 8 117386482.17908      1225.003 8        51.567                                                                    22542825.613 8  95386123.62408       995.435 8        49.249
C06        49.000                                                                                                                                    39346524.837 6 204887696.93206       899.212 6        39.495    39346520.167 7 158432145.89407       695.352 7        43.759    39346518.958 6 166488014.84706       730.938 6        39.778
C16        50.000                                                                                                                                    39653296.396 6 206485136.45306       779.887 6        40.138    39653297.266 7 159667413.27507       602.921 7        42.087    39653294.652 6 167786084.87606       633.736 6        38.411
S48        51.000    77360721.159 6 406534034.29206      -427.084 6        36.227
C19        52.000                                                                                                                                    26174730.306 6 136298719.81406      2794.210 6        41.747                                                                    26174726.351 7 110753872.32607      2270.481 7        42.212
R04        53.000    20660735.697 8 110637331.32508     -3384.124 8        50.733                                                                    20660733.743 7  86051266.03407     -2632.133 7        46.000
C60        54.000                                                                                                                                    40713233.956 6 212004699.61506      -474.764 6        38.219                                                                    40713218.468 6 172271154.26706      -385.759 6        40.131
C30        55.000                                                                                                                                    23096606.607 8 120270088.22608     -2914.982 8        48.873                                                                    23096607.361 7  97729296.61607     -2368.640 7        47.852
R19        56.000    22078581.305 6 118105559.27906     -3994.092 6        38.111                                                                    22078580.538 6  91859917.66206     -3106.577 6        40.143
C02        57.000                                                                                                                                    40699802.905 5 211934600.28005      -441.390 5        34.095    40699795.932 6 163881270.48506      -341.310 6        40.267    40699799.629 6 172214226.30606      -358.677 6        36.340
I03        58.000   134497300.329 6 452011053.75306       996.007 6        40.903
C13        59.000                                                                                                                                    41045869.394 6 213736675.62106     -1142.963 6        36.654    41045871.038 6 165274797.10806      -883.800 6        37.826    41045869.057 6 173678586.80006      -928.647 6        36.677
E25        60.000    28677566.521 5 150701611.36105     -3192.943 5        34.871                                                                    28677568.596 6 112536914.16206     -2384.431 6        37.123    28677568.266 6 115472659.12606     -2446.574 6        38.396
> 2025 01 01 00 01 45.0000000  0 56
G28         1.000    24339325.977 6 127904024.45206      1926.216 6        40.524                                    24339321.429 4  99665452.66204      1500.942 4        24.406    24339322.923 6  99665458.67006      1500.945 6        40.322
G31         2.000    25068675.952 5 131736782.05705      2817.907 5        33.251                                    25068671.267 3 102652022.56603      2195.773 3        22.095    25068672.837 5 102652021.56805      2195.828 5        33.820
G14         3.000    24850151.408 6 130588470.10506     -2453.371 6        36.548                                    24850149.113 3 101757253.75403     -1911.699 3        18.627    24850148.307 5 101757255.73905     -1911.568 5        35.705
G10         4.000    25293865.354 6 132920216.21106     -3535.365 6        38.168                                    25293864.268 4 103574203.22804     -2754.832 4        29.441    25293864.577 5 103574202.22405     -2754.691 5        35.848
S21         5.000    38606066.138 6 202876129.74406      -418.458 6        41.921
R12         6.000    24016037.176 7 128289375.29907     -1157.458 7        43.314                                                                    24016037.996 6  99780640.91606      -900.365 6        41.292
G21         7.000    21192612.739 7 111367994.67707     -1690.071 7        45.013                                    21192607.303 6  86780260.50006     -1316.937 6        37.062
E04         8.000    24087371.763 7 126580014.96907       512.822 7        47.469                                                                    24087369.781 8  94524041.91908       382.964 8        50.310    24087369.611 8  96989878.45408       392.953 8        51.215
G04        10.000    24777278.297 6 130205484.27406      3424.192 6        38.513                                    24777277.201 3 101458818.93503      2668.196 3        21.095    24777277.636 6 101458813.94906      2668.129 6        38.447
E09        11.000    26388543.480 7 138672765.14407      2587.983 7        43.308                                                                    26388543.694 7 103554350.47307      1932.664 7        45.604    26388543.171 7 106255768.03907      1983.077 7        46.691
S27        12.000    39262814.229 5 206327480.09905      -395.016 5        35.919
S36        14.000    38373880.289 7 201656623.91607      -418.086 7        43.585
E02        15.000    27609800.465 6 145090512.34506     -2141.885 6        38.733                                                                    27609799.828 6 108346830.29806     -1599.442 6        40.837    27609799.154 6 111173264.85406     -1640.954 6        41.464
E36        16.000    25322282.731 7 133069518.30907      1650.408 7        44.098                                                                    25322283.064 7  99370111.11907      1232.454 7        47.733    25322282.638 8 101962369.72608      1264.611 8        48.537
S45        17.000    63576276.275 6 334096432.74906      -460.600 6        37.558
G03        18.000    21195367.212 7 111382459.50907      1711.634 7        46.689                                    21195365.494 7  86791545.35407      1333.738 7        47.945    21195366.145 7  86791554.36107      1333.706 7        44.340
R21        19.000    22203516.791 7 118815534.71007      3350.147 7        46.360                                                                    22203515.812 7  92412090.61807      2605.662 7        42.239
R20        20.000    19379748.394 6 103632269.43506       180.013 6        40.837                                                                    19379749.181 7  80602876.06907       140.034 7        46.943
R05        21.000    19331038.869 8 103335524.25408       446.321 8        51.937                                                                    19331037.878 7  80372080.18407       347.161 7        47.480
I06        22.000    38454777.338 7 150905035.66007      -206.019 7        42.533
S28        23.000    41052312.861 5 215731362.47105      -410.372 5        34.290
E10        24.000    24479132.432 7 128638835.38107     -1842.443 7        47.271                                                                    24479131.481 8  96061536.05908     -1375.836 8        50.072    24479131.285 8  98567479.55408     -1411.732 8        50.900
S23        25.000    38326117.471 7 201405068.87707      -415.063 7        44.926
E06        26.000    24764542.706 7 130138604.80007      1822.085 7        46.707                                                                    24764542.572 8  97181423.54608      1360.706 8        48.649    24764542.376 8  99716589.80308      1396.203 8        49.601
E30        27.000    28669326.789 6 150658330.23306        45.798 6        37.539                                                                    28669328.786 6 112504597.53906        34.008 6        40.756    28669328.176 6 115439497.94606        35.032 6        41.943
E12        28.000    26376447.418 6 138609313.35506     -2640.137 6        40.074                                                                    26376444.513 7 103507028.71307     -1971.498 7        42.658    26376444.467 7 106207199.72407     -2023.013 7        44.045
E19        30.000    25888387.388 6 136044404.15706     -2505.881 6        37.989                                                                    25888385.500 6 101591599.26506     -1871.318 6        40.086    25888384.927 6 104241812.23106     -1920.075 6        40.996
G32        31.000    22901018.735 7 120345683.64907     -2673.410 7        45.962                                    22901016.410 7  93775854.62607     -2083.175 7        44.108    22901017.007 7  93775859.62007     -2083.248 7        42.165
G02        32.000    20850599.856 8 109570687.78008      -220.161 8        50.260                                    20850593.218 7  85379754.15407      -171.554 7        43.856
G19        33.000    25486947.404 6 133934807.17706      3275.597 6        37.006                                    25486943.785 3 104364796.71703      2552.420 3        19.104
G17        34.000    23361758.433 7 122766922.25807      1880.367 7        43.526                                    23361754.305 6  95662546.83206      1465.219 6        39.210    23361755.027 6  95662546.84106      1465.187 6        39.916
E11        35.000    23418184.389 7 123063460.78207      -526.420 7        44.033                                                                    23418179.664 7  91898058.50207      -393.139 7        47.088    23418179.620 8  94295391.51508      -403.383 8        48.210
C32        36.000                                                                                                                                    22754161.742 8 118486921.50408     -2095.081 8        50.005                                                                    22754161.760 8  96280340.63708     -1702.371 8        50.617
C35        37.000                                                                                                                                    26013945.320 6 135461444.07106      2718.219 6        41.170                                                                    26013944.902 6 110073515.86106      2208.900 6        41.442
C41        38.000                                                                                                                                    27135500.846 6 141301678.32906     -3608.430 6        38.240                                                                    27135505.795 6 114819214.89906     -2931.867 6        40.899
C29        39.000                                                                                                                                    22025890.892 8 114694599.77408       302.053 8        50.428                                                                    22025888.407 8  93198752.49408       245.499 8        49.102
G08        40.000    23802758.296 6 125084379.34506     -4042.106 6        40.701                                    23802757.821 6  97468369.29306     -3149.691 6        36.510    23802757.768 6  97468376.29006     -3149.531 6        39.967
S44        42.000    40713688.699 6 213952072.77006      -479.262 6        37.077
C09        43.000                                                                                                                                    40299051.322 6 209847749.36706      1204.513 6        38.715    40299048.745 7 162267579.64007       931.435 7        43.416    40299046.670 6 170518464.69806       978.593 6        39.405
C05        44.000                                                                                                                                    39293928.488 6 204613830.43306      -398.478 6        37.958    39293923.442 7 158220416.99007      -308.201 7        43.960    39293925.208 6 166265601.06106      -323.946 6        40.663
R06        45.000    23471703.700 5 125249531.63305      3726.289 5        34.952
R13        46.000    24346736.373 6 130010217.87606      1377.211 6        36.518
C39        47.000                                                                                                                                    39363826.780 6 204977786.62006       387.320 6        41.747                                                                    39363823.022 7 166561231.18907       314.798 7        43.242
C20        48.000                                                                                                                                    22541655.720 8 117380362.00308      1222.926 8        51.578                                                                    22541650.300 8  95381150.48508       993.764 8        49.217
C06        49.000                                                                                                                                    39345661.822 6 204883202.03506       898.636 6        39.453    39345656.857 7 158428670.15907       694.886 7        43.793    39345655.885 6 166484362.40506       730.105 6        39.982
C16        50.000                                                                                                                                    39652548.809 6 206481239.10706       779.020 6        40.331    39652548.566 7 159664399.58507       602.251 7        42.169    39652546.369 6 167782917.96806       632.821 6        38.390
S48        51.000    77361118.078 6 406536168.26506      -426.706 6        36.847
C19        52.000                                                                                                                                    26172047.302 7 136284749.95707      2793.655 7        42.157                                                                    26172043.574 7 110742520.68507      2270.063 7        42.243
R04        53.000    20663897.020 8 110654257.61708     -3386.475 8        51.258                                                                    20663894.475 7  86064430.90907     -2633.937 7        46.171
C60        54.000                                                                                                                                    40713689.923 6 212007073.34206      -474.654 6        38.270                                                                    40713674.471 6 172273083.13606      -385.800 6        40.072
C30        55.000                                                                                                                                    23099406.659 8 120284667.27908     -2916.701 8        48.877                                                                    23099407.222 7  97741143.30007     -2370.032 7        47.834
R19        56.000    22082315.744 6 118125534.44106     -3996.081 6        38.186                                                                    22082315.367 6  91875453.90306     -3108.015 6        40.791
C02        57.000                                                                                                                                    40700226.323 5 211936805.99205      -441.121 5        33.820    40700219.238 6 163882976.09606      -341.317 6        40.164    40700223.186 6 172216018.62206      -358.444 6        36.510
I03        58.000   134496031.329 6 452006074.17006       995.881 6        40.858
C13        59.000                                                                                                                                    41046965.562 5 213742389.29805     -1142.539 5        35.933    41046968.389 6 165279215.27906      -883.460 6        37.803    41046966.245 6 173683229.62606      -928.247 6        36.839
E25        60.000    28680604.585 5 150717575.18105     -3192.582 5        35.867                                                                    28680606.549 6 112548835.21306     -2384.247 6        37.255    28680606.281 6 115484891.15206     -2446.536 6        38.832
