     3.04           OBSERVATION DATA    M                   RINEX VERSION / TYPE
ssrcrin-15.6.1x                         20250101 023000 UTC PGM / RUN BY / DATE 
(00000000023479385599111004) Septentrio proprietary         COMMENT             
rref                                                        MARKER NAME         
01                                                          MARKER NUMBER       
geodetic                                                    MARKER TYPE         
NFB                 CLIMERS@TUW                             OBSERVER / AGENCY   
3297213             SEPT ASTERX SB3 PROB4.14.4              REC # / TYPE / VERS 
Unknown             Unknown                                 ANT # / TYPE        
  4127831.5831  1207193.2006  4695247.4378                  APPROX POSITION XYZ 
        0.0000        0.0000        0.0000                  ANTENNA: DELTA H/E/N
G   23 X1  C1C L1C D1C S1C C1W S1W C2W L2W D2W S2W C2L L2L  SYS / # / OBS TYPES 
       D2L S2L C5Q L5Q D5Q S5Q C1L L1L D1L S1L              SYS / # / OBS TYPES 
E   21 X1  C1C L1C D1C S1C C6C L6C D6C S6C C5Q L5Q D5Q S5Q  SYS / # / OBS TYPES 
       C7Q L7Q D7Q S7Q C8Q L8Q D8Q S8Q                      SYS / # / OBS TYPES 
S    9 X1  C1C L1C D1C S1C C5I L5I D5I S5I                  SYS / # / OBS TYPES 
R   17 X1  C1C L1C D1C S1C C2P L2P D2P S2P C2C L2C D2C S2C  SYS / # / OBS TYPES 
       C3Q L3Q D3Q S3Q                                      SYS / # / OBS TYPES 
C   25 X1  C1P L1P D1P S1P C5P L5P D5P S5P C2I L2I D2I S2I  SYS / # / OBS TYPES 
       C7I L7I D7I S7I C6I L6I D6I S6I C7D L7D D7D S7D      SYS / # / OBS TYPES 
J   17 X1  C1C L1C D1C S1C C2L L2L D2L S2L C5Q L5Q D5Q S5Q  SYS / # / OBS TYPES 
       C1L L1L D1L S1L                                      SYS / # / OBS TYPES 
I    5 X1  C5A L5A D5A S5A                                  SYS / # / OBS TYPES 
SEPTENTRIO RECEIVERS OUTPUT ALIGNED CARRIER PHASES.         COMMENT             
NO FURTHER PHASE SHIFT APPLIED IN THE RINEX ENCODER.        COMMENT             
G L1C                                                       SYS / PHASE SHIFT   
G L2W                                                       SYS / PHASE SHIFT   
G L2L  0.00000                                              SYS / PHASE SHIFT   
G L5Q  0.00000                                              SYS / PHASE SHIFT   
G L1L  0.00000                                              SYS / PHASE SHIFT   
E L1C  0.00000                                              SYS / PHASE SHIFT   
E L6C  0.00000                                              SYS / PHASE SHIFT   
E L5Q  0.00000                                              SYS / PHASE SHIFT   
E L7Q  0.00000                                              SYS / PHASE SHIFT   
E L8Q  0.00000                                              SYS / PHASE SHIFT   
S L1C                                                       SYS / PHASE SHIFT   
S L5I                                                       SYS / PHASE SHIFT   
R L1C                                                       SYS / PHASE SHIFT   
R L2P  0.00000                                              SYS / PHASE SHIFT   
R L2C                                                       SYS / PHASE SHIFT   
R L3Q  0.00000                                              SYS / PHASE SHIFT   
C L1P  0.00000                                              SYS / PHASE SHIFT   
C L5P  0.00000                                              SYS / PHASE SHIFT   
C L2I                                                       SYS / PHASE SHIFT   
C L7I                                                       SYS / PHASE SHIFT   
C L6I                                                       SYS / PHASE SHIFT   
C L7D                                                       SYS / PHASE SHIFT   
J L1C                                                       SYS / PHASE SHIFT   
J L2L  0.00000                                              SYS / PHASE SHIFT   
J L5Q  0.00000                                              SYS / PHASE SHIFT   
J L1L  0.00000                                              SYS / PHASE SHIFT   
I L5A                                                       SYS / PHASE SHIFT   
  2025     1     1     2    30    0.0000000     GPS         TIME OF FIRST OBS   
 C1C    0.000 C2C    0.000 C2P    0.000                     GLONASS COD/PHS/BIS 
DBHZ                                                        SIGNAL STRENGTH UNIT
    18                                                      LEAP SECONDS        
 24 R01  1 R02 -4 R03  5 R04  6 R05  1 R06 -4 R07  5 R08  6 GLONASS SLOT / FRQ #
    R09 -2 R10 -7 R11  0 R12 -1 R13 -2 R14 -7 R15  0 R16 -1 GLONASS SLOT / FRQ #
    R17  4 R18 -3 R19  3 R20  2 R21  4 R22 -3 R23  3 R24  2 GLONASS SLOT / FRQ #
                                                            END OF HEADER       
> 2025 01 01 02 30  0.0000000  0 56
G28         1.000    24370233.546 6 128066456.32706     -3088.995 6        39.709                                    24370230.392 3  99792024.73703     -2407.012 3        22.476    24370229.793 6  99792030.74706     -2407.081 6        38.748
G31         2.000    22422014.626 7 117828496.80607     -1733.551 7        44.715                                    22422009.949 6  91814401.56206     -1350.819 6        41.349    22422009.445 6  91814400.57006     -1350.880 6        41.254
G09         3.000    21161122.341 7 111202487.24507      2004.994 7        47.253                                    21161120.045 8  86651298.47808      1562.335 8        48.590    21161120.311 7  86651299.48607      1562.227 7        43.623
E34         4.000    25234319.927 7 132607257.15007      1766.169 7        44.119                                                                    25234320.028 7  99024907.92107      1318.853 7        47.273    25234319.686 7 101608165.67307      1353.285 7        47.755
S21         5.000    38408997.148 7 201840451.86707      -384.272 7        42.908
E05         6.000    23972602.500 7 125976912.06407      2028.041 7        43.911                                                                    23972602.790 7  94073695.43007      1514.452 7        46.686    23972602.318 7  96527784.16107      1553.943 7        47.389
G21         7.000    25340133.862 3                     -3716.385 3        20.167
E04         8.000    25432450.650 7 133648454.03707     -2658.711 7        43.045                                                                    25432449.273 7  99802421.65107     -1985.309 7        46.867    25432448.838 7 102405955.05507     -2037.171 7        47.270
R14         9.000    23590173.143 7 125748879.26507     -2277.041 7        43.812                                                                    23590175.622 6  97804667.02906     -1770.990 6        41.004
G04        10.000    20101826.967 8 105635859.47908       289.952 8        48.905                                    20101823.684 6  82313666.18206       225.935 6        41.950    20101823.859 8  82313661.17808       225.962 8        48.721
E09        11.000    23390518.661 8 122918054.04208      -365.686 8        48.300                                                                    23390517.689 8  91789473.33708      -273.081 8        50.594    23390517.346 8  94183980.53608      -280.202 8        50.994
S27        12.000    39039262.426 5 205152685.40905      -377.675 5        35.786
G06        13.000    22497247.962 7 118223864.58807      2333.357 7        43.513                                    22497246.838 7  92122496.37807      1818.199 7        42.425    22497247.353 7  92122507.38207      1818.179 7        42.777
S36        14.000    38176416.764 7 200618927.66907      -384.413 7        44.411
E21        15.000    28821957.552 4                       130.717 4        26.096                                                                    28821960.954 5 113103584.39105        97.948 5        33.635    28821960.516 5 116054107.90805       100.583 5        34.090
E36        16.000    23436198.898 8 123158083.53108      -963.063 8        48.178                                                                    23436199.087 8  91968715.74808      -719.183 8        50.770    23436198.612 8  94367894.38308      -737.905 8        50.850
S45        17.000    63370460.796 6 333015101.73506      -423.579 6        37.758
G03        18.000    20368944.975 8 107039584.87408     -1780.641 8        49.128                                    20368942.865 8  83407488.14108     -1387.510 8        50.834    20368943.315 7  83407497.13907     -1387.453 7        44.885
R21        19.000    19923607.188 8 106615285.09308     -2715.887 8        52.106                                                                    19923606.558 7  82923008.41707     -2112.367 7        46.246
R20        20.000    23275530.827 5 124464738.74305     -4994.917 5        33.192                                                                    23275532.912 6  96805901.55206     -3884.691 6        41.633
R05        21.000    22160348.662 7 118459801.03507     -3739.379 7        46.389                                                                    22160347.399 7  92135405.42707     -2908.437 7        42.586
I06        22.000    38043892.063 7 149292632.33207      -210.666 7        42.849
S28        23.000    40843136.994 5 214632146.90205      -378.721 5        34.167
E10        24.000                                                                                                                                    28392955.519 3                     -2631.382 3        20.714    28392953.932 3                     -2699.480 3        19.493
S23        25.000    38122729.976 7 200336316.09307      -380.110 7        44.351
E06        26.000    23771555.870 7 124920431.39007     -1616.062 7        47.362                                                                    23771555.432 8  93284737.54008     -1206.825 8        50.169    23771555.362 8  95718250.90008     -1238.307 8        50.965
R15        27.000    22430150.835 7 119859935.10907      1010.496 7        46.947                                                                    22430151.539 7  93224407.35007       785.938 7        42.415
G26        28.000    25259891.622 5 132741625.52305      1932.494 5        35.510                                    25259891.812 4 103435032.66004      1505.833 4        26.515    25259891.937 5 103435033.66905      1506.084 5        34.295
C22        30.000                                                                                                                                    25485508.793 7 132709741.83307      2369.179 7        42.711                                                                    25485502.729 6 107837519.59306      1925.041 6        41.795
I01        31.000   334619146.361 6   9976594.22506     -2624.935 6        41.826
G02        32.000    23556605.789 7 123790828.29507     -3690.585 7        42.485                                    23556600.243 4  96460379.23704     -2875.779 4        29.517
G19        33.000    22436992.682 7 117907219.94907     -1523.622 7        43.585                                    22436986.575 5  91875775.88005     -1187.233 5        31.215
G17        34.000    23372882.028 7 122825366.90407     -2782.558 7        43.257                                    23372877.588 6  95708086.49206     -2168.227 6        37.429    23372878.270 6  95708086.48506     -2168.186 6        38.868
E11        35.000    25735863.568 6 135242933.51606     -3164.709 6        40.110                                                                    25735859.475 7 100993115.67107     -2363.350 7        42.728    25735859.753 7 103627711.46307     -2424.788 7        43.145
C32        36.000                                                                                                                                    26917635.526 6 140167207.36006     -3238.042 6        38.862                                                                    26917636.249 6 113897345.83606     -2631.055 6        39.907
C35        37.000                                                                                                                                    22973627.972 8 119629727.47508      -913.752 8        48.735                                                                    22973626.679 7  97208952.22007      -742.460 7        47.222
I09        38.000    37306784.799 7 146399832.73207      -511.737 7        42.292
C29        39.000                                                                                                                                    24393511.638 7 127023409.25607     -3587.762 7        44.388                                                                    24393510.155 7 103216917.01007     -2915.385 7        44.482
R22        40.000    20666239.845 8 110317824.09408      1874.501 8        50.719                                                                    20666237.839 7  85802767.18907      1457.947 7        46.771
S44        42.000    40637937.432 6 213554004.97606      -462.067 6        37.535
C09        43.000                                                                                                                                    38463567.085 7 200289909.74107      -146.695 7        42.404    38463563.453 7 154876854.53607      -113.442 7        46.520    38463561.224 7 162751939.29707      -119.229 7        42.154
C05        44.000                                                                                                                                    39103221.495 6 203620768.43106      -403.758 6        38.498    39103216.802 7 157452517.52807      -312.191 7        43.192    39103218.916 6 165458656.02306      -328.136 6        40.024
R06        45.000    19384693.928 6 103440496.99406      -302.539 6        41.189
C44        46.000                                                                                                                                    24803950.039 7 129160710.51707      1624.749 7        42.135                                                                    24803948.616 7 104953661.07307      1320.327 7        42.724
C39        47.000                                                                                                                                    39232192.649 7 204292335.43907     -1144.903 7        42.391                                                                    39232189.101 7 166004246.03707      -930.368 7        42.127
C20        48.000                                                                                                                                    22550061.707 8 117424137.09108     -1944.813 8        50.969                                                                    22550056.267 8  95416721.96208     -1580.292 8        49.719
C06        49.000                                                                                                                                    38276759.991 6 199317157.72906      -657.948 6        41.049    38276754.079 7 154124653.27707      -508.618 7        44.576    38276754.061 6 161961496.79506      -534.564 6        41.661
C16        50.000                                                                                                                                    38784312.187 7 201960111.49207      -751.275 7        42.305    38784312.082 7 156168378.34407      -580.941 7        43.873    38784309.716 6 164109132.57406      -610.343 6        39.396
S48        51.000    77156997.925 6 405464040.30206      -378.123 6        37.611
C19        52.000                                                                                                                                    22188272.208 8 115540217.95308       610.019 8        50.914                                                                    22188267.402 8  93885894.90108       495.733 8        49.619
C60        54.000                                                                                                                                    40637940.981 6 211612624.32806      -457.849 6        38.952                                                                    40637925.569 6 171952559.83806      -372.086 6        39.240
R16        55.000    23627633.969 7 126214580.23507      3446.875 7        43.302                                                                    23627635.494 6  98166911.82006      2680.958 6        40.706
C37        56.000                                                                                                                                    25035006.299 7 130363853.26907       984.801 7        44.634                                                                    25035009.189 7 105931326.61807       800.258 7        44.441
C02        57.000                                                                                                                                    40586495.232 5 211344575.21005      -448.049 5        34.262    40586488.276 6 163425024.48006      -346.532 6        39.498    40586492.054 5 171734781.64805      -364.364 5        35.490
I03        58.000   131416245.888 6 439920329.59406       952.749 6        39.883
R07        59.000    21483206.931 8 115001306.05408      2399.223 8        48.837                                                                    21483205.384 7  89445460.28807      1866.025 7        44.077
> 2025 01 01 02 30  5.0000000  0 56
G28         1.000    24373173.648 6 128081905.97606     -3090.934 6        39.423                                    24373170.372 3  99804063.42803     -2408.518 3        22.267    24373170.305 6  99804069.41406     -2408.531 6        38.988
G31         2.000    22423665.462 7 117837172.69607     -1736.827 7        44.296                                    22423660.931 6  91821162.00006     -1353.372 6        41.368    22423661.042 6  91821161.00106     -1353.304 6        41.633
G09         3.000    21159215.353 7 111192466.99107      2003.031 7        47.523                                    21159213.233 8  86643490.48708      1560.804 8        48.609    21159213.765 7  86643491.48907      1560.676 7        43.513
E34         4.000    25232640.097 7 132598429.38507      1764.974 7        44.114                                                                    25232640.162 7  99018315.76707      1317.951 7        47.402    25232639.850 7 101601401.55207      1352.335 7        47.744
S21         5.000    38409358.263 7 201842372.96907      -384.136 7        43.293
E05         6.000    23970673.232 7 125966774.44807      2027.017 7        44.017                                                                    23970673.716 7  94066125.14107      1513.708 7        46.707    23970673.209 7  96520016.38307      1553.135 7        47.308
G21         7.000    25343677.574 3                     -3718.677 3        20.476
E04         8.000    25434980.702 7 133661748.72307     -2659.328 7        43.065                                                                    25434979.089 7  99812349.50507     -1985.912 7        46.894    25434978.764 7 102416141.89607     -2037.684 7        47.309
R14         9.000    23592310.978 7 125760273.00507     -2280.603 7        42.993                                                                    23592313.851 6  97813528.86306     -1773.920 6        41.056
G04        10.000    20101552.557 8 105634415.81708       287.502 8        48.657                                    20101548.948 6  82312541.25106       224.026 6        41.993    20101549.067 8  82312536.25208       224.037 8        48.660
E09        11.000    23390867.426 8 122919886.61908      -367.312 8        48.375                                                                    23390866.435 8  91790841.82108      -274.328 8        50.622    23390866.037 8  94185384.72108      -281.484 8        51.035
S27        12.000    39039618.479 6 205154572.01506      -377.342 6        36.280
G06        13.000    22495028.540 7 118212201.69907      2331.640 7        43.482                                    22495027.447 7  92113408.42207      1816.861 7        42.440    22495027.988 7  92113419.42907      1816.848 7        42.709
S36        14.000    38176787.050 7 200620848.33407      -384.011 7        44.494
E21        15.000    28821834.001 4                       129.307 4        27.090                                                                    28821836.794 5 113103098.17705        96.606 5        33.958    28821836.656 5 116053609.03805        98.906 5        34.948
E36        16.000    23437116.084 8 123162903.85008      -965.091 8        48.152                                                                    23437116.375 8  91972315.33808      -720.686 8        50.750    23437115.932 8  94371587.88108      -739.538 8        50.859
S45        17.000    63370823.221 6 333017220.38406      -423.672 6        37.800
G03        18.000    20370639.957 8 107048491.75208     -1782.264 8        49.013                                    20370637.798 8  83414428.56508     -1388.778 8        50.849    20370638.601 7  83414437.56007     -1388.770 7        45.037
R21        19.000    19926147.072 8 106628874.35008     -2719.793 8        52.113                                                                    19926145.942 7  82933577.84107     -2115.356 7        46.283
R20        20.000    23280200.181 5 124489712.89905     -4995.064 5        33.012                                                                    23280203.088 6  96825325.89606     -3885.129 6        41.600
R05        21.000    22163846.175 7 118478498.67907     -3739.703 7        46.059                                                                    22163844.846 7  92149948.03307     -2908.617 7        42.336
I06        22.000    38044160.314 7 149293685.26507      -210.530 7        42.883
S28        23.000    40843496.749 5 214634039.18005      -378.560 5        34.343
E10        24.000                                                                                                                                    28396308.556 3                     -2629.933 3        20.857    28396305.977 3                     -2699.933 3        19.075
S23        25.000    38123094.163 7 200338216.52307      -380.056 7        44.516
E06        26.000    23773094.222 7 124928515.15807     -1617.427 7        47.617                                                                    23773093.728 8  93290774.12308     -1207.843 8        50.207    23773093.637 8  95724444.95808     -1239.347 8        51.005
R15        27.000    22429206.965 7 119854891.96907      1006.700 7        47.041                                                                    22429207.073 7  93220484.90707       783.055 7        42.150
G26        28.000    25258053.626 5 132731966.28005      1931.195 5        35.748                                    25258053.689 4 103427505.98904      1504.823 4        26.156    25258053.180 5 103427506.98605      1504.796 5        33.725
C22        30.000                                                                                                                                    25483233.941 7 132697897.19407      2368.730 7        42.624                                                                    25483228.292 6 107827894.85306      1924.752 6        41.712
I01        31.000   334622490.866 6   9989719.09806     -2625.015 6        41.626
G02        32.000    23560117.646 7 123809283.06107     -3691.335 7        42.315                                    23560112.067 4  96474759.57604     -2876.368 4        29.090
G19        33.000    22438443.459 7 117914845.69107     -1526.707 7        44.126                                    22438437.813 5  91881718.01505     -1189.642 5        31.223
G17        34.000    23375530.133 7 122839283.57107     -2784.147 7        43.037                                    23375525.759 6  95718930.64706     -2169.467 6        37.474    23375526.012 6  95718930.64306     -2169.412 6        38.447
E11        35.000    25738874.671 6 135258758.82806     -3165.395 6        40.541                                                                    25738870.864 7 101004933.27807     -2363.855 7        42.684    25738871.254 7 103639837.36307     -2425.490 7        43.196
C32        36.000                                                                                                                                    26920744.479 6 140183396.70306     -3237.864 6        39.225                                                                    26920745.096 6 113910500.99006     -2630.902 6        39.748
C35        37.000                                                                                                                                    22974506.665 8 119634302.77508      -916.415 8        48.691                                                                    22974505.399 7  97212670.02107      -744.679 7        47.230
I09        38.000    37307436.683 7 146402391.20807      -511.656 7        42.584
C29        39.000                                                                                                                                    24396957.263 7 127041349.66707     -3588.392 7        44.865                                                                    24396955.356 7 103231495.06307     -2915.918 7        44.378
R22        40.000    20664485.365 8 110308460.53408      1870.901 8        51.023                                                                    20664483.556 7  85795484.42207      1455.170 7        46.931
S44        42.000    40638377.462 6 213556315.01306      -461.899 6        37.437
C09        43.000                                                                                                                                    38463708.207 7 200290644.73507      -147.365 7        42.514    38463704.361 7 154877422.88607      -113.973 7        46.605    38463702.382 7 162752536.53907      -119.685 7        42.127
C05        44.000                                                                                                                                    39103608.232 6 203622786.84506      -403.689 6        38.547    39103604.572 7 157454078.30607      -312.044 7        43.300    39103606.347 6 165460296.14606      -327.977 6        40.052
R06        45.000    19384978.441 6 103442015.54806      -304.813 6        41.097
C44        46.000                                                                                                                                    24802390.497 7 129152591.38907      1622.879 7        42.180                                                                    24802389.309 7 104947063.62707      1318.739 7        42.790
C39        47.000                                                                                                                                    39233292.742 7 204298061.28707     -1145.373 7        42.370                                                                    39233288.637 7 166008898.75207      -930.677 7        42.004
C20        48.000                                                                                                                                    22551929.666 8 117433863.55808     -1945.837 8        51.015                                                                    22551924.132 8  95424625.51308     -1581.146 8        49.761
C06        49.000                                                                                                                                    38277392.054 6 199320448.46506      -658.361 6        41.006    38277386.198 7 154127197.89607      -509.166 7        44.561    38277386.010 6 161964170.79006      -534.973 6        41.626
C16        50.000                                                                                                                                    38785033.873 7 201963869.10907      -751.728 7        42.398    38785033.662 7 156171283.97207      -581.334 7        43.833    38785031.436 6 164112185.93206      -610.896 6        39.357
S48        51.000    77157359.836 6 405465930.73106      -377.921 6        37.648
C19        52.000                                                                                                                                    22187687.302 8 115537170.92808       608.754 8        50.975                                                                    22187682.331 8  93883418.94308       494.623 8        49.577
C60        54.000                                                                                                                                    40638380.720 6 211614913.36406      -457.678 6        38.955                                                                    40638365.223 6 171954419.86406      -371.896 6        39.075
R16        55.000    23624408.040 7 126197347.67707      3446.093 7        43.681                                                                    23624410.025 6  98153508.72306      2680.317 6        40.696
C37        56.000                                                                                                                                    25034061.042 7 130358934.34907       982.692 7        44.527                                                                    25034064.622 7 105927329.59307       798.508 7        44.357
C02        57.000                                                                                                                                    40586925.724 5 211346816.17605      -448.136 5        34.343    40586918.799 6 163426757.33706      -346.482 6        39.583    40586922.846 5 171736602.60005      -364.061 5        35.419
I03        58.000   131415031.633 6 439915565.69006       952.842 6        39.784
R07        59.000    21480966.926 8 114989313.60508      2397.720 8        48.541                                                                    21480965.311 7  89436132.83407      1864.886 7        44.173
> 2025 01 01 02 30 10.0000000  0 56
G28         1.000    24376115.847 6 128097366.13306     -3093.018 6        38.568                                    24376112.293 3  99816110.27703     -2410.136 3        22.267    24376111.946 6  99816116.27406     -2410.190 6        38.523
G31         2.000    22425319.680 7 117845865.37007     -1740.092 7        44.599                                    22425315.082 6  91827935.51106     -1355.915 6        41.216    22425315.000 6  91827934.51706     -1355.923 6        41.692
G09         3.000    21157310.655 7 111182456.66207      2001.156 7        47.533                                    21157308.327 8  86635690.23208      1559.341 8        48.562    21157308.662 7  86635691.23507      1559.356 7        43.953
E34         4.000    25230961.285 7 132589608.11407      1763.718 7        44.110                                                                    25230961.497 7  99011728.44507      1317.072 7        47.519    25230961.268 7 101594642.38507      1351.441 7        47.721
S21         5.000    38409727.879 7 201844293.60607      -384.010 7        43.007
E05         6.000    23968744.779 7 125956642.20707      2026.036 7        44.116                                                                    23968745.678 7  94058558.86607      1512.893 7        46.937    23968745.100 7  96512252.72607      1552.399 7        47.310
G21         7.000    25347217.395 3                     -3717.734 3        23.981
E04         8.000    25437511.572 7 133675047.37407     -2659.863 7        43.348                                                                    25437509.671 7  99822280.32407     -1986.393 7        47.062    25437509.358 7 102426331.77807     -2038.196 7        47.253
R14         9.000    23594450.895 7 125771684.99007     -2284.096 7        42.785                                                                    23594453.557 6  97822404.81406     -1776.500 6        40.672
G04        10.000    20101280.273 8 105632985.25608       284.891 8        48.820                                    20101276.720 6  82311426.52906       221.994 6        41.919    20101276.862 8  82311421.53008       221.993 8        48.630
E09        11.000    23391217.697 8 122921728.10108      -369.143 8        48.454                                                                    23391216.885 8  91792216.95408      -275.569 8        50.776    23391216.473 8  94186795.72708      -282.821 8        50.998
S27        12.000    39039977.809 6 205156458.41706      -377.228 6        36.129
G06        13.000    22492811.516 7 118200548.21107      2329.871 7        43.600                                    22492809.862 7  92104327.78507      1815.484 7        42.394    22492810.735 7  92104338.79007      1815.416 7        42.707
S36        14.000    38177147.610 7 200622768.53407      -384.010 7        44.590
E21        15.000    28821712.686 4                       127.264 4        26.419                                                                    28821715.019 5 113102620.28005        94.920 5        33.952    28821714.772 5 116053118.63205        97.353 5        34.590
E36        16.000    23438035.373 8 123167734.89508      -967.220 8        48.292                                                                    23438035.663 8  91975922.93508      -722.262 8        50.910    23438035.216 8  94375289.58808      -741.107 8        50.849
S45        17.000    63371185.824 6 333019338.94006      -423.549 6        38.021
G03        18.000    20372336.609 8 107057407.86608     -1784.011 8        49.135                                    20372334.479 8  83421376.18108     -1390.139 8        50.788    20372335.393 7  83421385.18707     -1390.152 7        45.208
R21        19.000    19928690.648 8 106642483.54908     -2723.708 8        52.290                                                                    19928689.434 7  82944162.76207     -2118.391 7        46.631
R20        20.000    23284869.703 5 124514690.48305     -4996.009 5        33.072                                                                    23284873.683 6  96844752.86506     -3885.692 6        41.640
R05        21.000    22167343.445 7 118497198.47407     -3740.070 7        45.532                                                                    22167343.174 7  92164492.33907     -2908.966 7        42.180
I06        22.000    38044428.548 7 149294738.19407      -210.553 7        43.046
S28        23.000    40843858.857 5 214635931.23505      -378.063 5        34.148
E10        24.000                                                                                                                                    28399660.676 3                     -2631.207 3        20.905    28399658.478 3                     -2698.122 3        21.071
S23        25.000    38123453.757 7 200340116.60607      -379.897 7        44.534
E06        26.000    23774633.928 7 124936606.25607     -1618.839 7        47.687                                                                    23774633.424 8  93296816.17508     -1208.891 8        50.312    23774633.372 8  95730644.62808     -1240.425 8        50.994
R15        27.000    22428267.077 7 119849868.40907      1002.877 7        46.895                                                                    22428266.420 7  93216577.69807       780.016 7        42.694
G26        28.000    25256216.682 5 132722313.98005      1929.821 5        35.338                                    25256216.845 4 103419984.72504      1503.750 4        26.036    25256216.634 5 103419985.73205      1503.672 5        33.611
C22        30.000                                                                                                                                    25480959.556 7 132686054.84407      2368.338 7        42.576                                                                    25480953.980 6 107818271.96206      1924.457 6        41.702
I01        31.000   334625835.498 6  10002844.35806     -2625.050 6        41.928
G02        32.000    23563629.854 7 123827742.72107     -3692.294 7        42.692                                    23563624.835 4  96489143.71904     -2877.110 4        28.749
G19        33.000    22439898.146 7 117922487.46507     -1529.752 7        43.778                                    22439891.994 5  91887672.64205     -1192.019 5        31.147
G17        34.000    23378179.719 7 122853208.31207     -2785.719 7        42.737                                    23378175.509 6  95729781.08806     -2170.692 6        37.410    23378175.923 6  95729781.09306     -2170.518 6        38.105
E11        35.000    25741887.012 6 135274589.50206     -3166.423 6        40.358                                                                    25741883.349 7 101016754.87507     -2364.631 7        42.717    25741883.689 7 103651967.35207     -2426.330 7        43.268
C32        36.000                                                                                                                                    26923853.447 6 140199585.42806     -3237.552 6        39.108                                                                    26923854.055 6 113923655.64506     -2630.800 6        39.691
C35        37.000                                                                                                                                    22975387.841 8 119638892.05808      -919.193 8        48.417                                                                    22975386.645 7  97216399.18207      -746.980 7        47.283
I09        38.000    37308089.019 7 146404950.17507      -511.735 7        42.645
C29        39.000                                                                                                                                    24400403.692 7 127059294.36407     -3589.241 7        44.966                                                                    24400401.618 7 103246076.59407     -2916.600 7        44.593
R22        40.000    20662734.818 8 110299115.41508      1867.243 8        51.210                                                                    20662732.717 7  85788216.00307      1452.287 7        46.793
S44        42.000    40638818.561 6 213558624.87606      -461.805 6        37.323
C09        43.000                                                                                                                                    38463850.109 7 200291383.58107      -147.994 7        42.607    38463846.156 7 154877994.20507      -114.458 7        46.360    38463844.330 7 162753136.89807      -120.250 7        42.119
C05        44.000                                                                                                                                    39103996.839 6 203624805.15006      -403.612 6        38.468    39103992.275 7 157455638.98807      -311.987 7        43.177    39103994.028 6 165461936.18606      -327.971 6        40.050
R06        45.000    19385264.820 6 103443546.37806      -307.300 6        41.035
C44        46.000                                                                                                                                    24800833.484 7 129144483.03907      1620.683 7        42.404                                                                    24800832.214 7 104940474.92707      1316.812 7        42.984
C39        47.000                                                                                                                                    39234392.808 6 204303790.02706     -1145.934 6        41.955                                                                    39234388.762 6 166013553.81906      -931.244 6        41.883
C20        48.000                                                                                                                                    22553798.787 8 117443595.66508     -1946.874 8        50.821                                                                    22553793.075 8  95432533.63708     -1582.024 8        49.776
C06        49.000                                                                                                                                    38278024.179 6 199323742.89306      -659.212 6        40.899    38278019.094 7 154129745.35307      -509.688 7        44.567    38278018.734 6 161966847.77806      -535.614 6        41.766
C16        50.000                                                                                                                                    38785756.180 7 201967630.17707      -752.437 7        42.294    38785755.969 7 156174192.26807      -581.854 7        43.573    38785753.601 6 164115242.12506      -611.590 6        39.303
S48        51.000    77157715.692 6 405467820.82206      -377.883 6        37.357
C19        52.000                                                                                                                                    22187103.628 8 115534131.11408       607.338 8        50.915                                                                    22187098.586 8  93880948.84008       493.411 8        49.644
C60        54.000                                                                                                                                    40638820.196 6 211617202.23006      -457.681 6        39.048                                                                    40638804.471 6 171956279.74306      -371.884 6        39.090
R16        55.000    23621183.036 7 126180119.91107      3445.206 7        43.602                                                                    23621183.933 6  98140109.35506      2679.500 6        40.887
C37        56.000                                                                                                                                    25033118.301 7 130354026.85707       980.482 7        44.283                                                                    25033122.114 7 105923341.85007       796.721 7        44.448
C02        57.000                                                                                                                                    40587355.813 5 211349057.04205      -448.024 5        34.452    40587348.844 6 163428490.13406      -346.609 6        39.426    40587352.984 5 171738423.47305      -363.924 5        35.581
I03        58.000   131413817.633 6 439910801.79406       952.901 6        40.021
R07        59.000    21478727.570 7 114977328.80307      2396.312 7        47.970                                                                    21478726.970 7  89426811.33607      1863.877 7        44.217
> 2025 01 01 02 30 15.0000000  0 56
G28         1.000    24379059.737 6 128112836.45506     -3094.793 6        37.985                                    24379056.346 3  99828165.06403     -2411.513 3        22.114    24379056.288 6  99828171.06506     -2411.733 6        38.946
G31         2.000    22426976.928 7 117854574.49107     -1743.399 7        44.429                                    22426972.310 6  91834721.84206     -1358.493 6        41.411    22426972.153 6  91834720.83806     -1358.411 6        41.120
G09         3.000    21155407.479 7 111172455.91707      1999.341 7        47.331                                    21155405.235 8  86627897.44708      1557.927 8        48.586    21155405.362 7  86627898.44807      1557.966 7        43.592
E34         4.000    25229284.192 7 132580793.00107      1762.514 7        44.224                                                                    25229284.063 7  99005145.73707      1316.146 7        47.445    25229283.754 7 101587887.95607      1350.502 7        47.949
S21         5.000    38410087.089 7 201846213.69307      -383.795 7        43.003
E05         6.000    23966817.993 7 125946515.04207      2025.040 7        43.623                                                                    23966818.490 7  94050996.36507      1512.230 7        46.877    23966818.014 7  96504492.95407      1551.590 7        47.505
G21         7.000    25350756.161 3                     -3716.566 3        23.600
E04         8.000    25440043.012 7 133688349.67607     -2660.658 7        43.354                                                                    25440040.921 7  99832213.85407     -1986.880 7        46.970    25440040.754 7 102436524.44307     -2038.679 7        47.475
R14         9.000    23596595.804 7 125783114.82907     -2287.542 7        42.521                                                                    23596597.976 6  97831294.64106     -1779.281 6        40.072
G04        10.000    20101010.395 8 105631567.46108       282.382 8        48.783                                    20101006.916 6  82310321.75706       220.039 6        41.967    20101007.173 8  82310316.75208       220.018 8        48.793
E09        11.000    23391569.742 8 122923578.16508      -370.789 8        48.237                                                                    23391568.922 8  91793598.49908      -276.869 8        50.772    23391568.524 8  94188213.31408      -284.100 8        51.221
S27        12.000    39040335.284 6 205158344.15306      -377.404 6        36.106
G06        13.000    22490595.423 7 118188903.79207      2328.192 7        43.551                                    22490594.008 7  92095254.21607      1814.178 7        42.474    22490594.542 7  92095265.21307      1814.188 7        42.356
S36        14.000    38177512.866 7 200624688.47707      -383.925 7        44.372
E21        15.000    28821593.664 4                       124.849 4        26.383                                                                    28821595.550 5 113102150.30305        93.146 5        34.452    28821595.047 5 116052636.39705        95.470 5        35.386
E36        16.000    23438956.736 8 123172576.33808      -969.208 8        48.188                                                                    23438956.899 8  91979538.29708      -723.752 8        50.883    23438956.518 8  94378999.26408      -742.646 8        51.038
S45        17.000    63371543.013 6 333019857.02116      -423.523 6        38.270
G03        18.000    20374034.939 8 107066332.89108     -1785.708 8        48.890                                    20374032.860 8  83428330.74808     -1391.460 8        50.826    20374033.411 7  83428339.74507     -1391.451 7        45.059
R21        19.000    19931237.547 8 106656112.32308     -2727.609 8        52.302                                                                    19931236.211 7  82954762.91407     -2121.415 7        46.219
R20        20.000    23289542.358 5 124539670.89405     -4996.581 5        32.772                                                                    23289545.248 6  96864182.05906     -3885.920 6        41.602
R05        21.000    22170842.241 7 118515900.21607     -3740.433 7        45.538                                                                    22170841.824 7  92179038.13807     -2909.196 7        42.612
I06        22.000    38044697.022 7 149295790.86807      -210.333 7        43.018
S28        23.000    40844220.969 5 214637822.76605      -378.641 5        34.314
E10        24.000                                                                                                                                    28403013.848 3                     -2631.680 3        20.857    28403011.220 3                     -2700.157 3        20.476
S23        25.000    38123814.926 7 200342016.13707      -379.721 7        44.513
E06        26.000    23776175.031 7 124944704.35407     -1620.240 7        47.565                                                                    23776174.453 8  93302863.46208     -1209.927 8        50.289    23776174.433 8  95736849.67208     -1241.498 8        51.209
R15        27.000    22427330.591 7 119844863.90307       999.117 7        46.856                                                                    22427330.278 7  93212685.31607       777.111 7        42.969
G26        28.000    25254381.197 5 132712668.39905      1928.247 5        35.362                                    25254381.325 4 103412468.70304      1502.525 4        26.275    25254381.428 5 103412469.69605      1502.801 5        34.010
C22        30.000                                                                                                                                    25478685.632 7 132674214.42707      2368.116 7        42.396                                                                    25478680.226 6 107808650.64706      1924.192 6        41.681
I01        31.000   334629179.901 7  10015969.75907     -2624.960 7        42.155
G02        32.000    23567143.999 7 123846206.92207     -3693.153 7        43.103                                    23567138.229 4  96503531.41304     -2877.776 4        28.787
G19        33.000    22441355.029 7 117930144.94107     -1532.992 7        43.450                                    22441349.108 5  91893639.50305     -1194.540 5        31.230
G17        34.000    23380830.986 7 122867140.74607     -2787.103 7        43.179                                    23380826.747 6  95740637.52506     -2171.771 6        37.618    23380826.745 6  95740637.54006     -2171.810 6        37.569
E11        35.000    25744900.373 6 135290425.13606     -3167.477 6        39.967                                                                    25744896.837 7 101028580.17807     -2365.342 7        42.785    25744897.060 7 103664101.13907     -2426.966 7        43.608
C32        36.000                                                                                                                                    26926961.781 6 140215773.20806     -3237.393 6        39.357                                                                    26926962.678 6 113936809.53906     -2630.539 6        39.739
C35        37.000                                                                                                                                    22976271.690 8 119643495.01408      -921.871 8        48.241                                                                    22976270.615 7  97220139.44307      -749.043 7        47.222
I09        38.000    37308741.049 7 146407509.42107      -511.746 7        42.521
C29        39.000                                                                                                                                    24403850.522 7 127077243.00607     -3589.993 7        45.067                                                                    24403848.694 7 103260661.32107     -2917.087 7        44.763
R22        40.000    20660987.449 8 110289788.41808      1863.741 8        50.637                                                                    20660985.443 7  85780961.68907      1449.555 7        46.850
S44        42.000    40639257.334 6 213560934.24406      -461.839 6        37.577
C09        43.000                                                                                                                                    38463992.870 7 200292125.86607      -148.619 7        42.633    38463988.683 7 154878568.19107      -115.011 7        46.420    38463986.844 7 162753740.07407      -120.805 7        42.231
C05        44.000                                                                                                                                    39104384.586 6 203626823.10106      -403.534 6        38.595    39104379.692 7 157457199.40107      -312.021 7        43.306    39104381.632 6 165463575.92106      -327.820 6        40.038
R06        45.000    19385554.454 6 103445089.07106      -309.699 6        41.256
C44        46.000                                                                                                                                    24799279.294 7 129136385.13407      1618.699 7        42.923                                                                    24799277.045 7 104933894.70607      1315.317 7        42.868
C39        47.000                                                                                                                                    39235493.511 7 204309521.30807     -1146.339 7        42.091                                                                    39235489.401 6 166018210.95106      -931.536 6        41.952
C20        48.000                                                                                                                                    22555668.642 8 117453333.08608     -1947.867 8        50.638                                                                    22555662.981 8  95440446.07708     -1582.741 8        49.812
C06        49.000                                                                                                                                    38278657.899 6 199327040.71806      -659.851 6        40.932    38278652.555 7 154132295.44607      -510.279 7        44.739    38278652.054 6 161969527.51806      -536.042 6        41.576
C16        50.000                                                                                                                                    38786479.295 7 201971394.39207      -753.027 7        42.409    38786478.818 7 156177103.00807      -582.321 7        43.664    38786476.409 6 164118300.83906      -611.817 6        39.384
S48        51.000    77158077.348 6 405469710.40206      -377.866 6        38.012
C19        52.000                                                                                                                                    22186521.005 8 115531098.18808       606.025 8        50.928                                                                    22186516.059 8  93878484.33208       492.417 8        49.671
C60        54.000                                                                                                                                    40639259.993 6 211619490.60106      -457.523 6        38.952                                                                    40639244.161 6 171958139.22106      -371.692 6        39.192
R16        55.000    23617958.668 7 126162896.30907      3444.288 7        43.644                                                                    23617959.490 6  98126713.22006      2678.960 6        40.717
C37        56.000                                                                                                                                    25032177.991 7 130349130.46307       978.292 7        43.888                                                                    25032181.798 7 105919363.12807       794.944 7        44.393
C02        57.000                                                                                                                                    40587786.314 5 211351297.47205      -447.936 5        34.257    40587779.752 6 163430222.56806      -346.366 6        39.691    40587783.235 5 171740244.02005      -364.168 5        35.343
I03        58.000   131412603.436 6 439906037.67306       952.895 6        40.002
R07        59.000    21476489.869 8 114965351.67508      2394.799 8        48.172                                                                    21476489.211 7  89417495.79207      1862.697 7        44.110
> 2025 01 01 02 30 20.0000000  0 56
G28         1.000    24382006.094 6 128128317.54506     -3097.319 6        38.219                                    24382002.292 3  99840228.24203     -2413.495 3        21.452    24382002.400 6  99840234.23006     -2413.558 6        39.078
G31         2.000    22428637.269 7 117863300.63607     -1747.062 7        44.634                                    22428632.744 6  91841521.43206     -1361.348 6        41.292    22428632.361 6  91841520.41806     -1361.199 6        40.749
G09         3.000    21153506.161 7 111162465.38607      1997.026 7        47.311                                    21153504.107 8  86620112.62008      1556.124 8        48.531    21153504.242 7  86620113.61007      1556.192 7        43.361
E34         4.000    25227607.951 7 132571984.65307      1760.902 7        44.593                                                                    25227607.869 7  98998568.07207      1314.945 7        47.359    25227607.609 8 101581138.69808      1349.286 8        48.064
S21         5.000    38410452.389 7 201848133.95307      -384.255 7        42.976
E05         6.000    23964891.608 7 125936393.52507      2023.588 7        43.903                                                                    23964892.386 7  94043438.09007      1511.151 7        46.832    23964891.918 7  96496737.49607      1550.585 7        47.653
G21         7.000    25354292.682 3                     -3713.264 3        21.048
E04         8.000    25442574.868 7 133701656.19007     -2661.833 7        43.484                                                                    25442573.068 7  99842150.53607     -1987.762 7        46.875    25442572.850 7 102446720.34307     -2039.543 7        47.529
R14         9.000    23598743.384 7 125794563.23307     -2291.615 7        42.760                                                                    23598745.850 6  97840198.90506     -1782.454 6        40.117
G04        10.000    20100743.156 8 105630163.00408       279.463 8        48.964                                    20100739.665 6  82309227.37506       217.762 6        41.905    20100739.565 8  82309222.37408       217.734 8        48.871
E09        11.000    23391923.493 8 122925437.37508      -372.895 8        48.584                                                                    23391922.718 8  91794986.87108      -278.426 8        50.619    23391922.338 8  94189637.90008      -285.673 8        51.271
S27        12.000    39040697.875 5 205160230.79205      -377.054 5        35.952
G06        13.000    22488380.988 7 118177269.05507      2325.742 7        43.435                                    22488379.978 7  92086188.19107      1812.265 7        42.428    22488380.310 7  92086199.17807      1812.460 7        42.387
S36        14.000    38177879.454 7 200626609.40807      -384.252 7        44.391
E21        15.000    28821475.815 4                       122.465 4        27.030                                                                    28821478.292 5 113101688.94405        91.275 5        34.524    28821477.682 5 116052163.01405        93.699 5        35.281
E36        16.000    23439880.127 8 123177428.76208      -971.665 8        48.386                                                                    23439880.347 8  91983161.86108      -725.587 8        50.776    23439879.906 8  94382717.35608      -744.514 8        51.120
S45        17.000    63371903.480 6 333021975.30306      -423.848 6        37.939
G03        18.000    20375734.763 8 107075267.39208     -1787.881 8        48.918                                    20375733.056 8  83435292.69608     -1393.151 8        50.741    20375733.652 7  83435301.69007     -1393.133 7        45.174
R21        19.000    19933788.514 8 106669761.18208     -2731.871 8        52.572                                                                    19933786.445 7  82965378.69107     -2124.807 7        45.770
R20        20.000    23294215.991 5 124564654.80705     -4997.234 5        32.701                                                                    23294217.238 6  96883613.97006     -3886.777 6        41.178
R05        21.000    22174341.069 7 118534604.33607     -3741.182 7        45.252                                                                    22174341.733 7  92193585.78207     -2909.782 7        42.677
I06        22.000    38044965.484 7 149296843.72807      -210.612 7        42.948
S28        23.000    40844582.374 5 214639714.59405      -378.641 5        34.362
E10        24.000                                                                                                                                    28406365.785 3                     -2632.172 3        20.881    28406366.028 3                     -2704.647 3        19.642
S23        25.000    38124178.647 7 200343915.73907      -380.046 7        44.584
E06        26.000    23777717.586 7 124952810.02407     -1621.951 7        47.797                                                                    23777716.943 8  93308916.38808     -1211.207 8        50.185    23777716.859 8  95743060.50808     -1242.833 8        51.260
R15        27.000    22426397.308 7 119839879.22407       994.843 7        45.979                                                                    22426397.168 7  93208808.35607       773.714 7        42.339
G26        28.000    25252547.220 5 132703030.05405      1926.853 5        35.324                                    25252547.123 4 103404958.31204      1501.444 4        26.216    25252547.155 5 103404959.30105      1501.513 5        33.958
C22        30.000                                                                                                                                    25476412.939 7 132662376.54407      2367.268 7        42.540                                                                    25476406.776 6 107799031.41806      1923.567 6        41.712
I01        31.000   334632525.418 7  10029095.75307     -2625.388 7        42.326
G02        32.000    23570658.509 7 123864676.26307     -3694.420 7        42.986                                    23570652.589 4  96517923.10804     -2878.768 4        28.948
G19        33.000    22442815.529 7 117937818.65807     -1536.441 7        43.464                                    22442809.352 5  91899619.01805     -1197.228 5        31.147
G17        34.000    23383483.880 7 122881081.45307     -2789.042 7        42.715                                    23383479.604 6  95751500.41306     -2173.278 6        37.565    23383480.732 6  95751500.39206     -2173.251 6        38.486
E11        35.000    25747915.035 6 135306266.33906     -3168.897 6        40.358                                                                    25747911.410 7 101040409.63707     -2366.273 7        42.713    25747911.597 7 103676239.20007     -2428.144 7        43.515
C32        36.000                                                                                                                                    26930070.374 6 140231960.61706     -3237.599 6        39.577                                                                    26930071.225 6 113949963.13806     -2630.704 6        39.748
C35        37.000                                                                                                                                    22977158.813 8 119648112.20108      -924.926 8        48.306                                                                    22977157.268 7  97223891.29007      -751.427 7        47.132
I09        38.000    37309393.128 7 146410069.33207      -512.076 7        42.616
C29        39.000                                                                                                                                    24407298.090 7 127095196.17907     -3591.224 7        44.713                                                                    24407296.542 7 103275249.74307     -2918.067 7        44.719
R22        40.000    20659243.503 8 110280480.13908      1859.715 8        50.822                                                                    20659241.846 7  85773721.90407      1446.350 7        46.618
S44        42.000    40639696.206 6 213563243.68306      -461.904 6        37.527
C09        43.000                                                                                                                                    38464136.134 7 200292872.23307      -149.762 7        42.413    38464132.090 7 154879145.32907      -115.737 7        46.341    38464130.161 7 162754346.56307      -121.744 7        42.053
C05        44.000                                                                                                                                    39104772.079 6 203628841.22406      -403.851 6        38.538    39104767.189 7 157458759.93307      -312.221 7        43.115    39104769.232 6 165465215.81806      -327.875 6        40.040
R06        45.000    19385846.639 6 103446644.24806      -312.434 6        41.316
C44        46.000                                                                                                                                    24797725.742 7 129128298.27807      1616.026 7        42.245                                                                    24797724.115 7 104927323.49307      1313.193 7        42.736
C39        47.000                                                                                                                                    39236594.656 6 204315255.73306     -1147.322 6        41.878                                                                    39236590.789 6 166022870.64106      -932.180 6        41.964
C20        48.000                                                                                                                                    22557539.792 8 117463076.38108     -1949.338 8        50.797                                                                    22557534.102 8  95448363.31608     -1583.950 8        49.704
C06        49.000                                                                                                                                    38279291.554 6 199330342.46406      -660.770 6        40.892    38279286.464 7 154134848.57107      -511.050 7        44.649    38279286.067 6 161972210.48306      -536.965 6        41.709
C16        50.000                                                                                                                                    38787203.029 7 201975162.30407      -753.998 7        42.411    38787202.185 7 156180016.58007      -583.003 7        43.505    38787200.085 6 164121362.60106      -612.875 6        39.357
S48        51.000    77158434.201 6 405471600.00806      -377.796 6        37.573
C19        52.000                                                                                                                                    22185939.958 8 115528072.72008       604.244 8        50.791                                                                    22185935.083 8  93876025.89608       491.072 8        49.529
C60        54.000                                                                                                                                    40639699.062 6 211621779.05006      -457.761 6        38.772                                                                    40639683.560 6 171959998.77706      -371.926 6        39.078
R16        55.000    23614734.873 7 126145677.61807      3443.208 7        43.627                                                                    23614736.896 6  98113320.91406      2678.041 6        40.939
C37        56.000                                                                                                                                    25031240.223 7 130344245.76807       975.651 7        43.846                                                                    25031243.730 7 105915393.91407       792.818 7        44.262
C02        57.000                                                                                                                                    40588216.703 5 211353538.06105      -448.363 5        34.219    40588210.065 6 163431955.11506      -346.513 6        39.553    40588213.450 5 171742064.66705      -364.080 5        35.400
I03        58.000   131411389.618 6 439901273.75706       952.737 6        40.067
R07        59.000    21474253.848 8 114953382.72508      2392.900 8        48.244                                                                    21474253.101 7  89408186.60107      1861.123 7        43.987
> 2025 01 01 02 30 25.0000000  0 55
G28         1.000    24384954.219 6 128143808.92306     -3099.377 6        38.970                                    24384950.249 3  99852299.45503     -2415.090 3        21.571    24384949.741 6  99852305.46506     -2415.078 6        38.904
G31         2.000    22430301.165 7 117872043.35907     -1750.265 7        45.223                                    22430296.340 6  91848333.94406     -1363.842 6        41.297    22430296.618 6  91848332.93906     -1363.744 6        40.779
G09         3.000    21151606.978 7 111152484.60607      1995.043 7        46.996                                    21151604.826 8  86612335.38808      1554.577 8        48.595    21151605.058 7  86612336.38607      1554.585 7        43.192
E34         4.000    25225932.989 7 132563182.62407      1759.682 7        44.748                                                                    25225932.906 7  98991995.13507      1314.045 7        47.443    25225932.621 7 101574394.29007      1348.339 7        47.988
S21         5.000    38410815.963 7 201850054.05207      -384.075 7        42.957
E05         6.000    23962966.714 7 125926277.21107      2022.636 7        43.810                                                                    23962967.198 7  94035883.70207      1510.403 7        46.968    23962966.843 7  96488986.03607      1549.831 7        47.484
G21         7.000    25357827.804 3                     -3721.935 3        20.976
E04         8.000    25445107.626 7 133714966.48907     -2662.489 7        43.291                                                                    25445105.952 7  99852090.03907     -1988.205 7        47.058    25445105.762 7 102456919.14307     -2040.165 7        47.449
R14         9.000    23600894.365 7 125806029.99807     -2295.083 7        42.622                                                                    23600896.897 6  97849117.55006     -1785.112 6        40.234
G04        10.000    20100478.439 8 105628771.46208       276.953 8        48.607                                    20100474.828 6  82308143.05906       215.806 6        41.921    20100475.170 8  82308138.05808       215.801 8        48.900
E09        11.000    23392279.058 8 122927305.30908      -374.548 8        48.526                                                                    23392278.192 8  91796381.75708      -279.675 8        50.790    23392277.799 8  94191069.17508      -286.992 8        51.209
S27        12.000    39041051.500 6 205162116.56706      -377.386 6        36.038
G06        13.000    22486168.944 7 118165643.50607      2324.029 7        43.562                                    22486167.727 7  92077129.33007      1810.927 7        42.440    22486168.619 7  92077140.33507      1810.961 7        42.536
S36        14.000    38178243.775 7 200628529.67907      -384.023 7        44.381
E21        15.000    28821359.383 4                       120.306 4        27.760                                                                    28821362.787 5 113101235.87205        89.963 5        34.810    28821362.181 5 116051698.10905        91.844 5        35.271
E36        16.000    23440805.537 8 123182291.73408      -973.690 8        48.212                                                                    23440805.704 8  91986793.29908      -727.130 8        50.957    23440805.324 8  94386443.52508      -746.107 8        51.075
S45        17.000    63372263.955 6 333024093.18906      -423.390 6        37.641
G03        18.000    20377436.974 8 107084210.94108     -1789.635 8        48.945                                    20377434.964 8  83442261.69508     -1394.522 8        50.783    20377435.429 7  83442270.69007     -1394.464 7        45.046
R21        19.000    19936342.223 8 106683429.76008     -2735.765 8        52.179                                                                    19936341.422 7  82976009.80107     -2127.784 7        46.313
R20        20.000    23298887.243 5 124589641.70505     -4997.783 5        32.707                                                                    23298889.431 6  96903048.23006     -3887.132 6        41.254
R05        21.000    22177841.162 7 118553310.48107     -3741.519 7        45.466                                                                    22177840.265 7  92208135.00107     -2910.111 7        42.690
I06        22.000    38045233.824 7 149297896.44707      -210.572 7        43.022
S28        23.000    40844938.204 5 214641605.93005      -378.234 5        34.224
S23        25.000    38124539.838 7 200345815.27707      -379.871 7        44.450
E06        26.000    23779261.187 7 124960922.83207     -1623.312 7        47.755                                                                    23779260.748 8  93314974.65808     -1212.174 8        50.305    23779260.635 8  95749276.81608     -1243.859 8        51.172
R15        27.000    22425467.149 7 119834914.00107       991.055 7        45.058                                                                    22425467.754 6  93204946.53606       770.794 6        41.828
G26        28.000    25250714.127 6 132693398.54606      1925.339 6        36.023                                    25250714.294 4 103397453.23904      1500.261 4        26.156    25250713.888 5 103397454.25305      1500.416 5        33.826
C22        30.000                                                                                                                                    25474140.055 7 132650540.75207      2366.838 7        42.749                                                                    25474133.840 6 107789413.86606      1923.222 6        41.881
I01        31.000   334635870.193 7  10042222.02107     -2625.352 7        42.362
G02        32.000    23574173.505 7 123883150.29807     -3695.374 7        43.007                                    23574167.933 4  96532318.45804     -2879.516 4        29.393
G19        33.000    22444278.935 7 117945508.17807     -1539.513 7        43.293                                    22444272.655 5  91905610.85105     -1199.623 5        31.283
G17        34.000    23386137.577 7 122895029.98207     -2790.423 7        42.627                                    23386133.977 6  95762369.38906     -2174.356 6        37.524    23386134.598 6  95762369.39006     -2174.326 6        38.625
E11        35.000    25750930.318 6 135322112.64206     -3169.757 6        39.631                                                                    25750926.870 7 101052242.92507     -2367.087 7        42.753    25750926.932 7 103688381.18007     -2428.798 7        43.511
C32        36.000                                                                                                                                    26933178.389 6 140248147.24206     -3237.329 6        39.655                                                                    26933179.682 6 113963116.08106     -2630.715 6        39.976
C35        37.000                                                                                                                                    22978048.291 8 119652743.20208      -927.665 8        48.217                                                                    22978046.630 7  97227654.34407      -753.811 7        47.337
I09        38.000    37310045.873 7 146412629.60907      -512.114 7        42.679
C29        39.000                                                                                                                                    24410746.433 7 127113153.41407     -3591.907 7        44.758                                                                    24410744.795 7 103289841.45107     -2918.841 7        44.918
R22        40.000    20657503.177 8 110271190.15608      1856.166 8        50.919                                                                    20657501.416 7  85766496.37007      1443.613 7        47.063
S44        42.000    40640136.536 6 213565552.75806      -461.804 6        37.524
C09        43.000                                                                                                                                    38464279.912 7 200293622.23607      -150.447 7        42.584    38464276.058 7 154879725.27007      -116.210 7        46.353    38464274.214 7 162754955.98807      -122.258 7        42.309
C05        44.000                                                                                                                                    39105159.353 6 203630859.07106      -403.602 6        38.480    39105154.673 7 157460320.26007      -312.160 7        43.225    39105156.497 6 165466855.47706      -328.103 6        40.174
R06        45.000    19386139.343 6 103448211.40306      -314.666 6        41.309
C44        46.000                                                                                                                                    24796174.346 7 129120222.00207      1614.233 7        42.402                                                                    24796173.086 7 104920760.84607      1311.669 7        42.933
C39        47.000                                                                                                                                    39237696.485 7 204320992.86107     -1147.922 7        42.047                                                                    39237692.430 7 166027532.51307      -932.755 7        42.222
C20        48.000                                                                                                                                    22559412.206 8 117472825.13708     -1950.388 8        50.989                                                                    22559406.232 8  95456284.96708     -1584.867 8        49.960
C06        49.000                                                                                                                                    38279926.333 6 199333647.74406      -661.476 6        40.951    38279920.942 7 154137404.41707      -511.421 7        44.608    38279920.884 6 161974896.26806      -537.466 6        41.795
C16        50.000                                                                                                                                    38787927.330 7 201978933.49707      -754.690 7        42.595    38787926.316 7 156182932.69207      -583.426 7        43.219    38787924.148 6 164124426.95606      -613.214 6        39.583
S48        51.000    77158794.064 6 405473489.23506      -377.874 6        37.645
C19        52.000                                                                                                                                    22185360.337 8 115525054.26208       602.919 8        50.988                                                                    22185355.415 8  93873573.14108       489.843 8        49.769
C60        54.000                                                                                                                                    40640138.546 6 211624067.12506      -457.647 6        38.913                                                                    40640123.005 6 171961858.02506      -371.955 6        39.315
R16        55.000    23611512.441 7 126128463.43007      3442.313 7        43.659                                                                    23611514.918 6  98099932.10106      2677.443 6        41.604
C37        56.000                                                                                                                                    25030304.878 7 130339372.33207       973.403 7        44.227                                                                    25030307.805 7 105911433.82907       791.079 7        44.473
C02        57.000                                                                                                                                    40588646.100 5 211355778.33105      -448.091 5        34.157    40588640.208 6 163433687.44306      -346.457 6        39.703    40588643.955 5 171743885.05905      -364.378 5        35.714
I03        58.000   131410176.139 6 439896509.72806       952.741 6        40.048
R07        59.000    21472019.750 8 114941421.43208      2391.453 8        48.680                                                                    21472019.237 7  89398883.39407      1860.011 7        45.070
> 2025 01 01 02 30 30.0000000  0 55
G28         1.000    24387904.345 6 128159310.47506     -3101.148 6        39.177                                    24387900.187 3  99864378.59203     -2416.477 3        22.343    24387900.176 6  99864384.58706     -2416.504 6        39.177
G31         2.000    22431967.818 7 117880802.58507     -1753.379 7        45.208                                    22431963.039 6  91855159.31406     -1366.272 6        41.392    22431963.456 6  91855158.32906     -1366.340 6        40.956
G09         3.000    21149709.631 7 111142513.48607      1993.373 7        47.127                                    21149707.378 8  86604565.68808      1553.277 8        48.715    21149707.718 7  86604566.68707      1553.311 7        43.361
E34         4.000    25224259.096 7 132554386.82607      1758.704 7        44.497                                                                    25224259.109 7  98985426.84607      1313.364 7        47.442    25224258.804 7 101567654.66007      1347.582 7        47.915
S21         5.000    38411185.677 7 201851973.86907      -383.681 7        42.823
E05         6.000    23961042.980 7 125916166.01107      2021.892 7        43.718                                                                    23961043.120 7  94028333.13407      1509.908 7        46.930    23961042.785 7  96481238.50107      1549.257 7        47.545
E04         8.000    25447641.265 7 133728280.44207     -2662.979 7        43.120                                                                    25447639.532 7  99862032.27807     -1988.569 7        46.964    25447639.365 7 102467120.74007     -2040.442 7        47.429
R14         9.000    23603048.585 7 125817514.55707     -2298.490 7        42.482                                                                    23603051.653 6  97858049.97606     -1787.903 6        39.538
G04        10.000    20100215.925 8 105627392.73008       274.622 8        48.594                                    20100212.469 7  82307068.72307       213.991 7        42.025    20100212.470 8  82307063.71908       213.993 8        48.840
E09        11.000    23392636.211 8 122929181.85708      -376.005 8        48.264                                                                    23392635.243 8  91797783.07608      -280.751 8        50.774    23392634.904 8  94192507.05308      -288.105 8        51.171
S27        12.000    39041412.208 6 205164001.88206      -376.900 6        36.151
G06        13.000    22483958.382 7 118154027.13107      2322.548 7        43.570                                    22483957.194 7  92068077.60807      1809.775 7        42.561    22483957.821 7  92068088.62207      1809.669 7        42.445
S36        14.000    38178608.878 7 200630448.98107      -383.654 7        44.516
E21        15.000    28821246.322 4                       118.000 4        28.256                                                                    28821249.365 5 113100790.89405        88.102 5        35.657    28821248.294 6 116051241.51506        90.379 6        36.276
E36        16.000    23441732.824 8 123187165.15008      -975.573 8        48.093                                                                    23441733.105 8  91990432.53808      -728.486 8        50.925    23441732.726 8  94390177.70408      -747.523 8        51.036
S45        17.000    63372625.602 6 333026210.50806      -423.201 6        37.758
G03        18.000    20379140.558 8 107093163.42608     -1791.194 8        48.757                                    20379138.576 8  83449237.65808     -1395.737 8        50.904    20379139.156 7  83449246.66907     -1395.749 7        45.264
R21        19.000    19938899.935 8 106697117.86508     -2739.397 8        52.327                                                                    19938898.987 7  82986656.10807     -2130.634 7        46.175
R20        20.000    23303559.835 5 124614631.50305     -4998.030 5        32.563                                                                    23303563.720 6  96922484.72506     -3887.422 6        41.430
R05        21.000    22181341.116 7 118572018.45607     -3741.627 7        45.199                                                                    22181340.195 7  92222685.65107     -2910.215 7        42.768
I06        22.000    38045502.149 7 149298948.94707      -210.356 7        42.811
S28        23.000    40845301.644 5 214643496.81905      -378.012 5        34.176
E10        24.000                                                                                                                                    28413072.642 3                     -2632.164 3        21.000
S23        25.000    38124901.069 7 200347714.22607      -379.540 7        44.498
E06        26.000    23780806.324 7 124969042.66307     -1624.487 7        47.535                                                                    23780805.877 8  93321038.17108     -1213.075 8        50.247    23780805.828 8  95755498.50808     -1244.721 8        51.162
R15        27.000    22424541.939 7 119829967.97107       987.489 7        45.652                                                                    22424542.442 6  93201099.62306       767.846 6        41.204
G26        28.000    25248882.565 5 132683773.78405      1924.475 5        35.976                                    25248882.628 4 103389953.43404      1499.584 4        26.479    25248883.168 5 103389954.45505      1499.738 5        33.671
C22        30.000                                                                                                                                    25471866.836 7 132638706.97707      2366.830 7        42.650                                                                    25471861.292 7 107779797.97407      1923.175 7        42.038
I01        31.000   334639215.340 7  10055348.45807     -2625.110 7        42.502
G02        32.000    23577689.950 7 123901628.89607     -3696.059 7        43.655                                    23577684.283 4  96546717.36504     -2880.049 4        29.820
G19        33.000    22445745.224 7 117953213.39407     -1542.478 7        43.503                                    22445738.913 5  91911614.90805     -1201.929 5        31.336
G17        34.000    23388793.684 7 122908986.24307     -2791.784 7        42.267                                    23388789.813 6  95773244.39206     -2175.412 6        37.535    23388790.194 6  95773244.38206     -2175.386 6        38.868
E11        35.000    25753946.722 6 135337963.97006     -3170.722 6        39.120                                                                    25753943.299 7 101064079.94307     -2367.615 7        42.902    25753943.135 7 103700526.99307     -2429.465 7        43.338
C32        36.000                                                                                                                                    26936287.125 6 140264332.95606     -3236.834 6        39.267                                                                    26936288.129 6 113976268.30606     -2630.318 6        39.913
C35        37.000                                                                                                                                    22978939.920 8 119657387.88508      -930.160 8        48.200                                                                    22978938.578 7  97231428.54207      -755.823 7        47.323
I09        38.000    37310698.407 7 146415190.16807      -511.991 7        42.590
C29        39.000                                                                                                                                    24414195.731 7 127131114.58507     -3592.363 7        44.971                                                                    24414193.942 7 103304436.39607     -2919.204 7        44.767
R22        40.000    20655766.503 8 110261918.36608      1852.690 8        51.074                                                                    20655764.713 7  85759284.96507      1440.987 7        46.846
S44        42.000    40640572.711 6 213567861.37706      -461.477 6        37.225
C09        43.000                                                                                                                                    38464425.003 7 200294375.75807      -151.004 7        42.713    38464420.693 7 154880307.95107      -116.745 7        46.430    38464418.909 7 162755568.29607      -122.608 7        42.360
C05        44.000                                                                                                                                    39105546.573 6 203632876.55606      -403.243 6        38.553    39105542.296 7 157461880.31007      -311.830 7        43.232    39105543.923 6 165468494.85606      -327.672 6        40.079
R06        45.000    19386435.208 6 103449790.49906      -316.813 6        41.421
C44        46.000                                                                                                                                    24794625.423 7 129112156.27507      1612.134 7        42.463                                                                    24794624.088 7 104914206.80007      1310.044 7        42.948
C39        47.000                                                                                                                                    39238798.656 7 204326732.53707     -1148.077 7        42.097                                                                    39238794.629 7 166032196.48107      -932.784 7        42.146
C20        48.000                                                                                                                                    22561285.292 8 117482579.24408     -1951.172 8        50.837                                                                    22561279.427 8  95464210.98708     -1585.559 8        49.826
C06        49.000                                                                                                                                    38280562.359 6 199336956.42006      -661.874 6        41.116    38280556.566 7 154139962.89607      -511.835 7        44.734    38280556.244 6 161977584.86706      -537.990 6        41.602
C16        50.000                                                                                                                                    38788652.160 7 201982707.83207      -754.950 7        42.559    38788650.947 7 156185851.26207      -583.868 7        43.225    38788649.213 6 164127493.93206      -613.425 6        39.447
S48        51.000    77159154.655 6 405475377.71306      -377.414 6        37.705
C19        52.000                                                                                                                                    22184781.985 8 115522042.73308       601.813 8        50.980                                                                    22184777.112 8  93871126.03508       489.011 8        49.702
C60        54.000                                                                                                                                    40640577.852 6 211626354.76106      -457.414 6        39.042                                                                    40640562.342 6 171963716.92306      -371.530 6        39.270
R16        55.000    23608291.030 7 126111253.69307      3441.583 7        43.573                                                                    23608292.837 6  98086546.75006      2676.886 6        41.375
C37        56.000                                                                                                                                    25029371.152 7 130334510.05407       971.589 7        44.305                                                                    25029373.998 7 105907482.85407       789.450 7        44.331
C02        57.000                                                                                                                                    40589076.896 5 211358018.25305      -447.876 5        33.772    40589070.383 6 163435419.48306      -346.229 6        39.613    40589073.776 5 171745705.18505      -363.885 5        35.452
I03        58.000   131408961.442 6 439891745.51006       953.029 6        39.838
R07        59.000    21469787.128 8 114929467.71208      2390.125 8        48.951                                                                    21469785.411 7  89389586.03207      1859.050 7        43.894
> 2025 01 01 02 30 35.0000000  0 56
G28         1.000    24390855.357 6 128174822.41306     -3103.459 6        39.520                                    24390852.075 3  99876465.80903     -2418.272 3        22.400    24390852.077 6  99876471.80306     -2418.297 6        39.228
G31         2.000    22433637.692 7 117889578.54707     -1756.834 7        45.455                                    22433632.962 6  91861997.72806     -1368.964 6        41.373    22433633.545 6  91861996.73706     -1368.962 6        41.101
G09         3.000    21147813.963 7 111132552.28307      1991.269 7        47.023                                    21147811.843 8  86596803.71408      1551.636 8        48.715    21147812.107 7  86596804.71407      1551.664 7        43.661
E34         4.000    25222586.408 7 132545597.51507      1757.294 7        44.209                                                                    25222586.500 7  98978863.40607      1312.240 7        47.448    25222586.221 7 101560919.99807      1346.382 7        47.831
S21         5.000    38411550.230 7 201853893.19907      -383.781 7        43.130
E05         6.000    23959119.813 7 125906060.17707      2020.629 7        43.683                                                                    23959119.993 7  94020786.58107      1508.950 7        46.906    23959119.663 7  96473495.07607      1548.311 7        47.580
G21         7.000    25364908.511 3                     -3719.399 3        20.048
E04         8.000    25450175.725 7 133741598.32507     -2663.978 7        43.384                                                                    25450173.981 7  99871977.45107     -1989.308 7        46.858    25450173.589 7 102477325.35407     -2041.237 7        47.430
R14         9.000    23605207.188 7 125829017.23107     -2302.446 7        43.198                                                                    23605210.177 6  97866996.47806     -1790.596 6        40.305
G04        10.000    20099956.177 8 105626027.05608       271.829 8        48.610                                    20099952.588 7  82306004.56207       211.814 7        42.032    20099952.721 8  82305999.55708       211.840 8        48.858
E09        11.000    23392994.959 8 122931067.26008      -377.988 8        48.416                                                                    23392994.096 8  91799191.00908      -282.211 8        50.736    23392993.630 8  94193951.71108      -289.592 8        51.166
S27        12.000    39041772.128 6 205165887.02006      -377.041 6        36.102
G06        13.000    22481749.482 7 118142420.15807      2320.462 7        43.549                                    22481748.445 7  92059033.22007      1808.151 7        42.614    22481749.147 7  92059044.22307      1808.186 7        42.580
S36        14.000    38178975.015 7 200632368.47407      -383.714 7        44.465
E21        15.000    28821135.909 4                       115.623 4        27.784                                                                    28821138.031 5 113100354.15605        86.571 5        35.719    28821136.980 5 116050793.35805        88.956 5        35.771
E36        16.000    23442662.245 8 123192049.26008      -977.893 8        48.143                                                                    23442662.517 8  91994079.75808      -730.162 8        50.889    23442662.094 8  94393920.07008      -749.265 8        51.034
S45        17.000    63372987.718 6 333028327.73706      -423.382 6        37.939
G03        18.000    20380845.901 8 107102125.10708     -1793.206 8        48.480                                    20380843.923 8  83456220.78908     -1397.303 8        50.879    20380844.571 7  83456229.79207     -1397.331 7        45.681
R21        19.000    19941462.106 8 106710825.75408     -2743.548 8        52.097                                                                    19941460.728 7  82997317.79007     -2133.905 7        46.493
R20        20.000    23308234.301 5 124639624.54805     -4998.904 5        33.102                                                                    23308236.957 6  96941923.73106     -3888.010 6        41.199
R05        21.000    22184840.760 7 118590728.65807     -3742.421 7        45.625                                                                    22184839.865 7  92237238.03207     -2910.626 7        42.663
I06        22.000    38045770.027 7 149300001.41907      -210.412 7        42.935
S28        23.000    40845664.033 5 214645387.22905      -378.118 5        34.262
E10        24.000                                                                                                                                    28416425.787 3                     -2632.225 3        20.952    28416423.194 3                     -2702.039 3        19.463
S23        25.000    38125260.078 7 200349612.92007      -379.668 7        44.441
E06        26.000    23782352.959 7 124977169.78007     -1626.081 7        47.525                                                                    23782352.400 8  93327107.11808     -1214.324 8        50.226    23782352.342 8  95761725.77808     -1246.003 8        51.164
R15        27.000    22423620.791 7 119825041.45907       983.331 7        46.018                                                                    22423620.955 6  93197267.88306       764.804 6        41.890
G26        28.000    25247053.558 5 132674156.04505      1922.891 5        35.710                                    25247052.389 4 103382459.10004      1498.354 4        26.431    25247052.227 5 103382460.11105      1498.374 5        34.200
C22        30.000                                                                                                                                    25469594.839 7 132626875.45407      2366.202 7        42.667                                                                    25469589.331 7 107770183.91107      1922.554 7        42.116
I01        31.000   334642560.244 7  10068475.28107     -2625.400 7        42.567
G02        32.000    23581207.809 7 123920112.31207     -3697.111 7        43.443                                    23581201.639 4  96561120.02104     -2880.866 4        29.772
G19        33.000    22447214.212 7 117960934.54907     -1545.820 7        43.691                                    22447208.239 5  91917631.39205     -1204.534 5        31.358
G17        34.000    23391451.848 7 122922950.40507     -2793.697 7        42.313                                    23391447.146 6  95784125.55006     -2176.903 6        37.425    23391447.376 6  95784125.54406     -2176.826 6        39.207
E11        35.000    25756964.045 6 135353820.56506     -3171.822 6        39.180                                                                    25756960.652 7 101075920.91407     -2368.614 7        42.904    25756960.551 7 103712676.85107     -2430.263 7        43.429
C32        36.000                                                                                                                                    26939395.285 6 140280518.01306     -3236.992 6        39.751                                                                    26939396.346 6 113989420.00106     -2630.387 6        39.913
C35        37.000                                                                                                                                    22979834.587 8 119662046.53308      -933.090 8        48.126                                                                    22979833.218 7  97235214.07807      -758.327 7        47.431
I09        38.000    37311350.847 7 146417751.22507      -512.236 7        42.612
C29        39.000                                                                                                                                    24417646.101 7 127149079.97307     -3593.519 7        44.784                                                                    24417644.001 7 103319034.73807     -2920.064 7        44.835
R22        40.000    20654033.289 8 110252665.04808      1848.813 8        50.662                                                                    20654031.273 7  85752087.93207      1438.000 7        47.260
S44        42.000    40641014.168 6 213570169.79206      -461.582 6        37.573
C09        43.000                                                                                                                                    38464570.259 7 200295133.05807      -151.806 7        42.660    38464566.437 7 154880893.55207      -117.421 7        46.500    38464564.240 7 162756183.68207      -123.499 7        42.341
C05        44.000                                                                                                                                    39105934.120 6 203634893.92306      -403.454 6        38.691    39105929.659 7 157463440.26807      -312.012 7        43.291    39105931.532 6 165470134.13606      -327.975 6        40.184
R06        45.000    19386733.302 6 103451381.72306      -319.329 6        41.354
C44        46.000                                                                                                                                    24793078.644 6 129104101.25706      1609.914 6        41.962                                                                    24793077.254 7 104907661.44907      1308.225 7        42.955
C39        47.000                                                                                                                                    39239901.324 7 204332475.06507     -1148.687 7        42.123                                                                    39239897.384 7 166036862.77507      -933.526 7        42.260
C20        48.000                                                                                                                                    22563159.320 8 117492338.95608     -1952.487 8        50.671                                                                    22563153.687 8  95472141.55408     -1586.571 8        49.995
C06        49.000                                                                                                                                    38281198.753 6 199340268.74706      -662.753 6        41.428    38281192.751 7 154142524.20607      -512.588 7        44.718    38281192.364 6 161980276.40106      -538.699 6        41.921
C16        50.000                                                                                                                                    38789377.362 7 201986485.60407      -756.040 7        42.497    38789376.336 7 156188772.47907      -584.497 7        43.090    38789374.554 6 164130563.68806      -614.247 6        39.667
S48        51.000    77159514.509 6 405477266.05506      -377.687 6        37.970
C19        52.000                                                                                                                                    22184204.967 8 115519038.37908       600.213 8        50.859                                                                    22184200.094 8  93868684.75908       487.646 8        49.789
C60        54.000                                                                                                                                    40641017.167 6 211628642.18506      -457.374 6        39.231                                                                    40641001.625 6 171965575.65606      -371.767 6        39.258
R16        55.000    23605069.736 7 126094048.48407      3440.551 7        43.255                                                                    23605071.089 6  98073164.90406      2676.070 6        41.166
C37        56.000                                                                                                                                    25028438.643 7 130329659.21907       969.008 7        44.086                                                                    25028442.347 7 105903541.15607       787.377 7        44.486
C02        57.000                                                                                                                                    40589506.154 5 211360258.01505      -447.723 5        33.970    40589500.441 6 163437151.43406      -346.415 6        39.673    40589503.880 5 171747525.18605      -363.956 5        35.871
I03        58.000   131407747.350 6 439886981.25706       952.866 6        39.604
R07        59.000    21467555.251 8 114917521.87108      2388.426 8        48.856                                                                    21467554.456 7  89380294.84807      1857.609 7        44.456
> 2025 01 01 02 30 40.0000000  0 56
G28         1.000    24393809.511 6 128190344.86006     -3105.502 6        39.471                                    24393806.034 3  99888561.21303     -2419.875 3        22.590    24393805.660 6  99888567.19806     -2419.925 6        39.162
G31         2.000    22435310.658 7 117898371.34407     -1760.250 7        45.249                                    22435306.118 6  91868849.26006     -1371.623 6        41.449    22435306.693 6  91868848.26606     -1371.652 6        40.953
G09         3.000    21145920.550 7 111122601.13507      1989.214 7        47.475                                    21145918.223 8  86589049.58108      1550.038 8        48.745    21145918.579 7  86589050.57807      1550.061 7        43.941
E34         4.000    25220915.181 7 132536814.85207      1755.963 7        44.063                                                                    25220915.181 7  98972304.92207      1311.256 7        47.408    25220914.994 7 101554190.42307      1345.445 7        47.943
S21         5.000    38411913.308 7 201855812.27007      -383.830 7        43.115
E05         6.000    23957197.444 7 125895959.86307      2019.570 7        43.575                                                                    23957198.057 7  94013244.13707      1508.050 7        46.946    23957197.642 7  96465755.87607      1547.454 7        47.513
G21         7.000    25368447.796 3                     -3723.428 3        20.667
E04         8.000    25452710.893 7 133754920.23707     -2664.685 7        43.187                                                                    25452709.024 7  99881925.63107     -1989.956 7        46.876    25452708.663 7 102487533.04907     -2041.824 7        47.354
R14         9.000    23607369.324 7 125840538.56607     -2305.887 7        42.713                                                                    23607371.620 6  97875957.59206     -1793.561 6        40.791
G04        10.000    20099698.798 8 105624674.56608       269.180 8        48.581                                    20099695.232 7  82304950.67507       209.752 7        42.049    20099695.333 8  82304945.67208       209.757 8        48.883
E09        11.000    23393355.420 8 122932961.64808      -379.733 8        48.217                                                                    23393354.530 8  91800605.64708      -283.532 8        50.711    23393354.121 8  94195403.25508      -290.959 8        51.128
S27        12.000    39042128.736 6 205167772.26906      -376.980 6        36.223
G06        13.000    22479542.753 7 118130822.74607      2318.569 7        43.992                                    22479541.516 7  92049996.28507      1806.676 7        42.679    22479542.140 7  92050007.28307      1806.646 7        42.756
S36        14.000    38179341.786 7 200634287.95707      -383.788 7        44.631
E21        15.000    28821025.661 4                       113.624 4        28.133                                                                    28821028.691 5 113099925.73805        84.757 5        34.876    28821028.071 6 116050353.81506        87.176 6        36.015
E36        16.000    23443593.777 8 123196944.19608      -980.052 8        48.048                                                                    23443593.994 8  91997735.07008      -731.859 8        50.886    23443593.571 8  94397670.73608      -750.916 8        51.009
S45        17.000    63373344.312 6 333030444.84606      -423.334 6        37.860
G03        18.000    20382553.162 8 107111096.11508     -1795.087 8        48.531                                    20382551.055 8  83463211.18208     -1398.766 8        50.870    20382551.693 7  83463220.18307     -1398.807 7        45.702
R21        19.000    19944027.252 8 106724553.53608     -2747.510 8        52.452                                                                    19944026.019 7  83007994.95607     -2136.987 7        46.281
R20        20.000    23312909.142 5 124664620.94205     -4999.649 5        33.365                                                                    23312911.515 6  96961365.36006     -3888.544 6        40.861
R05        21.000    22188342.262 7 118609441.09907     -3742.613 7        46.448                                                                    22188341.293 7  92251792.15707     -2910.951 7        42.921
I06        22.000    38046038.200 7 149301053.96307      -210.581 7        42.880
S28        23.000    40846019.397 5 214647277.56105      -378.271 5        34.267
E10        24.000                                                                                                                                                                                                    28419780.712 3                     -2701.465 3        19.015
S23        25.000    38125622.637 7 200351511.46407      -379.658 7        44.551
E06        26.000    23783901.105 7 124985304.28207     -1627.648 7        47.371                                                                    23783900.365 8  93333181.58408     -1215.413 8        50.231    23783900.293 8  95767958.70508     -1247.147 8        51.135
R15        27.000    22422702.059 7 119820134.63607       979.457 7        45.389                                                                    22422702.647 6  93193451.48006       761.773 6        41.645
G26        28.000    25245224.081 5 132664545.50005      1921.281 5        35.519                                    25245223.589 4 103374970.37704      1497.103 4        26.287    25245224.003 5 103374971.35605      1497.471 5        33.862
C22        30.000                                                                                                                                    25467323.697 7 132615046.32307      2365.620 7        43.153                                                                    25467317.723 7 107760571.75607      1922.226 7        42.034
I01        31.000   334645905.051 7  10081602.52507     -2625.475 7        42.790
G02        32.000    23584725.480 7 123938600.66807     -3698.140 7        42.413                                    23584719.943 4  96575526.52404     -2881.667 4        29.384
G19        33.000    22448686.689 7 117968671.75007     -1548.997 7        44.662                                    22448680.583 5  91923660.37705     -1207.013 5        31.358
G17        34.000    23394109.768 7 122936922.61107     -2795.251 7        42.548                                    23394106.076 6  95795012.97906     -2178.119 6        37.361    23394106.161 6  95795012.97306     -2178.175 6        39.282
E11        35.000    25759982.706 6 135369682.54006     -3172.855 6        39.937                                                                    25759979.140 7 101087765.90507     -2369.522 7        42.899    25759979.003 7 103724830.83807     -2431.138 7        43.255
C32        36.000                                                                                                                                    26942503.511 6 140296702.56006     -3236.933 6        39.667                                                                    26942504.294 6 114002571.24806     -2630.242 6        39.832
C35        37.000                                                                                                                                    22980732.027 8 119666719.25208      -935.888 8        48.090                                                                    22980730.551 7  97239011.03407      -760.547 7        47.418
I09        38.000    37312003.470 7 146420312.83607      -512.453 7        42.354
C29        39.000                                                                                                                                    24421096.626 7 127167049.66907     -3594.305 7        44.485                                                                    24421094.945 7 103333636.56307     -2920.738 7        44.823
R22        40.000    20652302.455 8 110243430.35408      1845.106 8        50.194                                                                    20652301.180 7  85744905.41807      1435.017 7        47.264
S44        42.000    40641454.891 6 213572478.11006      -461.550 6        37.822
C09        43.000                                                                                                                                    38464716.137 7 200295894.24607      -152.630 7        42.282    38464712.418 7 154881482.14107      -117.839 7        46.353    38464710.445 7 162756802.18907      -123.972 7        42.288
C05        44.000                                                                                                                                    39106321.711 6 203636911.33306      -403.678 6        38.550    39106316.955 7 157465000.23907      -311.861 7        42.995    39106319.034 6 165471773.41506      -327.820 6        40.305
R06        45.000    19387034.185 6 103452985.37906      -321.849 6        41.411
C44        46.000                                                                                                                                    24791533.860 7 129096057.17507      1607.676 7        42.053                                                                    24791532.474 7 104901124.95907      1306.512 7        43.045
C39        47.000                                                                                                                                    39241004.583 7 204338220.56507     -1149.414 7        42.347                                                                    39241000.858 7 166041531.45207      -933.914 7        42.282
C20        48.000                                                                                                                                    22565034.772 8 117502104.38008     -1953.711 8        50.783                                                                    22565029.031 8  95480076.75008     -1587.521 8        49.976
C06        49.000                                                                                                                                    38281835.566 6 199343584.87106      -663.645 6        41.073    38281829.233 7 154145088.44307      -513.104 7        44.710    38281829.150 7 161982971.00507      -539.193 7        42.025
C16        50.000                                                                                                                                    38790103.250 7 201990266.90307      -756.636 7        42.354    38790102.516 7 156191696.41507      -585.014 7        42.976    38790100.897 6 164133636.29906      -614.717 6        39.387
S48        51.000    77159874.636 6 405479154.16906      -377.699 6        38.225
C19        52.000                                                                                                                                    22183629.268 8 115516041.33608       598.697 8        50.739                                                                    22183624.569 8  93866249.40908       486.430 8        49.804
C60        54.000                                                                                                                                    40641456.566 6 211630929.53906      -457.376 6        38.943                                                                    40641440.962 6 171967434.28706      -371.652 6        39.468
R16        55.000    23601850.335 7 126076848.15307      3439.650 7        43.994                                                                    23601851.012 6  98059786.87506      2675.155 6        40.667
C37        56.000                                                                                                                                    25027509.578 7 130324819.94607       966.714 7        44.074                                                                    25027513.125 7 105899608.84307       785.591 7        44.453
C02        57.000                                                                                                                                    40589937.174 5 211362497.81305      -447.805 5        34.043    40589930.285 6 163438883.37306      -346.360 6        39.586    40589934.152 5 171749345.18905      -363.947 5        35.729
I03        58.000   131406533.743 6 439882217.10206       952.755 6        39.748
R07        59.000    21465325.204 8 114905583.90208      2386.818 8        48.998                                                                    21465324.263 7  89371009.74107      1856.399 7        44.226
> 2025 01 01 02 30 45.0000000  0 55
G28         1.000    24396765.350 6 128205877.90006     -3107.640 6        39.808                                    24396761.978 3  99900664.87003     -2421.529 3        22.533    24396761.146 6  99900670.87906     -2421.564 6        39.423
G31         2.000    22436987.159 7 117907181.04607     -1763.748 7        45.359                                    22436982.529 6  91875713.96106     -1374.348 6        41.385    22436983.025 6  91875712.96206     -1374.356 6        41.108
G09         3.000    21144029.020 7 111112660.10807      1986.976 7        46.981                                    21144026.517 8  86581303.32608      1548.293 8        48.626    21144026.736 7  86581304.31707      1548.421 7        43.545
E34         4.000    25219245.163 7 132528038.89507      1754.386 7        44.008                                                                    25219245.206 7  98965751.44507      1310.131 7        47.468    25219245.025 8 101547465.98408      1344.307 8        48.082
S21         5.000    38412282.011 7 201857731.25007      -383.859 7        42.842
E05         6.000    23955276.965 7 125885865.10707      2018.297 7        43.418                                                                    23955277.107 7  94005705.84507      1507.231 7        46.892    23955276.688 7  96458020.93307      1546.519 7        47.676
E04         8.000    25455246.656 7 133768246.24407     -2665.736 7        43.060                                                                    25455244.820 7  99891876.86507     -1990.645 7        46.947    25455244.464 7 102497743.88007     -2042.543 7        47.512
R14         9.000    23609533.327 7 125852077.98607     -2309.797 7        43.115                                                                    23609535.381 6  97884932.71706     -1796.472 6        40.729
G04        10.000    20099444.042 8 105623335.33508       266.352 8        48.541                                    20099440.386 6  82303907.12106       207.549 6        41.936    20099440.568 8  82303902.11708       207.615 8        48.814
E09        11.000    23393717.660 8 122934865.08608      -381.703 8        48.204                                                                    23393716.753 8  91802027.05508      -285.054 8        50.822    23393716.341 8  94196861.73808      -292.445 8        51.291
S27        12.000    39042490.799 6 205169657.69006      -376.943 6        36.155
G06        13.000    22477337.663 7 118119234.96107      2316.422 7        43.740                                    22477336.420 7  92040966.84507      1805.003 7        42.516    22477336.983 7  92040977.85107      1804.962 7        42.760
S36        14.000    38179703.491 7 200636207.20407      -383.867 7        44.415
E21        15.000    28820919.429 4                       111.497 4        28.995                                                                    28820921.666 5 113099506.20505        82.822 5        35.724    28820920.867 6 116049923.31006        85.153 6        36.662
E36        16.000    23444527.353 8 123201850.03208      -982.412 8        48.018                                                                    23444527.570 8  92001398.51808      -733.642 8        50.977    23444527.153 8  94401429.75008      -752.725 8        51.153
S45        17.000    63373704.837 6 333032561.85306      -423.475 6        37.902
G03        18.000    20384262.063 8 107120076.50308     -1797.149 8        48.486                                    20384259.970 8  83470208.88608     -1400.378 8        50.756    20384260.522 7  83470217.87907     -1400.342 7        45.660
R21        19.000    19946596.189 8 106738301.32908     -2751.683 8        52.149                                                                    19946594.703 7  83018687.68407     -2140.199 7        46.249
R20        20.000    23317585.482 5 124689620.68505     -5000.264 5        33.257                                                                    23317586.031 6  96980809.59006     -3889.130 6        40.632
R05        21.000    22191842.676 7 118628155.89607     -3743.325 7        45.800                                                                    22191842.398 7  92266348.11107     -2911.429 7        43.170
I06        22.000    38046306.383 7 149302106.61307      -210.590 7        42.965
S28        23.000    40846374.167 5 214649168.47805      -378.153 5        34.481
E10        24.000                                                                                                                                                                                                    28423135.712 3                     -2702.784 3        20.548
S23        25.000    38125981.029 7 200353410.10107      -379.913 7        44.260
E06        26.000    23785450.583 7 124993446.24007     -1629.243 7        47.060                                                                    23785449.731 8  93339261.62708     -1216.708 8        50.236    23785449.664 8  95774197.35308     -1248.392 8        51.253
R15        27.000    22421787.585 7 119815247.58007       975.284 7        46.265                                                                    22421787.550 6  93189650.43406       758.641 6        41.697
G26        28.000    25243396.362 5 132654942.16505      1919.810 5        35.343                                    25243396.229 4 103367487.26504      1495.954 4        25.985    25243395.297 5 103367488.29505      1495.825 5        34.381
C22        30.000                                                                                                                                    25465052.063 7 132603219.62407      2365.076 7        42.552                                                                    25465046.727 7 107750961.60607      1921.678 7        42.040
I01        31.000   334649250.699 7  10094730.28107     -2625.734 7        42.762
G02        32.000    23588244.708 6 123957094.03206     -3699.363 6        41.671                                    23588239.029 4  96589936.93204     -2882.615 4        28.645
G19        33.000    22450162.173 7 117976425.08407     -1552.303 7        43.991                                    22450155.991 5  91929701.92605     -1209.588 5        31.162
G17        34.000    23396770.313 7 122950902.94807     -2796.990 7        42.138                                    23396766.503 6  95805906.74606     -2179.472 6        37.274    23396766.474 6  95805906.75806     -2179.618 6        38.784
E11        35.000    25763002.181 6 135385549.97306     -3174.116 6        39.604                                                                    25762998.537 7 101099614.95707     -2370.419 7        43.012    25762998.241 7 103736988.99707     -2432.105 7        43.336
C32        36.000                                                                                                                                    26945611.524 6 140312886.63206     -3237.042 6        39.129                                                                    26945612.294 6 114015722.12406     -2630.151 6        39.495
C35        37.000                                                                                                                                    22981632.300 7 119671406.10307      -938.879 7        47.922                                                                    22981630.623 7  97242819.47807      -762.859 7        47.360
I09        38.000    37312656.767 7 146422875.08207      -512.684 7        42.597
C29        39.000                                                                                                                                    24424548.328 7 127185023.72707     -3595.401 7        44.602                                                                    24424546.502 7 103348241.96207     -2921.490 7        44.513
R22        40.000    20650576.088 8 110234214.37508      1841.163 8        50.623                                                                    20650574.697 7  85737737.42307      1432.005 7        46.995
S44        42.000    40641893.611 6 213574786.42906      -461.654 6        37.490
C09        43.000                                                                                                                                    38464862.882 7 200296659.40607      -153.528 7        42.303    38464859.300 7 154882073.81707      -118.719 7        46.400    38464857.364 7 162757423.95007      -124.717 7        42.375
C05        44.000                                                                                                                                    39106709.369 6 203638928.79806      -403.604 6        38.513    39106704.551 7 157466560.28307      -312.008 7        43.257    39106706.415 6 165473412.79406      -328.012 6        40.262
R06        45.000    19387337.201 6 103454601.29306      -324.568 6        41.428
C44        46.000                                                                                                                                    24789991.687 7 129088024.07407      1605.443 7        42.523                                                                    24789989.804 7 104894597.42607      1304.457 7        43.014
C39        47.000                                                                                                                                    39242108.554 7 204343969.07707     -1150.057 7        42.370                                                                    39242104.816 7 166046202.59907      -934.411 7        42.315
C20        48.000                                                                                                                                    22566911.166 8 117511875.57008     -1954.959 8        50.780                                                                    22566905.476 8  95488016.65008     -1588.518 8        49.934
C06        49.000                                                                                                                                    38282472.691 6 199346904.84106      -664.515 6        40.994    38282466.867 7 154147655.65407      -513.850 7        44.686    38282466.719 6 161985668.75006      -539.861 6        41.840
C16        50.000                                                                                                                                    38790830.325 7 201994051.80207      -757.453 7        42.394    38790829.373 7 156194623.15507      -585.745 7        42.961    38790827.597 6 164136711.85306      -615.342 6        39.619
S48        51.000    77160237.776 6 405481042.32006      -377.590 6        37.834
C19        52.000                                                                                                                                    22183055.217 8 115513051.65108       597.073 8        50.636                                                                    22183050.478 8  93863820.04608       485.225 8        49.793
C60        54.000                                                                                                                                    40641895.894 6 211633216.86906      -457.538 6        38.964                                                                    40641880.191 6 171969292.93006      -371.528 6        39.213
R16        55.000    23598631.593 7 126059652.68707      3438.526 7        44.250                                                                    23598632.015 6  98046412.61506      2674.363 6        40.794
C37        56.000                                                                                                                                    25026582.406 7 130319992.30107       964.206 7        43.960                                                                    25026586.129 7 105895685.99107       783.615 7        44.561
C02        57.000                                                                                                                                    40590368.108 5 211364737.71205      -448.378 5        33.976    40590361.202 6 163440615.38806      -346.476 6        39.901    40590364.233 5 171751165.30205      -364.118 5        35.690
I03        58.000   131405319.465 6 439877453.06906       952.663 6        39.799
R07        59.000    21463096.497 8 114893654.09508      2385.137 8        48.454                                                                    21463095.359 7  89361731.02907      1855.037 7        43.572
> 2025 01 01 02 30 50.0000000  0 56
G28         1.000    24399722.743 6 128221421.45606     -3109.772 6        39.715                                    24399719.835 3  99912776.72603     -2423.213 3        22.857    24399719.471 6  99912782.72606     -2423.052 6        39.270
G31         2.000    22438666.578 7 117916007.58907     -1766.932 7        45.121                                    22438662.147 6  91882591.78606     -1376.832 6        41.502    22438662.513 6  91882590.80606     -1376.931 6        40.863
G09         3.000    21142138.863 7 111102729.12507      1985.260 7        47.095                                    21142136.693 8  86573564.89808      1546.953 8        48.704    21142136.753 7  86573565.89707      1546.950 7        43.759
E34         4.000    25217576.518 7 132519269.57707      1753.277 7        43.954                                                                    25217576.514 7  98959202.92207      1309.311 7        47.529    25217576.273 8 101540746.63308      1343.423 8        48.145
S21         5.000    38412645.590 7 201859650.07607      -383.693 7        43.018
E05         6.000    23953356.780 7 125875775.85807      2017.325 7        43.291                                                                    23953357.264 7  93998171.67507      1506.504 7        46.987    23953356.779 7  96450290.21207      1545.782 7        47.773
G21         7.000    25375515.307 3                     -3718.040 3        18.955
E04         8.000    25457783.078 7 133781576.27407     -2666.407 7        42.802                                                                    25457781.533 7  99901831.10407     -1991.089 7        47.008    25457781.080 7 102507957.80207     -2043.009 7        47.435
R14         9.000    23611700.824 7 125863635.79207     -2313.234 7        43.058                                                                    23611703.445 6  97893922.06706     -1799.106 6        40.787
G04        10.000    20099191.445 8 105622009.27508       263.942 8        48.739                                    20099188.030 7  82302873.82907       205.666 7        42.006    20099188.243 8  82302868.82108       205.724 8        48.886
E09        11.000    23394081.684 8 122936777.50608      -383.323 8        48.028                                                                    23394080.676 8  91803455.15508      -286.224 8        50.736    23394080.250 8  94198327.10308      -293.727 8        51.295
S27        12.000    39042849.910 6 205171542.90106      -377.102 6        36.091
G06        13.000    22475134.282 7 118107656.74407      2314.773 7        43.570                                    22475133.140 7  92031944.86107      1803.721 7        42.641    22475133.868 7  92031955.86407      1803.578 7        42.626
S36        14.000    38180069.503 7 200638126.34207      -383.721 7        44.504
E21        15.000    28820814.493 4                       109.084 4        28.559                                                                    28820816.980 5 113099094.75205        81.719 5        35.119    28820816.117 6 116049501.16106        83.500 6        36.280
E36        16.000    23445462.919 7 123206766.68907      -984.362 7        47.846                                                                    23445463.157 8  92005070.04508      -735.042 8        50.976    23445462.752 8  94405197.05708      -754.220 8        51.196
S45        17.000    63374067.423 6 333033078.86116      -423.174 6        37.883
G03        18.000    20385972.649 8 107129066.19508     -1798.797 8        48.714                                    20385970.652 8  83477213.84008     -1401.661 8        50.815    20385971.205 7  83477222.84007     -1401.680 7        45.627
R21        19.000    19949168.963 8 106752068.99608     -2755.432 8        52.226                                                                    19949167.967 7  83029395.87107     -2143.144 7        46.392
R20        20.000    23322260.165 5 124714623.74305     -5000.831 5        33.180                                                                    23322261.944 6  97000256.40106     -3889.564 6        40.133
R05        21.000    22195343.766 7 118646872.76807     -3743.584 7        46.287                                                                    22195343.511 7  92280905.67107     -2911.622 7        43.039
I06        22.000    38046574.921 7 149303159.33207      -210.478 7        42.948
S28        23.000    40846740.764 5 214651058.99005      -378.300 5        34.214
E10        24.000                                                                                                                                    28426489.124 3                     -2630.900 3        19.284    28426486.581 3                     -2699.974 3        19.970
S23        25.000    38126346.146 7 200355308.64407      -379.637 7        44.629
E06        26.000    23787001.021 7 125001595.58207     -1630.542 7        47.186                                                                    23787000.513 8  93345347.17008     -1217.593 8        50.306    23787000.395 8  95780441.64808     -1249.339 8        51.321
R15        27.000    22420877.001 7 119810380.24807       971.615 7        46.472                                                                    22420876.965 7  93185864.74007       755.705 7        42.110
G26        28.000    25241569.933 5 132645346.02505      1918.677 5        34.705                                    25241570.045 4 103360009.75604      1495.076 4        26.299    25241570.306 5 103360010.74705      1495.096 5        34.348
C22        30.000                                                                                                                                    25462780.889 7 132591395.32907      2364.667 7        42.432                                                                    25462775.764 7 107741353.40207      1921.598 7        42.000
I01        31.000   334652595.857 7  10107858.47907     -2625.529 7        42.942
G02        32.000    23591764.655 6 123975592.30506     -3700.100 6        41.967                                    23591758.782 4  96604351.17404     -2883.194 4        28.152
G19        33.000    22451639.909 7 117984194.45107     -1555.313 7        43.465                                    22451634.372 5  91935755.97905     -1211.933 5        31.094
G17        34.000    23399432.233 7 122964891.32407     -2798.393 7        42.332                                    23399428.344 6  95816806.77106     -2180.567 6        37.304    23399428.253 6  95816806.76906     -2180.714 6        38.432
E11        35.000    25766022.485 6 135401422.75206     -3174.973 6        39.393                                                                    25766019.195 7 101111467.99407     -2370.885 7        42.923    25766018.758 7 103749151.25507     -2432.824 7        43.395
C32        36.000                                                                                                                                    26948719.719 6 140329070.14606     -3236.549 6        39.664                                                                    26948720.168 6 114028872.57206     -2629.873 6        39.225
C35        37.000                                                                                                                                    22982534.925 7 119676107.01107      -941.474 7        47.945                                                                    22982533.409 7  97246639.35907      -764.946 7        47.334
I09        38.000    37313309.966 7 146425437.87407      -512.515 7        42.650
C29        39.000                                                                                                                                    24428001.210 7 127203002.07407     -3596.084 7        44.826                                                                    24427998.742 7 103362850.84507     -2922.002 7        44.266
R22        40.000    20648853.295 8 110225017.03908      1837.683 8        50.450                                                                    20648852.049 7  85730583.94907      1429.325 7        47.577
S44        42.000    40642333.457 6 213577094.65706      -461.619 6        37.784
C09        43.000                                                                                                                                    38465010.584 7 200297428.43207      -154.026 7        42.339    38465007.204 7 154882668.48907      -119.147 7        46.402    38465005.117 7 162758048.86307      -125.213 7        42.425
C05        44.000                                                                                                                                    39107096.205 6 203640946.29906      -403.226 6        38.405    39107091.941 7 157468120.33907      -311.830 7        43.223    39107093.743 6 165475052.18106      -327.669 6        40.048
R06        45.000    19387642.174 6 103456229.60206      -326.849 6        41.359
C44        46.000                                                                                                                                    24788450.709 7 129080001.87007      1603.475 7        42.182                                                                    24788449.223 7 104888078.74007      1303.033 7        42.849
C39        47.000                                                                                                                                    39243213.162 7 204349720.55307     -1150.505 7        42.480                                                                    39243209.387 7 166050876.15307      -934.851 7        42.320
C20        48.000                                                                                                                                    22568788.673 8 117521652.46608     -1955.825 8        50.763                                                                    22568783.064 8  95495961.18608     -1589.238 8        49.879
C06        49.000                                                                                                                                    38283110.720 6 199350228.57306      -664.989 6        41.099    38283105.431 7 154150225.78207      -514.252 7        44.730    38283105.063 6 161988369.57506      -540.251 6        41.950
C16        50.000                                                                                                                                    38791558.172 7 201997840.25307      -758.040 7        42.315    38791557.122 7 156197552.62207      -586.046 7        42.813    38791555.167 6 164139790.27206      -615.799 6        39.405
S48        51.000    77160589.545 6 405482930.28806      -377.899 6        38.042
C19        52.000                                                                                                                                    22182482.558 8 115510069.26608       595.852 8        50.631                                                                    22182477.685 8  93861396.62008       484.212 8        49.739
C60        54.000                                                                                                                                    40642334.891 6 211635504.12106      -457.424 6        38.883                                                                    40642319.367 6 171971151.51406      -371.591 6        39.258
R16        55.000    23595413.861 7 126042462.14607      3437.758 7        44.242                                                                    23595414.428 6  98033042.20006      2673.639 6        41.063
C37        56.000                                                                                                                                    25025657.110 7 130315176.23207       962.192 7        43.659                                                                    25025661.082 7 105891772.55307       781.936 7        44.513
C02        57.000                                                                                                                                    40590796.687 5 211366977.59405      -447.994 5        33.970    40590791.059 6 163442347.40506      -346.440 6        39.568    40590794.305 5 171752985.36105      -363.847 5        35.452
I03        58.000   131404105.626 6 439872689.12706       952.843 6        40.079
R07        59.000    21460869.133 8 114881732.23708      2383.625 8        48.693                                                                    21460868.210 7  89352458.47307      1853.938 7        44.286
> 2025 01 01 02 30 55.0000000  0 55
G28         1.000    24402682.069 6 128236975.05806     -3111.828 6        39.261                                    24402679.414 3  99924896.41403     -2424.804 3        22.762    24402679.235 6  99924902.40606     -2424.850 6        38.820
G31         2.000    22440349.494 7 117924850.49807     -1770.238 7        45.324                                    22440344.899 6  91889482.36606     -1379.405 6        41.514    22440345.525 6  91889481.36706     -1379.421 6        41.211
G09         3.000    21140250.862 7 111092807.75707      1983.232 7        47.548                                    21140248.684 8  86565833.96808      1545.374 8        48.738    21140249.088 7  86565834.96907      1545.416 7        43.763
E34         4.000    25215908.951 7 132510506.43407      1751.912 7        44.182                                                                    25215908.921 7  98952659.02707      1308.270 7        47.523    25215908.619 8 101534032.02208      1342.418 8        48.068
S21         5.000    38413012.169 7 201861568.38007      -383.732 7        43.198
E05         6.000    23951437.897 7 125865691.65907      2016.329 7        43.587                                                                    23951438.284 7  93990641.26407      1505.652 7        46.895    23951437.876 7  96442563.35707      1544.975 7        47.809
E04         8.000    25460320.300 7 133794909.86107     -2667.146 7        42.806                                                                    25460318.874 7  99911788.00407     -1991.712 7        46.950    25460318.341 7 102518174.44007     -2043.658 7        47.451
R14         9.000    23613871.724 7 125875211.21207     -2316.935 7        42.229                                                                    23613875.302 6  97902925.08406     -1802.001 6        40.172
G04        10.000    20098941.767 8 105620695.94108       261.352 8        48.946                                    20098938.129 7  82301850.45307       203.650 7        42.059    20098938.182 8  82301845.45508       203.587 8        48.843
E09        11.000    23394447.116 8 122938698.44108      -385.113 8        48.070                                                                    23394446.202 8  91804889.62008      -287.564 8        50.782    23394445.816 8  94199798.98508      -295.119 8        51.226
S27        12.000    39043210.699 6 205173427.54506      -377.043 6        36.068
G06        13.000    22472932.756 7 118096087.66807      2312.874 7        43.998                                    22472931.608 7  92022930.00307      1802.238 7        42.656    22472932.302 7  92022940.99707      1802.172 7        42.576
S36        14.000    38180438.671 7 200640045.01507      -383.737 7        44.281
E21        15.000    28820711.176 4                       106.989 4        28.351                                                                    28820714.577 5 113098691.50905        79.981 5        34.810    28820713.769 5 116049087.40305        81.852 5        35.357
E36        16.000    23446400.442 7 123211693.71007      -986.510 7        47.913                                                                    23446400.743 8  92008749.31208      -736.672 8        50.867    23446400.307 8  94408972.30208      -755.837 8        51.120
S45        17.000    63374425.850 6 333035195.22506      -423.342 6        37.732
G03        18.000    20387685.025 8 107138064.75208     -1800.593 8        49.178                                    20387683.006 8  83484225.70008     -1403.059 8        50.846    20387683.483 7  83484234.70407     -1403.145 7        45.633
R21        19.000    19951745.805 8 106765856.14808     -2759.339 8        52.661                                                                    19951744.426 7  83040119.19907     -2146.165 7        46.369
R20        20.000    23326935.263 5 124739629.52205     -5001.417 5        32.479                                                                    23326937.903 6  97019705.33106     -3890.040 6        40.095
R05        21.000    22198845.679 7 118665591.62107     -3743.977 7        46.337                                                                    22198844.365 7  92295464.76607     -2911.896 7        42.334
I06        22.000    38046843.274 7 149304211.78507      -210.473 7        43.204
S28        23.000    40847097.783 5 214652948.98405      -377.954 5        34.352
E10        24.000    28429844.171 3                     -3526.761 3        19.970                                                                    28429843.825 3                     -2638.846 3        18.179    28429843.880 3                     -2700.979 3        19.761
S23        25.000    38126706.867 7 200357206.64707      -379.573 7        44.409
E06        26.000    23788552.969 7 125009751.84607     -1632.039 7        47.174                                                                    23788552.584 8  93351437.88608     -1218.695 8        50.253    23788552.499 8  95786691.25708     -1250.500 8        51.254
R15        27.000    22419969.115 7 119805532.08707       967.644 7        45.685                                                                    22419969.937 7  93182093.97107       752.561 7        42.392
G26        28.000    25239745.151 5 132635756.59405      1917.122 5        34.995                                    25239745.141 4 103352537.48304      1493.854 4        26.156    25239746.006 5 103352538.49605      1493.555 5        34.743
C22        30.000                                                                                                                                    25460511.243 7 132579572.95007      2364.165 7        42.995                                                                    25460505.183 6 107731746.75506      1921.282 6        41.959
I01        31.000   334655941.264 7  10120986.80307     -2625.757 7        42.931
G02        32.000    23595285.831 7 123994095.04207     -3701.088 7        42.174                                    23595279.425 4  96618768.88904     -2883.967 4        28.133
G19        33.000    22453121.385 7 117991979.39107     -1558.583 7        43.441                                    22453115.870 5  91941822.16205     -1214.474 5        31.140
G17        34.000    23402095.910 7 122978887.25507     -2800.064 7        42.840                                    23402091.557 6  95827712.68506     -2181.867 6        37.274    23402091.624 6  95827712.69206     -2181.859 6        37.822
E11        35.000    25769043.925 6 135417300.45206     -3176.007 6        38.949                                                                    25769040.528 7 101123324.71607     -2371.694 7        43.136    25769040.133 7 103761317.28407     -2433.590 7        43.410
C32        36.000                                                                                                                                    26951827.359 6 140345252.69606     -3236.521 6        39.544                                                                    26951827.696 6 114042022.23206     -2629.855 6        38.793
C35        37.000                                                                                                                                    22983440.387 8 119680821.52708      -944.294 8        48.076                                                                    22983438.749 7  97250470.29407      -767.284 7        47.319
I09        38.000    37313962.589 7 146428000.90307      -512.594 7        42.828
C29        39.000                                                                                                                                    24431454.920 7 127220984.24507     -3596.774 7        44.241                                                                    24431452.043 7 103377462.83807     -2922.735 7        44.266
R22        40.000    20647134.156 8 110215837.89408      1834.005 8        50.871                                                                    20647132.188 7  85723444.61607      1426.348 7        47.233
S44        42.000    40642771.981 6 213579402.34506      -461.469 6        37.376
C09        43.000                                                                                                                                    38465158.895 7 200298200.95807      -154.864 7        42.470    38465155.609 7 154883265.84407      -119.758 7        46.531    38465153.567 7 162758676.60607      -125.864 7        42.286
C05        44.000                                                                                                                                    39107483.913 6 203642963.32306      -403.231 6        38.532    39107479.318 7 157469680.04207      -311.927 7        43.310    39107481.070 6 165476691.20006      -327.872 6        40.246
R06        45.000    19387949.428 6 103457869.62506      -329.224 6        41.821
C44        46.000                                                                                                                                    24786912.332 7 129071990.16107      1601.246 7        42.561                                                                    24786910.642 7 104881568.58007      1301.172 7        42.927
C39        47.000                                                                                                                                    39244318.091 7 204355474.51007     -1151.070 7        42.739                                                                    39244314.272 7 166055551.72707      -935.310 7        42.303
C20        48.000                                                                                                                                    22570667.217 8 117531434.61508     -1957.060 8        50.923                                                                    22570661.587 8  95503909.98608     -1590.180 8        49.854
C06        49.000                                                                                                                                    38283749.614 6 199353555.63506      -665.805 6        41.073    38283744.165 7 154152798.47107      -514.820 7        44.823    38283743.986 6 161991073.08706      -540.904 6        41.731
C16        50.000                                                                                                                                    38792286.092 7 202001631.76907      -758.546 7        42.322    38792285.366 7 156200484.47507      -586.670 7        43.052    38792283.401 6 164142871.21306      -616.308 6        39.501
S48        51.000    77160953.531 6 405484817.52306      -377.518 6        38.201
C19        52.000                                                                                                                                    22181911.283 8 115507093.72808       594.342 8        50.721                                                                    22181906.249 8  93858978.75608       483.041 8        49.652
C60        54.000                                                                                                                                    40642773.660 6 211637790.81306      -457.254 6        38.889                                                                    40642758.346 6 171973009.66906      -371.572 6        39.210
R16        55.000    23592195.978 7 126025275.76107      3436.771 7        43.570                                                                    23592196.604 6  98019675.00506      2672.983 6        41.349
C37        56.000                                                                                                                                    25024734.601 7 130310371.29607       959.825 7        42.978                                                                    25024738.398 7 105887868.15507       779.955 7        44.686
C02        57.000                                                                                                                                    40591227.371 5 211369216.94705      -447.719 5        34.433    40591220.482 6 163444079.02706      -346.207 6        39.517    40591224.135 5 171754805.05405      -363.846 5        35.476
I03        58.000   131402891.709 6 439867924.93006       952.779 6        40.215
R07        59.000    21458643.373 8 114869817.81308      2382.076 8        49.086                                                                    21458642.773 7  89343191.72107      1852.756 7        44.286
> 2025 01 01 02 31  0.0000000  0 55
G28         1.000    24405643.769 6 128252539.29006     -3114.022 6        39.180                                    24405640.997 3  99937024.37803     -2426.519 3        22.343    24405640.885 6  99937030.37206     -2426.482 6        39.198
G31         2.000    22442035.577 7 117933710.38507     -1773.823 7        45.639                                    22442030.915 6  91896386.17806     -1382.200 6        41.371    22442031.151 6  91896385.18106     -1382.254 6        41.356
G09         3.000    21138364.839 7 111082896.61307      1981.078 7        47.401                                    21138362.621 8  86558110.99908      1543.693 8        48.674    21138363.146 7  86558112.00507      1543.713 7        43.973
E34         4.000    25214242.603 7 132501750.10607      1750.514 7        44.421                                                                    25214242.639 7  98946120.21807      1307.105 7        47.461    25214242.416 7 101527322.63307      1341.253 7        47.993
S21         5.000    38413377.179 7 201863486.62607      -383.677 7        43.003
E05         6.000    23949520.135 7 125855613.11307      2015.012 7        43.655                                                                    23949520.322 7  93983115.08607      1504.729 7        46.980    23949519.948 7  96434840.84907      1543.943 7        47.674
G21         7.000    25382599.502 3                     -3736.632 3        20.024
E04         8.000    25462858.553 7 133808247.61307     -2668.137 7        42.863                                                                    25462856.917 7  99921748.01307     -1992.382 7        46.903    25462856.474 7 102528394.28007     -2044.328 7        47.309
R14         9.000    23616047.417 7 125886805.17807     -2320.784 7        43.147                                                                    23616050.007 6  97911942.60806     -1805.063 6        39.946
G04        10.000    20098694.198 8 105619395.93808       258.553 8        48.959                                    20098690.732 6  82300837.46506       201.467 6        41.959    20098690.830 8  82300832.46808       201.451 8        49.015
E09        11.000    23394814.298 7 122940628.49807      -387.118 7        47.955                                                                    23394813.488 8  91806330.89308      -289.024 8        50.780    23394813.073 8  94201277.85908      -296.582 8        51.116
S27        12.000    39043568.791 6 205175312.23506      -376.634 6        36.034
G06        13.000    22470733.094 7 118084528.32707      2310.762 7        43.822                                    22470731.932 7  92013922.72607      1800.594 7        42.586    22470732.711 7  92013933.72907      1800.623 7        42.610
S36        14.000    38180801.798 7 200641963.89007      -383.849 7        44.321
E21        15.000    28820610.484 4                       104.068 4        29.204                                                                    28820613.870 5 113098296.93305        77.815 5        35.090    28820613.048 5 116048682.53405        79.650 5        35.857
E36        16.000    23447340.042 7 123216631.71707      -988.826 7        47.938                                                                    23447340.439 8  92012436.78808      -738.440 8        50.935    23447339.958 8  94412755.96908      -757.632 8        51.028
S45        17.000    63374787.636 6 333037311.65106      -423.436 6        37.928
G03        18.000    20389399.179 8 107147072.76908     -1802.635 8        49.088                                    20389397.167 8  83491244.93608     -1404.654 8        50.803    20389397.682 7  83491253.94307     -1404.689 7        45.776
R21        19.000    19954326.013 8 106779663.31508     -2763.518 8        52.149                                                                    19954324.295 7  83050858.10707     -2149.412 7        46.084
R20        20.000    23331612.501 5 124764638.71405     -5002.530 5        32.245                                                                    23331614.775 6  97039156.88606     -3890.712 6        39.727
R05        21.000    22202347.384 7 118684312.71807     -3744.671 7        45.713                                                                    22202346.886 7  92310025.64007     -2912.551 7        42.360
I06        22.000    38047111.431 7 149305264.41907      -210.650 7        43.200
S28        23.000    40847455.074 5 214654838.96305      -378.053 5        34.352
S23        25.000    38127068.979 7 200359104.56907      -379.677 7        44.448
E06        26.000    23790106.494 7 125017915.63207     -1633.595 7        46.998                                                                    23790106.059 8  93357534.22008     -1219.937 8        50.242    23790105.994 8  95792946.62308     -1251.743 8        51.092
R15        27.000    22419065.418 7 119800703.80807       963.467 7        45.694                                                                    22419065.711 6  93178338.63206       749.426 6        41.523
G26        28.000    25237921.920 5 132626174.57005      1915.357 5        35.319                                    25237921.671 4 103345070.98504      1492.486 4        26.335    25237922.345 5 103345071.96105      1492.749 5        35.181
C22        30.000                                                                                                                                    25458241.226 7 132567753.10807      2363.595 7        42.967                                                                    25458235.209 7 107722142.17707      1920.579 7        42.106
I01        31.000   334659287.069 7  10134115.70007     -2625.914 7        42.872
G02        32.000    23598808.143 7 124012602.81207     -3702.145 7        42.713                                    23598801.346 4  96633190.53004     -2884.789 4        28.692
G19        33.000    22454606.594 7 117999780.50707     -1561.947 7        44.024                                    22454600.354 5  91947900.95005     -1217.104 5        31.208
G17        34.000    23404760.845 7 122992891.32207     -2801.812 7        42.817                                    23404756.313 6  95838624.94306     -2183.228 6        37.244    23404757.004 6  95838624.94906     -2183.220 6        39.207
E11        35.000    25772066.331 6 135433183.66806     -3177.263 6        38.958                                                                    25772063.137 7 101135185.55507     -2372.653 7        43.115    25772062.708 7 103773487.53307     -2434.531 7        43.077
C32        36.000                                                                                                                                    26954934.755 6 140361434.86106     -3236.619 6        39.739                                                                    26954935.321 6 114055171.54706     -2629.959 6        38.778
C35        37.000                                                                                                                                    22984348.452 8 119685550.25808      -947.338 8        48.292                                                                    22984346.933 7  97254312.76507      -769.736 7        47.551
I09        38.000    37314616.335 7 146430564.62707      -512.947 7        42.734
C29        39.000                                                                                                                                    24434908.545 7 127238970.85507     -3597.963 7        43.928                                                                    24434906.660 7 103392078.40307     -2923.581 7        44.554
R22        40.000    20645418.323 8 110206677.60908      1830.036 8        51.224                                                                    20645416.094 7  85716319.94707      1423.355 7        47.548
S44        42.000    40643208.787 6 213581710.11806      -461.815 6        37.467
C09        43.000                                                                                                                                    38465307.965 7 200298977.50707      -155.833 7        42.586    38465304.608 7 154883866.33307      -120.576 7        46.312    38465302.657 7 162759307.60407      -126.641 7        42.320
C05        44.000                                                                                                                                    39107871.061 6 203644980.56006      -403.572 6        38.535    39107866.516 7 157471239.89107      -312.102 7        42.897    39107868.568 6 165478330.34506      -327.857 6        40.338
R06        45.000    19388259.463 6 103459522.10406      -331.883 6        41.275
C44        46.000                                                                                                                                    24785375.957 7 129063989.53407      1598.936 7        42.747                                                                    24785374.176 7 104875067.42007      1299.245 7        42.891
C39        47.000                                                                                                                                    39245423.825 7 204361231.59407     -1151.747 7        42.870                                                                    39245419.886 7 166060229.82807      -936.056 7        42.425
C20        48.000                                                                                                                                    22572547.108 8 117541222.61408     -1958.271 8        50.970                                                                    22572541.289 8  95511863.53108     -1591.258 8        50.006
C06        49.000                                                                                                                                    38284389.834 6 199356886.63406      -666.795 6        41.092    38284383.711 7 154155374.21807      -515.506 7        44.819    38284383.691 6 161993779.79506      -541.825 6        41.812
C16        50.000                                                                                                                                    38793014.517 7 202005426.98707      -759.585 7        42.400    38793014.289 7 156203419.17107      -587.355 7        42.916    38793012.143 6 164145955.12906      -617.196 6        39.541
S48        51.000    77161310.501 6 405486704.89106      -377.714 6        37.698
C19        52.000                                                                                                                                    22181341.238 8 115504125.62908       592.747 8        50.684                                                                    22181336.305 8  93856566.92908       481.656 8        49.867
C60        54.000                                                                                                                                    40643213.377 6 211640077.60106      -457.545 6        38.832                                                                    40643197.581 6 171974867.86706      -371.783 6        39.405
R16        55.000    23588979.095 7 126008094.57607      3435.750 7        43.606                                                                    23588980.538 6  98006311.88106      2672.051 6        41.669
C37        56.000                                                                                                                                    25023814.638 7 130305578.10107       957.255 7        43.261                                                                    25023817.947 7 105883973.29107       777.946 7        44.841
C02        57.000                                                                                                                                    40591657.215 5 211371456.45205      -447.970 5        34.200    40591650.961 6 163445810.77806      -346.451 6        39.577    40591654.582 5 171756624.84905      -364.274 5        35.910
I03        58.000   131401677.554 6 439863160.91406       952.644 6        40.122
R07        59.000    21456419.961 8 114857911.58808      2380.306 8        48.895                                                                    21456417.887 7  89333931.31407      1851.415 7        44.035
> 2025 01 01 02 31  5.0000000  0 55
G28         1.000    24408607.627 6 128268113.85906     -3115.935 6        38.961                                    24408604.793 3  99949160.40303     -2428.020 3        22.400    24408604.617 6  99949166.40206     -2427.969 6        39.384
G31         2.000    22443724.710 7 117942586.98107     -1776.959 7        45.249                                    22443720.080 6  91903303.00706     -1384.644 6        41.430    22443720.470 6  91903302.01306     -1384.654 6        40.963
G09         3.000    21136480.788 7 111072995.43207      1979.191 7        47.605                                    21136478.458 8  86550395.80008      1542.226 8        48.929    21136478.634 7  86550396.79307      1542.258 7        43.589
E34         4.000    25212577.812 7 132493000.34207      1749.266 7        44.400                                                                    25212577.593 7  98939586.29507      1306.315 7        47.304    25212577.339 7 101520618.26607      1340.397 7        47.962
S21         5.000    38413738.665 7 201865404.46707      -383.517 7        43.120
E05         6.000    23947603.231 7 125845539.95707      2014.208 7        43.901                                                                    23947603.477 7  93975592.94007      1504.033 7        46.785    23947603.026 7  96427122.47207      1543.266 7        47.647
E04         8.000    25465397.483 7 133821589.24907     -2668.732 7        43.162                                                                    25465395.702 7  99931710.92107     -1992.820 7        46.715    25465395.374 7 102538617.09707     -2044.906 7        47.166
R14         9.000    23618226.888 7 125898417.26507     -2324.154 7        43.314                                                                    23618228.691 6  97920974.17506     -1807.598 6        39.751
G04        10.000    20098449.179 8 105618109.00308       256.055 8        48.930                                    20098445.830 7  82299834.66207       199.524 7        42.190    20098445.980 8  82299829.66408       199.541 8        49.028
E09        11.000    23395183.143 8 122942567.40808      -388.710 8        48.107                                                                    23395182.409 8  91807778.79208      -290.259 8        50.681    23395182.048 8  94202763.52208      -297.837 8        51.071
S27        12.000    39043926.444 6 205177196.96506      -376.680 6        36.386
G06        13.000    22468535.295 7 118072978.45207      2309.062 7        43.448                                    22468534.036 7  92004922.83207      1799.269 7        42.842    22468534.764 7  92004933.83907      1799.251 7        42.745
S36        14.000    38181166.669 7 200643882.65507      -383.624 7        44.470
E21        15.000    28820512.077 4                       102.384 4        29.261                                                                    28820515.363 5 113097910.94505        76.381 5        35.043    28820514.385 5 116048286.43505        78.463 5        35.414
E36        16.000    23448281.820 7 123221580.43307      -990.844 7        47.961                                                                    23448282.130 8  92016132.26008      -739.925 8        50.817    23448281.717 8  94416547.85408      -759.226 8        50.972
S45        17.000    63375146.077 6 333039427.95306      -423.386 6        38.036
G03        18.000    20391114.797 8 107156089.97308     -1804.341 8        48.912                                    20391113.076 8  83498271.32808     -1405.980 8        51.019    20391113.703 7  83498280.32807     -1406.040 7        45.359
R21        19.000    19956909.443 8 106793490.08608     -2767.337 8        52.059                                                                    19956908.796 7  83061612.26207     -2152.403 7        46.135
R20        20.000    23336288.510 5 124789650.82805     -5002.781 5        32.653                                                                    23336292.541 6  97058610.75406     -3890.984 6        39.832
R05        21.000    22205849.717 7 118703036.03807     -3744.893 7        46.310                                                                    22205850.378 7  92324588.23307     -2912.774 7        42.667
I06        22.000    38047379.290 7 149306317.00907      -210.478 7        43.054
S28        23.000    40847815.174 5 214656728.81705      -378.298 5        34.467
E10        24.000    28436551.905 3                     -3526.681 3        18.896
S23        25.000    38127427.657 7 200361002.29307      -379.493 7        44.318
E06        26.000    23791661.297 7 125026086.67907     -1634.909 7        47.316                                                                    23791660.975 8  93363635.97408     -1220.843 8        50.165    23791660.918 8  95799207.55708     -1252.712 8        51.069
R15        27.000    22418166.258 7 119795895.14507       959.741 7        46.042                                                                    22418166.260 6  93174598.55206       746.516 6        41.897
G26        28.000    25236099.808 5 132616599.65005      1914.122 5        35.295                                    25236099.623 4 103337610.01204      1491.522 4        26.695    25236099.361 5 103337611.00505      1491.856 5        34.938
C22        30.000                                                                                                                                    25455971.357 7 132555935.54907      2363.277 7        42.836                                                                    25455965.883 6 107712539.43606      1920.374 6        41.952
I01        31.000   334662632.511 7  10147244.99307     -2625.896 7        42.918
G02        32.000    23602331.175 7 124031115.36907     -3703.055 7        42.834                                    23602324.430 4  96647615.89004     -2885.500 4        29.479
G19        33.000    22456094.015 7 118007597.50307     -1564.994 7        43.898                                    22456087.911 5  91953992.11305     -1219.474 5        31.434
G17        34.000    23407427.011 7 123006903.25007     -2803.026 7        42.559                                    23407422.644 6  95849543.32706     -2184.174 6        37.338    23407423.047 6  95849543.33806     -2184.272 6        38.550
E11        35.000    25775090.343 6 135449072.11806     -3178.181 6        39.339                                                                    25775086.683 7 101147050.30307     -2373.223 7        43.149    25775086.041 7 103785661.80107     -2435.302 7        42.787
C32        36.000                                                                                                                                    26958042.335 6 140377616.37506     -3236.170 6        39.550                                                                    26958042.433 6 114068320.35906     -2629.804 6        38.802
C35        37.000                                                                                                                                    22985259.075 8 119690292.93008      -949.944 8        48.395                                                                    22985257.680 7  97258166.57407      -771.942 7        47.426
I09        38.000    37315269.803 7 146433128.82407      -512.880 7        42.813
C29        39.000                                                                                                                                    24438362.878 7 127256961.57907     -3598.616 7        44.266                                                                    24438361.812 7 103406697.34307     -2924.271 7        44.731
R22        40.000    20643705.730 8 110197535.88008      1826.429 8        51.055                                                                    20643703.792 7  85709209.72007      1420.503 7        47.646
S44        42.000    40643648.061 6 213584017.66906      -461.620 6        37.626
C09        43.000                                                                                                                                    38465458.080 7 200299757.81907      -156.410 7        42.580    38465454.281 7 154884469.72007      -120.993 7        46.390    38465452.518 7 162759941.65907      -127.066 7        42.309
C05        44.000                                                                                                                                    39108258.000 6 203646997.65806      -403.607 6        38.501    39108254.111 7 157472799.64107      -311.977 7        43.168    39108255.967 6 165479969.39406      -327.746 6        40.153
R06        45.000    19388571.317 6 103461186.75406      -334.186 6        41.139
C44        46.000                                                                                                                                    24783841.136 7 129055999.74307      1596.810 7        42.792                                                                    24783839.717 7 104868575.05207      1297.499 7        42.971
C39        47.000                                                                                                                                    39246529.979 7 204366991.49807     -1152.111 7        42.923                                                                    39246525.996 7 166064910.21007      -936.310 7        42.413
C20        48.000                                                                                                                                    22574427.624 8 117551016.20108     -1959.290 8        50.760                                                                    22574422.035 8  95519821.61008     -1592.113 8        50.014
C06        49.000                                                                                                                                    38285030.143 6 199360221.28706      -667.478 6        41.006    38285024.151 7 154157952.77907      -516.041 7        44.790    38285024.001 6 161996489.46006      -542.273 6        41.990
C16        50.000                                                                                                                                    38793744.026 7 202009225.59607      -760.085 7        42.250    38793743.921 7 156206356.49707      -587.708 7        42.963    38793741.526 6 164149041.80006      -617.633 6        39.565
S48        51.000    77161666.759 6 405488592.25406      -377.423 6        37.856
C19        52.000                                                                                                                                    22180772.412 8 115501164.72308       591.423 8        50.777                                                                    22180767.664 8  93854160.94008       480.565 8        49.802
C60        54.000                                                                                                                                    40643651.994 6 211642364.16706      -457.075 6        38.958                                                                    40643636.765 6 171976725.87606      -371.555 6        39.228
R16        55.000    23585763.771 7 125990918.19407      3434.746 7        43.913                                                                    23585764.948 6  97992952.47206      2671.482 6        41.187
C37        56.000                                                                                                                                    25022896.688 7 130300796.39107       955.232 7        43.522                                                                    25022899.711 7 105880087.76107       776.112 7        44.755
C02        57.000                                                                                                                                    40592088.274 5 211373695.89405      -448.090 5        34.233    40592081.167 6 163447542.42706      -346.394 6        39.459    40592084.377 5 171758444.54105      -364.019 5        35.829
I03        58.000   131400463.567 6 439858396.90506       952.868 6        39.997
R07        59.000    21454196.978 8 114846013.29508      2378.833 8        49.045                                                                    21454195.848 7  89324677.10207      1850.127 7        44.072
> 2025 01 01 02 31 10.0000000  0 54
G28         1.000    24411573.681 6 128283698.81106     -3118.013 6        38.970                                    24411570.511 3  99961304.51303     -2429.637 3        22.000    24411570.736 6  99961310.50506     -2429.534 6        39.168
G31         2.000    22445416.959 7 117951480.29707     -1780.381 7        45.150                                    22445412.405 6  91910232.86606     -1387.310 6        41.340    22445413.437 6  91910231.85806     -1387.298 6        41.125
G09         3.000    21134598.515 7 111063104.22007      1977.312 7        47.616                                    21134596.218 8  86542688.36208      1540.762 8        48.818    21134596.573 7  86542689.36207      1540.811 7        44.027
E34         4.000    25210913.838 7 132484257.14307      1747.942 7        44.349                                                                    25210913.783 7  98933057.27907      1305.334 7        47.358    25210913.599 8 101513918.93108      1339.344 8        48.009
S21         5.000    38414103.285 7 201867321.99907      -383.408 7        42.900
E05         6.000    23945687.249 7 125835472.24307      2012.974 7        44.032                                                                    23945687.748 7  93968074.83407      1503.239 7        46.886    23945687.180 7  96419408.23807      1542.439 7        47.584
E04         8.000    25467937.150 7 133834934.77707     -2669.472 7        43.081                                                                    25467935.318 7  99941676.75507     -1993.484 7        46.812    25467934.970 7 102548842.90307     -2045.538 7        47.347
R14         9.000    23620407.898 6 125910047.46706     -2327.781 6        41.838                                                                    23620410.467 6  97930019.82806     -1810.703 6        39.550
G04        10.000    20098206.879 8 105616835.14208       253.491 8        49.170                                    20098203.423 7  82298842.04607       197.526 7        42.078    20098203.704 8  82298837.04508       197.541 8        48.715
E09        11.000    23395553.941 7 122944515.19207      -390.423 7        47.857                                                                    23395553.058 8  91809233.30508      -291.542 8        50.704    23395552.694 8  94204255.98408      -299.165 8        51.106
S27        12.000    39044286.034 6 205179081.54506      -377.034 6        36.231
G06        13.000    22466339.619 7 118061438.12407      2307.100 7        43.718                                    22466337.986 7  91995930.36807      1797.741 7        42.739    22466338.738 7  91995941.36807      1797.813 7        42.552
S36        14.000    38181530.592 7 200645801.43407      -383.904 7        44.298
E21        15.000    28820415.803 4                        99.867 4        29.441                                                                    28820418.815 5 113097533.30505        74.512 5        34.929    28820418.052 5 116047898.89405        76.760 5        35.686
E36        16.000    23449225.566 8 123226539.89008      -993.006 8        48.064                                                                    23449225.877 8  92019835.74608      -741.548 8        50.846    23449225.442 8  94420347.95008      -760.856 8        50.995
S45        17.000    63375506.324 6 333041544.10806      -423.303 6        37.921
G03        18.000    20392832.704 8 107165116.38908     -1806.186 8        49.184                                    20392830.743 8  83505304.90108     -1407.415 8        50.883    20392831.324 7  83505313.89307     -1407.369 7        45.255
R21        19.000    19959497.633 8 106807336.76008     -2771.252 8        52.288                                                                    19959496.128 7  83072381.89307     -2155.439 7        46.337
R20        20.000    23340967.298 5 124814665.95505     -5003.161 5        33.090                                                                    23340970.240 6  97078066.97006     -3891.388 6        39.979
R05        21.000    22209353.662 7 118721761.35907     -3745.303 7        46.257                                                                    22209353.205 7  92339152.36207     -2913.053 7        43.215
I06        22.000    38047647.719 7 149307369.61607      -210.512 7        43.181
S28        23.000    40848174.657 5 214658618.33905      -377.606 5        35.014
S23        25.000    38127790.838 7 200362899.85907      -379.534 7        44.429
E06        26.000    23793217.903 7 125034264.99207     -1636.322 7        47.105                                                                    23793217.287 8  93369743.15808     -1222.001 8        50.144    23793217.221 8  95805474.05608     -1253.855 8        51.122
R15        27.000    22417270.212 7 119791106.11307       955.829 7        46.017                                                                    22417270.093 6  93170873.76006       743.532 6        41.883
G26        28.000    25234279.532 5 132607031.85405      1912.790 5        35.257                                    25234278.855 4 103330154.59304      1490.484 4        26.431    25234279.745 5 103330155.61405      1490.548 5        34.743
C22        30.000                                                                                                                                    25453702.406 7 132544120.27707      2362.882 7        43.137                                                                    25453696.888 7 107702938.57507      1919.959 7        42.013
I01        31.000   334665978.735 7  10160374.66707     -2626.045 7        42.830
G02        32.000    23605854.334 7 124049632.69507     -3703.944 7        43.132                                    23605848.426 4  96662044.97304     -2886.188 4        29.706
G19        33.000    22457584.211 7 118015430.38007     -1568.181 7        44.418                                    22457578.495 5  91960095.65205     -1221.957 5        31.336
G17        34.000    23410094.670 7 123020922.96707     -2804.618 7        43.213                                    23410090.512 6  95860467.77106     -2185.416 6        37.316    23410090.644 6  95860467.78106     -2185.480 6        38.787
E11        35.000    25778114.446 6 135464965.81706     -3179.323 6        39.108                                                                    25778111.186 7 101158918.97707     -2374.183 7        43.181    25778110.627 7 103797840.07507     -2436.001 7        42.874
C32        36.000                                                                                                                                    26961149.959 6 140393797.24406     -3236.089 6        39.718                                                                    26961149.907 6 114081468.64006     -2629.643 6        38.664
C35        37.000                                                                                                                                    22986172.554 8 119695049.56008      -952.737 8        48.435                                                                    22986171.134 7  97262031.72907      -774.260 7        47.319
I09        38.000    37315923.513 7 146435693.52707      -513.034 7        42.988
C29        39.000                                                                                                                                    24441819.059 7 127274956.45707     -3599.272 7        44.676                                                                    24441817.443 7 103421319.64807     -2924.759 7        44.754
R22        40.000    20641996.153 8 110188412.78608      1822.811 8        50.799                                                                    20641994.311 7  85702113.98007      1417.788 7        47.340
S44        42.000    40644087.523 6 213586325.05506      -461.444 6        37.565
C09        43.000                                                                                                                                    38465608.934 7 200300541.94807      -157.224 7        42.578    38465604.877 7 154885076.05507      -121.626 7        46.403    38465603.097 7 162760578.84407      -127.817 7        42.345
C05        44.000                                                                                                                                    39108645.403 6 203649014.69706      -403.427 6        38.619    39108641.103 7 157474359.34307      -311.894 7        43.056    39108643.080 6 165481608.40806      -327.699 6        40.021
R06        45.000    19388885.096 6 103462863.57806      -336.530 6        41.056
C44        46.000                                                                                                                                    24782308.900 7 129048020.77807      1594.751 7        42.692                                                                    24782307.549 7 104862091.50507      1295.847 7        43.003
C39        47.000                                                                                                                                    39247636.652 7 204372754.28907     -1152.816 7        42.739                                                                    39247632.755 7 166069592.94107      -936.815 7        42.174
C20        48.000                                                                                                                                    22576309.409 8 117560815.38808     -1960.388 8        50.803                                                                    22576303.842 8  95527784.25508     -1592.979 8        49.875
C06        49.000                                                                                                                                    38285671.303 6 199363559.59706      -667.994 6        41.018    38285665.374 7 154160534.18907      -516.572 7        44.837    38285665.051 6 161999202.11706      -542.759 6        41.914
C16        50.000                                                                                                                                    38794474.152 7 202013027.64307      -760.713 7        42.074    38794474.219 7 156209296.48607      -588.199 7        42.997    38794471.675 6 164152131.26806      -618.223 6        39.498
S48        51.000    77162028.701 6 405490479.19506      -377.263 6        37.535
C19        52.000                                                                                                                                    22180205.324 8 115498211.01708       590.031 8        50.770                                                                    22180200.390 8  93851760.81608       479.419 8        49.784
C60        54.000                                                                                                                                    40644091.206 6 211644650.59206      -457.232 6        38.841                                                                    40644075.888 6 171978583.78306      -371.625 6        39.411
R16        55.000    23582548.980 7 125973746.55107      3433.795 7        43.450                                                                    23582550.784 6  97979596.74606      2670.749 6        40.839
C37        56.000                                                                                                                                    25021980.647 7 130296026.20007       952.939 7        43.689                                                                    25021983.690 7 105876211.59507       774.186 7        44.808
C02        57.000                                                                                                                                    40592517.997 5 211375935.20905      -448.029 5        34.257    40592511.229 6 163449274.00806      -346.459 6        39.408    40592514.610 5 171760264.14905      -363.757 5        35.967
I03        58.000   131399249.699 6 439853632.91506       952.648 6        40.098
R07        59.000    21451975.702 8 114834122.79108      2377.335 8        49.122                                                                    21451974.709 7  89315428.91807      1849.072 7        43.534
> 2025 01 01 02 31 15.0000000  0 55
G28         1.000    24414541.646 6 128299293.67206     -3119.878 6        39.784                                    24414538.019 3  99973456.34203     -2431.069 3        22.114    24414537.960 6  99973462.33606     -2431.031 6        38.604
G31         2.000    22447112.471 7 117960389.87407     -1783.540 7        45.007                                    22447107.839 6  91917175.38906     -1389.774 6        41.375    22447108.519 6  91917174.38106     -1389.698 6        40.722
G09         3.000    21132718.034 7 111053222.56107      1975.417 7        47.941                                    21132715.807 8  86534988.37408      1539.287 8        48.868    21132716.261 7  86534989.37507      1539.338 7        44.211
E34         4.000    25209251.143 7 132475520.09007      1746.839 7        44.367                                                                    25209251.234 7  98926532.86207      1304.449 7        47.266    25209251.014 7 101507224.30607      1338.519 7        47.857
S21         5.000    38414469.587 7 201869238.88807      -383.280 7        43.050
E05         6.000    23943772.102 7 125825409.50007      2012.146 7        43.826                                                                    23943772.842 7  93960560.45307      1502.524 7        46.800    23943772.226 7  96411697.82607      1541.758 7        47.442
E04         8.000    25470477.326 7 133848283.78907     -2670.010 7        43.185                                                                    25470475.555 7  99951645.16907     -1993.852 7        46.705    25470475.164 7 102559071.35707     -2045.895 7        47.211
R14         9.000    23622592.825 7 125921695.38707     -2331.418 7        42.870                                                                    23622595.409 6  97939079.29706     -1813.346 6        40.110
G04        10.000    20097967.040 8 105615573.93108       251.046 8        49.257                                    20097963.427 7  82297859.28507       195.621 7        42.163    20097963.622 8  82297854.28108       195.626 8        48.597
E09        11.000    23395926.322 8 122946471.41208      -392.083 8        48.039                                                                    23395925.346 8  91810694.11808      -292.758 8        50.594    23395924.933 8  94205754.90208      -300.411 8        51.000
S27        12.000    39044643.161 6 205180965.55206      -376.544 6        36.132
G06        13.000    22464144.690 7 118049906.88407      2305.304 7        43.475                                    22464143.676 7  91986944.99307      1796.343 7        42.823    22464144.414 7  91986955.98807      1796.448 7        42.870
S36        14.000    38181896.259 7 200647719.50807      -383.219 7        44.444
E21        15.000    28820321.944 5                        97.741 5        30.536                                                                    28820324.205 5 113097163.73805        73.073 5        34.771    28820323.839 5 116047519.69305        74.843 5        35.729
E36        16.000    23450171.437 8 123231509.63608      -994.920 8        48.192                                                                    23450171.550 8  92023546.92008      -742.956 8        50.787    23450171.141 8  94424155.94108      -762.371 8        50.899
S45        17.000    63375869.312 6 333043659.62606      -422.930 6        37.898
G03        18.000    20394552.126 8 107174151.58908     -1807.878 8        49.273                                    20394550.082 8  83512345.31208     -1408.737 8        50.965    20394550.829 7  83512354.31507     -1408.740 7        45.475
R21        19.000    19962088.852 8 106821202.67808     -2775.055 8        52.544                                                                    19962087.377 7  83083166.48507     -2158.380 7        46.586
R20        20.000    23345647.387 5 124839683.80605     -5003.671 5        33.048                                                                    23345648.852 6  97097525.26406     -3891.939 6        40.060
R05        21.000    22212856.488 7 118740488.43107     -3745.488 7        46.086                                                                    22212856.261 7  92353717.86407     -2913.203 7        42.927
I06        22.000    38047916.129 7 149308421.88407      -210.411 7        43.270
S28        23.000    40848538.307 5 214660507.67005      -377.602 5        34.171
E10        24.000                                                                                                                                    28443264.774 3                     -2630.792 3        18.896
S23        25.000    38128149.578 7 200364796.95707      -379.369 7        44.459
E06        26.000    23794775.484 7 125042450.13107     -1637.653 7        47.262                                                                    23794774.846 8  93375855.43608     -1222.953 8        50.060    23794774.789 8  95811745.78308     -1254.807 8        50.969
R15        27.000    22416377.466 7 119786336.20807       952.122 7        46.317                                                                    22416376.928 7  93167163.84507       740.560 7        42.529
G26        28.000    25232460.008 5 132597470.78505      1911.710 5        35.462                                    25232459.530 4 103322704.42404      1489.641 4        26.299    25232459.996 5 103322705.43205      1489.653 5        34.467
C22        30.000                                                                                                                                    25451434.364 7 132532306.88207      2362.611 7        43.285                                                                    25451428.138 6 107693339.23106      1919.714 6        41.897
I01        31.000   334669324.455 7  10173504.53907     -2625.967 7        42.703
G02        32.000    23609379.264 7 124068154.37207     -3704.679 7        43.249                                    23609373.205 4  96676477.43904     -2886.760 4        29.820
G19        33.000    22459078.118 7 118023278.74107     -1571.147 7        44.099                                    22459072.129 5  91966211.25305     -1224.272 5        31.389
G17        34.000    23412764.117 7 123034950.17507     -2806.198 7        43.014                                    23412759.869 6  95871398.05906     -2186.649 6        37.448    23412760.130 6  95871398.07806     -2186.759 6        38.234
E11        35.000    25781139.365 6 135480864.34006     -3180.100 6        39.336                                                                    25781136.399 7 101170791.24607     -2374.783 7        42.925    25781136.101 7 103810022.06607     -2436.679 7        42.827
C32        36.000                                                                                                                                    26964256.960 6 140409977.06406     -3235.881 6        39.559                                                                    26964257.338 6 114094616.05906     -2629.329 6        39.054
C35        37.000                                                                                                                                    22987088.551 8 119699819.72508      -955.313 8        48.332                                                                    22987087.292 7  97265907.87607      -776.298 7        47.272
I09        38.000    37316576.712 7 146438258.40607      -513.006 7        43.037
C29        39.000                                                                                                                                    24445275.584 7 127292955.04007     -3600.096 7        44.694                                                                    24445273.598 7 103435944.98407     -2925.318 7        44.587
R22        40.000    20640290.544 8 110179307.86408      1819.220 8        51.104                                                                    20640288.799 7  85695032.37207      1414.939 7        47.009
S44        42.000    40644528.514 6 213588631.82906      -461.188 6        38.003
C09        43.000                                                                                                                                    38465759.724 7 200301329.43807      -157.801 7        42.502    38465756.211 7 154885684.99607      -122.043 7        46.328    38465754.295 7 162761218.73907      -128.196 7        42.275
C05        44.000                                                                                                                                    39109033.191 6 203651031.21706      -403.242 6        38.556    39109028.494 7 157475918.63507      -311.706 7        42.836    39109030.425 6 165483247.01206      -327.747 6        39.952
R06        45.000    19389202.277 6 103464552.17206      -338.695 6        41.290
C44        46.000                                                                                                                                    24780778.253 7 129040052.25207      1592.732 7        42.231                                                                    24780777.353 7 104855616.42107      1294.244 7        42.874
C39        47.000                                                                                                                                    39248743.861 7 204378519.47507     -1153.218 7        42.519                                                                    39248739.775 7 166074277.63007      -937.128 7        42.353
C20        48.000                                                                                                                                    22578192.447 8 117570619.73508     -1961.338 8        50.764                                                                    22578186.676 8  95535751.09208     -1593.746 8        49.944
C06        49.000                                                                                                                                    38286312.752 6 199366901.18606      -668.722 6        41.170    38286307.022 7 154163118.10007      -517.027 7        44.769    38286306.764 6 162001917.43506      -543.380 6        41.828
C16        50.000                                                                                                                                    38795204.779 6 202016832.69006      -761.228 6        41.955    38795205.009 7 156212238.79607      -588.656 7        43.107    38795202.582 6 164155223.19206      -618.547 6        39.501
S48        51.000    77162389.181 6 405492365.51906      -377.443 6        37.856
C19        52.000                                                                                                                                    22179639.522 8 115495264.08208       588.805 8        50.722                                                                    22179634.496 8  93849366.19808       478.395 8        49.758
C60        54.000                                                                                                                                    40644530.109 6 211646936.39606      -457.072 6        38.988                                                                    40644514.827 6 171980441.18506      -371.454 6        39.198
R16        55.000    23579335.762 7 125956579.38007      3432.977 7        43.272                                                                    23579336.825 6  97966244.49706      2670.133 6        41.128
C37        56.000                                                                                                                                    25021066.870 7 130291267.08807       950.729 7        44.015                                                                    25021069.793 7 105872344.42907       772.546 7        44.510
C02        57.000                                                                                                                                    40592947.224 5 211378174.01705      -447.582 5        34.324    40592941.077 6 163451005.18506      -346.188 6        39.246    40592944.471 5 171762083.37105      -363.659 5        35.657
I03        58.000   131398035.618 6 439848868.57806       953.025 6        40.334
R07        59.000    21449755.907 8 114822239.81108      2375.839 8        48.830                                                                    21449755.070 7  89306186.63507      1847.879 7        44.599
> 2025 01 01 02 31 20.0000000  0 54
G28         1.000    24417511.639 6 128314899.07106     -3122.218 6        39.658                                    24417507.708 3  99985616.38303     -2432.887 3        22.248    24417507.482 6  99985622.39906     -2432.916 6        38.529
G31         2.000    22448811.303 7 117969316.38707     -1787.132 7        44.820                                    22448806.488 6  91924131.11306     -1392.569 6        41.344    22448806.683 6  91924130.11206     -1392.595 6        40.203
G09         3.000    21130839.584 7 111043351.10307      1973.103 7        47.719                                    21130837.336 8  86527296.33208      1537.486 8        48.789    21130837.283 7  86527297.33207      1537.514 7        43.755
E34         4.000    25207589.749 7 132466789.85707      1745.265 7        44.266                                                                    25207589.966 7  98920013.53107      1303.321 7        47.187    25207589.673 7 101500534.91007      1337.268 7        47.846
S21         5.000    38414837.088 7 201871155.71107      -383.392 7        42.931
E05         6.000    23941858.533 7 125815352.41807      2010.737 7        43.939                                                                    23941859.070 7  93953050.29007      1501.597 7        46.740    23941858.489 7  96403991.75307      1540.720 7        47.401
E04         8.000    25473018.375 7 133861636.92207     -2671.182 7        43.090                                                                    25473016.562 7  99961616.66207     -1994.703 7        46.612    25473016.228 7 102569302.98107     -2046.715 7        47.130
R14         9.000    23624781.386 6 125933361.78506     -2335.144 6        41.566                                                                    23624783.774 6  97948153.15206     -1816.206 6        39.805
G04        10.000    20097729.338 8 105614326.02808       248.174 8        49.342                                    20097725.970 7  82296886.89607       193.384 7        42.082    20097726.124 8  82296881.89408       193.297 8        48.399
E09        11.000    23396300.338 8 122948436.72508      -394.143 8        48.011                                                                    23396299.292 8  91812161.71908      -294.269 8        50.541    23396298.931 8  94207260.78808      -301.947 8        50.940
S27        12.000    39045000.707 6 205182849.86706      -377.141 6        36.011
G06        13.000    22461952.567 7 118038385.42207      2303.278 7        43.710                                    22461951.204 7  91977967.23007      1794.763 7        42.749    22461952.092 7  91977978.23807      1794.770 7        43.073
S36        14.000    38182258.885 7 200649636.84507      -383.685 7        44.239
E21        15.000    28820230.142 5                        95.613 5        31.155                                                                    28820232.253 5 113096802.43005        71.546 5        33.868    28820231.625 5 116047148.98605        72.984 5        35.414
E36        16.000    23451119.265 8 123236490.34508      -997.317 8        48.100                                                                    23451119.397 8  92027266.28508      -744.760 8        50.690    23451118.930 8  94427972.32908      -764.203 8        50.835
S45        17.000    63376226.014 6 333045775.20706      -423.326 6        37.871
G03        18.000    20396273.216 8 107183196.20308     -1809.970 8        49.111                                    20396271.223 8  83519393.06608     -1410.365 8        50.880    20396271.771 7  83519402.06807     -1410.406 7        45.500
R21        19.000    19964683.599 8 106835088.50308     -2779.281 8        52.249                                                                    19964682.260 7  83093966.57807     -2161.705 7        45.994
R20        20.000    23350326.744 5 124864704.89105     -5004.627 5        32.808                                                                    23350327.689 6  97116986.09106     -3892.663 6        39.889
R05        21.000    22216360.007 7 118759217.82707     -3746.280 7        45.558                                                                    22216359.905 7  92368285.18007     -2913.784 7        42.783
I06        22.000    38048183.999 7 149309474.30707      -210.597 7        43.228
S28        23.000    40848893.957 5 214662396.48705      -378.387 5        33.946
S23        25.000    38128510.384 7 200366694.02107      -379.532 7        44.238
E06        26.000    23796334.445 7 125050642.74807     -1639.393 7        47.228                                                                    23796333.828 8  93381973.30308     -1224.209 8        49.950    23796333.787 8  95818023.25108     -1256.167 8        50.936
R15        27.000    22415488.516 7 119781586.22207       947.973 7        46.494                                                                    22415488.920 7  93163469.42507       737.238 7        43.263
G26        28.000    25230642.189 5 132587917.11305      1909.892 5        35.248                                    25230641.561 4 103315260.00704      1488.232 4        26.216    25230641.685 5 103315261.02905      1488.294 5        34.424
C22        30.000                                                                                                                                    25449165.531 7 132520496.01107      2361.803 7        43.130                                                                    25449160.100 6 107683741.93606      1919.102 6        41.821
I01        31.000   334672670.474 7  10186634.98407     -2626.224 7        42.872
G02        32.000    23612904.276 7 124086681.05707     -3705.948 7        43.027                                    23612898.843 4  96690913.81004     -2887.748 4        29.469
G19        33.000    22460574.333 7 118031143.22207     -1574.598 7        43.661                                    22460568.678 5  91972339.41205     -1226.957 5        31.343
G17        34.000    23415434.805 7 123048985.38507     -2808.064 7        42.402                                    23415430.738 6  95882334.58206     -2188.100 6        37.395    23415431.356 6  95882334.57806     -2188.041 6        38.234
E11        35.000    25784166.374 6 135496768.32506     -3181.400 6        39.450                                                                    25784162.817 7 101182667.59907     -2375.757 7        42.573    25784162.720 7 103822208.24507     -2437.859 7        42.866
C32        36.000                                                                                                                                    26967364.409 6 140426156.45506     -3235.939 6        39.598                                                                    26967364.509 6 114107763.15006     -2629.558 6        39.138
C35        37.000                                                                                                                                    22988007.274 8 119704604.06308      -958.437 8        48.417                                                                    22988005.911 7  97269795.53507      -778.851 7        47.303
I09        38.000    37317230.659 7 146440823.94407      -513.247 7        42.851
C29        39.000                                                                                                                                    24448732.992 7 127310957.97407     -3601.086 7        45.154                                                                    24448731.014 7 103450573.83807     -2926.300 7        44.585
R22        40.000    20638588.317 8 110170221.82108      1815.192 8        50.826                                                                    20638586.463 7  85687965.44807      1411.743 7        46.975
S44        42.000    40644968.571 6 213590938.64606      -461.302 6        37.611
C09        43.000                                                                                                                                    38465911.669 7 200302120.95407      -158.875 7        42.660    38465908.201 7 154886297.04907      -122.895 7        46.239    38465906.329 7 162761861.91807      -129.211 7        42.250
C05        44.000                                                                                                                                    39109420.461 6 203653047.87806      -403.394 6        38.715    39109415.946 7 157477478.05907      -312.041 7        43.050    39109417.676 6 165484885.70206      -327.946 6        40.014
R06        45.000    19389520.438 6 103466253.07206      -341.489 6        41.304
C44        46.000                                                                                                                                    24779250.591 7 129032094.84807      1590.344 7        42.322                                                                    24779249.204 7 104849150.37907      1292.072 7        42.819
C39        47.000                                                                                                                                    39249851.542 7 204384287.73807     -1154.103 7        42.508                                                                    39249847.557 7 166078964.80807      -937.872 7        42.387
C20        48.000                                                                                                                                    22580076.135 8 117580429.88908     -1962.771 8        50.926                                                                    22580070.591 8  95543722.64908     -1595.029 8        49.875
C06        49.000                                                                                                                                    38286955.145 6 199370246.63706      -669.499 6        41.139    38286949.620 7 154165705.02507      -517.717 7        44.775    38286949.218 6 162004635.89906      -544.278 6        41.623
C16        50.000                                                                                                                                    38795936.141 7 202020641.39507      -762.128 7        42.057    38795936.381 7 156215183.91907      -589.464 7        43.424    38795933.839 6 164158318.06506      -619.405 6        39.384
S48        51.000    77162744.318 6 405494252.10606      -377.107 6        37.599
C19        52.000                                                                                                                                    22179075.104 8 115492324.58008       587.086 8        50.795                                                                    22179070.001 8  93846977.60908       476.939 8        49.716
C60        54.000                                                                                                                                    40644969.446 6 211649222.23506      -457.204 6        39.204                                                                    40644953.801 6 171982298.61106      -371.565 6        39.051
R16        55.000    23576122.779 7 125939417.35007      3431.775 7        43.733                                                                    23576124.185 6  97952896.25906      2669.282 6        40.901
C37        56.000                                                                                                                                    25020154.891 7 130286519.72607       948.133 7        44.289                                                                    25020157.932 7 105868486.81007       770.350 7        44.415
C02        57.000                                                                                                                                    40593376.750 5 211380412.87005      -447.829 5        34.738    40593371.055 6 163452736.42206      -346.285 6        39.246    40593374.333 5 171763902.63705      -364.069 5        35.462
I03        58.000   131396821.220 6 439844104.45006       952.768 6        40.343
R07        59.000    21447537.484 8 114810365.13208      2374.054 8        49.150                                                                    21447536.270 7  89296950.77507      1846.446 7        43.900
> 2025 01 01 02 31 25.0000000  0 55
G28         1.000    24420482.413 6 128330514.94206     -3123.913 6        39.108                                    24420479.142 3  99997784.58703     -2434.214 3        22.381    24420479.409 6  99997790.58006     -2434.310 6        38.937
G31         2.000    22450513.215 7 117978259.71907     -1790.154 7        44.433                                    22450508.334 6  91931099.94206     -1394.923 6        41.516    22450509.022 6  91931098.94106     -1394.931 6        40.605
G09         3.000    21128962.772 7 111033489.76607      1971.550 7        47.501                                    21128960.793 8  86519612.17508      1536.271 8        48.958    21128960.970 7  86519613.17907      1536.240 7        43.907
E34         4.000    25205929.647 7 132458066.38207      1744.177 7        44.172                                                                    25205929.924 7  98913499.23907      1302.477 7        47.157    25205929.628 7 101493850.68007      1336.390 7        47.947
S21         5.000    38415203.215 7 201873072.22407      -383.171 7        42.828
E05         6.000    23939946.021 7 125805300.89407      2009.906 7        43.850                                                                    23939946.299 7  93945544.29307      1500.865 7        46.844    23939945.823 7  96396289.94107      1540.042 7        47.456
E04         8.000    25475560.217 7 133874994.07307     -2671.651 7        43.276                                                                    25475558.375 7  99971591.15807     -1995.126 7        46.489    25475558.053 7 102579537.67807     -2047.118 7        47.230
R14         9.000    23626972.826 6 125945046.44106     -2338.468 6        41.805                                                                    23626976.687 6  97957241.16806     -1818.905 6        40.706
G04        10.000    20097494.528 8 105613091.34408       245.782 8        49.024                                    20097491.022 7  82295924.80407       191.520 7        42.220    20097491.323 8  82295919.80508       191.522 8        48.685
E09        11.000    23396675.901 8 122950411.03208      -395.600 8        48.021                                                                    23396675.032 8  91813636.04608      -295.454 8        50.500    23396674.635 8  94208773.57408      -303.166 8        51.040
S27        12.000    39045359.550 5 205184733.82005      -376.475 5        35.757
G06        13.000    22459762.150 7 118026873.65607      2301.488 7        43.869                                    22459760.583 7  91968997.03207      1793.368 7        42.961    22459761.348 7  91969008.02307      1793.444 7        42.648
S36        14.000    38182625.880 7 200651554.29407      -383.312 7        44.299
E21        15.000    28820140.052 5                        93.510 5        31.645                                                                    28820142.165 5 113096449.84705        69.813 5        34.357    28820141.751 5 116046787.15305        71.645 5        35.914
E36        16.000    23452069.294 8 123241481.93808      -999.305 8        48.104                                                                    23452069.260 8  92030993.76608      -746.247 8        50.584    23452068.809 8  94431797.04908      -765.639 8        50.883
S45        17.000    63376588.300 6 333046290.68816      -422.879 6        37.626
G03        18.000    20397996.017 8 107192250.17008     -1811.562 8        48.895                                    20397994.152 8  83526448.10508     -1411.608 8        51.039    20397994.596 7  83526457.11507     -1411.653 7        45.404
R21        19.000    19967282.071 8 106848994.21108     -2782.979 8        52.640                                                                    19967280.833 7  83104782.12407     -2164.545 7        46.848
R20        20.000    23355004.919 5 124889729.05705     -5005.000 5        32.461                                                                    23355006.719 6  97136449.32906     -3892.658 6        40.281
R05        21.000    22219864.149 7 118777949.44807     -3746.378 7        45.529                                                                    22219863.618 7  92382854.21407     -2913.833 7        42.821
I06        22.000    38048452.208 7 149310526.82207      -210.377 7        43.355
S28        23.000    40849256.888 5 214664285.60605      -377.772 5        34.152
E10        24.000                                                                                                                                    28449973.607 3                     -2632.721 3        19.403
S23        25.000    38128871.217 7 200368590.87507      -379.174 7        44.212
E06        26.000    23797894.856 7 125058842.75707     -1640.533 7        47.144                                                                    23797894.246 8  93388096.69008     -1225.126 8        49.859    23797894.197 8  95824306.37508     -1257.084 8        50.997
R15        27.000    22414603.531 7 119776856.04007       944.165 7        45.394                                                                    22414604.192 7  93159790.40407       734.348 7        43.524
G26        28.000    25228825.555 5 132578370.77905      1908.730 5        35.238                                    25228824.960 4 103307821.30904      1487.321 4        26.731    25228825.322 5 103307822.33205      1487.158 5        34.581
C22        30.000                                                                                                                                    25446897.996 7 132508687.59307      2361.704 7        43.257                                                                    25446892.617 7 107674146.63507      1919.047 7        42.235
I01        31.000   334676016.650 7  10199765.82507     -2626.119 7        42.756
G02        32.000    23616431.056 7 124105212.65207     -3706.549 7        42.923                                    23616425.334 4  96705354.00704     -2888.219 4        29.422
G19        33.000    22462073.774 7 118039023.74007     -1577.511 7        43.524                                    22462068.295 5  91978480.07205     -1229.230 5        31.419
G17        34.000    23418107.196 7 123063028.60507     -2809.250 7        42.425                                    23418103.119 6  95893277.33706     -2189.025 6        37.508    23418103.839 6  95893277.34606     -2189.152 6        38.477
E11        35.000    25787193.913 6 135512677.71206     -3182.251 6        39.183                                                                    25787190.080 7 101194547.98407     -2376.495 7        42.347    25787190.225 7 103834398.53107     -2438.414 7        42.980
C32        36.000                                                                                                                                    26970471.264 6 140442335.35206     -3235.638 6        39.294                                                                    26970471.695 6 114120909.80406     -2629.013 6        39.676
C35        37.000                                                                                                                                    22988928.996 8 119709402.48208      -960.966 8        48.356                                                                    22988927.391 7  97273694.64707      -780.798 7        47.582
I09        38.000    37317884.505 7 146443390.08207      -513.131 7        42.982
C29        39.000                                                                                                                                    24452190.979 7 127328965.17807     -3601.737 7        45.100                                                                    24452189.229 7 103465206.16307     -2926.682 7        44.984
R22        40.000    20636889.841 8 110161154.56408      1811.759 8        50.339                                                                    20636888.310 7  85680913.14507      1409.094 7        47.530
S44        42.000    40645407.206 6 213593245.41806      -461.152 6        37.490
C09        43.000                                                                                                                                    38466064.464 7 200302916.42207      -159.477 7        42.698    38466060.880 7 154886912.14207      -123.187 7        46.377    38466059.040 7 162762508.29307      -129.470 7        42.548
C05        44.000                                                                                                                                    39109807.332 6 203655064.61906      -403.265 6        38.423    39109803.010 7 157479037.52407      -311.792 7        43.062    39109805.187 6 165486524.46406      -327.551 6        40.162
R06        45.000    19389841.063 6 103467966.39206      -343.783 6        41.125
C44        46.000                                                                                                                                    24777724.781 7 129024148.44207      1588.408 7        42.544                                                                    24777723.074 7 104842693.27907      1290.601 7        43.003
C39        47.000                                                                                                                                    39250959.993 7 204390058.98007     -1154.393 7        42.445                                                                    39250955.919 7 166083654.42007      -938.110 7        42.633
C20        48.000                                                                                                                                    22581961.487 8 117590245.77508     -1963.625 8        51.098                                                                    22581955.682 8  95551698.85608     -1595.518 8        50.116
C06        49.000                                                                                                                                    38287598.575 6 199373595.92606      -670.106 6        41.087    38287592.716 7 154168294.90307      -518.120 7        44.904    38287592.474 6 162007357.45506      -544.423 6        41.890
C16        50.000                                                                                                                                    38796668.178 6 202024453.67206      -762.773 6        41.897    38796668.400 7 156218131.80907      -589.798 7        43.488    38796665.895 6 164161415.85306      -619.574 6        39.616
S48        51.000    77163096.623 6 405496138.64206      -377.291 6        37.255
C19        52.000                                                                                                                                    22178512.001 8 115489392.41908       585.835 8        50.776                                                                    22178506.863 8  93844594.98408       476.086 8        49.963
C60        54.000                                                                                                                                    40645408.117 6 211651508.04806      -457.040 6        39.177                                                                    40645392.785 6 171984156.02906      -371.299 6        39.339
R16        55.000    23572911.685 7 125922260.38807      3431.048 7        43.913                                                                    23572912.095 6  97939551.95706      2668.653 6        41.168
C37        56.000                                                                                                                                    25019245.059 7 130281784.05507       946.073 7        44.051                                                                    25019248.420 7 105864638.68807       768.872 7        44.658
C02        57.000                                                                                                                                    40593807.336 5 211382651.79705      -447.665 5        34.476    40593800.751 6 163454467.70906      -346.260 6        39.375    40593804.386 5 171765721.93305      -363.539 5        35.710
I03        58.000   131395607.485 6 439839340.43306       952.744 6        40.219
R07        59.000    21445319.959 8 114798498.27908      2372.708 8        48.420                                                                    21445319.228 7  89287721.01807      1845.518 7        45.237
> 2025 01 01 02 31 30.0000000  0 54
G28         1.000    24423456.027 6 128346141.28206     -3126.232 6        38.862                                    24423452.574 3 100009960.93303     -2436.021 3        22.286    24423453.333 6 100009966.93506     -2435.973 6        38.601
G31         2.000    22452218.465 7 117987219.89007     -1793.765 7        44.155                                    22452213.386 6  91938081.89306     -1397.736 6        41.528    22452214.437 6  91938080.88506     -1397.619 6        40.722
G09         3.000    21127088.436 7 111023638.65907      1969.213 7        47.372                                    21127086.195 8  86511935.99008      1534.451 8        49.020    21127086.557 7  86511936.99507      1534.434 7        43.329
E34         4.000    25204271.378 7 132449349.67607      1742.665 7        44.331                                                                    25204271.128 7  98906990.01607      1301.335 7        47.256    25204270.878 7 101487171.64807      1335.297 7        47.949
S21         5.000    38415567.876 7 201874988.64607      -383.332 7        42.878
E05         6.000    23938033.727 7 125795254.98907      2008.643 7        43.748                                                                    23938034.566 7  93938042.48007      1499.939 7        46.818    23938034.135 7  96388592.43307      1539.078 7        47.427
E04         8.000    25478102.688 7 133888355.28007     -2672.679 7        43.710                                                                    25478100.884 7  99981568.67907     -1995.817 7        46.540    25478100.652 7 102589775.48207     -2047.896 7        47.244
R14         9.000    23629168.631 7 125956749.08007     -2342.485 7        42.430                                                                    23629171.534 6  97966343.13406     -1821.820 6        39.132
G04        10.000    20097261.889 8 105611869.92708       242.956 8        48.673                                    20097258.574 7  82294973.04907       189.316 7        42.260    20097258.868 8  82294968.04908       189.299 8        48.784
E09        11.000    23397053.350 8 122952394.39208      -397.581 8        48.046                                                                    23397052.498 8  91815117.12608      -296.867 8        50.468    23397052.052 8  94210293.29008      -304.644 8        51.031
S27        12.000    39045716.967 5 205186617.69905      -376.870 5        35.890
G06        13.000    22457573.362 7 118015371.65607      2299.411 7        43.249                                    22457571.822 7  91960034.43407      1791.749 7        43.009    22457572.457 7  91960045.43107      1791.811 7        42.377
S36        14.000    38182995.388 7 200653472.25507      -383.619 7        44.265
E21        15.000    28820052.739 5                        90.986 5        32.204                                                                    28820054.503 5 113096105.51105        68.189 5        33.994    28820054.220 5 116046433.85705        69.863 5        35.071
E36        16.000    23453020.991 8 123246484.44308     -1001.577 8        48.197                                                                    23453021.184 8  92034729.39908      -747.903 8        50.619    23453020.793 8  94435630.13608      -767.472 8        50.919
S45        17.000    63376946.352 6 333048406.25506      -423.142 6        37.902
G03        18.000    20399721.008 8 107201313.54208     -1813.603 8        48.629                                    20399718.866 8  83533510.47208     -1413.195 8        51.086    20399719.236 7  83533519.47507     -1413.213 7        45.046
R21        19.000    19969884.418 8 106862919.76208     -2787.115 8        52.612                                                                    19969883.260 7  83115613.10207     -2167.748 7        46.592
R20        20.000    23359683.871 5 124914756.34005     -5005.418 5        32.245                                                                    23359687.507 6  97155915.03306     -3893.475 6        40.207
R05        21.000    22223369.519 7 118796683.25407     -3747.000 7        45.691                                                                    22223368.165 7  92397424.94907     -2914.342 7        42.373
I06        22.000    38048720.557 7 149311579.48807      -210.559 7        43.348
S28        23.000    40849617.283 5 214666174.92105      -378.003 5        34.319
S23        25.000    38129232.587 7 200370487.71007      -379.386 7        44.102
E06        26.000    23799456.698 7 125067050.20707     -1642.204 7        47.218                                                                    23799456.053 8  93394225.62008     -1226.323 8        50.015    23799456.010 8  95830595.19208     -1258.315 8        50.996
R15        27.000    22413721.358 7 119772145.70007       940.086 7        45.071                                                                    22413721.687 6  93156126.82506       731.153 6        41.886
G26        28.000    25227010.347 5 132568831.81405      1907.199 5        35.005                                    25227009.758 4 103300388.36604      1486.119 4        26.695    25227010.381 5 103300389.39105      1485.885 5        34.410
C22        30.000                                                                                                                                    25444630.848 7 132496881.65307      2360.977 7        42.988                                                                    25444625.273 7 107664553.35107      1918.501 7        42.074
I01        31.000   334679362.891 7  10212897.20507     -2626.307 7        42.495
G02        32.000    23619958.645 7 124123749.16707     -3707.819 7        42.876                                    23619952.877 4  96719798.05204     -2889.209 4        29.422
G19        33.000    22463577.485 7 118046920.31907     -1580.916 7        43.469                                    22463570.979 5  91984633.24805     -1231.886 5        31.540
G17        34.000    23420781.286 7 123077079.89907     -2811.204 7        42.741                                    23420777.015 6  95904226.39406     -2190.547 6        37.422    23420777.261 6  95904226.38606     -2190.461 6        38.060
E11        35.000    25790222.530 6 135528592.50706     -3183.550 6        39.538                                                                    25790218.693 7 101206432.39807     -2377.220 7        42.519    25790218.661 7 103846592.98307     -2439.277 7        42.936
C32        36.000                                                                                                                                    26973578.086 6 140458513.79106     -3235.737 6        39.237                                                                    26973578.665 6 114134056.12706     -2629.261 6        39.994
C35        37.000                                                                                                                                    22989853.074 8 119714215.03408      -963.954 8        48.164                                                                    22989851.613 7  97277605.23907      -783.148 7        47.376
I09        38.000    37318538.524 7 146445956.85207      -513.397 7        42.857
C29        39.000                                                                                                                                    24455650.259 7 127346976.67507     -3602.706 7        44.327                                                                    24455648.133 7 103479841.97407     -2927.412 7        44.808
R22        40.000    20635194.465 8 110152106.18508      1807.800 8        51.116                                                                    20635193.418 7  85673875.52607      1406.054 7        47.846
S44        42.000    40645844.607 6 213595552.21106      -461.361 6        37.342
C09        43.000                                                                                                                                    38466217.984 7 200303715.82907      -160.313 7        42.392    38466214.496 7 154887530.30307      -123.928 7        46.329    38466212.532 7 162763157.88507      -130.232 7        42.286
C05        44.000                                                                                                                                    39110194.968 6 203657081.45906      -403.436 6        38.508    39110190.199 7 157480597.06307      -311.752 7        43.126    39110192.412 6 165488163.30806      -327.672 6        40.088
R06        45.000    19390164.791 6 103469691.93206      -346.324 6        41.290
C44        46.000                                                                                                                                    24776200.836 7 129016213.11407      1585.939 7        42.493                                                                    24776199.109 7 104836245.17807      1288.633 7        42.912
C39        47.000                                                                                                                                    39252068.974 7 204395833.24707     -1155.136 7        42.095                                                                    39252064.755 7 166088346.49107      -938.648 7        42.332
C20        48.000                                                                                                                                    22583847.577 8 117600067.42808     -1964.863 8        50.861                                                                    22583841.789 8  95559679.76108     -1596.581 8        49.917
C06        49.000                                                                                                                                    38288242.604 6 199376949.05206      -671.047 6        41.113    38288236.816 7 154170887.76107      -518.884 7        44.921    38288236.361 6 162010082.16106      -545.104 6        41.721
C16        50.000                                                                                                                                    38797401.266 6 202028269.54706      -763.486 6        41.750    38797401.289 7 156221082.47707      -590.328 7        43.611    38797398.714 6 164164516.57106      -620.358 6        39.447
S48        51.000    77163455.332 6 405498024.86006      -376.945 6        37.221
C19        52.000                                                                                                                                    22177950.292 8 115486467.63708       584.186 8        50.724                                                                    22177945.256 8  93842218.36408       474.738 8        49.796
C60        54.000                                                                                                                                    40645847.261 6 211653793.85906      -457.073 6        39.354                                                                    40645831.670 6 171986013.44106      -371.512 6        39.330
R16        55.000    23569700.343 7 125905108.55307      3429.849 7        43.348                                                                    23569701.081 6  97926211.62806      2667.721 6        41.061
C37        56.000                                                                                                                                    25018338.151 7 130277060.10107       943.721 7        43.757                                                                    25018341.269 7 105860800.10207       766.796 7        44.457
C02        57.000                                                                                                                                    40594238.003 5 211384890.83605      -447.750 5        34.300    40594230.953 6 163456199.07106      -346.193 6        39.529    40594234.378 5 171767541.36805      -363.831 5        35.410
I03        58.000   131394393.381 6 439834576.56106       952.767 6        40.138
R07        59.000    21443104.837 8 114786639.56108      2370.915 8        48.802                                                                    21443104.488 7  89278497.58607      1844.076 7        44.727
> 2025 01 01 02 31 35.0000000  0 54
G28         1.000    24426431.410 6 128361777.72706     -3128.440 6        39.111                                    24426428.229 3 100022145.15503     -2437.740 3        22.000    24426428.154 6 100022151.15006     -2437.923 6        38.408
G31         2.000    22453926.567 7 117996196.50807     -1797.115 7        44.953                                    22453921.559 6  91945076.65806     -1400.351 6        41.430    22453922.165 6  91945075.65006     -1400.228 6        40.331
G09         3.000    21125215.416 7 111013797.29107      1967.159 7        47.497                                    21125213.444 8  86504267.39508      1532.850 8        48.990    21125213.726 7  86504268.40307      1532.885 7        43.782
E34         4.000    25202613.954 7 132440639.36607      1741.246 7        44.500                                                                    25202613.682 7  98900485.57507      1300.268 7        47.074    25202613.442 7 101480497.52907      1334.230 7        47.891
S21         5.000    38415932.040 7 201876904.77807      -383.425 7        42.963
E05         6.000    23936123.353 7 125785214.30207      2007.450 7        43.676                                                                    23936123.815 7  93930544.56707      1499.096 7        46.693    23936123.500 7  96380898.91707      1538.189 7        47.316
E04         8.000    25480645.752 7 133901720.13807     -2673.511 7        43.594                                                                    25480644.092 7  99991548.92607     -1996.420 7        46.373    25480643.858 7 102600016.08407     -2048.536 7        47.144
R14         9.000    23631368.688 7 125968469.84707     -2346.137 7        42.986                                                                    23631370.402 6  97975459.30506     -1824.951 6        40.543
G04        10.000    20097031.948 8 105610661.35608       240.306 8        48.727                                    20097028.607 7  82294031.30707       187.252 7        42.248    20097028.807 8  82294026.31008       187.183 8        48.812
E09        11.000    23397432.503 8 122954386.37408      -399.444 8        48.108                                                                    23397431.523 8  91816604.65008      -298.282 8        50.410    23397431.069 8  94211819.62008      -306.008 8        50.951
S27        12.000    39046073.391 5 205188501.47505      -376.955 5        35.824
G06        13.000    22455386.099 7 118003878.99007      2297.498 7        43.009                                    22455384.809 7  91951079.11507      1790.256 7        42.986    22455385.493 7  91951090.12807      1790.264 7        42.671
S36        14.000    38183359.798 7 200655390.17507      -383.790 7        44.194
E21        15.000    28819967.309 5                        88.802 5        32.078                                                                    28819968.752 5 113095769.52205        66.166 5        34.638    28819968.250 5 116046089.07005        68.293 5        35.957
E36        16.000    23453974.788 8 123251497.46208     -1003.766 8        48.167                                                                    23453975.156 8  92038472.88908      -749.586 8        50.579    23453974.707 8  94439471.28008      -769.139 8        50.783
S45        17.000    63377308.916 6 333050521.50606      -423.321 6        37.845
G03        18.000    20401447.175 8 107210385.87508     -1815.521 8        48.549                                    20401445.274 8  83540579.82008     -1414.690 8        51.024    20401445.790 7  83540588.81707     -1414.657 7        45.249
R21        19.000    19972490.329 8 106876864.74708     -2791.083 8        52.688                                                                    19972489.155 7  83126459.19407     -2170.815 7        46.784
R20        20.000    23364364.306 5 124939786.60805     -5006.660 5        32.293                                                                    23364368.515 6  97175382.94006     -3893.907 6        40.186
R05        21.000    22226874.151 7 118815419.07607     -3747.483 7        45.702                                                                    22226873.116 7  92411997.25907     -2914.755 7        42.504
I06        22.000    38048988.694 7 149312631.98107      -210.652 7        43.154
S28        23.000    40849975.308 5 214668063.38205      -377.977 5        34.362
S23        25.000    38129593.671 7 200372384.27907      -379.357 7        44.292
E06        26.000    23801019.829 7 125075264.66507     -1643.695 7        47.418                                                                    23801019.245 8  93400359.78908     -1227.435 8        49.911    23801019.166 8  95836889.38408     -1259.487 8        50.923
R15        27.000    22412843.773 7 119767454.91807       936.099 7        45.025                                                                    22412843.671 6  93152478.42806       728.173 6        41.032
G26        28.000    25225196.019 5 132559299.85205      1905.676 5        35.609                                    25225195.943 4 103292960.86804      1484.942 4        26.707    25225195.741 5 103292961.87605      1484.971 5        34.219
C22        30.000                                                                                                                                    25442363.745 7 132485077.79207      2360.369 7        42.804                                                                    25442358.344 7 107654961.73607      1918.205 7        42.142
I01        31.000   334682709.044 7  10226028.78707     -2626.482 7        42.449
G02        32.000    23623486.585 7 124142290.18107     -3708.750 7        42.536                                    23623481.139 4  96734245.59304     -2889.935 4        29.223
G19        33.000    22465082.604 7 118054832.58107     -1584.138 7        43.835                                    22465076.566 5  91990798.63705     -1234.389 5        31.555
G17        34.000    23423456.553 7 123091138.83707     -2812.573 7        42.461                                    23423452.337 6  95915181.40306     -2191.615 6        37.293    23423452.459 6  95915181.38806     -2191.650 6        38.054
E11        35.000    25793251.935 6 135544512.29906     -3184.546 6        39.342                                                                    25793248.264 7 101218320.55507     -2378.075 7        42.400    25793248.010 7 103858791.27607     -2440.186 7        42.728
C32        36.000                                                                                                                                    26976685.154 6 140474691.34806     -3235.594 6        39.282                                                                    26976685.545 6 114147201.69606     -2629.039 6        40.296
C35        37.000                                                                                                                                    22990779.849 8 119719041.31608      -966.718 8        48.286                                                                    22990778.443 7  97281526.98007      -785.557 7        47.522
I09        38.000    37319192.766 7 146448523.94207      -513.468 7        42.751
C29        39.000                                                                                                                                    24459109.443 7 127364992.05807     -3603.551 7        43.867                                                                    24459107.708 7 103494480.92407     -2928.083 7        44.760
R22        40.000    20633503.270 8 110143076.24008      1804.060 8        50.860                                                                    20633501.462 7  85666852.21807      1403.155 7        46.876
S44        42.000    40646283.930 6 213597858.59506      -461.384 6        37.406
C09        43.000                                                                                                                                    38466372.120 7 200304518.82507      -161.026 7        42.282    38466368.850 7 154888151.24407      -124.579 7        46.323    38466366.714 7 162763810.38207      -130.784 7        42.400
C05        44.000                                                                                                                                    39110582.443 6 203659097.97806      -403.431 6        38.501    39110577.710 7 157482156.37107      -311.892 7        43.149    39110579.690 6 165489801.90106      -327.855 6        40.238
R06        45.000    19390490.913 6 103471429.51506      -348.739 6        41.352
C44        46.000                                                                                                                                    24774678.778 7 129008288.45207      1583.793 7        42.231                                                                    24774677.313 7 104829805.73107      1286.989 7        43.173
C39        47.000                                                                                                                                    39253178.012 7 204401610.13807     -1155.701 7        42.169                                                                    39253174.069 7 166093040.68007      -939.104 7        42.434
C20        48.000                                                                                                                                    22585734.669 8 117609894.43708     -1966.066 8        50.838                                                                    22585729.002 8  95567664.99908     -1597.545 8        50.086
C06        49.000                                                                                                                                    38288886.709 6 199380305.63806      -671.732 6        41.087    38288881.350 7 154173483.28807      -519.477 7        44.906    38288880.984 6 162012809.65506      -545.822 6        41.876
C16        50.000                                                                                                                                    38798134.725 6 202032088.64006      -764.421 6        41.735    38798134.566 7 156224035.64507      -590.986 7        43.649    38798132.185 6 164167619.87906      -621.020 6        39.655
S48        51.000    77163818.348 6 405499910.54306      -377.204 6        37.418
C19        52.000                                                                                                                                    22177390.089 8 115483549.83308       582.720 8        50.792                                                                    22177384.898 8  93839847.40208       473.545 8        49.862
C60        54.000                                                                                                                                    40646286.120 6 211656079.28206      -457.319 6        39.063                                                                    40646270.551 6 171987870.50806      -371.448 6        39.468
R16        55.000    23566490.234 7 125887961.23307      3428.886 7        43.007                                                                    23566491.484 6  97912874.83606      2666.841 6        41.073
C37        56.000                                                                                                                                    25017433.773 7 130272347.47507       941.201 7        44.054                                                                    25017436.368 7 105856970.68907       764.954 7        44.670
C02        57.000                                                                                                                                    40594667.131 5 211387129.51905      -447.830 5        34.386    40594660.689 6 163457930.15106      -346.227 6        39.432    40594664.127 5 171769360.47305      -363.865 5        35.910
I03        58.000   131393179.338 6 439829812.52506       952.643 6        40.210
R07        59.000    21440891.677 8 114774788.61808      2369.294 8        48.296                                                                    21440890.001 7  89269280.17807      1842.682 7        44.199
> 2025 01 01 02 31 40.0000000  0 55
G28         1.000    24429408.992 6 128377424.30906     -3130.382 6        39.129                                    24429405.667 3 100034337.27503     -2439.262 3        22.019    24429405.814 6 100034343.28306     -2439.356 6        38.637
G31         2.000    22455638.155 7 118005189.64707     -1800.352 7        44.817                                    22455632.889 6  91952084.29906     -1402.872 6        41.418    22455633.708 6  91952083.31106     -1402.917 6        40.503
G09         3.000    21123344.825 7 111003965.81707      1965.160 7        47.588                                    21123342.575 8  86496606.51108      1531.295 8        48.946    21123342.911 7  86496607.51607      1531.216 7        43.410
E34         4.000    25200957.420 7 132431935.54007      1739.967 7        44.465                                                                    25200957.357 7  98893985.97407      1299.372 7        47.087    25200957.094 7 101473828.36907      1333.250 7        47.803
S21         5.000    38416296.800 7 201878820.65907      -383.144 7        42.904
E05         6.000    23934213.784 7 125775178.89707      2006.499 7        43.541                                                                    23934214.091 7  93923050.60207      1498.304 7        46.640    23934213.784 7  96373209.45907      1537.444 7        47.178
E04         8.000    25483189.698 7 133915088.71807     -2674.177 7        43.338                                                                    25483188.076 7 100001531.95907     -1996.941 7        46.348    25483187.778 7 102610259.54807     -2049.031 7        47.016
R14         9.000    23633571.118 7 125980208.59007     -2349.703 7        43.623                                                                    23633572.860 6  97984589.44306     -1827.593 6        40.687
G04        10.000    20096804.574 8 105609465.73008       237.669 8        48.587                                    20096801.087 7  82293099.65407       185.196 7        42.163    20096801.156 8  82293094.64408       185.238 8        48.798
E09        11.000    23397813.083 8 122956387.06808      -401.090 8        48.029                                                                    23397812.200 8  91818098.68008      -299.509 8        50.371    23397811.827 8  94213352.62608      -307.371 8        50.801
S27        12.000    39046434.689 5 205190385.26605      -376.644 5        35.767
G06        13.000    22453201.145 7 117992395.78207      2295.547 7        43.678                                    22453199.608 7  91942131.16607      1788.739 7        42.935    22453200.306 7  91942142.16607      1788.829 7        42.497
S36        14.000    38183721.790 7 200657308.10807      -383.751 7        44.339
E21        15.000    28819882.929 5                        86.716 5        31.585                                                                    28819885.702 5 113095441.77405        64.621 5        35.048    28819884.630 5 116045752.78105        66.287 5        35.648
E36        16.000    23454930.793 8 123256521.08208     -1005.931 8        48.047                                                                    23454931.128 8  92042224.29108      -751.138 8        50.594    23454930.681 8  94443320.54808      -770.734 8        50.709
S45        17.000    63377665.809 6 333052636.26806      -423.143 6        37.384
G03        18.000    20403175.409 8 107219467.25308     -1817.338 8        49.462                                    20403173.414 8  83547656.21908     -1416.108 8        50.965    20403174.010 7  83547665.22207     -1416.099 7        45.219
R21        19.000    19975100.025 8 106890829.32208     -2794.960 8        52.620                                                                    19975098.269 7  83137320.52207     -2173.865 7        46.422
R20        20.000    23369047.175 5 124964819.61505     -5007.332 5        32.479                                                                    23369050.078 6  97194853.07106     -3894.320 6        40.315
R05        21.000    22230379.005 7 118834156.83007     -3747.822 7        45.168                                                                    22230378.932 7  92426571.08107     -2914.937 7        42.758
I06        22.000    38049256.727 7 149313684.36207      -210.547 7        43.206
S28        23.000    40850332.948 5 214669951.67605      -377.765 5        34.138
E10        24.000    28460044.562 3                     -3525.625 3        19.284
S23        25.000    38129954.696 7 200374280.60507      -379.486 7        44.102
E06        26.000    23802584.368 7 125083486.22407     -1645.173 7        47.279                                                                    23802583.771 8  93406499.26808     -1228.530 8        49.790    23802583.736 8  95843189.02308     -1260.575 8        50.858
R15        27.000    22411969.687 7 119762783.61107       932.230 7        45.494                                                                    22411969.949 6  93148845.18206       725.050 6        40.346
G26        28.000    25223384.248 5 132549774.98305      1904.085 5        35.495                                    25223383.416 4 103285538.90304      1483.702 4        26.539    25223383.752 5 103285539.91305      1483.804 5        35.043
C22        30.000                                                                                                                                    25440097.390 7 132473276.10807      2359.909 7        42.663                                                                    25440092.103 7 107645371.92107      1917.624 7        42.201
I01        31.000   334686055.629 7  10239160.67107     -2626.596 7        42.398
G02        32.000    23627015.596 7 124160835.79807     -3709.636 7        42.269                                    23627010.327 4  96748696.71604     -2890.626 4        28.948
G19        33.000    22466590.827 7 118062760.53607     -1587.346 7        44.417                                    22466585.238 5  91996976.26705     -1236.897 5        31.374
G17        34.000    23426133.536 7 123105205.46707     -2814.284 7        43.009                                    23426129.104 6  95926142.40706     -2192.949 6        37.142    23426129.454 6  95926142.44106     -2193.157 6        37.822
E11        35.000    25796282.268 6 135560437.18406     -3185.550 6        39.441                                                                    25796278.677 7 101230212.51107     -2378.807 7        42.358    25796278.374 7 103870993.45707     -2440.847 7        42.641
C32        36.000                                                                                                                                    26979791.305 6 140490868.13206     -3235.246 6        39.652                                                                    26979792.005 6 114160346.65706     -2628.972 6        40.513
C35        37.000                                                                                                                                    22991709.654 8 119723881.40208      -969.539 8        48.319                                                                    22991707.932 7  97285459.94807      -787.845 7        47.603
I09        38.000    37319846.961 7 146451091.45007      -513.642 7        42.624
C29        39.000                                                                                                                                    24462569.743 7 127383011.37307     -3604.416 7        44.325                                                                    24462567.943 7 103509123.09407     -2928.826 7        44.873
R22        40.000    20631815.095 8 110134064.86708      1800.289 8        50.508                                                                    20631813.121 7  85659843.39507      1400.129 7        47.089
S44        42.000    40646721.644 6 213600164.65806      -461.277 6        37.248
C09        43.000                                                                                                                                    38466526.831 7 200305325.49607      -161.870 7        42.370    38466523.881 7 154888775.00207      -125.088 7        46.366    38466521.623 7 162764465.86707      -131.539 7        42.584
C05        44.000                                                                                                                                    39110969.712 6 203661114.29006      -403.364 6        38.510    39110965.252 7 157483715.51007      -311.907 7        43.338    39110966.754 6 165491440.31406      -327.783 6        40.205
R06        45.000    19390818.309 6 103473179.03306      -351.264 6        41.619
C44        46.000                                                                                                                                    24773158.953 7 129000374.53707      1581.661 7        42.373                                                                    24773157.608 7 104823375.02707      1285.206 7        43.209
C39        47.000                                                                                                                                    39254287.965 7 204407389.73807     -1156.334 7        42.047                                                                    39254283.889 7 166097737.07207      -939.635 7        42.542
C20        48.000                                                                                                                                    22587622.749 8 117619726.88108     -1967.174 8        50.766                                                                    22587617.233 8  95575654.66308     -1598.497 8        50.154
C06        49.000                                                                                                                                    38289532.456 6 199383665.73906      -672.397 6        41.135    38289526.537 7 154176081.52807      -519.978 7        44.832    38289526.241 7 162015540.00607      -546.441 7        42.087
C16        50.000                                                                                                                                    38798868.646 6 202035911.00906      -764.991 6        41.812    38798868.515 7 156226991.35207      -591.506 7        43.693    38798866.100 6 164170725.87406      -621.595 6        39.769
S48        51.000    77164175.648 6 405501795.83506      -376.955 6        37.527
C19        52.000                                                                                                                                    22176831.142 8 115480639.09008       581.311 8        50.969                                                                    22176825.936 8  93837482.19008       472.337 8        50.041
C60        54.000                                                                                                                                    40646724.938 6 211658364.36706      -457.011 6        39.024                                                                    40646709.253 6 171989727.35706      -371.494 6        39.550
R16        55.000    23563280.704 7 125870818.92107      3427.898 7        43.437                                                                    23563282.533 6  97899541.92906      2666.215 6        40.768
C37        56.000                                                                                                                                    25016530.905 7 130267646.24807       939.057 7        44.382                                                                    25016533.555 7 105853150.58907       762.900 7        44.739
C02        57.000                                                                                                                                    40595096.223 5 211389368.00105      -447.880 5        34.190    40595091.016 6 163459661.07706      -346.203 6        39.757    40595094.043 5 171771179.38905      -363.694 5        35.481
I03        58.000   131391965.533 6 439825048.41606       952.842 6        40.210
R07        59.000    21438678.768 8 114762945.43808      2367.774 8        48.688                                                                    21438677.406 7  89260068.82107      1841.562 7        44.116
> 2025 01 01 02 31 45.0000000  0 55
G28         1.000    24432388.540 6 128393080.98106     -3132.348 6        38.532                                    24432385.025 3 100046537.25603     -2440.777 3        21.976    24432385.481 6 100046543.25006     -2440.760 6        38.532
G31         2.000    22457352.416 7 118014199.24107     -1803.600 7        44.611                                    22457347.345 6  91959104.76606     -1405.400 6        41.328    22457348.404 6  91959103.76906     -1405.416 6        40.713
G09         3.000    21121476.044 7 110994144.14007      1963.354 7        47.412                                    21121473.571 8  86488953.26008      1529.885 8        48.982    21121473.935 7  86488954.26707      1529.837 7        43.445
E34         4.000    25199302.365 7 132423238.12707      1738.877 7        44.462                                                                    25199302.347 7  98887491.16107      1298.385 7        47.113    25199302.053 7 101467164.12507      1332.296 7        47.931
S21         5.000    38416660.530 7 201880736.54107      -383.163 7        42.925
E05         6.000    23932304.857 7 125765148.73307      2005.560 7        43.348                                                                    23932305.426 7  93915560.54907      1497.585 7        46.663    23932305.119 7  96365524.01607      1536.625 7        47.356
E04         8.000    25485734.447 7 133928460.96407     -2674.769 7        43.283                                                                    25485732.786 7 100011517.72907     -1997.445 7        46.512    25485732.250 7 102620505.81207     -2049.525 7        47.084
R14         9.000    23635776.364 7 125991965.06507     -2353.079 7        43.972                                                                    23635777.979 6  97993733.29806     -1830.176 6        40.739
G04        10.000    20096579.570 8 105608282.97408       235.198 8        48.774                                    20096576.007 7  82292178.02507       183.271 7        42.209    20096576.111 8  82292173.02208       183.277 8        48.817
E09        11.000    23398195.303 8 122958396.41308      -402.729 8        48.045                                                                    23398194.587 8  91819599.16108      -300.766 8        50.472    23398194.194 8  94214892.24808      -308.582 8        50.950
S27        12.000    39046790.867 6 205192268.59906      -376.635 6        36.015
G06        13.000    22451018.007 7 117980921.97607      2293.857 7        44.134                                    22451016.204 7  91933190.53707      1787.422 7        42.990    22451016.882 7  91933201.53007      1787.407 7        42.209
S36        14.000    38184085.614 7 200659225.01407      -383.190 7        44.141
E21        15.000    28819801.224 5                        84.744 5        30.558                                                                    28819804.204 5 113095122.11105        63.260 5        34.976    28819803.369 5 116045424.81105        64.466 5        35.595
E36        16.000    23455888.665 8 123261555.23908     -1007.930 8        48.071                                                                    23455889.104 8  92045983.55608      -752.624 8        50.588    23455888.676 8  94447177.87908      -772.273 8        50.806
S45        17.000    63378026.048 6 333054750.61906      -422.804 6        37.531
G03        18.000    20404905.473 8 107228557.62908     -1818.974 8        49.476                                    20404903.261 8  83554739.62908     -1417.383 8        50.991    20404903.917 7  83554748.63107     -1417.473 7        45.470
R21        19.000    19977713.320 8 106904813.24408     -2798.747 8        52.709                                                                    19977711.747 7  83148196.90607     -2176.838 7        46.298
R20        20.000    23373728.560 5 124989855.45105     -5007.562 5        32.611                                                                    23373731.717 6  97214325.36206     -3894.603 6        40.260
R05        21.000    22233884.038 7 118852896.35607     -3748.158 7        44.688                                                                    22233884.206 7  92441146.25107     -2915.197 7        42.973
I06        22.000    38049525.059 7 149314736.56807      -210.470 7        43.223
S28        23.000    40850692.708 5 214671839.99705      -377.697 5        34.657
E10        24.000    28463403.287 3                     -3529.424 3        19.403                                                                    28463403.294 3                     -2632.910 3        20.333
S23        25.000    38130316.660 7 200376176.48407      -379.228 7        44.384
E06        26.000    23804150.222 7 125091714.79307     -1646.459 7        47.353                                                                    23804149.563 8  93412643.97908     -1229.495 8        49.915    23804149.590 8  95849494.02708     -1261.529 8        50.940
R15        27.000    22411099.013 7 119758131.98007       928.483 7        45.723                                                                    22411099.241 6  93145227.25906       722.190 6        40.703
G26        28.000    25221572.487 5 132540257.15305      1903.006 5        35.400                                    25221572.189 4 103278122.40604      1482.859 4        26.611    25221572.883 5 103278123.41105      1482.759 5        34.986
C22        30.000                                                                                                                                    25437831.472 7 132461476.51707      2359.677 7        42.136                                                                    25437826.188 7 107635783.78607      1917.434 7        42.269
I01        31.000   334689401.931 7  10252292.79807     -2626.488 7        42.434
G02        32.000    23630545.820 7 124179385.94007     -3710.524 7        42.102                                    23630540.328 4  96763151.36404     -2891.301 4        28.882
G19        33.000    22468102.629 7 118070704.22407     -1590.360 7        44.331                                    22468096.856 5  92003166.14505     -1239.240 5        31.502
G17        34.000    23428811.794 7 123119279.72507     -2815.615 7        42.118                                    23428807.333 6  95937109.35706     -2193.981 6        37.025    23428807.980 6  95937109.34906     -2193.969 6        38.300
E11        35.000    25799313.415 6 135576367.08706     -3186.431 6        39.745                                                                    25799310.003 7 101242108.21807     -2379.527 7        42.372    25799309.858 7 103883199.48507     -2441.605 7        42.872
C32        36.000                                                                                                                                    26982897.774 6 140507044.05806     -3235.062 6        39.456                                                                    26982898.341 6 114173490.93106     -2628.849 6        40.482
C35        37.000                                                                                                                                    22992641.462 8 119728735.22808      -972.149 8        48.059                                                                    22992640.080 7  97289404.07407      -790.041 7        47.509
I09        38.000    37320501.309 7 146453659.27907      -513.619 7        42.597
C29        39.000                                                                                                                                    24466031.235 7 127401034.56007     -3605.004 7        44.251                                                                    24466029.259 7 103523768.40407     -2929.454 7        44.764
R22        40.000    20630130.344 8 110125072.03508      1796.680 8        50.418                                                                    20630128.475 7  85652848.96507      1397.454 7        47.022
S44        42.000    40647160.878 6 213602470.34606      -461.049 6        37.505
C09        43.000                                                                                                                                    38466682.676 7 200306135.73207      -162.402 7        42.317    38466679.417 7 154889401.52707      -125.600 7        46.344    38466677.350 7 162765124.24107      -132.120 7        42.413
C05        44.000                                                                                                                                    39111356.490 6 203663130.30606      -403.226 6        38.589    39111352.101 7 157485274.42507      -311.771 7        43.316    39111354.023 6 165493078.49606      -327.788 6        40.215
R06        45.000    19391149.001 6 103474940.59106      -353.595 6        41.282
C44        46.000                                                                                                                                    24771641.501 7 128992471.34007      1579.615 7        42.391                                                                    24771639.913 7 104816953.03007      1283.498 7        43.117
C39        47.000                                                                                                                                    39255398.406 6 204413171.96306     -1156.775 6        41.976                                                                    39255394.318 7 166102435.59607      -939.995 7        42.497
C20        48.000                                                                                                                                    22589512.256 8 117629564.68908     -1968.113 8        50.723                                                                    22589506.433 8  95583648.68608     -1599.278 8        50.090
C06        49.000                                                                                                                                    38290178.064 6 199387029.32006      -673.182 6        41.061    38290172.542 7 154178682.45507      -520.394 7        44.903    38290172.095 6 162018273.17506      -546.916 6        41.959
C16        50.000                                                                                                                                    38799603.129 6 202039736.59106      -765.525 6        41.824    38799603.203 7 156229949.52807      -591.919 7        43.693    38799600.967 6 164173834.46806      -621.946 6        39.610
S48        51.000    77164538.426 6 405503680.82006      -376.924 6        38.009
C19        52.000                                                                                                                                    22176273.514 8 115477735.35408       579.991 8        50.883                                                                    22176268.251 8  93835122.66008       471.257 8        49.939
C60        54.000                                                                                                                                    40647163.640 6 211660649.09106      -456.823 6        39.069                                                                    40647148.143 6 171991583.86406      -371.355 6        39.504
R16        55.000    23560072.850 7 125853681.44707      3427.006 7        43.335                                                                    23560074.280 6  97886212.79506      2665.393 6        40.515
C37        56.000                                                                                                                                    25015629.740 7 130262956.41707       936.767 7        44.144                                                                    25015633.006 7 105849339.69707       761.256 7        44.752
C02        57.000                                                                                                                                    40595527.712 5 211391606.15705      -447.695 5        34.519    40595520.412 6 163461391.77206      -346.023 6        39.829    40595524.070 5 171772998.08005      -363.714 5        35.910
I03        58.000   131390750.872 6 439820284.15506       952.798 6        40.322
R07        59.000    21436468.256 8 114751109.83308      2366.372 8        48.093                                                                    21436466.997 7  89250863.35007      1840.445 7        44.471
> 2025 01 01 02 31 50.0000000  0 54
G28         1.000    24435370.282 6 128408748.08406     -3134.303 6        39.003                                    24435366.564 3 100058745.38603     -2442.315 3        21.619    24435366.962 6 100058751.37306     -2442.187 6        38.069
G31         2.000    22459069.831 7 118023225.63207     -1806.821 7        44.781                                    22459065.034 6  91966138.31306     -1407.913 6        41.299    22459065.881 6  91966137.31906     -1407.792 6        40.794
G09         3.000    21119608.753 7 110984332.61607      1961.519 7        47.745                                    21119606.499 8  86481307.92008      1528.456 8        48.932    21119606.766 7  86481308.91807      1528.452 7        43.549
E34         4.000    25197648.296 7 132414547.50907      1737.671 7        44.394                                                                    25197648.536 7  98881001.40307      1297.599 7        47.015    25197648.224 7 101460505.06907      1331.466 7        47.945
S21         5.000    38417026.394 7 201882652.88807      -383.030 7        42.954
E05         6.000    23930397.486 7 125755124.17207      2004.537 7        43.778                                                                    23930397.784 7  93908074.66507      1496.894 7        46.553    23930397.526 7  96357842.84807      1535.959 7        47.359
E04         8.000    25488279.872 7 133941837.21207     -2675.403 7        43.261                                                                    25488278.247 7 100021506.48207     -1997.906 7        46.277    25488277.610 7 102630755.13607     -2050.006 7        47.081
R14         9.000    23637985.200 7 126003739.58407     -2356.571 7        43.221                                                                    23637987.062 6  98002891.20706     -1832.914 6        40.794
G04        10.000    20096357.111 8 105607113.43308       232.821 8        48.896                                    20096353.459 7  82291266.69607       181.419 7        42.157    20096353.521 8  82291261.69608       181.363 8        48.919
E09        11.000    23398579.407 8 122960414.75108      -404.328 8        48.100                                                                    23398578.661 8  91821106.36008      -301.955 8        50.315    23398578.264 8  94216438.76808      -309.829 8        50.945
S27        12.000    39047149.805 6 205194151.58606      -376.351 6        36.212
G06        13.000    22448836.266 7 117969457.93307      2292.012 7        44.262                                    22448834.678 7  91924257.52107      1785.984 7        42.921    22448835.600 7  91924268.52107      1786.052 7        42.645
S36        14.000    38184448.317 7 200661141.83907      -383.089 7        44.178
E21        15.000    28819722.277 5                        82.027 5        30.219                                                                    28819724.957 5 113094810.98705        61.517 5        34.905    28819724.203 5 116045105.56205        63.277 5        35.033
E36        16.000    23456848.687 7 123266600.26707     -1009.858 7        47.868                                                                    23456849.112 8  92049750.95108      -754.153 8        50.453    23456848.698 8  94451043.55508      -773.785 8        50.833
S45        17.000    63378388.710 6 333056864.95106      -422.708 6        37.898
G03        18.000    20406636.782 8 107237657.35408     -1820.584 8        49.345                                    20406634.883 8  83561830.32308     -1418.634 8        50.938    20406635.702 7  83561839.32407     -1418.614 7        45.615
R21        19.000    19980330.091 8 106918817.03008     -2802.489 8        52.299                                                                    19980329.083 7  83159088.74507     -2179.729 7        46.428
R20        20.000    23378411.052 5 125014894.47005     -5007.891 5        31.525                                                                    23378413.861 6  97233800.13906     -3895.035 6        40.355
R05        21.000    22237391.104 7 118871638.15907     -3748.330 7        45.296                                                                    22237390.181 7  92455723.22207     -2915.356 7        42.899
I06        22.000    38049793.234 7 149315788.87207      -210.268 7        43.096
S28        23.000    40851053.635 5 214673727.84305      -377.146 5        34.705
S23        25.000    38130675.709 7 200378072.10707      -378.810 7        44.384
E06        26.000    23805717.127 7 125099950.73907     -1647.705 7        47.351                                                                    23805716.842 8  93418794.19408     -1230.380 8        49.707    23805716.813 8  95855804.68908     -1262.508 8        50.933
R15        27.000    22410232.338 7 119753500.01607       924.608 7        46.202                                                                    22410232.689 6  93141624.62106       719.156 6        41.266
G26        28.000    25219763.246 5 132530746.70905      1901.542 5        35.762                                    25219762.407 4 103270711.67804      1481.730 4        26.754    25219762.393 5 103270712.68905      1481.684 5        34.124
C22        30.000                                                                                                                                    25435566.723 7 132449679.38707      2359.364 7        42.768                                                                    25435560.416 7 107626197.68107      1917.064 7        42.233
I01        31.000   334692748.609 7  10265425.43607     -2626.438 7        42.394
G02        32.000    23634076.547 7 124197940.90207     -3711.194 7        43.219                                    23634071.117 4  96777609.76804     -2891.837 4        29.005
G19        33.000    22469617.145 7 118078663.87207     -1593.271 7        44.235                                    22469611.515 5  92009368.46505     -1241.506 5        31.404
G17        34.000    23431491.317 7 123133361.91007     -2817.046 7        43.141                                    23431487.038 6  95948082.48206     -2195.101 6        37.062    23431487.862 6  95948082.48006     -2195.033 6        38.120
E11        35.000    25802345.729 6 135592302.32206     -3187.147 6        40.067                                                                    25802342.274 7 101254007.90307     -2380.128 7        42.193    25802342.408 7 103895409.59807     -2442.260 7        43.058
C32        36.000                                                                                                                                    26986003.985 6 140523219.47206     -3234.698 6        39.492                                                                    26986004.559 6 114186634.79206     -2628.673 6        40.322
C35        37.000                                                                                                                                    22993576.122 8 119733603.13308      -974.793 8        48.014                                                                    22993574.965 7  97293359.65207      -792.145 7        47.623
I09        38.000    37321156.064 7 146456227.73007      -513.596 7        42.792
C29        39.000                                                                                                                                    24469493.136 7 127419061.95307     -3605.630 7        44.447                                                                    24469491.349 7 103538417.14207     -2929.876 7        44.850
R22        40.000    20628449.252 8 110116098.05208      1793.135 8        50.704                                                                    20628447.514 7  85645869.21707      1394.676 7        47.352
S44        42.000    40647599.164 6 213604775.95806      -460.905 6        37.369
C09        43.000                                                                                                                                    38466839.321 7 200306949.92207      -163.058 7        42.313    38466835.595 7 154890031.11607      -126.147 7        46.287    38466833.626 7 162765785.84507      -132.490 7        42.493
C05        44.000                                                                                                                                    39111743.790 6 203665146.40106      -403.038 6        38.132    39111739.160 7 157486833.38907      -311.659 7        43.321    39111741.221 6 165494716.73006      -327.403 6        40.136
R06        45.000    19391481.430 6 103476714.37706      -355.790 6        41.259
C44        46.000                                                                                                                                    24770125.461 6 128984579.21606      1577.437 6        41.886                                                                    24770124.334 7 104810540.03907      1281.826 7        43.181
C39        47.000                                                                                                                                    39256509.844 6 204418957.16206     -1157.167 6        41.950                                                                    39256505.251 7 166107136.56507      -940.247 7        42.368
C20        48.000                                                                                                                                    22591402.585 8 117639408.21408     -1969.022 8        50.712                                                                    22591396.784 8  95591647.37108     -1600.055 8        50.098
C06        49.000                                                                                                                                    38290824.597 6 199390396.69106      -673.524 6        40.980    38290819.223 7 154181286.32907      -520.930 7        44.936    38290818.690 6 162021009.46806      -547.269 6        41.878
C16        50.000                                                                                                                                    38800338.878 6 202043565.73206      -766.012 6        41.335    38800338.321 7 156232910.47307      -592.332 7        43.797    38800336.207 6 164176945.97206      -622.291 6        39.607
S48        51.000    77164892.852 6 405505565.88706      -377.084 6        37.777
C19        52.000                                                                                                                                    22175717.066 8 115474838.95408       578.802 8        50.832                                                                    22175712.063 8  93832769.11308       470.274 8        49.940
C60        54.000                                                                                                                                    40647602.512 6 211662933.76706      -456.660 6        38.925                                                                    40647586.894 6 171993440.36406      -371.064 6        39.300
R16        55.000    23556866.029 7 125836548.89507      3426.210 7        43.270                                                                    23556866.658 6  97872887.46306      2664.808 6        41.001
C37        56.000                                                                                                                                    25014731.262 7 130258278.26907       934.681 7        44.259                                                                    25014734.573 7 105845538.34707       759.486 7        44.841
C02        57.000                                                                                                                                    40595957.382 5 211393844.38005      -447.532 5        34.133    40595950.327 6 163463122.49406      -346.048 6        39.898    40595953.712 5 171774816.81705      -363.626 5        35.929
I03        58.000   131389537.299 6 439815520.00406       953.012 6        40.400
R07        59.000    21434258.066 8 114739282.47608      2364.939 8        48.334                                                                    21434257.780 7  89241664.30007      1839.421 7        44.986
