     3.04           OBSERVATION DATA    M                   RINEX VERSION / TYPE
ssrcrin-15.6.1x                         20250101 014500 UTC PGM / RUN BY / DATE 
(00000000023479385599111004) Septentrio proprietary         COMMENT             
rref                                                        MARKER NAME         
01                                                          MARKER NUMBER       
geodetic                                                    MARKER TYPE         
NFB                 CLIMERS@TUW                             OBSERVER / AGENCY   
3297213             SEPT ASTERX SB3 PROB4.14.4              REC # / TYPE / VERS 
Unknown             Unknown                                 ANT # / TYPE        
  4127831.4982  1207193.0159  4695247.2718                  APPROX POSITION XYZ 
        0.0000        0.0000        0.0000                  ANTENNA: DELTA H/E/N
G   23 X1  C1C L1C D1C S1C C1W S1W C2W L2W D2W S2W C2L L2L  SYS / # / OBS TYPES 
       D2L S2L C5Q L5Q D5Q S5Q C1L L1L D1L S1L              SYS / # / OBS TYPES 
E   21 X1  C1C L1C D1C S1C C6C L6C D6C S6C C5Q L5Q D5Q S5Q  SYS / # / OBS TYPES 
       C7Q L7Q D7Q S7Q C8Q L8Q D8Q S8Q                      SYS / # / OBS TYPES 
S    9 X1  C1C L1C D1C S1C C5I L5I D5I S5I                  SYS / # / OBS TYPES 
R   17 X1  C1C L1C D1C S1C C2P L2P D2P S2P C2C L2C D2C S2C  SYS / # / OBS TYPES 
       C3Q L3Q D3Q S3Q                                      SYS / # / OBS TYPES 
C   25 X1  C1P L1P D1P S1P C5P L5P D5P S5P C2I L2I D2I S2I  SYS / # / OBS TYPES 
       C7I L7I D7I S7I C6I L6I D6I S6I C7D L7D D7D S7D      SYS / # / OBS TYPES 
J   17 X1  C1C L1C D1C S1C C2L L2L D2L S2L C5Q L5Q D5Q S5Q  SYS / # / OBS TYPES 
       C1L L1L D1L S1L                                      SYS / # / OBS TYPES 
I    5 X1  C5A L5A D5A S5A                                  SYS / # / OBS TYPES 
SEPTENTRIO RECEIVERS OUTPUT ALIGNED CARRIER PHASES.         COMMENT             
NO FURTHER PHASE SHIFT APPLIED IN THE RINEX ENCODER.        COMMENT             
G L1C                                                       SYS / PHASE SHIFT   
G L2W                                                       SYS / PHASE SHIFT   
G L2L  0.00000                                              SYS / PHASE SHIFT   
G L5Q  0.00000                                              SYS / PHASE SHIFT   
G L1L  0.00000                                              SYS / PHASE SHIFT   
E L1C  0.00000                                              SYS / PHASE SHIFT   
E L6C  0.00000                                              SYS / PHASE SHIFT   
E L5Q  0.00000                                              SYS / PHASE SHIFT   
E L7Q  0.00000                                              SYS / PHASE SHIFT   
E L8Q  0.00000                                              SYS / PHASE SHIFT   
S L1C                                                       SYS / PHASE SHIFT   
S L5I                                                       SYS / PHASE SHIFT   
R L1C                                                       SYS / PHASE SHIFT   
R L2P  0.00000                                              SYS / PHASE SHIFT   
R L2C                                                       SYS / PHASE SHIFT   
R L3Q  0.00000                                              SYS / PHASE SHIFT   
C L1P  0.00000                                              SYS / PHASE SHIFT   
C L5P  0.00000                                              SYS / PHASE SHIFT   
C L2I                                                       SYS / PHASE SHIFT   
C L7I                                                       SYS / PHASE SHIFT   
C L6I                                                       SYS / PHASE SHIFT   
C L7D                                                       SYS / PHASE SHIFT   
J L1C                                                       SYS / PHASE SHIFT   
J L2L  0.00000                                              SYS / PHASE SHIFT   
J L5Q  0.00000                                              SYS / PHASE SHIFT   
J L1L  0.00000                                              SYS / PHASE SHIFT   
I L5A                                                       SYS / PHASE SHIFT   
  2025     1     1     1    45    0.0000000     GPS         TIME OF FIRST OBS   
 C1C    0.000 C2C    0.000 C2P    0.000                     GLONASS COD/PHS/BIS 
DBHZ                                                        SIGNAL STRENGTH UNIT
    18                                                      LEAP SECONDS        
 24 R01  1 R02 -4 R03  5 R04  6 R05  1 R06 -4 R07  5 R08  6 GLONASS SLOT / FRQ #
    R09 -2 R10 -7 R11  0 R12 -1 R13 -2 R14 -7 R15  0 R16 -1 GLONASS SLOT / FRQ #
    R17  4 R18 -3 R19  3 R20  2 R21  4 R22 -3 R23  3 R24  2 GLONASS SLOT / FRQ #
                                                            END OF HEADER       
> 2025 01 01 01 45  0.0000000  0 52
G28         1.000    23425950.723 7 123104216.81507     -1662.371 7        42.118                                    23425946.665 4  95925345.28904     -1295.351 4        28.654    23425947.840 6  95925351.29106     -1295.468 6        41.981
G31         2.000    22315724.142 7 117269934.84407       165.357 7        45.199                                    22315719.114 7  91379157.69307       128.846 7        42.391    22315720.202 6  91379156.69706       128.881 6        41.828
G09         3.000    22736864.696 7 119483061.56907      2901.481 7        43.718                                    22736863.023 7  93103692.15707      2260.895 7        42.554    22736863.070 6  93103693.15606      2260.814 6        41.213
E34         4.000    26582861.496 6 139693886.19106      2248.147 6        40.839                                                                    26582861.802 7 104316869.95107      1678.793 7        44.042    26582861.452 7 107038179.02107      1722.647 7        45.105
S21         5.000    38504268.797 7 202341110.05807      -410.927 7        42.375
E05         6.000    25445076.304 6 133714801.17406      2500.533 6        40.141                                                                    25445077.784 7  99851985.18107      1867.339 7        42.891    25445077.385 7 102456812.37907      1916.011 7        44.373
G21         7.000    23770373.791 6 124914209.12306     -3487.468 6        39.793                                    23770369.431 4  97335749.55804     -2717.505 4        24.962
E04         8.000    24505597.996 7 128777811.08107     -2053.919 7        45.228                                                                    24505596.188 8  96165253.65308     -1533.708 8        48.533    24505595.941 8  98673904.36208     -1573.753 8        49.945
R14         9.000    23274881.195 7 124068218.42207      -109.262 7        45.136                                                                    23274882.573 6  96497492.16906       -84.985 6        40.377
G04        10.000    20908811.062 7 109876585.62307      1664.490 7        47.081                                    20908808.019 6  85618127.13006      1297.004 6        37.701    20908808.261 7  85618122.12907      1296.979 7        46.283
E09        11.000    23758427.677 8 124851427.58808       645.037 8        48.263                                                                    23758427.211 8  93233225.49708       481.687 8        50.333    23758426.784 8  95665395.89308       494.289 8        51.138
S27        12.000    39139518.547 5 205679554.58705      -398.662 5        35.962
G06        13.000    24196421.932 6 127153077.13406      3005.577 6        38.715                                    24196420.726 5  99080322.98205      2342.005 5        34.595    24196421.852 6  99080333.99006      2341.971 6        38.604
S36        14.000    38271705.815 7 201119659.26607      -411.086 7        44.077
E27        15.000    29033301.914 5 152571023.25205      -746.410 5        35.205                                                                    29033301.987 6 113932913.60606      -557.510 6        38.312    29033301.788 6 116905074.27506      -571.765 6        39.547
E36        16.000    23527273.152 7 123636683.37707       123.852 7        47.947                                                                    23527273.201 8  92326112.09608        92.527 8        50.595    23527273.051 8  94734614.07608        94.860 8        51.617
S45        17.000    63468370.509 6 333529690.29606      -451.344 6        37.656
G03        18.000    20015590.509 8 105182695.35108      -749.231 8        49.892                                    20015588.377 8  81960561.46108      -583.817 8        52.205    20015588.992 7  81960570.47507      -583.901 7        45.971
R21        19.000    19436733.746 8 104009928.99908      -355.759 8        52.317                                                                    19436732.025 7  80896621.50707      -276.692 7        45.982
R20        20.000    21223370.473 6 113490938.33606     -4160.727 6        37.879                                                                    21223372.325 7  88270727.20207     -3236.049 7        44.629
R05        21.000    20672284.274 8 110505249.14808     -3243.662 8        49.952                                                                    20672283.780 7  85948532.23207     -2522.795 7        45.840
I06        22.000    38196249.002 7 149890513.29207      -217.841 7        42.866
S28        23.000    40941632.033 5 215149732.42305      -404.551 5        34.052
E10        24.000    26941688.908 6 141579646.52906     -3244.730 6        39.622                                                                    26941688.780 7 105725125.64507     -2422.747 7        44.315    26941688.018 7 108483163.14907     -2486.079 7        45.342
S23        25.000    38220075.156 7 200847862.50107      -407.221 7        44.445
E06        26.000    23467484.538 7 123322524.87407      -689.383 7        47.884                                                                    23467484.049 8  92091495.60408      -514.817 8        50.447    23467483.858 8  94493880.92208      -528.228 8        51.381
R15        27.000    23698525.744 7 126637731.54207      2659.097 7        43.299                                                                    23698526.326 6  98496022.92406      2068.166 6        39.363
G02        32.000    22137204.004 7 116331830.16307     -2924.144 7        47.769                                    22137197.665 6  90648174.77006     -2278.555 6        37.418
G19        33.000    22424290.124 7 117840470.75007       334.198 7        43.854                                    22424283.683 5  91823764.57605       260.417 5        32.305
G17        34.000    22521899.026 7 118353430.40007     -1596.101 7        45.332                                    22521894.813 7  92223462.23207     -1243.716 7        42.849    22521895.287 6  92223462.23106     -1243.609 6        41.447
E11        35.000    24578010.658 7 129158382.53607     -2470.757 7        43.264                                                                    24578006.617 7  96449459.12207     -1844.986 7        44.972    24578006.328 7  98965524.55507     -1893.144 7        45.923
C32        36.000                                                                                                                                    25531388.357 7 132948659.07707     -3236.835 7        42.792                                                                    25531388.798 7 108031684.96607     -2630.177 7        43.898
C35        37.000                                                                                                                                    23192219.598 8 120767990.31108       588.034 8        48.301                                                                    23192217.834 7  98133884.29807       477.806 7        47.738
I09        38.000    37272234.729 7 146264251.59507      -457.742 7        43.602
C29        39.000                                                                                                                                    23004068.083 8 119788218.01908     -2829.466 8        48.979                                                                    23004065.894 7  97337733.10607     -2299.227 7        47.710
R22        40.000    22332910.122 7 119214622.91107      3359.092 7        47.366                                                                    22332908.642 7  92722498.31607      2612.725 7        44.150
S44        42.000    40693655.142 6 213846790.55706      -486.735 6        38.009
C09        43.000                                                                                                                                    38795379.774 7 202017741.38907       275.385 7        42.152    38795375.626 7 156212922.97307       212.896 7        45.880    38795373.849 7 164155943.56807       223.696 7        42.078
C05        44.000                                                                                                                                    39189523.565 6 204070165.52806      -418.991 6        38.228    39189518.576 7 157800020.60507      -323.969 7        43.464    39189519.895 6 165823828.56406      -340.360 6        39.985
R06        45.000    19879501.860 6 106080883.08606      1095.593 6        40.617
C44        46.000                                                                                                                                    26200672.296 6 136433786.95806      2515.961 6        39.517                                                                    26200672.688 6 110863626.12506      2044.378 6        40.682
C39        47.000                                                                                                                                    39027429.467 6 203226078.23106      -781.349 6        41.852                                                                    39027425.784 7 165137824.53607      -634.968 7        42.990
C20        48.000                                                                                                                                    22017366.252 8 114650251.10308     -1225.612 8        52.053                                                                    22017360.350 8  93162712.52008      -995.995 8        49.761
C06        49.000                                                                                                                                    38344166.090 6 199668159.01406      -225.907 6        41.013    38344160.539 7 154396069.26107      -174.598 7        44.169    38344160.653 6 162246713.70106      -183.492 6        41.852
C16        50.000                                                                                                                                    38797270.484 7 202027583.79807      -340.678 7        42.959    38797270.352 7 156220551.65607      -263.398 7        43.718    38797267.729 6 164163958.89906      -276.911 6        40.100
S48        51.000    77255263.490 6 405979361.97806      -408.711 6        37.512
C19        52.000                                                                                                                                    23003986.249 8 119787851.08508      1377.952 8        49.005                                                                    23003981.689 8  97337443.98608      1119.694 8        49.108
C60        54.000                                                                                                                                    40693656.016 6 211902748.25906      -482.403 6        39.387                                                                    40693640.877 6 172188309.85906      -391.898 6        40.377
C37        56.000                                                                                                                                    26117944.333 6 136002996.35006      1940.198 6        40.253                                                                    26117948.735 7 110513590.84307      1576.434 7        42.027
C02        57.000                                                                                                                                    40649301.156 5 211671625.78505      -465.003 5        33.844    40649294.831 6 163677921.50306      -359.179 6        40.048    40649298.153 5 172000537.63205      -378.010 5        35.267
I03        58.000   132370431.237 6 443664760.09306       950.526 6        40.784
R07        59.000    23187257.452 7 124123207.94707      3127.395 7        44.731                                                                    23187256.724 6  96540268.99706      2432.403 6        38.345
> 2025 01 01 01 45  5.0000000  0 52
G28         1.000    23427533.823 6 123112536.96806     -1665.341 6        41.871                                    23427530.040 4  95931828.52204     -1297.666 4        28.645    23427530.869 7  95931834.51207     -1297.599 7        42.288
G31         2.000    22315568.650 7 117269116.61607       162.242 7        45.035                                    22315563.452 7  91378520.11907       126.422 7        42.425    22315563.789 6  91378519.12806       126.465 6        41.647
G09         3.000    22734104.820 7 119468557.47707      2900.531 7        43.014                                    22734103.008 7  93092390.27307      2260.152 7        42.506    22734103.509 6  93092391.27506      2260.234 6        41.945
E34         4.000    26580722.914 6 139682646.81606      2247.958 6        41.011                                                                    26580722.971 7 104308476.91307      1678.614 7        44.078    26580722.669 7 107029567.03207      1722.507 7        45.007
S21         5.000    38504658.212 7 202343164.41607      -410.466 7        42.455
E05         6.000    25442697.448 6 133702299.92506      2500.295 6        39.691                                                                    25442698.812 7  99842649.84807      1867.184 7        42.880    25442698.487 7 102447233.50807      1915.869 7        44.271
G21         7.000    23773692.340 6 124931647.84006     -3487.989 6        40.164                                    23773687.617 4  97349338.17404     -2717.915 4        25.143
E04         8.000    24507552.840 7 128788084.33807     -2055.071 7        45.022                                                                    24507551.114 8  96172925.24108     -1534.625 8        48.556    24507550.897 8  98681776.07608     -1574.679 8        49.857
R14         9.000    23274985.772 7 124068775.00907      -113.092 7        45.102                                                                    23274986.666 6  96497925.02206       -87.947 6        40.827
G04        10.000    20907228.678 7 109868268.88107      1662.446 7        46.683                                    20907225.409 6  85611646.55306      1295.412 6        37.690    20907225.584 7  85611641.54707      1295.490 7        46.313
E09        11.000    23757815.162 8 124848207.30208       643.346 8        48.237                                                                    23757814.355 8  93230820.74108       480.520 8        50.306    23757813.976 8  95662928.40608       493.029 8        51.113
S27        12.000    39139901.045 6 205681547.68206      -398.137 6        36.163
G06        13.000    24193562.432 6 127138050.80706      3005.354 6        39.390                                    24193561.311 5  99068614.15405      2341.835 5        34.695    24193562.229 6  99068625.14306      2341.825 6        38.784
S36        14.000    38272099.108 7 201121714.49107      -410.813 7        43.998
E27        15.000    29034013.106 5 152574761.17105      -748.423 5        34.595                                                                    29034013.649 6 113935704.95706      -558.934 6        38.066    29034012.971 6 116907938.46106      -573.329 6        39.435
E36        16.000    23527156.271 8 123636068.78808       122.355 8        48.047                                                                    23527156.213 8  92325653.14908        91.369 8        50.559    23527156.084 8  94734143.15908        93.730 8        51.598
S45        17.000    63468756.383 6 333531946.78106      -450.917 6        37.512
G03        18.000    20016304.242 8 105186446.32908      -750.901 8        49.854                                    20016302.169 8  81963484.29808      -585.118 8        52.186    20016302.795 7  81963493.29907      -585.124 7        46.000
R21        19.000    19437068.494 8 104011718.75408      -359.882 8        52.604                                                                    19437066.783 7  80898013.53907      -279.988 7        45.869
R20        20.000    21227262.114 6 113511747.58006     -4162.708 6        37.618                                                                    21227263.958 7  88286912.16907     -3237.727 7        44.366
R05        21.000    20675319.127 8 110521470.88908     -3244.799 8        49.707                                                                    20675318.066 7  85961149.14007     -2523.727 7        45.583
I06        22.000    38196526.396 7 149891602.31107      -217.623 7        42.969
S28        23.000    40942016.808 5 215151753.86205      -403.856 5        34.495
E10        24.000    26944776.414 6 141595871.24706     -3245.040 6        39.661                                                                    26944776.182 7 105737241.52107     -2423.244 7        44.292    26944775.456 7 108495595.08307     -2486.522 7        45.201
S23        25.000    38220463.637 7 200849897.97407      -406.830 7        44.253
E06        26.000    23468141.431 7 123325976.69807      -691.020 7        47.668                                                                    23468140.903 8  92094073.26108      -516.021 8        50.462    23468140.766 8  94496525.82208      -529.457 8        51.262
R15        27.000    23696038.198 7 126624441.48507      2657.198 7        43.073                                                                    23696039.334 6  98485686.22906      2066.852 6        39.604
G02        32.000    22139987.069 7 116346455.36007     -2925.648 7        47.464                                    22139980.772 6  90659571.02206     -2279.727 6        37.365
G19        33.000    22423973.401 7 117838808.36407       330.995 7        43.809                                    22423967.378 5  91822469.21105       257.919 5        32.395
G17        34.000    22523419.395 7 118361417.74007     -1598.566 7        44.921                                    22523414.744 7  92229686.13107     -1245.637 7        42.781    22523415.253 6  92229686.13306     -1245.647 6        41.785
E11        35.000    24580362.056 7 129170739.82607     -2471.962 7        42.918                                                                    24580357.990 7  96458686.96407     -1845.824 7        45.067    24580357.932 7  98974993.12407     -1893.979 7        45.905
C32        36.000                                                                                                                                    25534496.312 7 132964843.56607     -3236.660 7        42.965                                                                    25534496.715 7 108044836.18107     -2630.029 7        43.663
C35        37.000                                                                                                                                    23191655.924 8 120765056.45408       585.806 8        48.332                                                                    23191654.460 7  98131500.29507       475.977 7        47.611
I09        38.000    37272818.319 7 146266540.71907      -457.660 7        43.397
C29        39.000                                                                                                                                    23006785.817 8 119802370.00708     -2831.001 8        48.842                                                                    23006783.592 7  97349232.75007     -2300.538 7        47.574
R22        40.000    22329765.410 7 119197831.96707      3357.600 7        47.020                                                                    22329763.966 7  92709438.70307      2611.434 7        44.039
S44        42.000    40694121.666 6 213849224.17706      -486.379 6        38.171
C09        43.000                                                                                                                                    38795116.004 7 202016366.89507       274.875 7        42.245    38795111.817 7 156211860.13907       212.521 7        45.732    38795109.972 6 164154826.67406       223.316 6        41.917
C05        44.000                                                                                                                                    39189925.371 6 204072259.57806      -418.505 6        38.168    39189920.566 7 157801639.85207      -323.553 7        43.348    39189922.055 6 165825530.15906      -340.152 6        39.724
R06        45.000    19878476.109 6 106075411.26306      1093.378 6        40.386
C44        46.000                                                                                                                                    26198256.847 6 136421209.52606      2515.165 6        39.063                                                                    26198257.230 6 110853405.95006      2043.759 6        40.434
C39        47.000                                                                                                                                    39028180.182 6 203229987.32706      -781.884 6        41.783                                                                    39028176.404 7 165141001.00407      -635.423 7        42.895
C20        48.000                                                                                                                                    22018543.787 8 114656382.98208     -1226.852 8        52.214                                                                    22018537.910 8  93167695.17208      -996.948 8        49.808
C06        49.000                                                                                                                                    38344383.699 6 199669290.13406      -226.409 6        40.901    38344378.224 7 154396943.91507      -175.021 7        44.324    38344377.898 6 162247632.82706      -184.033 6        41.709
C16        50.000                                                                                                                                    38797597.849 7 202029289.85407      -341.408 7        42.872    38797598.032 7 156221870.88607      -263.957 7        43.727    38797595.380 6 164165345.20606      -277.363 6        39.706
S48        51.000    77255650.643 6 405981405.68306      -408.491 6        37.410
C19        52.000                                                                                                                                    23002663.787 8 119780964.69808      1376.880 8        49.011                                                                    23002659.275 8  97331848.23908      1118.804 8        49.052
C60        54.000                                                                                                                                    40694119.142 6 211905159.75906      -482.053 6        39.631                                                                    40694103.958 6 172190269.38606      -391.716 6        40.205
C37        56.000                                                                                                                                    26116082.043 6 135993298.50806      1939.308 6        39.946                                                                    26116086.376 6 110505710.55906      1575.786 6        41.967
C02        57.000                                                                                                                                    40649746.695 5 211673949.05405      -464.225 5        33.844    40649741.116 6 163679717.99906      -358.809 6        39.784    40649744.260 5 172002425.46705      -377.449 5        35.305
I03        58.000   132369219.546 6 443660007.11806       950.817 6        40.677
R07        59.000    23184336.809 7 124107573.84107      3126.550 7        44.974                                                                    23184336.724 6  96528109.15006      2431.821 6        38.943
> 2025 01 01 01 45 10.0000000  0 52
G28         1.000    23429120.351 7 123120872.94107     -1668.623 7        42.398                                    23429116.375 4  95938324.07704     -1300.230 4        28.569    23429116.754 7  95938330.07707     -1300.215 7        42.370
G31         2.000    22315415.933 7 117268316.20407       158.538 7        45.254                                    22315411.198 7  91377896.42007       123.538 7        42.508    22315411.648 6  91377895.42006       123.471 6        41.514
G09         3.000    22731345.692 7 119454060.31507      2898.841 7        43.225                                    22731344.276 7  93081093.78507      2258.834 7        42.567    22731344.094 6  93081094.78406      2258.927 6        41.609
E34         4.000    26578584.460 6 139671410.46106      2247.213 6        40.963                                                                    26578584.720 7 104300086.11707      1678.203 7        44.182    26578584.400 7 107020957.36107      1721.824 7        44.938
S21         5.000    38505050.767 7 202345219.07707      -410.772 7        42.519
E05         6.000    25440319.168 6 133689802.35506      2499.514 6        39.294                                                                    25440320.493 7  99833317.26407      1866.392 7        43.062    25440320.281 7 102437657.46607      1915.097 7        44.232
G21         7.000    23777011.696 6 124949091.02106     -3488.838 6        40.226                                    23777006.688 4  97362930.25704     -2718.586 4        25.353
E04         8.000    24509509.278 7 128798365.31707     -2056.771 7        45.011                                                                    24509507.482 8  96180602.59108     -1535.859 8        48.704    24509507.262 8  98689653.70608     -1575.955 8        49.775
R14         9.000    23275093.805 7 124069352.45907      -117.429 7        44.962                                                                    23275095.343 6  96498374.11506       -91.331 6        40.467
G04        10.000    20905648.075 7 109859964.44607      1659.853 7        47.131                                    20905645.147 6  85605175.56806      1293.390 6        37.784    20905645.494 7  85605170.56307      1293.397 7        46.515
E09        11.000    23757204.178 8 124844997.00308       641.264 8        48.160                                                                    23757203.482 8  93228423.44608       478.872 8        50.548    23757203.054 8  95660468.56608       491.381 8        50.965
S27        12.000    39140280.659 5 205683540.62405      -398.327 5        35.971
G06        13.000    24190703.683 6 127123028.16206      3004.463 6        38.745                                    24190702.617 5  99056908.19605      2341.138 5        34.833    24190703.201 6  99056919.19006      2341.042 6        38.607
S36        14.000    38272489.597 7 201123770.15007      -411.099 7        44.065
E27        15.000    29034726.402 5 152578510.80105      -751.007 5        34.810                                                                    29034727.133 6 113938505.06906      -560.732 6        38.024    29034726.709 6 116910811.60906      -575.209 6        39.231
E36        16.000    23527041.002 8 123635463.76408       120.238 8        48.004                                                                    23527041.079 8  92325201.34608        89.839 8        50.782    23527041.001 8  94733679.56708        92.171 8        51.464
S45        17.000    63469139.914 6 333532603.38916      -451.110 6        37.240
G03        18.000    20017019.971 8 105190207.56008      -753.129 8        49.924                                    20017017.910 8  81966415.12708      -586.852 8        52.246    20017018.383 7  81966424.12807      -586.846 7        45.968
R21        19.000    19437407.290 8 104013531.30208      -364.623 8        52.477                                                                    19437405.958 7  80899423.28307      -283.584 7        46.292
R20        20.000    21231156.235 6 113532569.37006     -4165.196 6        37.656                                                                    21231158.027 7  88303106.88107     -3239.678 7        44.551
R05        21.000    20678354.992 8 110537700.55008     -3246.478 8        49.736                                                                    20678354.351 7  85973772.20507     -2525.074 7        45.813
I06        22.000    38196804.144 7 149892691.53507      -217.761 7        43.041
S28        23.000    40942403.755 5 215153775.19605      -404.276 5        34.529
E10        24.000    26947864.378 6 141612100.21006     -3245.977 6        39.778                                                                    26947864.430 7 105749360.54207     -2424.012 7        44.334    26947863.911 7 108508030.25107     -2487.226 7        45.150
S23        25.000    38220849.515 7 200851933.67007      -406.964 7        44.117
E06        26.000    23468800.302 7 123329438.64107      -693.212 7        47.637                                                                    23468799.721 8  92096658.47708      -517.650 8        50.623    23468799.517 8  94499178.47708      -531.134 8        51.194
R15        27.000    23693553.411 7 126611162.19707      2655.001 7        43.947                                                                    23693555.004 6  98475357.89306      2065.006 6        39.318
G02        32.000    22142772.018 7 116361090.06707     -2927.704 7        46.984                                    22142765.748 6  90670974.68606     -2281.325 6        37.403
G19        33.000    22423660.271 7 117837163.79007       327.391 7        43.966                                    22423654.409 5  91821187.72005       255.104 5        32.473
G17        34.000    22524941.736 7 118369418.96807     -1601.436 7        45.260                                    22524937.336 7  92235920.85107     -1247.870 7        42.900    22524937.570 6  92235920.84406     -1247.854 6        41.366
E11        35.000    24582715.205 7 129183104.87107     -2473.644 7        42.954                                                                    24582711.081 7  96467920.59807     -1847.121 7        45.159    24582710.935 7  98984467.62907     -1895.240 7        45.732
C32        36.000                                                                                                                                    25537604.819 7 132981029.32307     -3237.143 7        43.107                                                                    25537604.862 7 108057988.42707     -2630.458 7        43.579
C35        37.000                                                                                                                                    23191094.785 8 120762136.20508       582.885 8        48.385                                                                    23191093.645 7  98129127.34707       473.549 7        47.604
I09        38.000    37273401.540 7 146268830.68507      -457.862 7        43.606
C29        39.000                                                                                                                                    23009505.425 8 119816532.04008     -2833.184 8        48.949                                                                    23009503.294 7  97360740.54807     -2302.226 7        47.523
R22        40.000    22326621.879 7 119181050.34907      3355.705 7        47.125                                                                    22326619.909 7  92696386.33907      2609.872 7        43.860
S44        42.000    40694586.245 6 213851657.98206      -486.519 6        38.189
C09        43.000                                                                                                                                    38794852.679 7 202014996.81307       273.772 7        42.491    38794848.735 7 156210800.69307       211.658 7        45.831    38794846.859 6 164153713.36106       222.396 6        41.945
C05        44.000                                                                                                                                    39190327.285 6 204074353.91406      -418.727 6        38.231    39190322.757 7 157803259.31807      -323.709 7        43.259    39190324.089 6 165827231.95106      -340.280 6        39.835
R06        45.000    19877453.621 6 106069953.20406      1090.448 6        40.520
C44        46.000                                                                                                                                    26195843.337 6 136408638.17506      2513.844 6        39.661                                                                    26195842.974 6 110843190.72006      2042.657 6        40.603
C39        47.000                                                                                                                                    39028931.683 6 203233900.71306      -782.900 6        41.735                                                                    39028927.896 7 165144180.94807      -636.224 7        42.914
C20        48.000                                                                                                                                    22019723.025 8 114662523.05008     -1228.602 8        52.282                                                                    22019717.002 8  93172684.47908      -998.396 8        49.665
C06        49.000                                                                                                                                    38344601.822 6 199670425.96606      -227.467 6        41.008    38344596.185 7 154397822.21507      -175.885 7        44.376    38344595.919 6 162248555.77506      -184.843 6        41.709
C16        50.000                                                                                                                                    38797926.509 7 202031000.45107      -342.460 7        43.100    38797926.436 7 156223193.62407      -264.649 7        43.706    38797923.914 6 164166735.18706      -278.095 6        39.808
S48        51.000    77256034.693 6 405983449.42706      -408.832 6        37.353
C19        52.000                                                                                                                                    23001342.659 8 119774085.70408      1375.244 8        49.090                                                                    23001338.155 8  97326258.48808      1117.480 8        48.976
C60        54.000                                                                                                                                    40694582.112 6 211907571.43206      -482.246 6        39.673                                                                    40694567.272 6 172192229.07706      -391.831 6        40.303
C37        56.000                                                                                                                                    26114221.782 6 135983607.11506      1937.907 6        40.024                                                                    26114225.346 7 110497835.49507      1574.656 7        42.013
C02        57.000                                                                                                                                    40650192.391 5 211676272.59405      -464.323 5        33.689    40650187.071 6 163681514.73206      -359.256 6        39.742    40650190.487 5 172004313.53505      -377.511 5        34.886
I03        58.000   132368008.785 6 443655254.44506       950.572 6        40.770
R07        59.000    23181417.433 7 124091945.65707      3125.235 7        45.788                                                                    23181418.137 6  96515953.89206      2430.775 6        38.504
> 2025 01 01 01 45 15.0000000  0 52
G28         1.000    23430709.673 7 123129223.96007     -1671.742 7        42.123                                    23430705.603 4  95944831.36604     -1302.656 4        28.493    23430705.879 6  95944837.34806     -1302.536 6        41.635
G31         2.000    22315267.123 7 117267532.81607       154.980 7        45.240                                    22315262.168 7  91377285.98907       120.762 7        42.317    22315262.761 6  91377284.97206       120.840 6        41.063
G09         3.000    22728588.571 7 119439569.24307      2897.761 7        43.281                                    22728586.689 7  93069802.05107      2257.993 7        42.463    22728586.610 6  93069803.05506      2258.006 6        41.173
E34         4.000    26576446.714 6 139660176.36506      2246.673 6        41.039                                                                    26576446.925 7 104291697.02007      1677.720 7        44.349    26576446.755 7 107012349.41407      1721.448 7        45.014
S21         5.000    38505441.784 7 202347273.18907      -410.816 7        42.445
E05         6.000    25437941.202 6 133677307.70806      2498.666 6        39.096                                                                    25437942.735 7  99823986.85607      1865.810 7        43.050    25437942.602 7 102428083.64607      1914.607 7        44.193
G21         7.000    23780331.429 6 124966537.80206     -3489.641 6        39.598                                    23780326.358 4  97376525.15104     -2719.203 4        24.722
E04         8.000    24511467.087 7 128808653.23407     -2058.267 7        45.260                                                                    24511465.263 8  96188285.12908     -1536.966 8        48.857    24511465.005 8  98697536.65908     -1577.105 8        49.773
R14         9.000    23275206.185 7 124069950.23107      -121.499 7        45.985                                                                    23275206.677 6  96498839.03206       -94.597 6        40.334
G04        10.000    20904070.258 7 109851671.54607      1657.466 7        46.980                                    20904067.058 6  85598713.56806      1291.532 6        37.607    20904067.247 7  85598708.56707      1291.493 7        46.196
E09        11.000    23756595.021 8 124841795.91908       639.373 8        48.281                                                                    23756594.354 8  93226033.02508       477.429 8        50.576    23756593.940 8  95658015.78808       489.913 8        51.018
S27        12.000    39140661.565 6 205685532.79406      -398.213 6        36.030
G06        13.000    24187845.926 6 127108008.48306      3003.695 6        39.069                                    24187844.472 5  99045204.54505      2340.543 5        34.643    24187845.084 6  99045215.53706      2340.576 6        38.775
S36        14.000    38272877.796 7 201125825.41907      -410.860 7        43.918
E27        15.000    29035441.778 5 152582271.21905      -753.272 5        34.662                                                                    29035442.697 6 113941313.16206      -562.302 6        38.477    29035442.314 6 116913692.96106      -576.990 6        39.234
E36        16.000    23526927.396 8 123634867.53308       118.374 8        48.121                                                                    23526927.625 8  92324756.10808        88.392 8        50.797    23526927.506 8  94733222.71108        90.722 8        51.526
S45        17.000    63469522.908 6 333534859.33406      -451.116 6        37.391
G03        18.000    20017737.481 8 105193978.25008      -755.042 8        49.686                                    20017735.453 8  81969353.32708      -588.348 8        52.118    20017735.819 7  81969362.33107      -588.380 7        45.637
R21        19.000    19437749.603 8 104015365.89508      -369.148 8        52.594                                                                    19437748.044 7  80900850.19607      -287.018 7        45.862
R20        20.000    21235052.205 6 113553402.83706     -4167.885 6        37.720                                                                    21235054.342 7  88319310.69507     -3241.642 7        44.933
R05        21.000    20681392.967 8 110553937.23808     -3247.966 8        50.046                                                                    20681391.736 7  85986400.73707     -2526.160 7        45.664
I06        22.000    38197081.609 7 149893780.41907      -217.706 7        42.929
S28        23.000    40942784.178 5 215155795.90205      -404.324 5        34.138
E10        24.000    26950953.352 6 141628332.62406     -3246.779 6        40.093                                                                    26950953.182 7 105761482.15407     -2424.571 7        44.310    26950953.022 7 108520468.08307     -2487.847 7        45.204
S23        25.000    38221238.417 7 200853968.84107      -406.917 7        44.399
E06        26.000    23469460.661 7 123332909.92707      -695.219 7        47.958                                                                    23469460.260 8  92099250.67008      -519.089 8        50.708    23469460.105 8  94501838.29308      -532.664 8        51.233
R15        27.000    23691070.287 7 126597892.82907      2652.902 7        44.092                                                                    23691071.026 6  98465037.28806      2063.355 6        39.342
G02        32.000    22145558.859 7 116375733.46207     -2929.481 7        47.426                                    22145552.387 6  90682385.12006     -2282.713 6        37.134
G19        33.000    22423350.959 7 117835536.25407       323.903 7        43.985                                    22423344.709 5  91819919.50605       252.395 5        32.234
G17        34.000    22526466.725 7 118377433.28407     -1604.087 7        45.326                                    22526462.432 7  92242165.77007     -1249.938 7        42.690    22526462.545 6  92242165.77506     -1250.058 6        41.380
E11        35.000    24585069.419 7 129195476.90307     -2475.072 7        43.386                                                                    24585065.419 7  96477159.44907     -1848.171 7        45.285    24585065.353 7  98993947.50507     -1896.473 7        45.965
C32        36.000                                                                                                                                    25540713.455 7 132997215.58707     -3237.116 7        42.667                                                                    25540713.472 7 108071141.11107     -2630.634 7        43.374
C35        37.000                                                                                                                                    23190536.389 8 120759228.82008       580.242 8        48.248                                                                    23190535.283 7  98126764.87207       471.441 7        47.677
I09        38.000    37273984.954 7 146271120.92507      -458.020 7        43.452
C29        39.000                                                                                                                                    23012227.010 8 119830703.31908     -2835.139 8        48.950                                                                    23012224.772 7  97372255.88807     -2303.889 7        47.604
R22        40.000    22323479.495 7 119164277.31907      3353.794 7        46.892                                                                    22323477.050 7  92683340.64607      2608.457 7        43.018
S44        42.000    40695046.827 6 213854091.21006      -486.659 6        38.063
C09        43.000                                                                                                                                    38794589.841 7 202013630.32807       272.905 7        42.294    38794586.442 7 156209744.03807       211.119 7        45.741    38794584.417 7 164152602.98907       221.753 7        42.119
C05        44.000                                                                                                                                    39190729.552 6 204076447.72906      -418.623 6        38.228    39190724.922 7 157804878.39607      -323.706 7        43.253    39190726.164 6 165828933.37306      -340.307 6        39.706
R06        45.000    19876432.391 6 106064508.10106      1087.838 6        40.446
C44        46.000                                                                                                                                    26193429.931 6 136396072.10506      2512.666 6        39.721                                                                    26193429.784 6 110832979.78806      2041.635 6        39.955
C39        47.000                                                                                                                                    39029683.827 6 203237817.59306      -783.753 6        41.895                                                                    39029680.122 7 165147363.75107      -636.955 7        42.900
C20        48.000                                                                                                                                    22020903.578 8 114668670.53708     -1230.184 8        52.149                                                                    22020897.558 8  93177679.82408      -999.748 8        49.743
C06        49.000                                                                                                                                    38344820.864 6 199671565.72306      -228.244 6        40.925    38344814.999 7 154398703.55107      -176.577 7        44.460    38344814.931 6 162249481.94406      -185.600 6        41.797
C16        50.000                                                                                                                                    38798256.064 7 202032714.83507      -343.161 7        43.191    38798255.651 7 156224519.29807      -265.402 7        43.424    38798252.995 6 164168128.28106      -278.920 6        39.988
S48        51.000    77256418.546 6 405985492.74806      -408.427 6        37.474
C19        52.000                                                                                                                                    23000022.723 8 119767213.32708      1373.826 8        48.982                                                                    23000018.384 8  97320674.13308      1116.299 8        49.050
C60        54.000                                                                                                                                    40695045.363 6 211909982.54106      -482.215 6        39.489                                                                    40695030.331 6 172194188.30606      -391.901 6        40.307
C37        56.000                                                                                                                                    26112362.136 6 135973921.38806      1936.596 6        40.534                                                                    26112365.451 7 110489965.07507      1573.609 7        42.191
C02        57.000                                                                                                                                    40650640.376 5 211678595.66405      -464.407 5        34.109    40650632.861 6 163683311.06406      -359.171 6        39.619    40650636.764 5 172006201.23805      -377.691 5        35.133
I03        58.000   132366797.464 6 443650501.48506       950.692 6        40.665
R07        59.000    23178499.354 7 124076322.53907      3124.049 7        46.594                                                                    23178498.499 6  96503802.54906      2429.966 6        38.937
> 2025 01 01 01 45 20.0000000  0 52
G28         1.000    23432301.289 7 123137590.20607     -1674.886 7        42.366                                    23432297.711 4  95951350.51704     -1305.106 4        28.455    23432298.075 7  95951356.51707     -1305.098 7        42.438
G31         2.000    22315121.335 7 117266766.63007       151.416 7        45.168                                    22315116.424 7  91376688.96007       117.987 7        42.150    22315117.137 6  91376687.97606       117.985 6        41.998
G09         3.000    22725832.053 7 119425084.52307      2896.171 7        44.262                                    22725830.319 7  93058515.26407      2256.759 7        42.328    22725830.702 6  93058516.26906      2256.779 6        41.824
E34         4.000    26574309.368 6 139648944.71106      2245.962 6        41.337                                                                    26574309.633 7 104283309.76007      1677.144 7        44.304    26574309.364 7 107003743.34507      1720.925 7        44.999
S21         5.000    38505832.219 7 202349327.04407      -410.958 7        42.502
E05         6.000    25435564.613 6 133664816.15906      2497.981 6        39.613                                                                    25435565.811 7  99814658.76607      1865.252 7        42.957    25435565.537 7 102418512.22707      1913.841 7        44.104
G21         7.000    23783652.253 6 124983988.44006     -3490.675 6        39.498                                    23783646.828 4  97390123.05404     -2720.011 4        24.556
E04         8.000    24513426.132 7 128818948.26407     -2059.779 7        45.260                                                                    24513424.308 8  96195972.98308     -1538.191 8        48.805    24513424.063 8  98705425.06008     -1578.304 8        49.703
R14         9.000    23275322.444 7 124070568.27307      -125.822 7        44.659                                                                    23275323.909 6  96499319.72506       -97.870 6        41.273
G04        10.000    20902494.379 7 109843390.37307      1654.943 7        46.649                                    20902491.186 6  85592260.70906      1289.566 6        37.418    20902491.250 7  85592255.71207      1289.524 7        46.398
E09        11.000    23755987.673 8 124838604.23808       637.224 8        48.368                                                                    23755986.994 8  93223649.63308       475.868 8        50.541    23755986.639 8  95655570.22308       488.257 8        50.988
S27        12.000    39141038.612 6 205687524.91206      -398.633 6        36.076
G06        13.000    24184988.435 6 127092991.92506      3002.740 6        39.625                                    24184986.939 5  99033503.33405      2339.798 5        34.476    24184987.356 6  99033514.32806      2339.807 6        38.730
S36        14.000    38273269.215 7 201127879.88307      -410.967 7        44.017
E27        15.000    29036159.474 5 152586042.59405      -755.790 5        33.826                                                                    29036160.484 6 113944129.40806      -564.113 6        38.123    29036159.990 6 116916582.68306      -578.944 6        39.006
E36        16.000    23526815.767 8 123634280.28208       116.412 8        48.195                                                                    23526815.877 8  92324317.57908        86.885 8        50.805    23526815.746 8  94732772.74708        89.173 8        51.468
S45        17.000    63469913.755 6 333537114.80106      -451.165 6        37.694
G03        18.000    20018456.682 8 105197758.60708      -757.231 8        49.860                                    20018454.830 8  81972299.06108      -590.051 8        51.931    20018455.465 7  81972308.05907      -589.965 7        46.115
R21        19.000    19438096.981 8 104017222.65608      -373.741 8        52.490                                                                    19438095.198 7  80902294.34507      -290.697 7        46.210
R20        20.000    21238950.968 6 113574248.18206     -4170.492 6        38.420                                                                    21238952.256 7  88335523.73407     -3243.652 7        45.791
R05        21.000    20684431.675 8 110570181.08408     -3249.625 8        50.044                                                                    20684430.555 7  85999034.84507     -2527.520 7        45.929
I06        22.000    38197358.707 7 149894869.09107      -217.840 7        42.857
S28        23.000    40943166.940 5 215157816.63905      -404.286 5        34.200
E10        24.000    26954043.045 6 141644568.70106     -3247.747 6        39.895                                                                    26954042.793 7 105773606.49107     -2425.225 7        44.226    26954042.808 7 108532908.70407     -2488.511 7        45.099
S23        25.000    38221625.288 7 200856003.33307      -407.010 7        44.238
E06        26.000    23470123.245 7 123336390.73607      -697.209 7        47.754                                                                    23470122.628 8  92101849.98508      -520.692 8        50.716    23470122.453 8  94504505.41508      -534.249 8        51.172
R15        27.000    23688589.439 7 126584633.79507      2650.653 7        44.125                                                                    23688590.317 6  98454724.70606      2061.682 6        39.246
G02        32.000    22148347.111 7 116390385.72607     -2931.486 7        47.271                                    22148340.636 6  90693802.46606     -2284.272 6        36.945
G19        33.000    22423044.612 7 117833925.97607       320.102 7        44.230                                    22423038.229 5  91818664.74705       249.434 5        32.120
G17        34.000    22527994.771 7 118385460.91307     -1606.965 7        45.533                                    22527990.059 7  92248421.06307     -1252.182 7        42.595    22527990.383 6  92248421.06706     -1252.192 6        40.932
E11        35.000    24587425.276 7 129207856.10207     -2476.688 7        43.740                                                                    24587421.222 7  96486403.66907     -1849.517 7        45.339    24587420.909 7  99003432.86807     -1897.693 7        45.687
C32        36.000                                                                                                                                    25543821.979 7 133013402.57507     -3237.543 7        42.106                                                                    25543821.905 7 108084294.35807     -2630.882 7        43.162
C35        37.000                                                                                                                                    23189980.631 8 120756334.49408       577.440 8        48.117                                                                    23189979.398 7  98124413.00807       469.121 7        47.627
I09        38.000    37274569.199 7 146273411.59007      -458.262 7        43.547
C29        39.000                                                                                                                                    23014950.369 8 119844884.02808     -2837.212 8        48.906                                                                    23014948.019 7  97383778.88407     -2305.543 7        47.546
R22        40.000    22320337.968 7 119147513.02207      3351.879 7        47.598                                                                    22320336.636 7  92670301.75107      2607.018 7        42.885
S44        42.000    40695511.603 6 213856524.05306      -486.653 6        38.171
C09        43.000                                                                                                                                    38794327.938 7 202012267.64007       272.065 7        42.284    38794324.730 7 156208690.32907       210.295 7        45.645    38794322.779 6 164151495.70806       220.992 6        41.869
C05        44.000                                                                                                                                    39191131.386 6 204078541.24306      -418.899 6        38.237    39191126.907 7 157806497.24007      -323.915 7        43.153    39191128.306 6 165830634.52506      -340.385 6        39.793
R06        45.000    19875414.868 6 106059076.15706      1084.914 6        40.446
C44        46.000                                                                                                                                    26191017.291 6 136383511.58706      2511.443 6        39.096                                                                    26191017.813 6 110822773.35506      2040.593 6        39.796
C39        47.000                                                                                                                                    39030436.653 6 203241738.14906      -784.609 6        41.964                                                                    39030433.079 7 165150549.53807      -637.693 7        42.785
C20        48.000                                                                                                                                    22022085.341 8 114674825.61908     -1231.901 8        51.929                                                                    22022079.633 8  93182681.34208     -1001.191 8        49.676
C06        49.000                                                                                                                                    38345040.392 6 199672709.61806      -229.338 6        41.032    38345034.635 7 154399588.08307      -177.339 7        44.408    38345034.512 6 162250411.44406      -186.334 6        41.766
C16        50.000                                                                                                                                    38798585.679 7 202034433.18507      -344.262 7        43.050    38798585.559 7 156225848.03507      -266.087 7        43.443    38798583.229 6 164169524.59006      -279.844 6        39.793
S48        51.000    77256809.030 6 405987535.68006      -408.720 6        37.399
C19        52.000                                                                                                                                    22998704.323 8 119760347.75808      1372.286 8        48.795                                                                    22998699.901 8  97315095.30408      1115.018 8        48.993
C60        54.000                                                                                                                                    40695508.252 6 211912393.25706      -482.169 6        39.222                                                                    40695493.050 6 172196147.22606      -391.949 6        40.184
C37        56.000                                                                                                                                    26110503.230 6 135964241.57406      1935.045 6        40.684                                                                    26110506.463 7 110482099.44007      1572.437 7        42.150
C02        57.000                                                                                                                                    40651085.074 5 211680918.39105      -464.796 5        33.916    40651079.111 6 163685107.16106      -359.513 6        39.694    40651082.661 5 172008088.65305      -377.722 5        35.257
I03        58.000   132365586.243 6 443645748.41006       950.457 6        40.729
R07        59.000    23175581.599 7 124060704.66407      3122.860 7        46.019                                                                    23175580.448 6  96491655.33806      2428.826 6        39.435
> 2025 01 01 01 45 25.0000000  0 52
G28         1.000    23433896.548 7 123145972.48007     -1678.119 7        42.239                                    23433892.882 4  95957882.15404     -1307.625 4        28.663    23433893.184 7  95957888.16207     -1307.588 7        42.895
G31         2.000    22314978.875 7 117266018.43907       147.845 7        45.105                                    22314974.119 7  91376105.95707       115.200 7        42.157    22314974.939 7  91376104.96607       115.190 7        42.025
G09         3.000    22723077.209 7 119410606.92107      2894.823 7        43.668                                    22723075.298 7  93047234.02007      2255.707 7        42.275    22723075.621 6  93047235.01506      2255.769 6        41.128
E34         4.000    26572172.634 6 139637716.31106      2245.329 6        41.125                                                                    26572172.868 7 104274924.90507      1676.713 7        44.156    26572172.749 7 106995139.76707      1720.474 7        44.987
S21         5.000    38506219.345 7 202351381.71607      -411.057 7        42.341
E05         6.000    25433188.631 6 133652328.54206      2497.028 6        39.823                                                                    25433189.414 7  99805333.60307      1864.702 7        42.948    25433189.214 7 102408943.78507      1913.434 7        44.233
G21         7.000    23786973.829 6 125001443.70206     -3491.474 6        38.961                                    23786968.483 4  97403724.55804     -2720.634 4        24.195
E04         8.000    24515386.612 7 128829251.23207     -2061.529 7        45.064                                                                    24515384.882 8  96203666.74708     -1539.406 8        48.773    24515384.615 8  98713319.53208     -1579.561 8        49.802
R14         9.000    23275441.399 7 124071207.50507      -130.035 7        44.822                                                                    23275443.573 6  96499816.92006      -101.200 6        41.044
G04        10.000    20900920.876 7 109835121.73807      1652.424 7        46.856                                    20900917.712 6  85585817.61806      1287.601 6        37.440    20900917.916 7  85585812.61507      1287.613 7        46.246
E09        11.000    23755382.290 8 124835422.74808       635.241 8        48.271                                                                    23755381.578 8  93221273.85308       474.372 8        50.496    23755381.197 8  95653132.46408       486.730 8        51.051
S27        12.000    39141417.466 5 205689517.47705      -398.638 5        35.871
G06        13.000    24182131.151 6 127077979.31606      3002.087 6        39.817                                    24182130.087 5  99021805.20605      2339.291 5        34.424    24182130.581 6  99021816.19806      2339.362 6        38.598
S36        14.000    38273662.486 7 201129935.14707      -411.177 7        44.181
E27        15.000    29036879.493 5 152589825.98205      -758.053 5        34.352                                                                    29036880.403 6 113946954.63506      -565.548 6        38.114    29036879.803 6 116919481.61406      -580.701 6        39.090
E36        16.000    23526705.877 8 123633702.81808       114.542 8        48.088                                                                    23526705.982 8  92323886.35608        85.528 8        50.713    23526705.874 8  94732330.27508        87.731 8        51.471
S45        17.000    63470298.999 6 333539370.54606      -451.506 6        37.595
G03        18.000    20019178.121 8 105201549.40308      -759.318 8        49.643                                    20019176.192 8  81975252.92608      -591.677 8        51.892    20019176.780 7  81975261.92207      -591.631 7        46.086
R21        19.000    19438447.972 8 104019102.43908      -378.318 8        52.439                                                                    19438446.688 7  80903756.39307      -294.183 7        46.037
R20        20.000    21242851.454 6 113595106.14706     -4172.942 6        37.569                                                                    21242852.592 7  88351746.59907     -3245.633 7        45.792
R05        21.000    20687471.019 8 110586432.99608     -3251.219 8        49.045                                                                    20687470.393 7  86011675.22607     -2528.779 7        45.494
I06        22.000    38197636.412 7 149895958.14207      -217.870 7        42.925
S28        23.000    40943555.560 5 215159837.45605      -404.234 5        34.205
E10        24.000    26957133.580 6 141660809.21506     -3248.549 6        40.219                                                                    26957133.214 7 105785734.14607     -2425.875 7        44.120    26957133.170 7 108545352.73007     -2489.182 7        45.001
S23        25.000    38222012.956 7 200858038.21007      -407.000 7        44.388
E06        26.000    23470787.518 7 123339881.86607      -699.278 7        47.831                                                                    23470787.001 8  92104457.00008      -522.206 8        50.659    23470786.811 8  94507180.44108      -535.852 8        51.251
R15        27.000    23686109.522 7 126571385.88907      2648.422 7        44.004                                                                    23686110.374 6  98444420.78806      2059.859 6        39.225
G02        32.000    22151137.036 7 116405047.67407     -2933.454 7        47.322                                    22151130.682 6  90705227.35806     -2285.812 6        36.896
G19        33.000    22422741.290 7 117832333.72207       316.668 7        44.293                                    22422735.263 5  91817424.02705       246.755 5        32.120
G17        34.000    22529524.689 7 118393502.62707     -1609.740 7        45.207                                    22529520.361 7  92254687.33207     -1254.341 7        42.588    22529520.529 6  92254687.33806     -1254.430 6        41.435
E11        35.000    24589782.209 7 129220243.30407     -2478.350 7        43.094                                                                    24589778.424 7  96495653.84207     -1850.746 7        45.383    24589778.111 7  99012924.35207     -1898.964 7        45.851
C32        36.000                                                                                                                                    25546930.514 6 133029591.01906     -3237.817 6        41.709                                                                    25546930.672 7 108097448.77707     -2631.031 7        43.052
C35        37.000                                                                                                                                    23189427.753 8 120753454.01608       574.596 8        48.088                                                                    23189426.306 7  98122072.36207       467.059 7        47.516
I09        38.000    37275153.030 7 146275703.28507      -458.460 7        43.661
C29        39.000                                                                                                                                    23017675.587 8 119859074.96408     -2839.323 8        48.751                                                                    23017673.233 7  97395310.15907     -2307.051 7        47.482
R22        40.000    22317199.671 7 119130758.35107      3349.932 7        47.035                                                                    22317198.503 7  92657270.34007      2605.550 7        43.850
S44        42.000    40695972.779 6 213858957.30006      -486.669 6        38.078
C09        43.000                                                                                                                                    38794067.100 7 202010909.57907       271.003 7        42.174    38794063.922 7 156207640.19107       209.589 7        45.645    38794061.937 6 164150392.15806       220.354 6        41.974
C05        44.000                                                                                                                                    39191533.814 6 204080635.24006      -418.805 6        38.240    39191529.071 7 157808116.45507      -323.862 7        43.191    39191530.354 6 165832336.06606      -340.282 6        39.700
R06        45.000    19874399.575 6 106053658.17906      1082.185 6        40.911
C44        46.000                                                                                                                                    26188605.953 6 136370957.43806      2510.166 6        39.739                                                                    26188607.080 6 110812572.07306      2039.863 6        40.880
C39        47.000                                                                                                                                    39031190.493 6 203245663.21106      -785.450 6        41.990                                                                    39031186.784 7 165153738.94007      -638.197 7        42.878
C20        48.000                                                                                                                                    22023268.868 8 114680989.10208     -1233.563 8        52.026                                                                    22023263.240 8  93187689.65808     -1002.335 8        49.602
C06        49.000                                                                                                                                    38345261.299 6 199673858.39306      -230.415 6        41.178    38345255.395 7 154400476.38907      -178.079 7        44.542    38345255.018 6 162251344.91106      -187.053 6        41.776
C16        50.000                                                                                                                                    38798916.861 7 202036156.29507      -345.186 7        43.082    38798916.252 7 156227180.45207      -266.860 7        43.359    38798914.107 6 164170924.74806      -280.377 6        39.730
S48        51.000    77257193.715 6 405989579.08906      -409.028 6        37.539
C19        52.000                                                                                                                                    22997387.600 8 119753489.79708      1370.815 8        48.833                                                                    22997382.942 8  97309522.63608      1113.904 8        48.883
C60        54.000                                                                                                                                    40695971.194 6 211914804.39006      -482.482 6        39.402                                                                    40695956.292 6 172198106.45006      -391.903 6        40.126
C37        56.000                                                                                                                                    26108645.418 6 135954568.42906      1933.894 6        40.989                                                                    26108648.790 7 110474239.20807      1571.571 7        42.000
C02        57.000                                                                                                                                    40651531.029 5 211683241.60705      -464.589 5        33.695    40651525.665 6 163686903.61306      -359.337 6        39.450    40651528.835 5 172009976.44105      -377.450 5        35.290
I03        58.000   132364375.246 6 443640995.79706       950.459 6        40.756
R07        59.000    23172664.245 7 124045092.80207      3121.861 7        46.549                                                                    23172665.409 6  96479512.83206      2427.882 6        40.176
> 2025 01 01 01 45 30.0000000  0 53
G28         1.000    23435494.280 7 123154370.20507     -1681.118 7        42.169                                    23435491.071 4  95964425.83504     -1309.966 4        28.493    23435490.899 7  95964431.84207     -1310.019 7        42.950
G31         2.000    22314839.978 7 117265287.68907       144.383 7        44.682                                    22314835.186 7  91375536.54207       112.505 7        42.047    22314835.670 7  91375535.55707       112.476 7        42.191
G09         3.000    22720322.944 7 119396135.89007      2893.583 7        43.217                                    22720321.512 7  93035957.89907      2254.741 7        42.155    22720321.592 6  93035958.90806      2254.603 6        41.390
E34         4.000    26570036.602 6 139626490.62806      2244.785 6        41.347                                                                    26570036.706 7 104266542.09107      1676.343 7        44.360    26570036.504 7 106986538.26007      1720.136 7        45.138
S21         5.000    38506614.534 7 202353436.67607      -411.036 7        42.351
E05         6.000    25430812.798 6 133639844.25706      2496.566 6        40.050                                                                    25430813.696 7  99796010.94207      1864.267 7        42.857    25430813.531 7 102399377.92707      1912.979 7        44.263
G21         7.000    23790295.903 6 125018902.98906     -3492.333 6        38.372                                    23790291.033 4  97417329.19204     -2721.302 4        24.286
E04         8.000    24517348.466 7 128839561.53207     -2062.827 7        44.880                                                                    24517346.829 8  96211365.99608     -1540.466 8        48.847    24517346.641 8  98721219.63308     -1580.611 8        49.870
R14         9.000    23275565.440 7 124071867.35307      -134.007 7        44.748                                                                    23275567.087 6  96500330.13906      -104.184 6        40.956
G04        10.000    20899349.775 7 109826865.07207      1650.086 7        46.929                                    20899346.509 6  85579383.85306      1285.783 6        37.338    20899346.931 7  85579378.86007      1285.753 7        46.409
E09        11.000    23754778.590 8 124832250.90708       633.424 8        48.254                                                                    23754778.018 8  93218905.27408       472.964 8        50.559    23754777.542 8  95650702.09408       485.362 8        51.091
S27        12.000    39141797.746 5 205691509.60205      -398.409 5        35.871
G06        13.000    24179275.036 6 127062970.11306      3001.467 6        39.778                                    24179273.905 5  99010109.72505      2338.802 5        34.276    24179274.425 6  99010120.72206      2338.888 6        38.646
S36        14.000    38274050.551 7 201131989.36707      -410.813 7        43.890
E27        15.000    29037601.711 5 152593620.69605      -759.903 5        33.737                                                                    29037602.414 6 113949788.36206      -567.683 6        38.036    29037601.888 6 116922389.26106      -582.489 6        39.174
E36        16.000    23526597.774 7 123633134.58807       112.724 7        47.968                                                                    23526597.835 8  92323462.02608        84.203 8        50.794    23526597.738 8  94731894.87908        86.383 8        51.577
S45        17.000    63470685.830 6 333541626.07906      -451.029 6        37.493
G03        18.000    20019901.218 8 105205350.09808      -761.154 8        49.761                                    20019899.437 8  81978214.50708      -593.109 8        51.772    20019900.026 7  81978223.51507      -593.163 7        46.146
R21        19.000    19438803.606 8 104021004.68608      -382.656 8        52.643                                                                    19438802.093 7  80905235.92307      -297.597 7        46.139
R20        20.000    21246753.989 6 113615976.28406     -4175.262 6        37.860                                                                    21246754.463 7  88367978.91907     -3247.430 7        44.441
R05        21.000    20690512.985 8 110602692.40108     -3252.602 8        49.339                                                                    20690512.100 7  86024321.41407     -2529.747 7        45.839
I06        22.000    38197913.993 7 149897047.17607      -217.799 7        42.855
S28        23.000    40943940.272 5 215161858.22405      -404.049 5        34.324
E10        24.000    26960224.996 6 141677053.60306     -3249.213 6        40.408                                                                    26960224.550 7 105797864.70207     -2426.439 7        44.232    26960224.271 7 108557799.72807     -2489.710 7        45.067
S23        25.000    38222401.209 7 200860072.86507      -407.057 7        44.456
E06        26.000    23471453.552 7 123343382.76707      -701.206 7        47.971                                                                    23471453.190 8  92107071.30708      -523.634 8        50.730    23471453.023 8  94509862.94608      -537.237 8        51.279
R15        27.000    23683632.471 7 126558148.27507      2646.510 7        43.915                                                                    23683633.066 6  98434124.87606      2058.442 6        39.177
I01        31.000   333145850.919 7   4195068.37517     -2585.620 7        42.880
G02        32.000    22153928.899 7 116419718.72407     -2935.167 7        47.889                                    22153922.401 6  90716659.34606     -2287.142 6        36.870
G19        33.000    22422441.892 7 117830758.96307       313.227 7        43.841                                    22422435.579 5  91816196.94105       244.079 5        31.940
G17        34.000    22531057.423 7 118401557.83907     -1612.388 7        44.947                                    22531053.228 7  92260964.11707     -1256.405 7        42.514    22531053.572 6  92260964.11406     -1256.367 6        41.735
E11        35.000    24592140.878 7 129232637.91407     -2479.697 7        42.787                                                                    24592137.008 7  96504909.55107     -1851.740 7        45.320    24592136.692 7  99022421.51907     -1899.997 7        45.926
C32        36.000                                                                                                                                    25550039.351 6 133045780.38106     -3238.012 6        41.778                                                                    25550039.679 7 108110603.96707     -2631.019 7        43.126
C35        37.000                                                                                                                                    23188877.220 7 120750586.82407       572.062 7        47.672                                                                    23188875.753 7  98119742.53807       464.994 7        47.649
I09        38.000    37275737.066 7 146277995.57707      -458.552 7        43.446
C29        39.000                                                                                                                                    23020402.416 8 119873275.54808     -2841.186 8        48.700                                                                    23020400.258 7  97406849.29307     -2308.551 7        47.464
R22        40.000    22314062.573 7 119114012.75907      3348.132 7        46.422                                                                    22314061.886 7  92644246.00907      2604.240 7        44.057
S44        42.000    40696433.173 6 213861390.40306      -486.785 6        37.887
C09        43.000                                                                                                                                    38793807.601 7 202009555.53607       270.361 7        42.214    38793803.833 7 156206593.16207       209.218 7        45.573    38793801.911 7 164149291.90207       219.807 7        42.030
C05        44.000                                                                                                                                    39191935.665 6 204082729.16606      -418.929 6        38.000    39191931.088 7 157809735.60307      -323.877 7        43.160    39191932.595 6 165834037.54606      -340.266 6        39.814
R06        45.000    19873386.616 6 106048253.54906      1079.496 6        41.249
C44        46.000                                                                                                                                    26186196.305 6 136358409.07406      2509.064 6        38.577                                                                    26186197.184 6 110802375.51306      2039.010 6        40.334
C39        47.000                                                                                                                                    39031945.092 6 203249592.19406      -786.310 6        41.857                                                                    39031941.289 7 165156931.56407      -638.753 7        42.823
C20        48.000                                                                                                                                    22024454.334 8 114687160.40808     -1235.089 8        52.023                                                                    22024448.388 8  93192704.35408     -1003.526 8        49.616
C06        49.000                                                                                                                                    38345482.882 6 199675011.52506      -231.232 6        40.956    38345476.654 7 154401368.06207      -178.650 7        44.628    38345476.533 6 162252281.93006      -187.614 6        41.614
C16        50.000                                                                                                                                    38799248.102 7 202037883.60207      -345.903 7        42.899    38799248.054 7 156228516.13007      -267.533 7        43.403    38799245.802 6 164172328.33806      -281.027 6        39.859
S48        51.000    77257581.132 6 405991622.19306      -408.622 6        37.456
C19        52.000                                                                                                                                    22996072.037 8 119746638.87408      1369.463 8        48.591                                                                    22996067.278 8  97303955.70508      1112.902 8        48.930
C60        54.000                                                                                                                                    40696434.392 6 211917215.36906      -482.325 6        39.147                                                                    40696419.087 6 172200065.56106      -391.742 6        40.310
C37        56.000                                                                                                                                    26106788.772 6 135944901.43106      1932.689 6        40.880                                                                    26106792.206 6 110466383.98706      1570.540 6        41.831
C02        57.000                                                                                                                                    40651977.051 5 211685564.76105      -464.807 5        33.677    40651971.423 6 163688700.02106      -359.354 6        39.592    40651974.978 5 172011864.18905      -377.498 5        35.257
I03        58.000   132363163.839 6 443636243.21406       950.413 6        40.648
R07        59.000    23169749.775 7 124029486.74307      3120.789 7        46.395                                                                    23169748.962 6  96467374.78106      2427.255 6        39.715
> 2025 01 01 01 45 35.0000000  0 53
G28         1.000    23437095.579 7 123162783.39207     -1684.256 7        42.489                                    23437092.140 4  95970981.56404     -1312.407 4        28.370    23437091.647 7  95970987.55507     -1312.333 7        42.482
G31         2.000    22314704.009 7 117264574.41007       140.897 7        44.757                                    22314699.579 7  91374980.74407       109.788 7        42.155    22314699.848 7  91374979.74907       109.835 7        42.299
G09         3.000    22717570.527 7 119381671.47407      2892.228 7        43.170                                    22717569.000 7  93024686.93207      2253.682 7        42.265    22717569.506 6  93024687.93306      2253.654 6        41.464
E34         4.000    26567900.619 6 139615267.63606      2244.353 6        41.523                                                                    26567901.027 7 104258161.28907      1675.904 7        44.296    26567900.750 7 106977938.83607      1719.598 7        45.412
S21         5.000    38507000.779 7 202355491.50507      -410.904 7        42.409
E05         6.000    25428437.353 6 133627363.34406      2495.885 6        39.937                                                                    25428438.533 7  99786690.79007      1863.729 7        42.639    25428438.373 7 102389814.63607      1912.437 7        44.313
G21         7.000    23793619.150 6 125036366.39006     -3493.124 6        38.330                                    23793614.517 4  97430937.02304     -2721.908 4        24.256
E04         8.000    24519312.259 7 128849879.18307     -2064.226 7        44.933                                                                    24519310.215 8  96219070.73608     -1541.497 8        48.706    24519309.968 8  98729125.36408     -1581.705 8        49.994
R14         9.000    23275693.949 7 124072547.89707      -138.230 7        44.835                                                                    23275694.352 6  96500859.47706      -107.432 6        40.753
G04        10.000    20897780.770 7 109818620.40207      1647.773 7        47.156                                    20897777.636 6  85572959.43706      1283.981 6        37.418    20897777.568 7  85572954.43907      1283.915 7        46.176
E09        11.000    23754176.888 8 124829088.72708       631.438 8        48.297                                                                    23754176.255 8  93216543.90208       471.573 8        50.499    23754175.837 8  95648279.11908       483.882 8        51.190
S27        12.000    39142177.213 6 205693501.70506      -398.305 6        36.272
G06        13.000    24176418.975 6 127047964.33106      3000.829 6        39.568                                    24176418.380 5  98998416.90905      2338.308 5        34.410    24176419.180 6  98998427.92506      2338.291 6        39.685
S36        14.000    38274442.229 7 201134043.16107      -410.651 7        44.068
E27        15.000    29038325.660 5 152597426.66405      -762.456 5        32.916                                                                    29038326.601 6 113952630.36906      -569.191 6        37.716    29038326.379 6 116925305.41606      -583.890 6        39.150
E36        16.000    23526491.467 8 123632575.60408       110.867 8        48.003                                                                    23526491.470 8  92323044.60208        82.816 8        50.647    23526491.339 8  94731466.56308        84.949 8        51.728
S45        17.000    63471070.720 6 333543881.48106      -451.106 6        37.656
G03        18.000    20020626.601 8 105209160.70908      -763.141 8        50.023                                    20020624.573 8  81981183.81408      -594.658 8        51.897    20020624.930 7  81981192.82007      -594.665 7        46.053
R21        19.000    19439163.421 8 104022929.34208      -387.200 8        52.395                                                                    19439161.670 7  80906732.86807      -301.118 7        46.463
R20        20.000    21250658.815 6 113636858.44706     -4177.537 6        37.599                                                                    21250659.644 7  88384220.59207     -3249.211 7        43.953
R05        21.000    20693556.573 8 110618959.28008     -3254.118 8        49.611                                                                    20693555.824 7  86036973.43807     -2530.980 7        46.108
I06        22.000    38198191.509 7 149898136.16307      -217.790 7        42.914
S28        23.000    40944323.749 5 215163878.65005      -404.254 5        34.467
E10        24.000    26963317.028 6 141693301.87306     -3250.048 6        40.458                                                                    26963316.511 7 105809998.14007     -2426.921 7        44.236    26963316.216 7 108570249.69407     -2490.199 7        44.978
S23        25.000    38222788.594 7 200862107.47507      -406.877 7        44.597
E06        26.000    23472121.790 7 123346893.42807      -703.099 7        47.891                                                                    23472121.233 8  92109692.90608      -525.030 8        50.635    23472121.058 8  94512552.93208      -538.731 8        51.394
R15        27.000    23681157.774 7 126544921.35807      2644.330 7        44.393                                                                    23681157.949 6  98423837.26806      2056.590 6        38.619
I01        31.000   333149145.714 7   4207996.31407     -2585.585 7        42.893
G02        32.000    22156722.530 7 116434398.87507     -2936.913 7        47.821                                    22156715.891 6  90728098.41906     -2288.508 6        36.907
G19        33.000    22422145.054 7 117829201.63107       309.742 7        43.577                                    22422139.205 5  91814983.43205       241.357 5        32.084
G17        34.000    22532592.778 7 118409626.57807     -1615.056 7        45.213                                    22532588.681 7  92267251.44307     -1258.485 7        42.527    22532588.888 6  92267251.43406     -1258.589 6        41.993
E11        35.000    24594500.998 7 129245039.93807     -2481.114 7        43.134                                                                    24594496.964 7  96514170.80207     -1852.851 7        45.300    24594496.600 7  99031924.37007     -1901.167 7        45.953
C32        36.000                                                                                                                                    25553148.745 7 133061970.66707     -3238.039 7        42.445                                                                    25553148.910 7 108123759.90307     -2631.295 7        43.065
C35        37.000                                                                                                                                    23188328.864 7 120747732.94107       569.503 7        47.748                                                                    23188327.639 7  98117423.51907       462.677 7        47.549
I09        38.000    37276321.497 7 146280288.46007      -458.588 7        43.477
C29        39.000                                                                                                                                    23023131.497 8 119887485.76608     -2842.961 8        48.707                                                                    23023129.163 7  97418396.26707     -2310.205 7        47.497
R22        40.000    22310927.979 7 119097276.21607      3346.418 7        46.803                                                                    22310925.824 7  92631228.70107      2602.840 7        43.348
S44        42.000    40696897.162 6 213863823.34406      -486.502 6        38.126
C09        43.000                                                                                                                                    38793548.587 7 202008205.58907       269.681 7        42.307    38793544.569 7 156205549.30707       208.507 7        45.675    38793542.697 6 164148194.95706       219.061 6        41.917
C05        44.000                                                                                                                                    39192337.794 6 204084823.02206      -418.777 6        37.875    39192333.333 7 157811354.71007      -323.816 7        43.164    39192334.772 6 165835738.97706      -340.326 6        39.607
R06        45.000    19872376.912 6 106042862.32306      1077.005 6        40.684
C44        46.000                                                                                                                                    26183788.756 6 136345866.46406      2508.122 6        39.006                                                                    26183788.107 6 110792183.63906      2037.842 6        40.210
C39        47.000                                                                                                                                    39032700.322 6 203253525.10906      -786.970 6        41.945                                                                    39032696.645 7 165160127.38107      -639.481 7        42.950
C20        48.000                                                                                                                                    22025641.105 8 114693339.55008     -1236.556 8        52.098                                                                    22025635.027 8  93197725.41208     -1004.928 8        49.623
C06        49.000                                                                                                                                    38345704.748 6 199676169.02806      -231.876 6        40.806    38345698.738 7 154402263.12107      -179.377 7        44.545    38345698.852 6 162253222.49306      -188.400 6        41.647
C16        50.000                                                                                                                                    38799580.859 7 202039615.11607      -346.742 7        43.005    38799580.618 7 156229855.04107      -268.012 7        43.378    38799578.305 6 164173735.32306      -281.872 6        39.661
S48        51.000    77257970.561 6 405993664.91606      -408.517 6        37.520
C19        52.000                                                                                                                                    22994757.583 8 119739795.01708      1368.045 8        48.725                                                                    22994753.070 8  97298394.50308      1111.619 8        48.937
C60        54.000                                                                                                                                    40696897.545 6 211919626.20406      -482.130 6        39.033                                                                    40696882.262 6 172202024.57206      -391.950 6        40.219
C37        56.000                                                                                                                                    26104933.321 6 135935240.60806      1931.583 6        40.903                                                                    26104936.861 6 110458533.78306      1569.550 6        41.633
C02        57.000                                                                                                                                    40652423.377 5 211687887.82205      -464.595 5        33.964    40652417.763 6 163690496.34806      -359.258 6        39.862    40652421.004 5 172013751.84605      -377.622 5        35.100
I03        58.000   132361953.002 6 443631490.67706       950.503 6        40.598
R07        59.000    23166835.871 7 124013886.07407      3119.513 7        46.484                                                                    23166834.868 6  96455240.92006      2426.393 6        39.910
> 2025 01 01 01 45 40.0000000  0 53
G28         1.000    23438699.341 7 123171212.17607     -1687.271 7        42.356                                    23438696.164 4  95977549.44704     -1314.755 4        28.379    23438695.961 7  95977555.45207     -1314.716 7        42.176
G31         2.000    22314571.567 7 117263878.77107       137.438 7        45.701                                    22314567.322 7  91374438.69207       107.093 7        42.246    22314567.287 6  91374437.69306       107.177 6        41.905
G09         3.000    22714819.117 7 119367213.79207      2890.925 7        43.338                                    22714817.723 7  93013421.21307      2252.665 7        42.282    22714818.050 6  93013422.21106      2252.639 6        40.529
E34         4.000    26565765.438 6 139604047.54806      2243.890 6        41.540                                                                    26565765.999 7 104249782.64507      1675.560 7        44.387    26565765.798 7 106969341.62007      1719.258 7        45.406
S21         5.000    38507394.702 7 202357546.51907      -411.002 7        42.573
E05         6.000    25426063.013 6 133614885.96306      2495.224 6        39.886                                                                    25426064.275 7  99777373.27707      1863.381 7        42.580    25426063.912 7 102380254.05707      1911.938 7        44.257
G21         7.000    23796943.378 6 125053834.00206     -3493.917 6        39.237                                    23796938.623 4  97444548.13704     -2722.536 4        24.376
E04         8.000    24521277.028 7 128860204.34907     -2065.735 7        45.201                                                                    24521275.006 8  96226781.08808     -1542.612 8        48.741    24521274.830 8  98737036.85408     -1582.833 8        50.017
R14         9.000    23275825.171 7 124073249.07207      -142.212 7        44.575                                                                    23275826.147 6  96501404.88006      -110.609 6        40.980
G04        10.000    20896214.312 7 109810387.89107      1645.422 7        47.447                                    20896211.038 6  85566544.49806      1282.146 6        37.478    20896211.053 7  85566539.49207      1282.082 7        45.755
E09        11.000    23753576.920 8 124825936.35308       629.557 8        48.392                                                                    23753576.370 8  93214189.85508       470.149 8        50.546    23753575.983 8  95645863.66308       482.418 8        51.307
S27        12.000    39142555.279 6 205695493.83006      -398.545 6        36.215
G06        13.000    24173564.011 6 127032962.13906      3000.170 6        38.940                                    24173563.527 5  98986726.89105      2337.794 5        34.390    24173564.162 6  98986737.88806      2338.036 6        39.237
S36        14.000    38274833.693 7 201136097.30407      -410.875 7        44.153
E27        15.000    29039052.350 5 152601244.27005      -764.869 5        33.641                                                                    29039053.349 6 113955481.20506      -570.943 6        37.543    29039052.733 6 116928230.63206      -586.107 6        39.135
E36        16.000    23526386.857 8 123632026.02808       109.059 8        48.140                                                                    23526386.900 8  92322634.20308        81.500 8        50.690    23526386.797 8  94731045.45808        83.551 8        51.811
S45        17.000    63471458.719 6 333546136.81706      -450.820 6        37.701
G03        18.000    20021353.787 8 105212981.37808      -765.045 8        50.191                                    20021351.614 8  81984160.95808      -596.138 8        51.875    20021352.066 7  81984169.96207      -596.155 7        45.947
R21        19.000    19439527.070 8 104024876.61508      -391.650 8        52.617                                                                    19439525.373 7  80908247.42307      -304.623 7        46.018
R20        20.000    21254565.746 6 113657752.82806     -4180.111 6        37.353                                                                    21254568.187 7  88400471.78207     -3251.220 7        44.462
R05        21.000    20696600.872 8 110635233.74608     -3255.554 8        50.046                                                                    20696600.230 7  86049631.35007     -2532.117 7        45.646
I06        22.000    38198468.909 7 149899225.27107      -217.796 7        43.062
S28        23.000    40944708.273 5 215165899.27405      -403.919 5        34.133
E10        24.000    26966409.920 6 141709554.19206     -3250.957 6        40.653                                                                    26966409.379 7 105822134.61007     -2427.553 7        44.576    26966408.931 7 108582702.76307     -2490.796 7        44.763
S23        25.000    38223175.573 7 200864142.16207      -406.840 7        44.593
E06        26.000    23472791.591 8 123350414.02908      -705.038 8        48.179                                                                    23472791.222 8  92112321.91708      -526.470 8        50.693    23472790.989 8  94515250.53208      -540.200 8        51.526
R15        27.000    23678684.834 7 126531705.16107      2642.201 7        44.081                                                                    23678685.153 6  98413557.99906      2055.023 6        38.700
I01        31.000   333152440.120 7   4220924.84207     -2585.827 7        43.041
G02        32.000    22159517.670 7 116449088.33407     -2938.768 7        47.334                                    22159511.245 6  90739544.74806     -2289.952 6        36.926
G19        33.000    22421852.275 7 117827661.93207       306.229 7        44.250                                    22421846.215 5  91813783.67105       238.618 5        32.048
G17        34.000    22534131.126 7 118417709.00007     -1617.691 7        45.401                                    22534126.753 7  92273549.43107     -1260.541 7        42.557    22534127.219 6  92273549.43906     -1260.524 6        41.700
E11        35.000    24596862.625 7 129257449.52407     -2482.502 7        43.672                                                                    24596858.473 7  96523437.70207     -1853.866 7        45.353    24596858.082 7  99041433.01207     -1902.216 7        45.964
C32        36.000                                                                                                                                    25556258.174 7 133078162.05607     -3238.470 7        42.554                                                                    25556258.295 7 108136916.72407     -2631.292 7        43.024
C35        37.000                                                                                                                                    23187783.531 7 120744892.53707       566.776 7        47.865                                                                    23187782.137 7  98115115.46507       460.566 7        47.689
I09        38.000    37276905.990 7 146282582.09107      -458.827 7        43.524
C29        39.000                                                                                                                                    23025862.181 8 119901705.79108     -2844.850 8        48.767                                                                    23025860.030 7  97429951.20407     -2311.757 7        47.595
R22        40.000    22307794.255 7 119080548.94907      3344.648 7        47.203                                                                    22307792.100 7  92618218.61807      2601.408 7        44.054
S44        42.000    40697357.708 6 213866256.32806      -486.627 6        37.943
C09        43.000                                                                                                                                    38793290.091 7 202006859.84407       268.806 7        42.516    38793286.126 7 156204508.68607       207.854 7        45.780    38793284.155 6 164147101.43006       218.515 6        41.866
C05        44.000                                                                                                                                    39192740.155 6 204086916.99406      -418.828 6        38.042    39192735.341 7 157812973.88607      -323.675 7        43.257    39192736.798 6 165837440.50506      -340.196 6        39.739
R06        45.000    19871368.445 6 106037484.63706      1074.340 6        40.434
C44        46.000                                                                                                                                    26181381.237 6 136333329.89906      2506.849 6        39.339                                                                    26181380.366 6 110781996.67806      2037.029 6        40.749
C39        47.000                                                                                                                                    39033456.505 7 203257462.11207      -787.662 7        42.017                                                                    39033452.718 7 165163326.51907      -640.040 7        42.897
C20        48.000                                                                                                                                    22026829.177 8 114699526.68408     -1238.167 8        51.995                                                                    22026823.233 8  93202752.97008     -1006.124 8        49.694
C06        49.000                                                                                                                                    38345927.475 6 199677331.05406      -232.717 6        41.035    38345921.981 7 154403161.67507      -179.961 7        44.644    38345922.008 6 162254166.75106      -189.253 6        41.795
C16        50.000                                                                                                                                    38799914.109 7 202041350.99907      -347.558 7        42.866    38799913.833 7 156231197.33707      -268.777 7        43.424    38799911.592 6 164175145.88106      -282.387 6        39.982
S48        51.000    77258349.558 6 405995707.60506      -408.591 6        37.841
C19        52.000                                                                                                                                    22993444.562 8 119732958.36408      1366.759 8        48.755                                                                    22993440.142 8  97292839.18108      1110.538 8        49.060
C60        54.000                                                                                                                                    40697360.461 6 211922037.03906      -482.132 6        39.099                                                                    40697345.259 6 172203983.58106      -391.778 6        40.319
C37        56.000                                                                                                                                    26103079.047 6 135925586.12206      1930.277 6        40.319                                                                    26103082.748 6 110450688.71306      1568.551 6        41.657
C02        57.000                                                                                                                                    40652870.029 5 211690210.95505      -464.352 5        33.479    40652864.281 6 163692292.75706      -359.252 6        39.928    40652867.366 5 172015639.60805      -377.420 5        35.548
I03        58.000   132360742.384 6 443626738.30606       950.466 6        40.720
R07        59.000    23163921.660 7 123998291.16507      3118.531 7        46.030                                                                    23163921.606 6  96443111.56906      2425.543 6        39.363
> 2025 01 01 01 45 45.0000000  0 53
G28         1.000    23440306.056 7 123179656.26807     -1690.194 7        42.582                                    23440303.011 4  95984129.25604     -1317.032 4        28.588    23440302.995 7  95984135.25607     -1316.913 7        42.263
G31         2.000    22314442.900 7 117263200.44707       134.043 7        45.368                                    22314438.303 7  91373910.13407       104.449 7        42.377    22314438.197 6  91373909.12406       104.502 6        41.814
G09         3.000    22712069.096 7 119352762.59107      2889.707 7        43.225                                    22712067.715 7  93002160.54207      2251.717 7        42.391    22712068.117 6  93002161.53806      2251.745 6        40.591
E34         4.000    26563631.174 6 139592830.04606      2243.323 6        41.595                                                                    26563631.326 7 104241405.95007      1675.190 7        44.298    26563631.221 7 106960746.38907      1718.945 7        45.386
S21         5.000    38507784.051 7 202359601.28907      -410.760 7        42.749
E05         6.000    25423689.139 6 133602411.82006      2494.656 6        39.640                                                                    25423690.687 7  99768058.18007      1862.928 7        42.690    25423690.082 7 102370695.96307      1911.466 7        44.156
G21         7.000    23800268.442 6 125071305.56806     -3494.549 6        39.018                                    23800263.355 4  97458162.33804     -2723.021 4        24.752
E04         8.000    24523242.948 7 128870536.70307     -2067.132 7        45.046                                                                    24523241.137 8  96234496.80108     -1543.607 8        48.736    24523241.026 8  98744953.84908     -1583.883 8        49.980
R14         9.000    23275960.425 7 124073970.74907      -146.312 7        45.139                                                                    23275961.456 6  96501966.15106      -113.714 6        41.020
G04        10.000    20894649.839 7 109802167.23707      1643.038 7        47.237                                    20894646.681 6  85560138.79106      1280.289 6        37.531    20894647.150 7  85560133.78707      1280.317 7        45.941
E09        11.000    23752978.797 8 124822793.48908       627.679 8        48.292                                                                    23752978.310 8  93211842.90908       468.761 8        50.482    23752977.894 8  95643455.49608       481.011 8        51.249
S27        12.000    39142936.387 6 205697486.10006      -398.359 6        36.087
G06        13.000    24170710.166 6 127017963.20306      2999.679 6        39.033                                    24170709.295 5  98975039.40205      2337.413 5        34.367    24170710.340 6  98975050.42406      2337.170 6        39.024
S36        14.000    38275225.394 7 201138151.57707      -410.789 7        44.131
E27        15.000    29039780.995 5 152605073.10205      -766.739 5        33.874                                                                    29039781.790 6 113958340.44406      -572.611 6        37.573    29039781.155 6 116931164.44306      -587.697 6        38.646
E36        16.000    23526283.871 7 123631485.56107       107.302 7        47.984                                                                    23526284.053 8  92322230.61008        80.114 8        50.680    23526283.966 8  94730631.33108        82.231 8        51.774
S45        17.000    63471843.976 6 333546791.82816      -450.844 6        38.066
G03        18.000    20022082.581 8 105216811.80708      -766.953 8        50.168                                    20022080.520 8  81987145.70708      -597.625 8        51.920    20022081.080 7  81987154.70007      -597.580 7        45.976
R21        19.000    19439895.299 8 104026846.23608      -396.030 8        52.641                                                                    19439893.797 7  80909779.34407      -308.083 7        46.310
R20        20.000    21258476.083 6 113678659.15006     -4182.250 6        37.652                                                                    21258477.864 7  88416732.23607     -3252.880 7        44.719
R05        21.000    20699646.979 8 110651515.34308     -3256.890 8        49.903                                                                    20699645.449 7  86062294.81007     -2533.123 7        45.881
I06        22.000    38198746.515 7 149900314.22507      -217.687 7        42.955
S28        23.000    40945089.783 5 215167919.65405      -404.064 5        34.471
E10        24.000    26969503.246 6 141725810.21706     -3251.449 6        40.231                                                                    26969502.920 7 105834273.85207     -2428.045 7        44.671    26969502.510 7 108595158.69407     -2491.444 7        44.775
S23        25.000    38223564.023 7 200866176.51207      -406.750 7        44.625
E06        26.000    23473463.379 8 123353944.22508      -706.858 8        48.044                                                                    23473462.972 8  92114958.10708      -527.873 8        50.661    23473462.790 8  94517955.49308      -541.676 8        51.418
R15        27.000    23676212.715 7 126518499.37807      2640.293 7        43.663                                                                    23676213.052 6  98403286.85406      2053.497 6        38.682
I01        31.000   333155734.783 7   4233853.73307     -2585.722 7        43.048
G02        32.000    22162314.657 7 116463786.74907     -2940.446 7        47.103                                    22162308.335 6  90750998.05406     -2291.256 6        36.994
G19        33.000    22421562.868 7 117826139.56407       302.833 7        44.352                                    22421556.525 5  91812597.41105       235.975 5        32.066
G17        34.000    22535671.748 7 118425804.80907     -1620.319 7        45.589                                    22535667.366 7  92279857.84707     -1262.589 7        42.698    22535667.172 6  92279857.84706     -1262.563 6        41.247
E11        35.000    24599225.390 7 129269866.37407     -2484.033 7        43.761                                                                    24599221.422 7  96532710.01907     -1854.926 7        45.245    24599220.988 7  99050947.21507     -1903.255 7        45.935
C32        36.000                                                                                                                                    25559368.125 7 133094354.19907     -3238.357 7        42.582                                                                    25559367.674 7 108150074.15807     -2631.441 7        43.297
C35        37.000                                                                                                                                    23187240.923 7 120742065.31207       564.200 7        47.849                                                                    23187239.187 7  98112818.09707       458.571 7        47.778
I09        38.000    37277490.265 7 146284876.19607      -458.797 7        43.642
C29        39.000                                                                                                                                    23028594.927 8 119915935.31508     -2846.747 8        48.850                                                                    23028592.678 7  97441513.83207     -2313.021 7        47.689
R22        40.000    22304662.262 7 119063830.62607      3342.929 7        47.185                                                                    22304660.960 7  92605215.48207      2600.093 7        44.009
S44        42.000    40697821.482 6 213868689.00406      -486.378 6        38.141
C09        43.000                                                                                                                                    38793032.379 7 202005518.01907       268.141 7        42.635    38793028.410 7 156203471.10607       207.234 7        45.691    38793026.528 7 164146011.06007       218.124 7        42.106
C05        44.000                                                                                                                                    39193142.314 6 204089010.73206      -418.682 6        38.069    39193137.344 7 157814592.90207      -323.654 7        43.162    39193138.877 6 165839141.82406      -339.963 6        40.057
R06        45.000    19870363.561 6 106032120.32406      1071.517 6        41.042
C44        46.000                                                                                                                                    26178974.333 6 136320798.97906      2505.708 6        38.583                                                                    26178973.970 6 110771814.29906      2036.142 6        40.038
C39        47.000                                                                                                                                    39034213.431 7 203261402.88807      -788.354 7        42.284                                                                    39034209.573 7 165166528.70207      -640.490 7        43.122
C20        48.000                                                                                                                                    22028018.712 8 114705721.49508     -1239.610 8        52.106                                                                    22028012.855 8  93207786.74508     -1007.261 8        49.884
C06        49.000                                                                                                                                    38346151.202 6 199678497.30306      -233.643 6        41.032    38346145.992 7 154404063.48607      -180.617 7        44.623    38346145.889 6 162255114.39506      -189.628 6        41.893
C16        50.000                                                                                                                                    38800248.238 7 202043090.94807      -348.189 7        42.838    38800248.224 7 156232542.77407      -269.337 7        43.520    38800245.766 6 164176559.71106      -282.898 6        40.033
S48        51.000    77258740.234 6 405997749.87506      -408.354 6        37.709
C19        52.000                                                                                                                                    22992132.979 8 119726128.62908      1365.372 8        48.846                                                                    22992128.524 8  97287289.44408      1109.555 8        49.123
C60        54.000                                                                                                                                    40697822.996 6 211924447.61306      -481.948 6        39.165                                                                    40697808.148 6 172205942.35206      -391.615 6        40.486
C37        56.000                                                                                                                                    26101226.304 6 135915937.66306      1929.258 6        40.567                                                                    26101230.113 6 110442848.54506      1567.633 6        41.933
C02        57.000                                                                                                                                    40653315.685 5 211692533.91605      -464.666 5        34.062    40653309.941 6 163694088.98906      -359.147 6        40.072    40653313.442 5 172017527.15305      -377.086 5        35.438
I03        58.000   132359531.113 6 443621985.87106       950.572 6        40.827
R07        59.000    23161009.585 7 123982701.54407      3117.524 7        45.648                                                                    23161009.145 6  96430986.30206      2424.798 6        40.238
> 2025 01 01 01 45 50.0000000  0 53
G28         1.000    23441916.147 7 123188115.78607     -1693.460 7        42.548                                    23441912.938 4  95990721.08704     -1319.576 4        28.521    23441912.717 7  95990727.07307     -1319.611 7        42.210
G31         2.000    22314316.611 7 117262539.58807       130.310 7        45.932                                    22314312.543 7  91373395.17807       101.542 7        42.398    22314312.372 6  91373394.18106       101.583 6        41.595
G09         3.000    22709320.997 7 119338317.98607      2888.101 7        43.846                                    22709318.986 7  92990905.01607      2250.469 7        42.480    22709319.711 6  92990906.02106      2250.500 6        41.187
E34         4.000    26561496.931 6 139581615.25206      2242.590 6        41.800                                                                    26561497.192 7 104233031.25507      1674.734 7        44.235    26561497.063 7 106952153.24407      1718.343 7        45.296
S21         5.000    38508180.845 7 202361655.86907      -411.020 7        42.703
E05         6.000    25421315.899 6 133589941.04506      2493.650 6        39.459                                                                    25421317.740 7  99758745.59607      1862.239 7        43.022    25421317.069 7 102361140.44107      1910.717 7        44.188
G21         7.000    23803593.415 6 125088781.19006     -3495.678 6        39.544                                    23803588.981 4  97471779.70304     -2723.902 4        24.782
E04         8.000    24525210.715 7 128880876.36907     -2068.723 7        45.172                                                                    24525208.760 8  96242217.98208     -1544.872 8        48.850    24525208.638 8  98752876.44908     -1585.120 8        49.935
R14         9.000    23276099.872 7 124074713.08407      -150.650 7        44.149                                                                    23276101.309 6  96502543.52806      -117.234 6        41.559
G04        10.000    20893087.696 7 109793958.56907      1640.442 7        46.846                                    20893084.627 6  85553742.42406      1278.271 6        37.645    20893085.010 7  85553737.43007      1278.241 7        45.922
E09        11.000    23752382.683 8 124819660.24908       625.540 8        48.136                                                                    23752382.073 8  93209503.15708       467.195 8        50.650    23752381.661 8  95641054.70408       479.389 8        51.103
S27        12.000    39143311.601 6 205699477.84806      -398.694 6        36.144
G06        13.000    24167856.520 6 127002967.72406      2998.673 6        39.820                                    24167855.800 5  98963354.61805      2336.632 5        34.624    24167856.324 6  98963365.62106      2336.556 6        38.381
S36        14.000    38275611.970 7 201140205.34507      -410.883 7        44.163
E27        15.000    29040511.503 5 152608913.37305      -769.351 5        33.557                                                                    29040512.788 6 113961208.26206      -574.455 6        37.977    29040512.135 6 116934107.07506      -589.556 6        38.105
E36        16.000    23526182.913 7 123630954.33507       105.236 7        47.941                                                                    23526182.964 8  92321833.90908        78.608 8        50.865    23526182.841 8  94730224.28408        80.675 8        51.696
S45        17.000    63472231.464 6 333549046.78106      -451.070 6        37.592
G03        18.000    20022813.336 8 105220652.10408      -769.103 8        50.115                                    20022811.300 8  81990138.14608      -599.300 8        52.018    20022811.936 7  81990147.15607      -599.323 7        45.862
R21        19.000    19440267.868 8 104028838.31408      -400.799 8        52.647                                                                    19440265.776 7  80911328.73107      -311.687 7        46.072
R20        20.000    21262389.008 6 113699577.37906     -4184.903 6        37.641                                                                    21262388.980 7  88433001.97007     -3254.984 7        44.530
R05        21.000    20702693.655 8 110667804.48408     -3258.694 8        49.956                                                                    20702692.948 7  86074964.14907     -2534.517 7        45.661
I06        22.000    38199024.079 7 149901403.16007      -217.942 7        42.961
S28        23.000    40945477.736 5 215169939.64005      -403.995 5        34.238
E10        24.000    26972597.055 6 141742070.11706     -3252.335 6        39.820                                                                    26972596.968 7 105846415.96807     -2428.751 7        44.783    26972596.948 7 108607617.56607     -2492.121 7        44.831
S23        25.000    38223950.376 7 200868210.68907      -406.908 7        44.656
E06        26.000    23474137.019 7 123357484.16207      -709.082 7        47.849                                                                    23474136.598 8  92117601.56308      -529.428 8        50.804    23474136.437 8  94520667.90908      -543.299 8        51.362
R15        27.000    23673743.539 7 126505304.14907      2637.874 7        43.949                                                                    23673744.660 6  98393023.89406      2051.826 6        38.742
I01        31.000   333159029.701 7   4246783.07007     -2586.027 7        43.264
G02        32.000    22165113.586 7 116478494.22407     -2942.520 7        47.382                                    22165107.137 6  90762458.41806     -2292.869 6        36.987
G19        33.000    22421276.404 7 117824634.72507       299.041 7        43.913                                    22421270.176 5  91811424.80005       233.015 5        32.180
G17        34.000    22537214.701 7 118433914.11207     -1623.270 7        45.148                                    22537210.518 7  92286176.78407     -1264.885 7        42.715    22537210.825 6  92286176.78506     -1264.832 6        41.187
E11        35.000    24601589.377 7 129282290.61407     -2485.642 7        43.399                                                                    24601585.593 7  96541987.85607     -1856.132 7        45.240    24601585.231 7  99060467.08207     -1904.562 7        45.962
C32        36.000                                                                                                                                    25562477.887 7 133110547.26007     -3238.813 7        42.396                                                                    25562477.494 7 108163232.36007     -2631.754 7        43.141
C35        37.000                                                                                                                                    23186700.415 7 120739251.40007       561.180 7        47.852                                                                    23186698.884 7  98110531.58807       456.028 7        47.793
I09        38.000    37278075.468 7 146287170.90107      -459.072 7        43.543
C29        39.000                                                                                                                                    23031329.505 8 119930174.43108     -2848.890 8        48.476                                                                    23031327.170 7  97453084.30607     -2315.004 7        47.694
R22        40.000    22301532.191 7 119047121.44107      3340.789 7        47.326                                                                    22301530.519 7  92592219.44807      2598.355 7        43.871
S44        42.000    40698286.061 6 213871121.51906      -486.539 6        38.159
C09        43.000                                                                                                                                    38792775.729 7 202004180.24807       267.076 7        42.652    38792771.409 7 156202436.66307       206.429 7        45.744    38792769.499 7 164144924.03907       216.935 7        42.174
C05        44.000                                                                                                                                    39193544.251 6 204091104.40306      -418.715 6        38.069    39193539.347 7 157816211.87507      -323.925 7        43.141    39193540.773 6 165840843.12906      -340.199 6        39.961
R06        45.000    19869361.045 6 106026769.39806      1068.787 6        40.801
C44        46.000                                                                                                                                    26176569.050 6 136308273.90106      2504.320 6        38.847                                                                    26176569.114 6 110761636.71706      2034.950 6        40.279
C39        47.000                                                                                                                                    39034970.827 7 203265347.59307      -789.542 7        42.231                                                                    39034967.180 7 165169734.12707      -641.553 7        43.094
C20        48.000                                                                                                                                    22029209.935 8 114711924.10308     -1241.378 8        52.079                                                                    22029203.993 8  93212826.89408     -1008.814 8        49.836
C06        49.000                                                                                                                                    38346376.395 6 199679667.89706      -234.665 6        40.782    38346370.627 7 154404968.67207      -181.455 7        44.489    38346370.662 6 162256065.62706      -190.705 6        41.895
C16        50.000                                                                                                                                    38800583.367 7 202044835.08307      -349.297 7        42.779    38800582.958 7 156233891.44507      -270.144 7        43.363    38800580.733 6 164177976.98506      -283.784 6        39.922
S48        51.000    77259123.989 6 405999791.87406      -408.382 6        37.682
C19        52.000                                                                                                                                    22990822.863 8 119719305.93808      1363.714 8        49.018                                                                    22990818.280 8  97281745.46908      1108.090 8        49.159
C60        54.000                                                                                                                                    40698286.270 6 211926858.02606      -482.138 6        39.150                                                                    40698271.063 6 172207901.02206      -391.831 6        40.429
C37        56.000                                                                                                                                    26099374.840 6 135906295.40006      1927.896 6        40.379                                                                    26099378.562 7 110435013.43407      1566.514 7        42.000
C02        57.000                                                                                                                                    40653762.114 5 211694856.74405      -464.574 5        33.557    40653756.128 6 163695885.17206      -359.307 6        39.973    40653759.517 5 172019414.70305      -377.602 5        35.452
I03        58.000   132358319.930 6 443617233.47406       950.413 6        40.901
R07        59.000    23158098.150 7 123967117.49907      3116.199 7        45.467                                                                    23158098.789 6  96418865.41406      2423.734 6        40.274
> 2025 01 01 01 45 55.0000000  0 53
G28         1.000    23443528.793 7 123196590.83907     -1696.642 7        42.260                                    23443525.678 4  95997325.01904     -1322.058 4        28.569    23443525.507 7  95997331.00907     -1321.956 7        42.108
G31         2.000    22314194.367 7 117261896.27607       126.915 7        45.643                                    22314190.065 7  91372893.89507        98.891 7        42.425    22314189.794 6  91372892.89906        98.908 6        40.574
G09         3.000    22706573.524 7 119323880.08707      2886.781 7        42.868                                    22706571.554 7  92979654.70907      2249.439 7        42.504    22706572.011 6  92979655.73006      2249.432 6        40.574
E34         4.000    26559363.495 6 139570403.30806      2242.023 6        41.664                                                                    26559363.608 7 104224658.70107      1674.276 7        44.385    26559363.434 7 106943562.26007      1718.009 7        45.223
S21         5.000    38508567.130 7 202363710.21407      -410.785 7        42.730
E05         6.000    25418943.788 6 133577473.77206      2492.908 6        39.682                                                                    25418945.229 7  99749435.61807      1861.634 7        43.092    25418944.776 7 102351587.60107      1910.161 7        44.333
G21         7.000    23806920.054 6 125106260.97906     -3496.524 6        40.215                                    23806915.323 4  97485400.32104     -2724.568 4        24.932
E04         8.000    24527179.834 7 128891223.47207     -2070.216 7        45.087                                                                    24527177.777 8  96249944.71908     -1545.978 8        48.814    24527177.583 8  98760804.75608     -1586.280 8        49.842
R14         9.000    23276242.664 7 124075475.99207      -154.731 7        43.922                                                                    23276243.283 6  96503136.87406      -120.320 6        39.946
G04        10.000    20891527.830 7 109785762.00607      1638.037 7        46.874                                    20891524.849 6  85547355.49506      1276.391 6        37.614    20891524.945 7  85547350.49507      1276.423 7        45.378
E09        11.000    23751788.396 8 124816536.76008       623.703 8        48.301                                                                    23751787.683 8  93207170.68708       465.729 8        50.559    23751787.309 8  95638661.39008       477.860 8        51.150
S27        12.000    39143689.699 5 205701469.35105      -398.184 5        35.995
G06        13.000    24165004.347 6 126987975.79506      2998.007 6        39.258                                    24165002.945 5  98951672.59405      2336.112 5        34.605    24165003.254 6  98951683.58006      2336.184 6        38.589
S36        14.000    38276005.549 7 201142258.60107      -410.660 7        44.137
E27        15.000    29041244.495 5 152612765.01905      -771.512 5        33.964                                                                    29041245.337 6 113964084.54006      -576.080 6        37.221    29041244.921 6 116937058.37706      -591.243 6        38.096
E36        16.000    23526083.571 8 123630432.47108       103.380 8        48.107                                                                    23526083.695 8  92321444.20908        77.215 8        50.737    23526083.574 8  94729824.42008        79.221 8        51.679
S45        17.000    63472615.639 6 333551301.75606      -450.888 6        37.633
G03        18.000    20023545.702 8 105224502.41308      -771.102 8        50.020                                    20023543.975 8  81993138.38708      -600.859 8        52.019    20023544.531 7  81993147.39307      -600.924 7        45.445
R21        19.000    19440644.287 8 104030852.92808      -405.216 8        52.796                                                                    19440642.556 7  80912895.65407      -315.177 7        46.152
R20        20.000    21266301.020 6 113720507.66506     -4187.353 6        36.991                                                                    21266303.103 7  88449281.06907     -3256.693 7        44.867
R05        21.000    20705742.763 8 110684101.11808     -3260.077 8        49.874                                                                    20705741.427 7  86087639.30907     -2535.585 7        45.946
I06        22.000    38199301.584 7 149902492.13407      -217.898 7        43.041
S28        23.000    40945863.096 5 215171959.49005      -403.961 5        34.733
E10        24.000    26975691.641 6 141758333.97306     -3253.162 6        39.526                                                                    26975691.877 7 105858561.05907     -2429.417 7        44.719    26975691.920 7 108620079.48607     -2492.751 7        45.204
S23        25.000    38224335.628 7 200870244.61807      -406.782 7        44.412
E06        26.000    23474812.606 8 123361033.95508      -710.970 8        48.158                                                                    23474812.114 8  92120252.38308      -530.930 8        50.679    23474811.902 8  94523387.88308      -544.818 8        51.383
R15        27.000    23671276.294 7 126492119.59407      2635.766 7        44.628                                                                    23671276.223 6  98382769.25906      2049.867 6        38.450
I01        31.000   333162324.563 7   4259712.89407     -2586.072 7        43.414
G02        32.000    22167914.168 8 116493210.89508     -2944.272 8        48.112                                    22167907.584 6  90773925.95306     -2294.240 6        37.036
G19        33.000    22420993.268 7 117823147.48807       295.693 7        43.956                                    22420987.163 5  91810265.91405       230.411 5        32.234
G17        34.000    22538760.385 7 118442037.01207     -1625.994 7        45.082                                    22538756.229 7  92292506.31607     -1267.010 7        42.745    22538756.526 6  92292506.31206     -1266.963 6        41.130
E11        35.000    24603955.197 7 129294722.36707     -2487.034 7        43.410                                                                    24603951.307 7  96551271.30507     -1857.240 7        45.231    24603951.035 7  99069992.70307     -1905.633 7        45.869
C32        36.000                                                                                                                                    25565587.598 7 133126741.30607     -3238.921 7        42.385                                                                    25565587.396 7 108176391.34707     -2631.949 7        43.261
C35        37.000                                                                                                                                    23186162.447 7 120736450.90107       558.792 7        47.739                                                                    23186161.114 7  98108255.93707       454.038 7        47.895
I09        38.000    37278660.463 7 146289466.28407      -459.141 7        43.776
C29        39.000                                                                                                                                    23034065.637 8 119944423.26408     -2850.812 8        48.443                                                                    23034063.509 7  97464662.63907     -2316.506 7        47.774
R22        40.000    22298403.097 7 119030421.47007      3339.042 7        46.836                                                                    22298401.786 7  92579230.59107      2596.950 7        43.892
S44        42.000    40698747.117 6 213873554.01406      -486.577 6        37.909
C09        43.000                                                                                                                                    38792519.262 7 202002846.60707       266.323 7        42.500    38792515.395 7 156201405.40207       205.920 7        45.685    38792513.319 7 164143840.34607       216.428 7        42.212
C05        44.000                                                                                                                                    39193946.366 6 204093198.09006      -418.751 6        37.955    39193941.203 7 157817830.82807      -323.786 7        43.014    39193943.050 6 165842544.39506      -340.223 6        40.038
R06        45.000    19868360.953 6 106021432.01006      1066.068 6        40.770
C44        46.000                                                                                                                                    26174165.086 6 136295754.72006      2503.018 6        38.823                                                                    26174165.222 6 110751463.86706      2034.014 6        40.720
C39        47.000                                                                                                                                    39035729.039 7 203269296.31107      -790.092 7        42.305                                                                    39035725.448 7 165172942.77107      -642.071 7        43.232
C20        48.000                                                                                                                                    22030402.573 8 114718134.63508     -1242.965 8        51.922                                                                    22030396.682 8  93217873.44308     -1009.966 8        49.945
C06        49.000                                                                                                                                    38346601.666 6 199680842.94506      -235.411 6        40.915    38346596.398 7 154405877.28607      -182.090 7        44.301    38346596.392 6 162257020.44106      -191.479 6        41.950
C16        50.000                                                                                                                                    38800918.931 7 202046583.52107      -350.269 7        42.595    38800918.896 7 156235243.45607      -270.778 7        43.325    38800916.522 6 164179397.73206      -284.513 6        39.940
S48        51.000    77259512.224 6 406001833.61206      -408.388 6        37.989
C19        52.000                                                                                                                                    22989514.005 8 119712490.39608      1362.396 8        48.879                                                                    22989509.456 8  97276207.28208      1106.969 8        49.212
C60        54.000                                                                                                                                    40698749.083 6 211929268.40006      -482.201 6        39.165                                                                    40698733.876 6 172209859.63506      -391.814 6        40.505
C37        56.000                                                                                                                                    26097524.716 6 135896659.44106      1926.527 6        40.617                                                                    26097528.126 7 110427183.41407      1565.390 7        42.531
C02        57.000                                                                                                                                    40654207.434 5 211697179.65305      -464.757 5        33.880    40654202.096 6 163697681.37106      -359.180 6        39.604    40654205.512 5 172021302.23105      -377.410 5        35.467
I03        58.000   132357108.998 6 443612481.21006       950.277 6        40.958
R07        59.000    23155188.015 7 123951539.26807      3115.047 7        45.132                                                                    23155187.779 6  96406749.01206      2422.895 6        40.052
> 2025 01 01 01 46  0.0000000  0 53
G28         1.000    23445144.549 7 123205081.57507     -1699.476 7        42.059                                    23445141.373 4  96003941.16804     -1324.271 4        28.531    23445141.220 6  96003947.15406     -1324.167 6        41.461
G31         2.000    22314075.226 7 117261270.68007       123.599 7        45.108                                    22314070.914 7  91372406.41807        96.311 7        42.500    22314071.166 6  91372405.41506        96.435 6        40.746
G09         3.000    22703827.324 7 119309449.07207      2885.795 7        43.361                                    22703825.392 7  92968409.76807      2248.668 7        42.574    22703825.769 6  92968410.77506      2248.668 6        40.496
E34         4.000    26557230.475 6 139559194.32906      2241.814 6        41.633                                                                    26557230.621 7 104216288.36307      1674.076 7        44.313    26557230.572 7 106934973.57307      1717.735 7        45.205
S21         5.000    38508956.899 7 202365764.48007      -410.440 7        42.497
E05         6.000    25416572.235 6 133565010.09806      2492.609 6        40.045                                                                    25416573.305 7  99740128.34107      1861.468 7        43.043    25416573.038 7 102342037.52207      1909.915 7        44.292
G21         7.000    23810247.425 6 125123745.07806     -3497.042 6        39.757                                    23810242.460 4  97499024.29304     -2724.962 4        24.752
E04         8.000    24529150.042 7 128901578.12607     -2071.391 7        45.034                                                                    24529148.265 8  96257677.08908     -1546.862 8        48.741    24529148.022 8  98768738.84008     -1587.272 8        49.771
R14         9.000    23276389.386 7 124076259.80107      -158.551 7        44.262                                                                    23276390.074 6  96503746.48906      -123.411 6        40.050
G04        10.000    20889970.768 7 109777577.69907      1635.878 7        46.981                                    20889967.464 6  85540978.11706      1274.711 6        37.750    20889967.641 7  85540973.11507      1274.714 7        45.631
E09        11.000    23751195.892 8 124813423.16908       621.952 8        48.145                                                                    23751195.207 8  93204845.59708       464.466 8        50.506    23751194.758 8  95636275.64308       476.592 8        51.081
S27        12.000    39144074.750 6 205703460.91206      -397.796 6        36.185
G06        13.000    24162151.796 6 126972987.56506      2997.612 6        39.417                                    24162150.837 5  98939993.45505      2335.804 5        34.676    24162151.548 6  98940004.46706      2335.741 6        38.628
S36        14.000    38276396.029 7 201144311.25207      -410.268 7        44.035
E27        15.000    29041979.593 5 152616628.24405      -773.442 5        33.880                                                                    29041980.239 6 113966969.49106      -577.766 6        37.792    29041980.304 6 116940018.58806      -592.770 6        38.526
E36        16.000    23525985.996 8 123629920.10608       101.785 8        48.009                                                                    23525986.129 8  92321061.60108        75.981 8        50.659    23525986.066 8  94729431.83108        77.950 8        51.554
S45        17.000    63472999.237 6 333553556.57206      -450.549 6        37.497
G03        18.000    20024280.492 8 105228362.85608      -772.863 8        50.180                                    20024278.587 8  81996146.52408      -602.233 8        52.116    20024279.041 7  81996155.52207      -602.195 7        45.514
R21        19.000    19441025.047 8 104032890.27208      -409.430 8        52.732                                                                    19441023.243 7  80914480.25007      -318.426 7        46.249
R20        20.000    21270217.367 6 113741450.11706     -4189.320 6        37.323                                                                    21270219.479 7  88465569.65607     -3258.392 7        44.974
R05        21.000    20708792.201 8 110700405.37208     -3261.312 8        49.612                                                                    20708791.550 7  86100320.39507     -2536.521 7        45.762
I06        22.000    38199579.136 7 149903581.24307      -217.635 7        42.940
S28        23.000    40946245.871 5 215173979.20705      -403.735 5        34.352
E10        24.000    26978787.566 6 141774601.92606     -3253.748 6        39.736                                                                    26978787.457 7 105870709.20607     -2429.795 7        44.631    26978787.757 7 108632544.53907     -2493.173 7        45.475
S23        25.000    38224724.458 7 200872278.63907      -406.585 7        44.376
E06        26.000    23475490.053 7 123364593.72607      -712.718 7        47.830                                                                    23475489.528 8  92122910.65608      -532.198 8        50.664    23475489.342 8  94526115.49808      -546.106 8        51.321
R15        27.000    23668811.108 7 126478946.09607      2633.895 7        44.175                                                                    23668811.818 6  98372523.18206      2048.673 6        38.658
I01        31.000   333165619.493 7   4272643.37807     -2586.021 7        43.348
G02        32.000    22170716.397 8 116507936.90608     -2945.845 8        48.275                                    22170709.789 6  90785400.76606     -2295.460 6        37.168
G19        33.000    22420713.819 7 117821677.99907       292.440 7        43.848                                    22420707.601 5  91809120.86205       227.875 5        32.335
G17        34.000    22540308.942 7 118450173.64207     -1628.444 7        45.433                                    22540304.559 7  92298846.54807     -1268.916 7        42.813    22540304.421 6  92298846.54406     -1268.989 6        41.278
E11        35.000    24606322.181 7 129307161.75807     -2488.436 7        43.414                                                                    24606318.402 7  96560560.45507     -1858.219 7        45.120    24606318.218 7  99079524.17807     -1906.664 7        45.914
C32        36.000                                                                                                                                    25568697.600 7 133142936.51007     -3238.898 7        42.463                                                                    25568697.675 7 108189551.27107     -2631.896 7        43.583
C35        37.000                                                                                                                                    23185627.339 7 120733663.97007       556.253 7        47.791                                                                    23185625.775 7  98105991.33307       451.926 7        47.848
I09        38.000    37279245.500 7 146291762.45207      -459.070 7        43.719
C29        39.000                                                                                                                                    23036803.833 8 119958681.93808     -2852.417 8        48.531                                                                    23036801.725 7  97476248.97107     -2317.900 7        47.773
R22        40.000    22295276.518 7 119013730.95707      3337.458 7        46.802                                                                    22295275.230 7  92566249.07807      2595.768 7        44.178
S44        42.000    40699208.083 6 213875986.56306      -486.216 6        38.207
C09        43.000                                                                                                                                    38792263.669 7 202001517.25707       265.737 7        42.389    38792260.049 7 156200377.47807       205.383 7        45.831    38792258.091 7 164142760.14307       215.906 7        42.237
C05        44.000                                                                                                                                    39194348.311 6 204095291.96006      -418.579 6        38.057    39194343.452 7 157819449.95207      -323.596 7        42.885    39194345.254 6 165844245.84506      -340.227 6        40.010
R06        45.000    19867363.504 6 106016108.14806      1063.564 6        40.775
C44        46.000                                                                                                                                    26171762.444 6 136283241.62106      2502.161 6        40.038                                                                    26171761.926 6 110741295.98706      2033.100 6        41.266
C39        47.000                                                                                                                                    39036488.390 7 203273249.18307      -790.766 7        42.512                                                                    39036484.522 7 165176154.80307      -642.610 7        43.215
C20        48.000                                                                                                                                    22031596.674 8 114724353.19608     -1244.253 8        51.950                                                                    22031590.875 8  93222926.53608     -1011.100 8        49.932
C06        49.000                                                                                                                                    38346828.727 6 199682022.58006      -236.108 6        40.865    38346822.925 7 154406789.45707      -182.540 7        44.128    38346822.800 7 162257978.99307      -191.904 7        42.051
C16        50.000                                                                                                                                    38801255.510 7 202048336.39107      -350.772 7        42.688    38801255.351 7 156236598.88807      -271.190 7        43.295    38801253.078 6 164180822.08106      -285.055 6        39.955
S48        51.000    77259892.607 6 406003875.54906      -408.348 6        37.754
C19        52.000                                                                                                                                    22988206.326 8 119705682.16008      1361.172 8        48.924                                                                    22988201.984 8  97270675.02208      1106.062 8        49.209
C60        54.000                                                                                                                                    40699212.021 6 211931678.84306      -481.808 6        39.246                                                                    40699196.832 6 172211818.31006      -391.571 6        40.570
C37        56.000                                                                                                                                    26095675.462 6 135887029.93006      1925.466 6        40.887                                                                    26095678.961 7 110419358.64507      1564.606 7        42.656
C02        57.000                                                                                                                                    40654654.086 5 211699502.69105      -464.274 5        33.683    40654648.467 6 163699477.70506      -359.064 6        39.592    40654651.664 5 172023189.88305      -377.358 5        35.571
I03        58.000   132355897.926 6 443607729.14506       950.590 6        40.872
R07        59.000    23152278.977 7 123935966.70007      3114.217 7        46.398                                                                    23152278.661 6  96394637.01906      2422.195 6        39.658
> 2025 01 01 01 46  5.0000000  0 53
G28         1.000    23446763.476 7 123213587.75407     -1702.797 7        42.396                                    23446759.833 4  96010569.36204     -1326.851 4        28.408    23446759.519 6  96010575.35506     -1326.759 6        40.953
G31         2.000    22313959.741 7 117260662.64507       119.822 7        45.309                                    22313955.090 7  91371932.62807        93.367 7        42.305    22313955.597 6  91371931.62706        93.346 6        40.837
G09         3.000    22701082.840 7 119295024.74407      2884.210 7        43.517                                    22701080.496 7  92957170.03707      2247.436 7        42.368    22701080.778 6  92957171.02106      2247.487 6        40.749
E34         4.000    26555097.632 6 139547988.14306      2240.949 6        41.430                                                                    26555098.257 7 104207920.12007      1673.422 7        44.438    26555098.044 7 106926387.02507      1717.121 7        45.153
S21         5.000    38509346.516 7 202367818.32807      -410.593 7        42.199
E05         6.000    25414201.022 6 133552549.86206      2491.670 6        40.045                                                                    25414202.189 7  99730823.63707      1860.698 7        43.115    25414201.718 7 102332490.08107      1909.230 7        44.193
G21         7.000    23813574.611 6 125141233.23806     -3498.038 6        39.396                                    23813570.497 4  97512651.41804     -2725.743 4        24.692
E04         8.000    24531121.843 7 128911940.11707     -2073.054 7        44.951                                                                    24531120.067 8  96265414.93708     -1548.124 8        48.813    24531119.784 8  98776678.54508     -1588.524 8        49.632
R14         9.000    23276541.233 7 124077064.29907      -162.922 7        44.769                                                                    23276542.145 6  96504372.18506      -126.745 6        40.546
G04        10.000    20888415.605 7 109769405.45107      1633.206 7        47.266                                    20888412.332 6  85534610.13106      1272.628 6        37.535    20888412.796 7  85534605.13107      1272.639 7        45.910
E09        11.000    23750605.243 8 124810319.25708       619.786 8        48.354                                                                    23750604.520 8  93202527.74608       462.841 8        50.619    23750604.119 8  95633897.32608       474.945 8        50.976
S27        12.000    39144451.502 6 205705453.03506      -398.430 6        36.193
G06        13.000    24159300.006 6 126958002.87206      2996.604 6        39.619                                    24159299.386 5  98928317.07605      2335.017 5        34.462    24159299.998 6  98928328.08306      2335.046 6        38.435
S36        14.000    38276787.569 7 201146363.76907      -410.403 7        43.795
E27        15.000    29042716.297 5 152620502.58705      -775.908 5        33.054                                                                    29042717.677 6 113969862.59406      -579.581 6        37.456    29042717.366 6 116942987.14306      -594.485 6        38.195
E36        16.000    23525890.350 8 123629417.04708        99.732 8        48.185                                                                    23525890.425 8  92320685.93708        74.441 8        50.819    23525890.315 8  94729046.36808        76.366 8        51.479
S45        17.000    63473389.811 6 333555811.11506      -450.861 6        37.406
G03        18.000    20025017.206 8 105232233.22108      -775.051 8        49.891                                    20025015.090 8  81999162.39308      -603.938 8        51.889    20025015.820 7  81999171.39707      -603.915 7        45.883
R21        19.000    19441409.566 8 104034950.07808      -414.184 8        52.827                                                                    19441408.132 7  80916082.32907      -322.147 7        46.262
R20        20.000    21274136.784 6 113762404.66506     -4192.219 6        38.339                                                                    21274138.225 7  88481867.64207     -3260.569 7        44.861
R05        21.000    20711843.577 8 110716716.92508     -3263.053 8        49.381                                                                    20711842.732 7  86113007.15507     -2537.929 7        45.114
I06        22.000    38199856.597 7 149904670.37207      -217.865 7        42.961
S28        23.000    40946633.651 5 215175999.04705      -403.751 5        34.038
E10        24.000    26981884.413 6 141790873.75406     -3254.609 6        39.937                                                                    26981884.028 7 105882860.24507     -2430.527 7        44.656    26981884.191 7 108645012.56507     -2493.909 7        45.445
S23        25.000    38225110.109 7 200874312.57907      -406.713 7        44.298
E06        26.000    23476169.205 7 123368163.28007      -714.948 7        47.950                                                                    23476168.748 8  92125576.23208      -533.878 8        50.727    23476168.610 8  94528850.61108      -547.804 8        51.157
R15        27.000    23666347.635 7 126465783.26607      2631.492 7        44.024                                                                    23666348.782 6  98362285.45006      2046.742 6        39.066
I01        31.000   333168914.657 7   4285574.34307     -2586.284 7        43.380
G02        32.000    22173519.868 7 116522672.05507     -2947.887 7        47.901                                    22173513.743 6  90796882.69606     -2297.053 6        36.994
G19        33.000    22420437.638 7 117820226.06307       288.636 7        43.996                                    22420431.349 5  91807989.48705       224.909 5        32.078
G17        34.000    22541860.074 7 118458323.81407     -1631.326 7        45.481                                    22541855.457 7  92305197.32807     -1271.164 7        42.612    22541855.719 6  92305197.34306     -1271.111 6        40.961
E11        35.000    24608690.845 7 129319608.59307     -2490.158 7        43.384                                                                    24608686.953 7  96569855.15907     -1859.524 7        45.123    24608686.855 7  99089061.36607     -1908.005 7        45.694
C32        36.000                                                                                                                                    25571807.649 7 133159132.65607     -3239.232 7        42.269                                                                    25571808.105 7 108202711.96307     -2632.169 7        43.767
C35        37.000                                                                                                                                    23185094.705 7 120730890.43707       553.334 7        47.906                                                                    23185093.147 7  98103737.60307       449.639 7        47.849
I09        38.000    37279830.706 7 146294059.25907      -459.480 7        43.532
C29        39.000                                                                                                                                    23039543.904 8 119972950.25908     -2854.632 8        48.516                                                                    23039541.819 7  97487843.14707     -2319.648 7        47.732
R22        40.000    22292151.766 7 118997049.64907      3335.363 7        46.855                                                                    22292150.035 7  92553274.72907      2594.124 7        43.989
S44        42.000    40699672.135 6 213878419.02606      -486.296 6        37.989
C09        43.000                                                                                                                                    38792009.577 7 202000192.03707       264.820 7        42.241    38792005.513 7 156199352.73307       204.647 7        46.005    38792003.628 7 164141683.30507       215.080 7        42.214
C05        44.000                                                                                                                                    39194750.726 6 204097385.78806      -418.719 6        37.936    39194745.585 7 157821069.03807      -323.870 7        42.813    39194747.316 6 165845947.25506      -340.274 6        39.961
R06        45.000    19866367.075 6 106010797.75506      1060.800 6        40.620
C44        46.000                                                                                                                                    26169360.264 6 136270734.40206      2500.899 6        40.153                                                                    26169359.427 6 110731132.85906      2032.112 6        40.713
C39        47.000                                                                                                                                    39037247.972 7 203277206.02207      -791.775 7        42.478                                                                    39037244.466 7 165179370.05807      -643.341 7        43.215
C20        48.000                                                                                                                                    22032792.404 8 114730579.62208     -1246.023 8        51.931                                                                    22032786.612 8  93227986.01708     -1012.534 8        49.923
C06        49.000                                                                                                                                    38347056.350 6 199683206.62706      -237.177 6        40.877    38347050.284 7 154407705.03607      -183.407 7        44.244    38347050.167 6 162258941.11606      -192.842 6        41.762
C16        50.000                                                                                                                                    38801593.015 7 202050093.51007      -351.783 7        42.512    38801592.748 7 156237957.60907      -272.161 7        43.209    38801590.480 6 164182249.87106      -285.890 6        40.095
S48        51.000    77260278.991 6 406005917.15506      -408.371 6        37.524
C19        52.000                                                                                                                                    22986900.362 8 119698881.01908      1359.490 8        48.855                                                                    22986895.922 8  97265148.54008      1104.702 8        49.303
C60        54.000                                                                                                                                    40699674.695 6 211934089.19006      -482.007 6        39.090                                                                    40699659.677 6 172213776.92706      -391.838 6        40.400
C37        56.000                                                                                                                                    26093826.786 6 135877406.67606      1924.087 6        40.479                                                                    26093830.823 7 110411538.96907      1563.396 7        42.726
C02        57.000                                                                                                                                    40655100.627 5 211701825.68305      -464.583 5        33.707    40655094.530 6 163701273.99106      -359.247 6        39.643    40655097.834 5 172025077.53605      -377.736 5        35.243
I03        58.000   132354687.013 6 443602977.17306       950.429 6        41.011
R07        59.000    23149372.095 7 123920399.87507      3112.795 7        45.938                                                                    23149370.558 6  96382529.48506      2421.071 6        39.625
> 2025 01 01 01 46 10.0000000  0 53
G28         1.000    23448384.899 7 123222109.08607     -1706.018 7        42.641                                    23448381.185 4  96017209.36404     -1329.366 4        28.654    23448381.792 6  96017215.35106     -1329.192 6        41.464
G31         2.000    22313847.376 7 117260071.86507       116.268 7        45.962                                    22313842.606 7  91371472.27807        90.593 7        42.413    22313843.522 6  91371471.28006        90.637 6        41.449
G09         3.000    22698338.695 7 119280606.73607      2882.884 7        43.621                                    22698336.860 7  92945935.23107      2246.400 7        42.470    22698337.431 6  92945936.24906      2246.302 6        41.428
E34         4.000    26552965.760 6 139536784.46906      2240.235 6        41.523                                                                    26552966.177 7 104199553.72707      1672.990 7        44.444    26552966.096 7 106917802.37507      1716.750 7        45.115
S21         5.000    38509736.227 7 202369871.52307      -410.767 7        42.341
E05         6.000    25411830.434 6 133540092.74806      2490.985 6        39.712                                                                    25411831.576 7  99721521.26707      1860.087 7        43.156    25411831.044 7 102322945.02807      1908.620 7        44.020
G21         7.000    23816903.293 6 125158725.21906     -3499.022 6        39.231                                    23816899.132 4  97526281.53104     -2726.515 4        24.526
E04         8.000    24533095.178 7 128922309.15907     -2074.637 7        45.184                                                                    24533093.202 8  96273158.04408     -1549.290 8        48.874    24533092.923 8  98784623.64808     -1589.729 8        49.594
R14         9.000    23276695.650 7 124077889.09007      -167.128 7        45.208                                                                    23276696.750 6  96505013.68806      -130.036 6        40.505
G04        10.000    20886862.709 7 109761244.96107      1630.701 7        47.113                                    20886859.431 6  85528251.30806      1270.676 6        37.690    20886859.715 7  85528246.29907      1270.722 7        45.645
E09        11.000    23750016.479 8 124807224.72208       617.792 8        48.370                                                                    23750015.657 8  93200216.89308       461.333 8        50.598    23750015.228 8  95631526.18708       473.421 8        50.890
S27        12.000    39144831.138 6 205707444.44906      -398.432 6        36.250
G06        13.000    24156449.595 6 126943021.37206      2995.707 6        38.868                                    24156448.508 5  98916643.18805      2334.320 5        34.652    24156448.935 6  98916654.20106      2334.347 6        38.907
S36        14.000    38277177.463 7 201148415.97507      -410.459 7        43.886
E27        15.000    29043456.032 5 152624388.21105      -778.538 5        33.659                                                                    29043457.073 6 113972764.16306      -581.002 6        37.652    29043456.548 6 116945964.41606      -596.338 6        38.264
E36        16.000    23525796.236 8 123628922.99408        97.779 8        48.038                                                                    23525796.353 8  92320316.99908        73.007 8        50.794    23525796.277 8  94728667.80208        74.928 8        51.387
S45        17.000    63473773.490 6 333558065.21706      -450.813 6        37.645
G03        18.000    20025755.353 8 105236113.20908      -777.106 8        50.051                                    20025753.431 8  82002185.75808      -605.535 8        52.019    20025753.923 7  82002194.76107      -605.508 7        45.807
R21        19.000    19441798.656 8 104037032.06908      -418.778 8        52.609                                                                    19441796.951 7  80917701.64807      -325.650 7        46.147
R20        20.000    21278057.643 6 113783370.84306     -4194.528 6        37.561                                                                    21278058.483 7  88498174.64907     -3262.489 7        43.799
R05        21.000    20714896.877 8 110733035.65908     -3264.554 8        49.796                                                                    20714895.727 7  86125699.50507     -2539.116 7        45.096
I06        22.000    38200134.176 7 149905759.25707      -217.844 7        43.056
S28        23.000    40947014.083 5 215178018.67805      -404.177 5        34.248
E10        24.000    26984981.107 6 141807149.19106     -3255.604 6        39.562                                                                    26984981.058 7 105895013.96807     -2431.194 7        44.754    26984981.120 7 108657483.33707     -2494.556 7        45.445
S23        25.000    38225498.496 7 200876346.09307      -406.808 7        44.453
E06        26.000    23476850.163 7 123371742.29607      -716.966 7        47.916                                                                    23476849.820 8  92128248.87308      -535.385 8        50.754    23476849.686 8  94531592.97108      -549.340 8        51.088
R15        27.000    23663886.322 7 126452630.86107      2629.230 7        44.438                                                                    23663887.161 6  98352055.80806      2044.993 6        39.333
I01        31.000   333172210.144 7   4298505.56507     -2586.381 7        43.655
G02        32.000    22176325.560 8 116537415.98608     -2949.824 8        48.034                                    22176319.471 6  90808371.47006     -2298.565 6        37.089
G19        33.000    22420164.585 7 117818791.39507       284.940 7        44.077                                    22420158.361 5  91806871.55905       222.032 5        32.168
G17        34.000    22543413.360 7 118466487.21407     -1634.191 7        45.746                                    22543408.876 7  92311558.41907     -1273.396 7        42.756    22543409.317 6  92311558.41706     -1273.472 6        41.552
E11        35.000    24611060.777 7 129332062.55207     -2491.717 7        42.914                                                                    24611056.859 7  96579155.18807     -1860.680 7        45.144    24611056.771 7  99098604.00007     -1909.237 7        45.675
C32        36.000                                                                                                                                    25574918.177 7 133175329.43407     -3239.591 7        42.100                                                                    25574918.555 7 108215873.16407     -2632.342 7        43.960
C35        37.000                                                                                                                                    23184564.482 8 120728129.95308       550.587 8        48.040                                                                    23184563.111 7  98101494.49207       447.539 7        47.853
I09        38.000    37280415.970 7 146296356.46407      -459.676 7        43.738
C29        39.000                                                                                                                                    23042285.917 8 119987227.88908     -2856.657 8        48.523                                                                    23042283.708 7  97499444.89107     -2321.121 7        47.692
R22        40.000    22289028.263 7 118980377.26207      3333.395 7        46.981                                                                    22289026.668 7  92540307.31907      2592.642 7        43.409
S44        42.000    40700137.134 6 213880851.06006      -486.418 6        37.686
C09        43.000                                                                                                                                    38791755.323 7 201998870.59707       263.723 7        42.220    38791751.720 7 156198330.89007       203.966 7        45.868    38791749.842 7 164140609.51207       214.499 7        42.144
C05        44.000                                                                                                                                    39195152.774 6 204099479.31006      -418.764 6        38.216    39195147.817 7 157822687.87107      -323.862 7        42.914    39195149.382 6 165847648.40406      -340.192 6        40.002
R06        45.000    19865374.974 6 106005500.48706      1057.972 6        40.293
C44        46.000                                                                                                                                    26166959.022 6 136258232.75406      2499.572 6        40.358                                                                    26166958.545 6 110720974.24506      2031.238 6        40.439
C39        47.000                                                                                                                                    39038008.258 7 203281166.50807      -792.659 7        42.451                                                                    39038004.943 7 165182588.27807      -643.896 7        43.209
C20        48.000                                                                                                                                    22033989.587 8 114736813.58208     -1247.727 8        51.922                                                                    22033983.833 8  93233051.62108     -1013.721 8        49.858
C06        49.000                                                                                                                                    38347284.329 6 199684394.74006      -238.172 6        40.868    38347278.418 7 154408623.75907      -184.147 7        44.039    38347278.443 7 162259906.56607      -193.413 7        42.011
C16        50.000                                                                                                                                    38801931.009 7 202051854.54307      -352.798 7        42.561    38801930.911 7 156239319.34807      -272.748 7        43.234    38801928.721 6 164183680.88906      -286.651 6        39.946
S48        51.000    77260667.504 6 406007958.16506      -408.354 6        37.395
C19        52.000                                                                                                                                    22985595.746 8 119692086.66608      1358.005 8        48.895                                                                    22985591.156 8  97259627.57308      1103.639 8        49.190
C60        54.000                                                                                                                                    40700137.530 6 211936499.11606      -481.975 6        39.159                                                                    40700122.324 6 172215735.18006      -391.564 6        40.522
C37        56.000                                                                                                                                    26091979.670 6 135867789.40706      1922.771 6        40.248                                                                    26091983.782 7 110403724.14907      1562.511 7        42.544
C02        57.000                                                                                                                                    40655546.434 5 211704148.30905      -464.487 5        33.281    40655540.762 6 163703069.99306      -359.330 6        39.658    40655543.887 5 172026964.84505      -377.390 5        35.319
I03        58.000   132353476.003 6 443598225.04406       950.315 6        41.061
R07        59.000    23146464.633 7 123904838.30607      3111.748 7        46.012                                                                    23146463.310 6  96370426.05406      2420.307 6        40.102
> 2025 01 01 01 46 15.0000000  0 53
G28         1.000    23450009.043 7 123230645.66807     -1709.302 7        42.387                                    23450005.479 4  96023861.24804     -1331.925 4        28.550    23450006.303 6  96023867.24306     -1331.823 6        41.392
G31         2.000    22313738.225 7 117259498.44407       112.692 7        46.017                                    22313733.432 7  91371025.45907        87.811 7        42.394    22313733.962 6  91371024.46706        87.711 6        41.309
G09         3.000    22695596.392 7 119266195.26707      2881.412 7        44.277                                    22695594.490 7  92934705.52607      2245.256 7        42.495    22695595.130 6  92934706.51906      2245.241 6        40.982
E34         4.000    26550834.427 6 139525583.37306      2239.607 6        41.271                                                                    26550834.616 7 104191189.28507      1672.485 7        44.420    26550834.559 7 106909219.73607      1716.097 7        45.386
S21         5.000    38510129.359 7 202371924.41907      -410.823 7        42.519
E05         6.000    25409460.581 6 133527638.86606      2490.201 6        39.105                                                                    25409461.765 7  99712221.30907      1859.463 7        43.300    25409461.174 7 102313402.46507      1908.019 7        44.206
G21         7.000    23820233.539 6 125176221.03106     -3499.834 6        39.264                                    23820228.457 4  97539914.63504     -2727.147 4        24.511
E04         8.000    24535069.397 7 128932685.33007     -2076.188 7        45.109                                                                    24535067.712 8  96280906.48708     -1550.473 8        48.776    24535067.494 8  98792574.22508     -1590.908 8        49.726
R14         9.000    23276854.495 7 124078734.47307      -171.477 7        44.730                                                                    23276855.227 6  96505671.17806      -133.419 6        39.667
G04        10.000    20885312.069 7 109753096.32207      1628.249 7        47.148                                    20885308.798 6  85521901.71906      1268.765 6        37.595    20885309.268 7  85521896.72907      1268.746 7        46.091
E09        11.000    23749429.244 8 124804139.67308       615.768 8        48.155                                                                    23749428.588 8  93197913.13108       459.803 8        50.618    23749428.206 8  95629162.32908       471.801 8        51.065
S27        12.000    39145205.203 5 205709435.34305      -398.461 5        35.919
G06        13.000    24153599.819 6 126928043.21606      2995.056 6        39.378                                    24153598.215 5  98904971.90505      2333.812 5        34.538    24153598.684 6  98904982.91406      2333.558 6        38.339
S36        14.000    38277566.834 7 201150468.18307      -410.841 7        43.865
E27        15.000    29044198.156 5 152628284.78505      -780.685 5        34.200                                                                    29044198.703 6 113975673.90306      -582.961 6        37.856    29044198.155 6 116948950.07106      -598.242 6        38.414
E36        16.000    23525704.021 8 123628438.05508        95.789 8        48.068                                                                    23525704.093 8  92319954.87108        71.522 8        50.796    23525704.028 8  94728296.22908        73.382 8        51.510
S45        17.000    63474157.705 6 333560319.06806      -451.080 6        37.705
G03        18.000    20026495.801 8 105240002.92808      -779.217 8        50.101                                    20026493.623 8  82005216.70808      -607.184 8        51.940    20026494.250 7  82005225.71607      -607.224 7        45.505
R21        19.000    19442192.216 8 104039136.38608      -423.433 8        52.969                                                                    19442190.345 7  80919338.33407      -329.312 7        45.986
R20        20.000    21281980.030 6 113804348.71806     -4197.055 6        37.331                                                                    21281982.297 7  88514490.78807     -3264.296 7        44.476
R05        21.000    20717950.954 8 110749361.47508     -3266.224 8        49.791                                                                    20717949.996 7  86138397.35807     -2540.421 7        45.091
I06        22.000    38200411.515 7 149906848.00607      -218.077 7        42.944
S28        23.000    40947401.428 5 215180037.85105      -403.914 5        34.329
E10        24.000    26988078.895 6 141823428.29406     -3256.532 6        39.730                                                                    26988078.887 7 105907170.43207     -2431.758 7        44.736    26988078.847 7 108669956.93407     -2495.254 7        45.539
S23        25.000    38225885.372 7 200878379.31507      -406.921 7        44.256
E06        26.000    23477533.069 7 123375330.89107      -718.993 7        47.773                                                                    23477532.720 8  92130928.67008      -536.904 8        50.699    23477532.530 8  94534342.67908      -550.928 8        51.259
R15        27.000    23661427.917 7 126439488.90507      2627.122 7        44.290                                                                    23661428.209 6  98341834.28606      2043.277 6        39.601
I01        31.000   333175505.207 7   4311437.11907     -2586.578 7        43.573
G02        32.000    22179133.091 7 116552168.80007     -2951.702 7        47.702                                    22179126.944 6  90819867.16706     -2300.030 6        37.013
G19        33.000    22419894.920 7 117817374.09807       281.449 7        43.833                                    22419888.624 5  91805767.16905       219.310 5        32.072
G17        34.000    22544969.253 7 118474663.91707     -1636.934 7        46.016                                    22544964.849 7  92317929.87707     -1275.533 7        42.686    22544965.164 6  92317929.88606     -1275.635 6        41.240
E11        35.000    24613432.009 7 129344523.70807     -2493.216 7        42.950                                                                    24613428.206 7  96588460.61307     -1861.943 7        45.177    24613428.087 7  99108152.17507     -1910.506 7        45.825
C32        36.000                                                                                                                                    25578028.601 7 133191526.93507     -3239.824 7        42.091                                                                    25578028.993 7 108229034.95007     -2632.610 7        43.617
C35        37.000                                                                                                                                    23184036.750 8 120725382.66608       547.843 8        48.117                                                                    23184035.527 7  98099262.09607       445.191 7        47.586
I09        38.000    37281001.625 7 146298654.15107      -459.827 7        43.615
C29        39.000                                                                                                                                    23045029.789 8 120001514.92708     -2858.623 8        48.686                                                                    23045027.443 7  97511054.28307     -2322.854 7        47.419
R22        40.000    22285906.650 7 118963713.90807      3331.445 7        46.454                                                                    22285904.740 7  92527346.93407      2591.106 7        42.965
S44        42.000    40700596.616 6 213883282.80206      -486.721 6        37.732
C09        43.000                                                                                                                                    38791501.968 7 201997553.06607       262.738 7        42.258    38791498.727 7 156197312.09107       203.236 7        45.935    38791496.799 6 164139538.90406       213.575 6        41.866
C05        44.000                                                                                                                                    39195554.232 6 204101572.59006      -418.933 6        37.811    39195549.686 7 157824306.53807      -324.053 7        42.756    39195551.425 6 165849349.36406      -340.354 6        39.751
R06        45.000    19864384.990 6 106000216.51306      1055.075 6        40.322
C44        46.000                                                                                                                                    26164558.612 6 136245736.85106      2498.297 6        38.931                                                                    26164558.897 6 110710820.32906      2030.072 6        40.379
C39        47.000                                                                                                                                    39038769.682 7 203285130.74107      -793.487 7        42.590                                                                    39038766.223 7 165185809.54507      -644.826 7        42.927
C20        48.000                                                                                                                                    22035188.281 8 114743055.16708     -1249.372 8        52.025                                                                    22035182.390 8  93238123.42008     -1015.218 8        49.595
C06        49.000                                                                                                                                    38347513.258 6 199685587.05106      -239.224 6        40.923    38347507.269 7 154409545.72807      -184.975 7        43.949    38347507.298 6 162260875.42006      -194.372 6        41.633
C16        50.000                                                                                                                                    38802270.249 7 202053619.63507      -353.678 7        42.667    38802270.143 7 156240684.22607      -273.528 7        43.098    38802267.759 6 164185115.14906      -287.497 6        39.580
S48        51.000    77261048.763 6 406009998.69606      -408.455 6        37.353
C19        52.000                                                                                                                                    22984292.302 8 119685299.20008      1356.511 8        48.938                                                                    22984287.596 8  97254112.21108      1102.272 8        48.964
C60        54.000                                                                                                                                    40700600.232 6 211938908.74806      -482.212 6        38.973                                                                    40700585.240 6 172217693.19606      -391.867 6        40.231
C37        56.000                                                                                                                                    26090134.773 6 135858178.23906      1921.222 6        40.310                                                                    26090137.969 7 110395914.27907      1561.283 7        42.165
C02        57.000                                                                                                                                    40655992.161 5 211706470.74005      -464.479 5        33.533    40655986.618 6 163704865.86006      -359.538 6        39.508    40655989.851 5 172028852.01505      -377.790 5        35.005
I03        58.000   132352265.024 6 443593472.85006       950.245 6        41.013
R07        59.000    23143557.436 7 123889282.00907      3110.420 7        45.809                                                                    23143558.229 6  96358326.73606      2419.191 6        39.904
> 2025 01 01 01 46 20.0000000  0 53
G28         1.000    23451636.762 7 123239197.65907     -1711.989 7        42.099                                    23451632.828 4  96030525.13904     -1334.018 4        28.559    23451633.258 6  96030531.13306     -1333.974 6        41.271
G31         2.000    22313632.117 7 117258942.57507       109.389 7        45.547                                    22313627.629 7  91370592.31507        85.239 7        42.419    22313628.119 6  91370591.30706        85.312 6        41.416
G09         3.000    22692855.265 7 119251790.45607      2880.319 7        43.691                                    22692853.412 7  92923481.00707      2244.404 7        42.629    22692853.230 6  92923482.00006      2244.379 6        40.832
E34         4.000    26548702.900 6 139514385.07706      2239.277 6        40.787                                                                    26548703.679 7 104182826.91607      1672.213 7        44.476    26548703.640 7 106900639.22107      1715.799 7        45.234
S21         5.000    38510522.160 7 202373977.23907      -410.626 7        42.675
E05         6.000    25407091.767 6 133515188.44606      2489.612 6        40.052                                                                    25407092.504 7  99702923.91707      1859.080 7        43.219    25407092.254 7 102303862.52707      1907.697 7        44.292
G21         7.000    23823562.993 6 125193720.88806     -3500.375 6        39.510                                    23823558.590 4  97553550.87404     -2727.559 4        24.526
E04         8.000    24537045.509 7 128943068.80507     -2077.417 7        45.099                                                                    24537043.678 8  96288660.37708     -1551.390 8        48.742    24537043.385 8  98800530.39108     -1591.841 8        49.696
R14         9.000    23277016.660 7 124079600.48607      -175.325 7        45.211                                                                    23277017.667 6  96506344.69906      -136.250 6        40.179
G04        10.000    20883763.661 7 109744959.75107      1626.023 7        47.197                                    20883760.440 6  85515561.53706      1267.029 6        37.664    20883760.534 7  85515556.53407      1267.101 7        45.919
E09        11.000    23748844.048 8 124801064.30708       614.067 8        48.139                                                                    23748843.356 8  93195616.58508       458.527 8        50.541    23748842.973 8  95626805.87208       470.537 8        51.056
S27        12.000    39145589.065 6 205711426.10706      -398.287 6        36.389
G06        13.000    24150750.048 6 126913068.58606      2994.529 6        38.916                                    24150748.606 5  98893303.36205      2333.398 5        34.505    24150749.383 6  98893314.36706      2333.487 6        38.670
S36        14.000    38277957.282 7 201152520.24607      -410.505 7        44.042
E27        15.000    29044941.972 5 152632192.66405      -782.601 5        34.243                                                                    29044942.631 6 113978592.04406      -584.568 6        37.932    29044941.897 6 116951944.33906      -599.769 6        38.682
E36        16.000    23525613.564 8 123627962.42108        94.136 8        48.109                                                                    23525613.607 8  92319599.68408        70.351 8        50.739    23525613.522 8  94727931.77908        72.152 8        51.498
S45        17.000    63474545.073 6 333562572.62706      -450.835 6        37.346
G03        18.000    20027237.866 8 105243902.57408      -780.935 8        50.032                                    20027235.693 8  82008255.39208      -608.521 8        52.013    20027236.124 7  82008264.40407      -608.569 7        45.672
R21        19.000    19442589.619 8 104041263.22808      -427.682 8        52.802                                                                    19442587.693 7  80920992.53807      -332.586 7        45.880
R20        20.000    21285905.827 6 113825338.60906     -4198.993 6        37.871                                                                    21285907.421 7  88530816.25307     -3266.092 7        44.939
R05        21.000    20721006.246 8 110765694.84408     -3267.464 8        50.108                                                                    20721005.809 7  86151101.08007     -2541.336 7        45.339
I06        22.000    38200688.909 7 149907936.73307      -217.829 7        42.980
S28        23.000    40947783.287 5 215182056.55205      -404.024 5        34.443
E10        24.000    26991177.578 6 141839711.26706     -3256.951 6        39.691                                                                    26991177.525 7 105919329.78907     -2432.230 7        44.825    26991177.248 7 108682433.47707     -2495.549 7        45.377
S23        25.000    38226270.602 7 200880412.23007      -406.606 7        44.293
E06        26.000    23478217.936 7 123378929.23107      -720.727 7        47.904                                                                    23478217.430 8  92133615.74208      -538.156 8        50.708    23478217.286 8  94537099.84608      -552.178 8        51.270
R15        27.000    23658970.660 7 126426357.68207      2625.197 7        43.824                                                                    23658970.423 6  98331621.11406      2041.753 6        40.453
I01        31.000   333178800.821 7   4324369.13207     -2586.483 7        43.752
G02        32.000    22181942.042 7 116566930.72507     -2953.296 7        47.613                                    22181936.066 6  90831369.96206     -2301.267 6        36.941
G19        33.000    22419628.320 7 117815974.36607       278.110 7        43.877                                    22419622.240 5  91804676.47105       216.712 5        32.114
G17        34.000    22546527.753 7 118482854.12607     -1639.348 7        45.344                                    22546523.392 7  92324311.85607     -1277.412 7        42.751    22546523.561 6  92324311.86106     -1277.578 6        41.547
E11        35.000    24615804.997 7 129356992.29407     -2494.433 7        43.071                                                                    24615800.863 7  96597771.55207     -1862.720 7        45.211    24615800.699 7  99117706.01507     -1911.423 7        45.840
C32        36.000                                                                                                                                    25581139.244 7 133207725.34007     -3239.777 7        42.741                                                                    25581139.546 7 108242197.48207     -2632.445 7        43.736
C35        37.000                                                                                                                                    23183511.918 8 120722648.75108       545.376 8        48.301                                                                    23183510.502 7  98097040.57107       443.236 7        47.782
I09        38.000    37281587.161 7 146300952.44507      -459.829 7        43.632
C29        39.000                                                                                                                                    23047775.263 8 120015811.55908     -2860.311 8        48.612                                                                    23047772.947 7  97522671.46207     -2324.156 7        47.631
R22        40.000    22282786.635 7 118947059.85707      3329.845 7        47.478                                                                    22282784.828 7  92514393.78407      2589.802 7        42.836
S44        42.000    40701060.636 6 213885714.41006      -486.389 6        38.039
C09        43.000                                                                                                                                    38791249.604 7 201996239.57607       262.278 7        42.430    38791246.488 7 156196296.42007       202.895 7        46.024    38791244.540 7 164138471.59207       213.263 7        42.245
C05        44.000                                                                                                                                    39195956.705 6 204103665.82206      -418.763 6        38.309    39195951.730 7 157825925.13207      -323.709 7        42.927    39195953.218 6 165851050.27706      -340.083 6        39.970
R06        45.000    19863397.257 6 105994945.90306      1052.951 6        40.424
C44        46.000                                                                                                                                    26162159.885 6 136233246.86506      2497.395 6        38.237                                                                    26162160.627 6 110700671.21206      2029.405 6        39.928
C39        47.000                                                                                                                                    39039531.468 7 203289098.92007      -794.094 7        43.048                                                                    39039528.231 7 165189034.01707      -645.118 7        43.194
C20        48.000                                                                                                                                    22036388.313 8 114749304.56308     -1250.679 8        52.208                                                                    22036382.513 8  93243201.57108     -1016.218 8        49.823
C06        49.000                                                                                                                                    38347743.053 6 199686783.73506      -239.767 6        40.958    38347737.411 7 154410471.08307      -185.399 7        44.051    38347737.088 6 162261847.81606      -194.771 6        41.893
C16        50.000                                                                                                                                    38802609.940 7 202055388.91807      -354.243 7        42.851    38802609.838 7 156242052.36107      -274.034 7        43.179    38802607.403 6 164186552.84606      -287.841 6        39.925
S48        51.000    77261434.986 6 406012039.08306      -408.144 6        37.233
C19        52.000                                                                                                                                    22982990.113 8 119678518.82308      1355.339 8        49.329                                                                    22982985.560 8  97248602.60508      1101.386 8        49.190
C60        54.000                                                                                                                                    40701063.045 6 211941318.22806      -481.877 6        39.321                                                                    40701047.910 6 172219651.09906      -391.245 6        40.355
C37        56.000                                                                                                                                    26088290.232 6 135848573.31406      1920.295 6        40.644                                                                    26088293.475 7 110388109.51107      1560.596 7        42.305
C02        57.000                                                                                                                                    40656438.228 5 211708793.14605      -464.859 5        33.695    40656432.734 6 163706661.63506      -359.058 6        39.510    40656435.895 5 172030739.13405      -377.340 5        35.381
I03        58.000   132351054.225 6 443588720.70406       950.384 6        41.018
R07        59.000    23140652.685 7 123873731.56007      3109.589 7        46.604                                                                    23140652.393 6  96346231.94006      2418.608 6        39.045
> 2025 01 01 01 46 25.0000000  0 53
G28         1.000    23453267.125 6 123247765.42106     -1715.053 6        41.514                                    23453263.258 4  96037201.32104     -1336.398 4        28.559    23453264.069 6  96037207.32006     -1336.281 6        41.919
G31         2.000    22313529.566 7 117258404.60807       105.964 7        45.631                                    22313525.211 7  91370173.12307        82.568 7        42.423    22313525.823 6  91370172.12506        82.554 6        40.532
G09         3.000    22690115.078 7 119237392.68007      2878.893 7        43.048                                    22690113.681 7  92912261.96207      2243.290 7        42.770    22690114.113 6  92912262.97006      2243.321 6        41.418
E34         4.000    26546572.784 6 139503189.92506      2238.857 6        40.982                                                                    26546573.435 7 104174466.90807      1671.773 7        44.361    26546573.219 7 106892061.11807      1715.428 7        45.225
S21         5.000    38510905.485 7 202376030.33407      -410.549 7        42.631
E05         6.000    25404723.043 6 133502741.79306      2489.158 6        40.679                                                                    25404723.962 7  99693629.35307      1858.730 7        43.096    25404723.764 7 102294325.49807      1907.173 7        44.253
G21         7.000    23826893.971 6 125211225.15706     -3501.319 6        39.351                                    23826889.569 4  97567190.56104     -2728.295 4        24.436
E04         8.000    24539022.989 7 128953459.95107     -2078.868 7        45.305                                                                    24539020.997 8  96296419.99608     -1552.435 8        48.770    24539020.755 8  98808492.42908     -1592.924 8        49.669
R14         9.000    23277183.368 7 124080487.50307      -179.522 7        45.381                                                                    23277184.402 6  96507034.57606      -139.450 6        39.393
G04        10.000    20882217.594 7 109736835.59207      1623.647 7        47.193                                    20882214.493 6  85509231.02206      1265.178 6        37.754    20882214.749 7  85509226.01907      1265.224 7        46.197
E09        11.000    23748260.796 8 124797998.96208       612.122 8        48.225                                                                    23748260.042 8  93193327.53208       457.115 8        50.542    23748259.623 8  95624457.10408       469.043 8        50.989
S27        12.000    39145966.971 6 205713417.44406      -398.128 6        36.457
G06        13.000    24147900.812 6 126898097.84406      2993.866 6        40.153                                    24147899.745 5  98881637.85505      2332.884 5        34.667    24147900.720 6  98881648.86106      2332.953 6        38.414
S36        14.000    38278349.927 7 201154572.45107      -410.289 7        44.045
E27        15.000    29045687.699 5 152636112.34805      -784.927 5        34.724                                                                    29045688.479 6 113981518.98606      -586.079 6        37.958    29045687.699 6 116954947.64906      -601.506 6        38.378
E36        16.000    23525524.843 7 123627496.44707        92.332 7        47.992                                                                    23525524.897 8  92319251.72008        68.926 8        50.679    23525524.838 8  94727574.73508        70.730 8        51.452
S45        17.000    63474930.468 6 333563226.40916      -450.709 6        37.750
G03        18.000    20027981.767 8 105247812.48408      -782.933 8        49.921                                    20027979.722 8  82011302.07708      -610.076 8        52.060    20027980.341 7  82011311.07807      -610.091 7        45.776
R21        19.000    19442991.128 8 104043412.98308      -432.145 8        52.498                                                                    19442989.633 7  80922664.57707      -336.155 7        46.057
R20        20.000    21289832.840 6 113846340.85306     -4201.577 6        37.762                                                                    21289834.791 7  88547151.32207     -3267.967 7        44.761
R05        21.000    20724063.274 8 110782035.74308     -3268.814 8        50.018                                                                    20724062.314 7  86163810.67307     -2542.451 7        45.476
I06        22.000    38200966.456 7 149909025.73207      -217.789 7        42.851
S28        23.000    40948170.400 5 215184075.67605      -403.913 5        34.343
E10        24.000    26994277.244 6 141855998.45106     -3257.879 6        40.131                                                                    26994277.022 7 105931492.29307     -2432.829 7        44.655    26994276.567 7 108694913.26707     -2496.101 7        45.332
S23        25.000    38226657.831 7 200882445.26607      -406.531 7        44.442
E06        26.000    23478904.661 8 123382537.68208      -722.583 8        48.037                                                                    23478904.135 8  92136310.37008      -539.604 8        50.677    23478903.959 8  94539864.76608      -553.679 8        51.169
R15        27.000    23656514.782 7 126413237.56007      2622.959 7        43.045                                                                    23656515.476 6  98321416.58606      2040.131 6        40.312
I01        31.000   333182096.638 7   4337301.89207     -2586.512 7        43.564
G02        32.000    22184753.260 8 116581702.07208     -2955.107 8        48.254                                    22184747.004 6  90842880.09806     -2302.678 6        36.953
G19        33.000    22419365.145 7 117814592.51707       274.666 7        43.953                                    22419359.291 5  91803599.70805       214.022 5        32.222
G17        34.000    22548088.618 7 118491058.15107     -1642.078 7        45.849                                    22548084.579 7  92330704.59507     -1279.539 7        42.728    22548085.047 6  92330704.60006     -1279.520 6        41.569
E11        35.000    24618179.082 7 129369468.64907     -2495.967 7        43.202                                                                    24618175.125 7  96607088.30407     -1863.790 7        45.127    24618174.870 7  99127265.81407     -1912.513 7        45.752
C32        36.000                                                                                                                                    25584250.090 7 133223924.98907     -3239.896 7        42.550                                                                    25584250.692 7 108255361.03807     -2632.658 7        43.672
C35        37.000                                                                                                                                    23182989.691 8 120719928.55508       542.738 8        48.184                                                                    23182988.137 7  98094830.18807       441.125 7        47.837
I09        38.000    37282173.057 7 146303251.62707      -459.809 7        43.352
C29        39.000                                                                                                                                    23050522.460 8 120030118.12408     -2862.233 8        48.726                                                                    23050520.336 7  97534296.71307     -2325.717 7        47.721
R22        40.000    22279669.325 7 118930415.42907      3328.018 7        46.625                                                                    22279667.734 7  92501448.10007      2588.424 7        42.434
S44        42.000    40701523.583 6 213888146.23706      -486.413 6        37.868
C09        43.000                                                                                                                                    38790998.554 7 201994930.49907       261.341 7        42.131    38790995.325 7 156195284.16807       202.198 7        46.268    38790993.196 7 164137407.85607       212.566 7        42.064
C05        44.000                                                                                                                                    39196358.462 6 204105759.34206      -418.735 6        38.069    39196353.863 7 157827543.98207      -323.725 7        43.154    39196355.262 6 165852751.44306      -340.181 6        39.982
R06        45.000    19862412.762 6 105989689.17406      1049.927 6        40.741
C44        46.000                                                                                                                                    26159763.099 6 136220763.14006      2496.079 6        38.784                                                                    26159763.201 6 110690527.18206      2028.401 6        40.758
C39        47.000                                                                                                                                    39040294.373 7 203293071.37707      -794.776 7        42.997                                                                    39040291.072 7 165192261.97207      -645.842 7        43.208
C20        48.000                                                                                                                                    22037590.089 8 114755562.13208     -1252.257 8        52.043                                                                    22037584.259 8  93248286.34808     -1017.461 8        49.885
C06        49.000                                                                                                                                    38347973.914 6 199687985.10606      -240.663 6        40.865    38347968.028 7 154411400.06807      -186.157 7        44.167    38347967.839 6 162262824.04206      -195.468 6        41.828
C16        50.000                                                                                                                                    38802950.577 7 202057162.78607      -355.178 7        42.739    38802950.324 7 156243424.02107      -274.690 7        43.299    38802948.058 6 164187994.24406      -288.443 6        39.901
S48        51.000    77261820.968 6 406014079.76606      -408.135 6        37.452
C19        52.000                                                                                                                                    22981689.266 8 119671745.87708      1353.984 8        49.112                                                                    22981684.870 8  97243099.02908      1100.289 8        49.217
C60        54.000                                                                                                                                    40701525.768 6 211943727.97006      -481.870 6        39.102                                                                    40701510.754 6 172221609.20806      -391.521 6        40.372
C37        56.000                                                                                                                                    26086446.470 6 135838975.07406      1919.064 6        40.527                                                                    26086450.157 7 110380310.14007      1559.461 7        42.235
C02        57.000                                                                                                                                    40656884.648 5 211711115.80905      -464.388 5        33.671    40656878.778 6 163708457.69106      -359.151 6        39.886    40656881.899 5 172032626.49605      -377.365 5        35.476
I03        58.000   132349843.482 6 443583968.90306       950.409 6        40.865
R07        59.000    23137750.217 7 123858186.81607      3108.381 7        46.827                                                                    23137748.424 6  96334141.56706      2417.807 6        38.925
> 2025 01 01 01 46 30.0000000  0 53
G28         1.000    23454900.464 7 123256348.68907     -1718.175 7        42.100                                    23454896.701 4  96043889.57604     -1338.838 4        28.436    23454897.382 7  96043895.57707     -1338.776 7        42.538
G31         2.000    22313430.921 7 117257884.27907       102.256 7        45.526                                    22313426.178 7  91369767.67307        79.680 7        42.476    22313427.018 6  91369766.67306        79.673 6        40.605
G09         3.000    22687376.667 7 119223001.70307      2877.447 7        43.812                                    22687375.165 7  92901048.21907      2242.166 7        42.760    22687375.416 6  92901049.22906      2242.247 6        40.870
E34         4.000    26544443.089 6 139491997.66306      2238.180 6        41.001                                                                    26544443.623 7 104166109.04307      1671.348 7        44.247    26544443.419 7 106883485.22707      1714.915 7        45.178
S21         5.000    38511299.591 7 202378083.33007      -410.535 7        42.654
E05         6.000    25402354.515 6 133490298.67306      2488.201 6        40.181                                                                    25402355.891 7  99684337.42007      1858.053 7        42.954    25402355.709 7 102284791.15607      1906.610 7        44.047
G21         7.000    23830225.756 6 125228733.52206     -3502.091 6        38.799                                    23830221.379 4  97580833.45004     -2728.890 4        24.316
E04         8.000    24541001.568 7 128963858.47507     -2080.466 7        45.281                                                                    24540999.783 8  96304185.12508     -1553.623 8        48.759    24540999.611 8  98816460.13008     -1594.140 8        49.665
R14         9.000    23277353.866 7 124081395.23607      -183.599 7        45.351                                                                    23277354.418 6  96507740.62106      -142.829 6        39.949
G04        10.000    20880673.986 7 109728723.57807      1621.209 7        47.146                                    20880670.835 6  85502909.97106      1263.279 6        37.792    20880671.033 7  85502904.96607      1263.292 7        46.227
E09        11.000    23747679.305 8 124794943.36608       610.137 8        48.254                                                                    23747678.561 8  93191045.75708       455.620 8        50.501    23747678.156 8  95622115.80708       467.488 8        51.014
S27        12.000    39146346.178 6 205715408.86306      -398.412 6        36.272
G06        13.000    24145052.947 6 126883130.73906      2993.083 6        39.508                                    24145051.571 5  98869975.17405      2332.271 5        34.681    24145052.492 6  98869986.16506      2332.296 6        38.625
S36        14.000    38278738.667 7 201156624.50307      -410.467 7        44.027
E27        15.000    29046435.801 5 152640043.38705      -787.400 5        34.457                                                                    29046436.491 6 113984454.42106      -587.946 6        38.312    29046435.937 6 116957959.65506      -603.349 6        38.688
E36        16.000    23525437.931 8 123627039.85908        90.370 8        48.057                                                                    23525438.013 8  92318910.76108        67.471 8        50.659    23525437.948 8  94727224.88108        69.230 8        51.482
S45        17.000    63475317.004 6 333565480.09806      -450.646 6        37.913
G03        18.000    20028727.674 8 105251732.38508      -784.976 8        49.994                                    20028725.655 8  82014356.54308      -611.670 8        52.045    20028726.216 7  82014365.54607      -611.673 7        45.813
R21        19.000    19443396.887 8 104045585.27408      -436.724 8        52.500                                                                    19443395.788 7  80924354.13507      -339.664 7        46.239
R20        20.000    21293762.365 6 113867355.08706     -4204.044 6        36.866                                                                    21293764.790 7  88563495.72607     -3269.849 7        44.640
R05        21.000    20727120.875 8 110798384.07308     -3270.476 8        49.268                                                                    20727120.798 7  86176526.03307     -2543.663 7        45.147
I06        22.000    38201243.961 7 149910114.77507      -217.896 7        42.912
S28        23.000    40948552.513 5 215186094.76205      -403.633 5        34.214
E10        24.000    26997377.336 6 141872289.56706     -3258.632 6        39.994                                                                    26997376.896 7 105943657.73107     -2433.417 7        44.474    26997376.820 7 108707396.07707     -2496.937 7        45.251
S23        25.000    38227043.719 7 200884478.32407      -406.661 7        44.430
E06        26.000    23479593.049 8 123386155.96508      -724.644 8        48.060                                                                    23479592.655 8  92139012.32508      -541.130 8        50.607    23479592.527 8  94542637.21308      -555.242 8        51.202
R15        27.000    23654061.504 7 126400128.40607      2620.733 7        43.862                                                                    23654062.621 6  98311220.60306      2038.275 6        40.532
I01        31.000   333185392.294 7   4350235.17307     -2586.700 7        43.336
G02        32.000    22187565.931 7 116596482.56807     -2957.025 7        47.935                                    22187559.596 6  90854397.36606     -2304.177 6        37.059
G19        33.000    22419105.697 7 117813228.30207       271.057 7        44.450                                    22419099.633 5  91802536.68105       211.213 5        32.234
G17        34.000    22549652.578 7 118499275.71307     -1644.804 7        45.916                                    22549648.359 7  92337107.89207     -1281.660 7        42.772    22549648.600 6  92337107.89706     -1281.818 6        41.557
E11        35.000    24620554.661 7 129381952.46807     -2497.366 7        43.327                                                                    24620550.686 7  96616410.63107     -1864.893 7        45.174    24620550.462 7  99136831.33107     -1913.539 7        45.758
C32        36.000                                                                                                                                    25587361.643 7 133240125.64707     -3240.145 7        42.749                                                                    25587361.767 7 108268525.39107     -2632.887 7        43.507
C35        37.000                                                                                                                                    23182469.902 8 120717221.81608       540.067 8        48.441                                                                    23182468.284 7  98092630.75407       438.865 7        47.830
I09        38.000    37282759.224 7 146305551.48807      -460.051 7        43.537
C29        39.000                                                                                                                                    23053271.724 8 120044434.34708     -2864.301 8        48.718                                                                    23053269.653 7  97545929.82107     -2327.474 7        47.725
R22        40.000    22276552.443 7 118913780.36707      3326.090 7        46.607                                                                    22276551.324 7  92488509.74007      2586.907 7        43.831
S44        42.000    40701986.875 6 213890578.02006      -486.357 6        37.845
C09        43.000                                                                                                                                    38790747.917 7 201993625.61207       260.511 7        42.224    38790744.781 7 156194275.14107       201.518 7        46.172    38790742.609 7 164136347.54407       211.697 7        42.205
C05        44.000                                                                                                                                    39196760.470 6 204107852.88706      -418.764 6        38.339    39196756.116 7 157829162.85007      -323.784 7        43.164    39196757.234 6 165854452.62606      -340.153 6        40.136
R06        45.000    19861430.121 6 105984445.89306      1047.297 6        41.025
C44        46.000                                                                                                                                    26157367.294 6 136208285.45106      2495.035 6        39.372                                                                    26157367.209 6 110680388.08906      2027.320 6        40.946
C39        47.000                                                                                                                                    39041058.091 7 203297047.85907      -795.617 7        43.175                                                                    39041054.755 7 165195493.19407      -646.605 7        43.149
C20        48.000                                                                                                                                    22038793.193 8 114761827.58708     -1253.917 8        52.168                                                                    22038787.454 8  93253377.55008     -1018.907 8        49.894
C06        49.000                                                                                                                                    38348205.693 6 199689190.94106      -241.601 6        40.982    38348199.765 7 154412332.49807      -186.852 7        44.099    38348199.382 6 162263803.88706      -196.447 6        41.888
C16        50.000                                                                                                                                    38803292.345 7 202058940.95207      -356.122 7        42.832    38803291.963 7 156244799.00307      -275.302 7        43.213    38803289.530 6 164189439.15706      -289.248 6        40.045
S48        51.000    77262202.674 6 406016120.37106      -408.242 6        37.229
C19        52.000                                                                                                                                    22980389.771 8 119664980.10708      1352.440 8        49.170                                                                    22980385.580 8  97237601.30208      1098.891 8        49.277
C60        54.000                                                                                                                                    40701988.353 6 211946137.65006      -481.869 6        39.237                                                                    40701973.513 6 172223567.28106      -391.664 6        40.317
C37        56.000                                                                                                                                    26084604.037 6 135829383.19506      1917.683 6        40.446                                                                    26084608.082 7 110372515.97607      1558.327 7        42.157
C02        57.000                                                                                                                                    40657330.468 5 211713438.52705      -464.546 5        34.005    40657324.908 6 163710253.76606      -359.144 6        40.002    40657328.006 5 172034513.90905      -377.561 5        35.729
I03        58.000   132348632.488 6 443579217.23406       950.284 6        41.051
R07        59.000    23134847.115 7 123842648.14607      3107.328 7        46.049                                                                    23134846.081 6  96322055.96706      2416.553 6        38.754
> 2025 01 01 01 46 35.0000000  0 53
G28         1.000    23456536.844 7 123264947.34407     -1721.262 7        42.470                                    23456533.288 4  96050589.82704     -1341.240 4        28.673    23456533.417 7  96050595.83007     -1341.209 7        42.550
G31         2.000    22313335.378 7 117257381.47507        98.810 7        45.077                                    22313330.498 7  91369375.87607        76.994 7        42.493    22313331.352 6  91369374.87506        77.024 6        41.509
G09         3.000    22684639.837 7 119208617.39307      2876.157 7        43.263                                    22684637.910 7  92889839.67307      2241.163 7        42.745    22684638.071 6  92889840.67006      2241.150 6        40.744
E34         4.000    26542314.036 6 139480808.20806      2237.586 6        41.154                                                                    26542314.389 7 104157753.27407      1670.976 7        44.345    26542314.080 7 106874911.48407      1714.490 7        45.246
S21         5.000    38511690.089 7 202380135.96907      -410.607 7        42.470
E05         6.000    25399987.185 6 133477858.96406      2487.608 6        39.658                                                                    25399988.567 7  99675048.02607      1857.624 7        42.796    25399988.482 7 102275259.45207      1906.020 7        43.943
G21         7.000    23833557.488 6 125246245.90106     -3502.916 6        39.048                                    23833554.013 4  97594479.44604     -2729.531 4        24.346
E04         8.000    24542981.869 7 128974264.26907     -2081.875 7        45.240                                                                    24542979.993 8  96311955.68708     -1554.641 8        48.801    24542979.764 8  98824433.40608     -1595.218 8        49.636
R14         9.000    23277527.536 7 124082323.57707      -187.686 7        44.603                                                                    23277528.808 6  96508462.61706      -145.897 6        40.017
G04        10.000    20879132.526 7 109720623.60907      1618.793 7        46.900                                    20879129.489 6  85496598.30706      1261.397 6        37.773    20879129.539 7  85496593.30207      1261.390 7        46.458
E09        11.000    23747099.614 8 124791897.43508       608.160 8        48.372                                                                    23747098.932 8  93188771.19408       454.185 8        50.486    23747098.531 8  95619781.90808       466.045 8        50.980
S27        12.000    39146727.191 6 205717399.74206      -397.954 6        36.125
G06        13.000    24142205.380 6 126868167.14906      2992.366 6        38.952                                    24142204.074 5  98858315.23005      2331.713 5        34.609    24142205.080 6  98858326.24106      2331.778 6        38.586
S36        14.000    38279129.666 7 201158676.52007      -410.385 7        43.964
E27        15.000    29047186.149 5 152643985.65205      -789.561 5        34.500                                                                    29047186.691 6 113987398.19006      -589.585 6        38.219    29047186.194 6 116960980.24306      -605.128 6        38.517
E36        16.000    23525352.888 8 123626592.57908        88.491 8        48.179                                                                    23525352.912 8  92318576.75208        66.096 8        50.680    23525352.859 8  94726882.15708        67.845 8        51.431
S45        17.000    63475701.153 6 333567733.77506      -450.794 6        37.698
G03        18.000    20029475.557 8 105255662.17408      -786.935 8        49.968                                    20029473.472 8  82017418.71508      -613.196 8        52.062    20029473.886 7  82017427.71407      -613.158 7        45.767
R21        19.000    19443807.089 8 104047780.05808      -441.220 8        52.406                                                                    19443805.632 7  80926061.18107      -343.148 7        46.268
R20        20.000    21297693.251 6 113888381.13106     -4206.269 6        37.096                                                                    21297696.028 7  88579849.30507     -3271.607 7        44.569
R05        21.000    20730180.991 8 110814739.63808     -3271.846 8        49.915                                                                    20730180.341 7  86189247.02507     -2544.815 7        45.245
I06        22.000    38201521.666 7 149911203.78007      -217.811 7        42.940
S28        23.000    40948932.583 5 215188113.82405      -403.637 5        33.796
E10        24.000    27000478.187 6 141888584.51906     -3259.412 6        40.036                                                                    27000477.633 7 105955826.03707     -2434.002 7        44.394    27000477.800 7 108719881.81407     -2497.460 7        45.485
S23        25.000    38227432.370 7 200886511.23207      -406.826 7        44.421
E06        26.000    23480283.413 8 123389783.97508      -726.594 8        48.043                                                                    23480283.008 8  92141721.54908      -542.543 8        50.674    23480282.887 8  94545417.11108      -556.716 8        51.186
R15        27.000    23651610.407 7 126387030.00407      2618.555 7        43.323                                                                    23651611.273 6  98301032.96106      2036.704 6        40.229
I01        31.000   333188688.002 7   4363168.90107     -2586.786 7        43.566
G02        32.000    22190380.119 7 116611272.09707     -2958.845 7        47.675                                    22190373.870 6  90865921.67206     -2305.594 6        37.055
G19        33.000    22418849.548 7 117811881.62107       267.555 7        44.564                                    22418843.409 5  91801487.31705       208.486 5        32.281
G17        34.000    22551218.886 7 118507506.67907     -1647.561 7        46.051                                    22551214.688 7  92343521.63007     -1283.814 7        42.766    22551214.946 6  92343521.63106     -1283.800 6        41.862
E11        35.000    24622931.599 7 129394443.70507     -2498.940 7        43.149                                                                    24622927.695 7  96625738.50107     -1866.039 7        45.217    24622927.313 7  99146402.53807     -1914.802 7        45.725
C32        36.000                                                                                                                                    25590472.889 7 133256327.18307     -3240.306 7        42.864                                                                    25590473.068 7 108281690.46207     -2633.141 7        43.058
C35        37.000                                                                                                                                    23181952.431 8 120714528.46308       537.325 8        48.387                                                                    23181951.027 7  98090442.17307       436.632 7        47.726
I09        38.000    37283345.250 7 146307851.95207      -460.248 7        43.589
C29        39.000                                                                                                                                    23056022.926 8 120058760.09908     -2866.107 8        49.236                                                                    23056020.756 7  97557570.66707     -2328.956 7        47.632
R22        40.000    22273437.708 7 118897154.62207      3324.241 7        46.563                                                                    22273436.641 7  92475578.61807      2585.485 7        43.966
S44        42.000    40702451.409 6 213893009.67206      -486.227 6        37.784
C09        43.000                                                                                                                                    38790497.806 7 201992324.75007       259.743 7        42.002    38790494.881 7 156193269.23707       200.894 7        46.225    38790492.878 7 164135290.48107       211.059 7        42.032
C05        44.000                                                                                                                                    39197162.826 6 204109946.38106      -418.737 6        38.360    39197157.811 7 157830781.67307      -323.796 7        43.145    39197159.327 6 165856153.77006      -340.242 6        39.982
R06        45.000    19860449.344 6 105979216.05406      1044.532 6        40.529
C44        46.000                                                                                                                                    26154972.147 6 136195813.66806      2493.766 6        39.706                                                                    26154971.964 6 110670253.74506      2026.433 6        40.687
C39        47.000                                                                                                                                    39041822.320 7 203301028.25107      -796.531 7        43.173                                                                    39041819.119 7 165198727.58107      -647.250 7        43.168
C20        48.000                                                                                                                                    22039998.083 8 114768100.81608     -1255.441 8        52.197                                                                    22039992.130 8  93258475.05808     -1020.163 8        49.830
C06        49.000                                                                                                                                    38348437.954 6 199690401.15106      -242.494 6        40.953    38348431.913 7 154413268.30507      -187.581 7        44.111    38348431.800 6 162264787.28306      -197.088 6        41.766
C16        50.000                                                                                                                                    38803634.180 7 202060723.30407      -356.934 7        42.743    38803634.204 7 156246177.23707      -275.982 7        43.206    38803631.747 6 164190887.46606      -289.858 6        39.694
S48        51.000    77262591.531 6 406018160.64206      -408.011 6        37.399
C19        52.000                                                                                                                                    22979091.823 8 119658221.40408      1351.035 8        49.020                                                                    22979087.656 8  97232109.29108      1097.812 8        49.130
C60        54.000                                                                                                                                    40702451.112 6 211948547.19006      -481.788 6        39.222                                                                    40702436.161 6 172225525.22106      -391.545 6        40.341
C37        56.000                                                                                                                                    26082762.634 6 135819797.63006      1916.455 6        39.988                                                                    26082767.448 6 110364726.90106      1557.267 6        41.940
C02        57.000                                                                                                                                    40657776.647 5 211715761.13105      -464.356 5        33.964    40657771.095 6 163712049.75706      -359.128 6        39.898    40657773.992 5 172036401.21005      -377.334 5        35.152
I03        58.000   132347421.485 6 443574465.60106       950.207 6        41.139
R07        59.000    23131944.645 7 123827114.84607      3106.095 7        46.127                                                                    23131944.016 6  96309974.51706      2415.872 6        40.081
> 2025 01 01 01 46 40.0000000  0 53
G28         1.000    23458175.845 7 123273561.00107     -1724.373 7        42.554                                    23458172.607 4  96057301.76704     -1343.671 4        28.673    23458172.300 7  96057307.76907     -1343.740 7        42.631
G31         2.000    22313242.576 7 117256895.83607        95.273 7        45.207                                    22313238.101 7  91368997.45907        74.238 7        42.368    22313238.912 7  91368996.45807        74.271 7        42.102
G09         3.000    22681903.229 7 119194239.40207      2874.732 7        43.162                                    22681901.774 7  92878636.05207      2240.047 7        42.559    22681902.422 6  92878637.05006      2240.063 6        41.123
E34         4.000    26540185.141 6 139469621.15206      2236.990 6        40.980                                                                    26540185.401 7 104149399.32707      1670.414 7        44.153    26540185.268 7 106866339.60607      1713.976 7        45.147
S21         5.000    38512078.396 7 202382188.09207      -410.472 7        42.542
E05         6.000    25397621.130 6 133465422.32306      2486.782 6        40.195                                                                    25397622.055 7  99665760.93907      1857.122 7        42.844    25397621.917 7 102265730.08607      1905.517 7        43.977
G21         7.000    23836891.103 6 125263761.88206     -3503.649 6        40.021                                    23836887.335 4  97608128.25904     -2730.110 4        24.692
E04         8.000    24544963.340 7 128984676.98507     -2083.424 7        45.278                                                                    24544961.463 8  96319731.41408     -1555.831 8        48.737    24544961.237 8  98832411.97208     -1596.402 8        49.582
R14         9.000    23277705.574 7 124083272.10107      -191.919 7        45.469                                                                    23277707.250 6  96509200.31306      -149.231 6        40.231
G04        10.000    20877593.481 7 109712535.32507      1616.338 7        46.678                                    20877590.344 6  85490295.74606      1259.487 6        37.611    20877590.351 7  85490290.74507      1259.483 7        46.194
E09        11.000    23746521.878 8 124788860.78108       606.262 8        48.323                                                                    23746521.069 8  93186503.57008       452.725 8        50.548    23746520.686 8  95617455.13008       464.507 8        50.939
S27        12.000    39147099.190 6 205719390.53506      -398.129 6        36.087
G06        13.000    24139358.163 6 126853206.76006      2991.619 6        38.793                                    24139357.184 5  98846657.78205      2331.125 5        34.467    24139358.217 6  98846668.76806      2331.212 6        38.682
S36        14.000    38279521.572 7 201160728.41707      -410.432 7        44.018
E27        15.000    29047938.208 5 152647938.94905      -791.902 5        34.824                                                                    29047939.343 6 113990350.26306      -591.429 6        38.021    29047938.711 6 116964009.35106      -606.965 6        38.459
E36        16.000    23525269.524 8 123626154.22608        86.658 8        48.323                                                                    23525269.490 8  92318249.41208        64.669 8        50.634    23525269.456 8  94726546.28008        66.346 8        51.409
S45        17.000    63476085.900 6 333569986.76106      -450.843 6        37.796
G03        18.000    20030225.249 8 105259601.48708      -788.968 8        49.784                                    20030223.090 8  82020488.31008      -614.781 8        51.879    20030223.615 7  82020497.30907      -614.782 7        45.875
R21        19.000    19444221.480 8 104049996.88608      -445.764 8        52.423                                                                    19444219.657 7  80927785.39107      -346.722 7        46.062
R20        20.000    21301628.800 6 113909418.74006     -4208.714 6        37.017                                                                    21301630.034 7  88596211.88207     -3273.501 7        44.160
R05        21.000    20733242.695 8 110831102.21608     -3273.347 8        50.223                                                                    20733241.233 7  86201973.48307     -2545.927 7        45.905
I06        22.000    38201799.046 7 149912292.50807      -217.907 7        43.018
S28        23.000    40949317.760 5 215190132.29305      -403.481 5        34.386
E10        24.000    27003579.609 6 141904882.92306     -3260.153 6        40.348                                                                    27003579.082 7 105967996.92307     -2434.537 7        44.290    27003579.326 7 108732370.20207     -2498.025 7        45.539
S23        25.000    38227818.758 7 200888543.73907      -406.649 7        44.229
E06        26.000    23480975.705 8 123393421.31708      -728.516 8        48.047                                                                    23480975.226 8  92144437.75308      -544.019 8        50.626    23480975.043 8  94548204.17208      -558.222 8        51.166
R15        27.000    23649160.665 7 126373941.91907      2616.390 7        43.771                                                                    23649161.677 6  98290853.34106      2034.969 6        40.267
I01        31.000   333191984.120 7   4376102.77307     -2586.865 7        43.642
G02        32.000    22193196.222 7 116626070.28907     -2960.643 7        47.437                                    22193189.754 6  90877452.72706     -2306.994 6        36.813
G19        33.000    22418596.271 7 117810552.07007       264.218 7        44.083                                    22418590.404 5  91800451.29905       205.884 5        32.120
G17        34.000    22552787.661 7 118515750.67507     -1650.251 7        45.795                                    22552783.499 7  92349945.52107     -1285.910 7        42.637    22552783.703 6  92349945.51506     -1285.863 6        41.428
E11        35.000    24625310.036 7 129406941.93207     -2500.544 7        43.346                                                                    24625305.964 7  96635071.59207     -1867.238 7        45.201    24625305.712 7  99155979.09607     -1916.006 7        45.598
C32        36.000                                                                                                                                    25593584.343 7 133272529.22307     -3240.443 7        42.700                                                                    25593584.337 7 108294855.93407     -2633.311 7        42.863
C35        37.000                                                                                                                                    23181437.602 8 120711848.11908       534.585 8        48.365                                                                    23181436.319 7  98088264.16507       434.300 7        47.713
I09        38.000    37283931.661 7 146310152.74307      -460.275 7        43.609
C29        39.000                                                                                                                                    23058776.072 8 120073095.03608     -2868.050 8        49.103                                                                    23058773.621 7  97569218.96907     -2330.555 7        47.562
R22        40.000    22270324.937 7 118880537.81407      3322.288 7        46.701                                                                    22270324.093 7  92462654.42907      2584.000 7        43.613
S44        42.000    40702913.641 6 213895440.79806      -486.146 6        37.584
C09        43.000                                                                                                                                    38790248.546 6 201991027.60106       258.948 6        41.907    38790245.591 7 156192266.20807       200.256 7        46.092    38790243.678 7 164134236.44007       210.383 7        42.135
C05        44.000                                                                                                                                    39197565.022 6 204112039.43806      -418.687 6        38.294    39197559.940 7 157832400.15007      -323.708 7        42.925    39197561.321 6 165857854.53006      -340.122 6        40.057
R06        45.000    19859470.703 6 105973999.24906      1041.791 6        40.470
C44        46.000                                                                                                                                    26152577.822 6 136183347.42206      2492.436 6        39.640                                                                    26152577.609 6 110660123.92906      2025.399 6        40.286
C39        47.000                                                                                                                                    39042587.439 7 203305012.17507      -797.192 7        43.132                                                                    39042584.237 7 165201964.84007      -647.867 7        43.117
C20        48.000                                                                                                                                    22041204.248 8 114774381.44808     -1256.979 8        52.293                                                                    22041198.268 8  93263578.58008     -1021.367 8        49.748
C06        49.000                                                                                                                                    38348671.137 6 199691615.33206      -243.230 6        40.903    38348665.354 7 154414207.18607      -188.160 7        44.128    38348665.047 6 162265773.88706      -197.696 6        41.764
C16        50.000                                                                                                                                    38803977.144 7 202062509.48807      -357.777 7        42.897    38803977.212 7 156247558.43007      -276.623 7        43.128    38803974.948 6 164192338.86806      -290.558 6        39.775
S48        51.000    77262978.756 6 406020200.51006      -407.919 6        37.599
C19        52.000                                                                                                                                    22977795.242 8 119651469.39508      1349.605 8        49.068                                                                    22977790.966 8  97226622.72308      1096.637 8        49.124
C60        54.000                                                                                                                                    40702914.131 6 211950956.21506      -481.813 6        39.357                                                                    40702898.710 6 172227482.76306      -391.701 6        40.346
C37        56.000                                                                                                                                    26080924.038 6 135810218.01206      1915.064 6        39.808                                                                    26080927.631 6 110356942.65506      1556.344 6        41.905
C02        57.000                                                                                                                                    40658221.336 5 211718083.31305      -464.478 5        33.988    40658216.818 6 163713845.41006      -359.072 6        39.697    40658219.943 5 172038288.17105      -377.571 5        35.443
I03        58.000   132346210.473 6 443569713.72806       950.353 6        41.154
R07        59.000    23129043.972 7 123811586.82907      3104.975 7        45.475                                                                    23129044.153 6  96297897.19406      2415.003 6        39.835
> 2025 01 01 01 46 45.0000000  0 53
G28         1.000    23459817.688 7 123282190.10107     -1727.446 7        42.436                                    23459814.900 4  96064025.73904     -1346.062 4        28.834    23459814.428 7  96064031.74907     -1346.113 7        43.300
G31         2.000    22313153.797 7 117256427.78407        91.639 7        45.558                                    22313149.098 7  91368632.74307        71.405 7        42.366    22313149.631 7  91368631.74907        71.412 7        42.188
G09         3.000    22679168.674 7 119179868.19607      2873.402 7        43.706                                    22679166.952 7  92867437.71407      2239.015 7        42.523    22679167.852 6  92867438.71706      2238.904 6        41.797
E34         4.000    26538056.794 6 139458437.00006      2236.361 6        41.180                                                                    26538057.135 7 104141047.51607      1669.996 7        44.406    26538057.012 7 106857769.92107      1713.612 7        45.210
S21         5.000    38512471.621 7 202384240.09107      -410.614 7        42.491
E05         6.000    25395255.443 6 133452989.17906      2486.122 6        40.539                                                                    25395256.392 7  99656476.46807      1856.464 7        42.954    25395256.057 7 102256203.40707      1904.846 7        44.242
G21         7.000    23840225.516 6 125281281.89706     -3504.630 6        40.639                                    23840221.439 4  97621780.22204     -2730.885 4        24.992
E04         8.000    24546946.081 7 128995096.99807     -2084.893 7        45.330                                                                    24546944.297 8  96327512.58808     -1556.908 8        48.774    24546944.097 8  98840396.13908     -1597.515 8        49.590
R14         9.000    23277887.767 7 124084241.37807      -196.105 7        44.906                                                                    23277888.981 6  96509954.15306      -152.653 6        40.324
G04        10.000    20876056.656 7 109704459.16507      1613.823 7        47.069                                    20876053.496 6  85484002.64006      1257.524 6        37.648    20876053.600 7  85483997.63607      1257.587 7        46.442
E09        11.000    23745945.920 8 124785833.85808       604.221 8        48.444                                                                    23745945.104 8  93184243.20308       451.212 8        50.523    23745944.680 8  95615135.79708       462.972 8        51.007
S27        12.000    39147482.229 6 205721380.70006      -398.369 6        36.140
G06        13.000    24136512.139 6 126838249.99606      2990.930 6        38.805                                    24136511.076 5  98835003.16605      2330.595 5        34.533    24136511.842 6  98835014.18106      2330.488 6        39.655
S36        14.000    38279909.718 7 201162780.97507      -410.694 7        43.909
E27        15.000    29048692.463 5 152651903.98205      -794.464 5        34.567                                                                    29048693.730 6 113993311.29606      -593.374 6        38.012    29048693.147 6 116967047.58306      -608.499 6        38.601
E36        16.000    23525187.942 8 123625725.25408        84.638 8        48.234                                                                    23525187.882 8  92317929.07108        63.190 8        50.668    23525187.814 8  94726217.58208        64.855 8        51.454
S45        17.000    63476475.320 6 333572239.44206      -450.476 6        37.543
G03        18.000    20030976.607 8 105263550.77308      -791.029 8        49.724                                    20030974.609 8  82023565.67308      -616.386 8        51.882    20030975.267 7  82023574.67207      -616.325 7        45.898
R21        19.000    19444640.396 8 104052236.32508      -450.318 8        52.821                                                                    19444638.456 7  80929527.17507      -350.258 7        46.027
R20        20.000    21305565.428 6 113930468.26406     -4211.338 6        37.641                                                                    21305567.107 7  88612583.72807     -3275.471 7        44.609
R05        21.000    20736304.740 8 110847472.25208     -3274.877 8        50.038                                                                    20736304.037 7  86214705.72707     -2547.188 7        46.145
I06        22.000    38202076.421 7 149913381.22407      -217.926 7        43.126
S28        23.000    40949706.541 5 215192150.47005      -404.004 5        34.205
E10        24.000    27006681.768 6 141921185.22906     -3261.110 6        40.482                                                                    27006681.287 7 105980170.71407     -2435.179 7        44.361    27006681.489 7 108744861.56407     -2498.704 7        45.583
S23        25.000    38228204.011 7 200890576.09907      -406.641 7        44.310
E06        26.000    23481669.743 8 123397068.46508      -730.550 8        48.079                                                                    23481669.222 8  92147161.27308      -545.589 8        50.623    23481669.065 8  94550998.73808      -559.825 8        51.182
R15        27.000    23646713.567 7 126360864.82907      2614.205 7        44.134                                                                    23646714.489 6  98280682.31206      2033.177 6        40.336
I01        31.000   333195280.300 7   4389037.15207     -2587.079 7        43.613
G02        32.000    22196013.903 7 116640877.57707     -2962.562 7        47.627                                    22196007.444 6  90888990.86906     -2308.489 6        36.783
G19        33.000    22418346.673 7 117809240.15007       260.465 7        43.962                                    22418340.767 5  91799429.02505       202.960 5        32.006
G17        34.000    22554358.721 7 118524008.16807     -1653.087 7        46.102                                    22554354.876 7  92356379.92507     -1288.120 7        42.662    22554355.250 6  92356379.93306     -1288.022 6        41.630
E11        35.000    24627689.500 7 129419447.61507     -2502.210 7        43.300                                                                    24627685.733 7  96644410.24707     -1868.467 7        45.229    24627685.423 7  99165561.36707     -1917.236 7        45.603
C32        36.000                                                                                                                                    25596695.985 7 133288732.21007     -3240.854 7        42.521                                                                    25596695.850 7 108308022.18507     -2633.381 7        42.523
C35        37.000                                                                                                                                    23180925.452 8 120709181.20808       531.906 8        48.265                                                                    23180924.142 7  98086097.08607       432.275 7        47.590
I09        38.000    37284517.852 7 146312454.19407      -460.530 7        43.659
C29        39.000                                                                                                                                    23061530.404 8 120087439.56608     -2870.027 8        48.813                                                                    23061528.269 7  97580875.07007     -2332.053 7        47.466
R22        40.000    22267214.103 7 118863930.38207      3320.355 7        46.588                                                                    22267212.383 7  92449737.55107      2582.510 7        43.805
S44        42.000    40703373.301 6 213897871.86606      -486.310 6        37.750
C09        43.000                                                                                                                                    38790000.177 6 201989734.59106       258.046 6        41.723    38789997.300 7 156191266.36607       199.562 7        46.120    38789995.229 6 164133185.76506       209.717 6        41.731
C05        44.000                                                                                                                                    39197966.493 6 204114132.49506      -418.790 6        38.171    39197961.872 7 157834018.64107      -323.770 7        42.976    39197963.262 6 165859555.32706      -340.349 6        39.799
R06        45.000    19858496.720 6 105968795.88006      1039.191 6        40.164
C44        46.000                                                                                                                                    26150185.845 6 136170887.22106      2491.277 6        39.940                                                                    26150184.483 6 110649999.03906      2024.447 6        39.970
C39        47.000                                                                                                                                    39043353.325 7 203309000.09007      -798.108 7        42.842                                                                    39043350.059 7 165205205.35207      -648.491 7        43.079
C20        48.000                                                                                                                                    22042411.895 8 114780669.93708     -1258.660 8        52.349                                                                    22042405.904 8  93268688.49908     -1022.680 8        49.740
C06        49.000                                                                                                                                    38348904.813 6 199692833.96106      -244.369 6        40.901    38348899.442 7 154415149.50407      -188.889 7        44.170    38348899.088 6 162266764.11806      -198.463 6        41.630
C16        50.000                                                                                                                                    38804321.016 7 202064299.93907      -358.701 7        42.851    38804320.785 7 156248942.91307      -277.261 7        43.234    38804318.794 6 164193793.77406      -291.314 6        39.736
S48        51.000    77263365.806 6 406022240.09806      -407.875 6        37.682
C19        52.000                                                                                                                                    22976500.135 8 119644724.52308      1348.097 8        48.927                                                                    22976495.696 8  97221141.96608      1095.546 8        49.137
C60        54.000                                                                                                                                    40703376.640 6 211953365.18206      -481.905 6        39.258                                                                    40703361.398 6 172229440.23806      -391.707 6        40.124
C37        56.000                                                                                                                                    26079086.177 6 135800644.76806      1913.870 6        39.946                                                                    26079089.302 6 110349163.62906      1555.313 6        41.905
C02        57.000                                                                                                                                    40658668.324 5 211720405.52505      -464.559 5        33.814    40658662.705 6 163715641.09806      -359.322 6        39.976    40658665.849 5 172040175.16705      -377.566 5        35.052
I03        58.000   132344999.658 6 443564961.96506       950.245 6        41.151
R07        59.000    23126143.837 7 123796064.46207      3103.626 7        46.526                                                                    23126143.519 6  96285824.25706      2414.004 6        40.210
> 2025 01 01 01 46 50.0000000  0 53
G28         1.000    23461462.546 7 123290834.30607     -1730.054 7        42.468                                    23461459.948 4  96070761.47404     -1348.098 4        28.427    23461459.258 7  96070767.48507     -1348.169 7        42.455
G31         2.000    22313068.242 7 117255977.03007        88.587 7        45.618                                    22313063.337 7  91368281.51107        69.033 7        42.282    22313063.560 6  91368280.51306        68.999 6        41.626
G09         3.000    22676435.363 7 119165503.40407      2872.548 7        43.645                                    22676433.409 7  92856244.37807      2238.352 7        42.502    22676434.062 6  92856245.38106      2238.311 6        41.240
E34         4.000    26535929.082 6 139447255.37006      2236.203 6        41.006                                                                    26535929.367 7 104132697.61307      1669.917 7        44.315    26535929.306 7 106849202.19207      1713.426 7        45.288
S21         5.000    38512861.435 7 202386291.67707      -410.088 7        42.417
E05         6.000    25392889.482 6 133440559.20706      2485.736 6        39.796                                                                    25392891.013 7  99647194.35107      1856.302 7        42.864    25392890.694 7 102246679.15207      1904.651 7        44.211
G21         7.000    23843559.871 6 125298805.63506     -3504.995 6        40.157                                    23843556.192 4  97635435.06904     -2731.168 4        25.158
E04         8.000    24548930.343 7 129005524.01907     -2085.911 7        45.211                                                                    24548928.493 8  96335299.00508     -1557.716 8        48.671    24548928.262 8  98848385.67408     -1598.318 8        49.630
R14         9.000    23278073.296 7 124085231.06207      -199.779 7        45.279                                                                    23278074.444 6  96510723.83606      -155.314 6        39.535
G04        10.000    20874522.075 7 109696394.80507      1611.913 7        46.820                                    20874518.902 6  85477718.71806      1256.035 6        37.508    20874519.049 7  85477713.71707      1255.885 7        46.341
E09        11.000    23745371.709 8 124782816.31208       602.699 8        48.171                                                                    23745370.875 8  93181989.84608       450.089 8        50.442    23745370.477 8  95612823.65408       461.856 8        50.891
S27        12.000    39147859.679 6 205723370.93506      -397.948 6        36.261
G06        13.000    24133666.569 6 126823296.52206      2990.518 6        39.330                                    24133665.573 5  98823351.11205      2330.271 5        34.648    24133666.113 6  98823362.11106      2330.451 6        38.967
S36        14.000    38280300.198 7 201164833.65707      -410.497 7        43.958
E27        15.000    29049449.108 5 152655880.08505      -796.215 5        33.916                                                                    29049450.120 6 113996280.60406      -594.721 6        38.060    29049449.523 6 116970094.35506      -610.183 6        38.721
E36        16.000    23525107.999 7 123625305.31407        83.301 7        47.908                                                                    23525107.999 8  92317615.49008        62.133 8        50.549    23525107.866 8  94725895.81708        63.807 8        51.430
S45        17.000    63476856.513 6 333574491.62506      -450.014 6        37.660
G03        18.000    20031730.037 8 105267509.66308      -792.653 8        49.644                                    20031727.957 8  82026650.52308      -617.651 8        51.780    20031728.482 7  82026659.52807      -617.674 7        45.565
R21        19.000    19445062.939 8 104054497.91308      -454.378 8        52.546                                                                    19445060.780 7  80931286.18007      -353.427 7        45.804
R20        20.000    21309504.479 6 113951529.30506     -4213.150 6        37.701                                                                    21309506.034 7  88628964.54307     -3277.005 7        45.264
R05        21.000    20739368.071 8 110863849.15708     -3275.908 8        50.020                                                                    20739366.974 7  86227443.31807     -2547.945 7        45.761
I06        22.000    38202353.778 7 149914469.74107      -217.587 7        43.026
S28        23.000    40950085.363 5 215194168.25105      -403.556 5        34.176
E10        24.000    27009784.471 6 141937491.08106     -3261.548 6        40.143                                                                    27009784.315 7 105992347.16807     -2435.486 7        44.439    27009784.310 7 108757355.66307     -2498.990 7        45.505
S23        25.000    38228592.868 7 200892607.90307      -406.277 7        44.376
E06        26.000    23482365.489 7 123400725.04507      -732.094 7        47.892                                                                    23482365.014 8  92149891.84208      -546.741 8        50.610    23482364.921 8  94553800.53808      -560.967 8        51.213
R15        27.000    23644268.926 7 126347798.33907      2612.336 7        44.147                                                                    23644269.786 6  98270519.46706      2031.709 6        39.727
I01        31.000   333198576.271 7   4401971.77507     -2586.799 7        43.348
G02        32.000    22198833.549 7 116655693.60407     -2963.921 7        47.091                                    22198826.914 6  90900535.82106     -2309.548 6        36.726
G19        33.000    22418100.337 7 117807945.47207       257.379 7        44.221                                    22418094.425 5  91798420.18105       200.553 5        31.909
G17        34.000    22555932.550 7 118532278.81607     -1655.229 7        46.136                                    22555928.735 7  92362824.58607     -1289.788 7        42.586    22555928.905 6  92362824.60106     -1289.924 6        41.106
E11        35.000    24630070.575 7 129431960.37907     -2503.193 7        43.005                                                                    24630066.854 7  96653754.19807     -1869.282 7        45.035    24630066.579 7  99175149.07507     -1918.011 7        45.664
C32        36.000                                                                                                                                    25599807.506 7 133304935.78907     -3240.606 7        42.451                                                                    25599807.615 7 108321188.92307     -2633.415 7        42.544
C35        37.000                                                                                                                                    23180416.018 8 120706527.40408       529.624 8        48.348                                                                    23180414.556 7  98083940.66007       430.303 7        47.586
I09        38.000    37285104.609 7 146314756.04107      -460.353 7        43.467
C29        39.000                                                                                                                                    23064286.775 8 120101793.35008     -2871.565 8        48.700                                                                    23064284.785 7  97592538.69907     -2333.473 7        47.473
R22        40.000    22264104.067 7 118847332.05507      3318.903 7        46.826                                                                    22264102.371 7  92436827.73307      2581.237 7        43.380
S44        42.000    40703836.449 6 213900302.51006      -485.899 6        37.871
C09        43.000                                                                                                                                    38789752.985 6 201988445.36506       257.720 6        41.897    38789749.716 7 156190269.46407       199.194 7        46.096    38789747.675 6 164132138.17206       209.255 6        41.855
C05        44.000                                                                                                                                    39198368.237 6 204116225.23606      -418.294 6        38.381    39198363.629 7 157835636.88207      -323.555 7        42.940    39198365.216 6 165861255.83306      -339.991 6        39.811
R06        45.000    19857523.096 6 105963605.65006      1036.949 6        40.672
C44        46.000                                                                                                                                    26147793.850 6 136158432.67806      2490.449 6        39.739                                                                    26147792.828 6 110639878.74706      2023.632 6        39.994
C39        47.000                                                                                                                                    39044120.022 7 203312991.64307      -798.601 7        42.918                                                                    39044116.648 7 165208448.81507      -648.953 7        42.887
C20        48.000                                                                                                                                    22043620.940 8 114786965.91208     -1259.750 8        52.236                                                                    22043615.016 8  93273804.49708     -1023.762 8        49.707
C06        49.000                                                                                                                                    38349139.653 6 199694056.65006      -244.812 6        40.777    38349134.414 7 154416094.97007      -189.225 7        44.095    38349133.904 6 162267757.66606      -198.974 6        41.714
C16        50.000                                                                                                                                    38804665.881 7 202066094.32307      -359.192 7        42.899    38804665.465 7 156250330.44907      -277.694 7        43.232    38804663.323 6 164195251.87106      -292.053 6        39.640
S48        51.000    77263746.699 6 406024279.23506      -407.311 6        37.403
C19        52.000                                                                                                                                    22975206.300 8 119637986.45908      1347.115 8        49.116                                                                    22975201.718 8  97215666.74008      1094.520 8        49.066
C60        54.000                                                                                                                                    40703838.885 6 211955773.73306      -481.528 6        39.330                                                                    40703823.991 6 172231397.37906      -391.329 6        40.181
C37        56.000                                                                                                                                    26077248.599 6 135791077.58606      1912.939 6        40.415                                                                    26077251.981 7 110341389.52207      1554.405 7        42.017
C02        57.000                                                                                                                                    40659114.641 5 211722727.38905      -464.174 5        34.205    40659108.338 6 163717436.50606      -358.966 6        39.760    40659111.629 5 172042061.87105      -377.466 5        34.810
I03        58.000   132343789.131 6 443560210.04106       950.451 6        41.156
R07        59.000    23123246.176 7 123780547.52307      3102.929 7        45.658                                                                    23123244.730 6  96273755.50706      2413.521 6        40.215
> 2025 01 01 01 46 55.0000000  0 53
G28         1.000    23463110.820 6 123299493.92906     -1733.580 6        41.864                                    23463107.758 4  96077509.23604     -1350.839 4        28.360    23463106.957 7  96077515.23307     -1350.802 7        42.353
G31         2.000    22312985.678 7 117255543.89707        84.820 7        45.985                                    22312980.907 7  91367944.00507        66.095 7        42.336    22312981.055 6  91367943.00606        66.045 6        41.526
G09         3.000    22673703.037 7 119151145.40907      2870.747 7        43.534                                    22673701.189 7  92845056.33707      2236.946 7        42.607    22673701.346 6  92845057.33006      2237.061 6        41.690
E34         4.000    26533801.225 6 139436076.64106      2235.356 6        40.586                                                                    26533801.997 7 104124349.84907      1669.253 7        44.209    26533801.989 7 106840636.66507      1712.835 7        45.195
S21         5.000    38513251.128 7 202388343.28907      -410.458 7        42.601
E05         6.000    25390524.727 6 133428132.72506      2484.875 6        39.568                                                                    25390526.098 7  99637914.84907      1855.575 7        42.732    25390525.833 7 102237157.56807      1904.011 7        44.224
G21         7.000    23846894.612 6 125316333.40806     -3506.067 6        39.330                                    23846891.740 4  97649093.07204     -2732.002 4        24.962
E04         8.000    24550915.966 7 129015958.34807     -2087.700 7        45.180                                                                    24550914.138 8  96343090.86608     -1558.986 8        48.658    24550913.809 8  98856380.80508     -1599.659 8        49.515
R14         9.000    23278262.571 7 124086241.67807      -204.361 7        45.552                                                                    23278263.217 6  96511509.84106      -158.922 6        39.637
G04        10.000    20872989.701 7 109688342.57407      1609.090 7        46.958                                    20872986.607 6  85471444.25506      1253.836 6        37.569    20872986.950 7  85471439.25507      1253.838 7        46.387
E09        11.000    23744798.992 8 124779808.47808       600.546 8        48.073                                                                    23744798.503 8  93179743.74108       448.439 8        50.383    23744798.141 8  95610518.95708       460.081 8        50.906
S27        12.000    39148233.153 6 205725361.34006      -398.334 6        36.295
G06        13.000    24130821.974 6 126808346.69406      2989.552 6        39.474                                    24130820.727 5  98811701.90105      2329.521 5        34.633    24130821.418 6  98811712.89506      2329.567 6        38.396
S36        14.000    38280690.043 7 201166886.65107      -410.626 7        44.011
E27        15.000    29050208.164 5 152659867.45505      -798.890 5        34.676                                                                    29050208.790 6 113999258.22806      -596.653 6        37.875    29050208.167 6 116973149.66306      -612.100 6        38.832
E36        16.000    23525029.762 7 123624894.75307        81.057 7        47.970                                                                    23525029.853 8  92317308.89308        60.549 8        50.488    23525029.796 8  94725581.23108        62.081 8        51.418
S45        17.000    63477243.187 6 333576743.74506      -450.404 6        37.577
G03        18.000    20032485.196 8 105271478.51208      -794.923 8        49.795                                    20032483.209 8  82029743.13308      -619.419 8        51.823    20032483.932 7  82029752.13007      -619.399 7        45.783
R21        19.000    19445489.699 8 104056782.21008      -459.313 8        52.493                                                                    19445487.812 7  80933062.84607      -357.195 7        45.821
R20        20.000    21313443.883 6 113972602.23006     -4215.867 6        37.331                                                                    21313445.706 7  88645354.59207     -3279.087 7        44.581
R05        21.000    20742432.834 8 110880233.43308     -3277.777 8        49.986                                                                    20742431.789 7  86240186.64507     -2549.436 7        45.535
I06        22.000    38202631.094 7 149915558.26307      -217.775 7        43.001
S28        23.000    40950472.409 5 215196185.88405      -403.300 5        34.138
E10        24.000    27012888.145 6 141953800.79306     -3262.453 6        39.796                                                                    27012888.085 7 106004526.49507     -2436.255 7        44.563    27012887.865 7 108769852.72007     -2499.818 7        45.353
S23        25.000    38228979.855 7 200894639.43907      -406.333 7        44.324
E06        26.000    23483062.994 7 123404391.40507      -734.424 7        47.921                                                                    23483062.691 8  92152629.70108      -548.405 8        50.503    23483062.592 8  94556609.82508      -562.684 8        51.132
R15        27.000    23641825.364 7 126334742.70407      2609.874 7        43.814                                                                    23641825.666 6  98260365.10306      2029.803 6        39.291
I01        31.000   333201872.528 7   4414906.88907     -2587.138 7        43.338
G02        32.000    22201654.478 7 116670518.73907     -2966.025 7        47.129                                    22201648.132 6  90912087.87006     -2311.188 6        36.699
G19        33.000    22417857.641 7 117806668.37207       253.670 7        44.023                                    22417851.379 5  91797425.04805       197.666 5        31.932
G17        34.000    22557508.961 7 118540562.96107     -1658.257 7        45.919                                    22557505.156 7  92369279.76207     -1292.148 7        42.660    22557505.391 6  92369279.75906     -1292.143 6        41.328
E11        35.000    24632453.233 7 129444480.62007     -2504.957 7        42.779                                                                    24632449.394 7  96663103.71707     -1870.569 7        45.058    24632449.127 7  99184742.49407     -1919.353 7        45.564
C32        36.000                                                                                                                                    25602919.480 7 133321140.29107     -3241.133 7        42.337                                                                    25602919.682 7 108334356.41907     -2633.823 7        42.747
C35        37.000                                                                                                                                    23179908.916 8 120703887.05008       526.674 8        48.176                                                                    23179907.505 7  98081795.16307       427.780 7        47.567
I09        38.000    37285691.693 7 146317058.51807      -460.646 7        43.475
C29        39.000                                                                                                                                    23067045.179 8 120116156.69108     -2873.693 8        48.859                                                                    23067043.064 7  97604210.09807     -2335.297 7        47.386
R22        40.000    22260997.155 7 118830743.15407      3316.644 7        47.160                                                                    22260994.969 7  92423925.26807      2579.634 7        43.473
S44        42.000    40704297.809 6 213902733.06406      -486.028 6        37.732
C09        43.000                                                                                                                                    38789506.526 7 201987160.22407       256.501 7        42.053    38789502.827 7 156189275.71207       198.249 7        46.233    38789500.930 6 164131093.89506       208.230 6        41.774
C05        44.000                                                                                                                                    39198770.120 6 204118317.94206      -418.557 6        38.252    39198765.494 7 157837255.09607      -323.798 7        43.227    39198767.291 6 165862956.35606      -340.397 6        39.859
R06        45.000    19856553.471 6 105958428.88206      1033.909 6        40.675
C44        46.000                                                                                                                                    26145402.633 6 136145984.12006      2489.104 6        39.559                                                                    26145402.609 6 110629763.30306      2022.358 6        39.643
C39        47.000                                                                                                                                    39044887.305 7 203316987.14007      -799.545 7        42.677                                                                    39044883.830 7 165211695.49907      -649.964 7        43.016
C20        48.000                                                                                                                                    22044831.395 8 114793269.73008     -1261.623 8        52.126                                                                    22044825.613 8  93278926.87008     -1025.327 8        49.648
C06        49.000                                                                                                                                    38349375.533 6 199695283.74206      -245.931 6        40.915    38349369.867 7 154417043.84207      -190.226 7        44.175    38349369.609 6 162268754.78306      -200.011 6        41.681
C16        50.000                                                                                                                                    38805011.390 7 202067892.94107      -360.244 7        43.020    38805010.909 7 156251721.26307      -278.574 7        43.361    38805008.802 6 164196713.40306      -292.959 6        39.763
S48        51.000    77264137.004 6 406026318.32406      -407.983 6        37.720
C19        52.000                                                                                                                                    22973913.822 8 119631255.51608      1345.348 8        49.158                                                                    22973909.107 8  97210197.31108      1093.055 8        49.064
C60        54.000                                                                                                                                    40704301.326 6 211958182.19706      -481.785 6        39.411                                                                    40704286.514 6 172233354.45306      -391.618 6        40.274
C37        56.000                                                                                                                                    26075412.628 6 135781516.80606      1911.459 6        40.703                                                                    26075416.106 7 110333620.62707      1552.907 7        42.165
C02        57.000                                                                                                                                    40659560.431 5 211725049.26105      -464.385 5        33.737    40659554.566 6 163719231.90606      -359.221 6        40.017    40659557.835 5 172043948.58805      -377.749 5        35.152
I03        58.000   132342577.920 6 443555458.20606       950.344 6        41.187
R07        59.000    23120347.900 7 123765036.34307      3101.589 7        45.840                                                                    23120347.581 6  96261691.29206      2412.235 6        40.794
