     3.04           OBSERVATION DATA    M                   RINEX VERSION / TYPE
ssrcrin-15.6.1x                         20250101 001500 UTC PGM / RUN BY / DATE 
(00000000023479385599111004) Septentrio proprietary         COMMENT             
rref                                                        MARKER NAME         
01                                                          MARKER NUMBER       
geodetic                                                    MARKER TYPE         
NFB                 CLIMERS@TUW                             OBSERVER / AGENCY   
3297213             SEPT ASTERX SB3 PROB4.14.4              REC # / TYPE / VERS 
Unknown             Unknown                                 ANT # / TYPE        
  4127831.9410  1207193.4228  4695247.3132                  APPROX POSITION XYZ 
        0.0000        0.0000        0.0000                  ANTENNA: DELTA H/E/N
G   23 X1  C1C L1C D1C S1C C1W S1W C2W L2W D2W S2W C2L L2L  SYS / # / OBS TYPES 
       D2L S2L C5Q L5Q D5Q S5Q C1L L1L D1L S1L              SYS / # / OBS TYPES 
E   21 X1  C1C L1C D1C S1C C6C L6C D6C S6C C5Q L5Q D5Q S5Q  SYS / # / OBS TYPES 
       C7Q L7Q D7Q S7Q C8Q L8Q D8Q S8Q                      SYS / # / OBS TYPES 
S    9 X1  C1C L1C D1C S1C C5I L5I D5I S5I                  SYS / # / OBS TYPES 
R   17 X1  C1C L1C D1C S1C C2P L2P D2P S2P C2C L2C D2C S2C  SYS / # / OBS TYPES 
       C3Q L3Q D3Q S3Q                                      SYS / # / OBS TYPES 
C   25 X1  C1P L1P D1P S1P C5P L5P D5P S5P C2I L2I D2I S2I  SYS / # / OBS TYPES 
       C7I L7I D7I S7I C6I L6I D6I S6I C7D L7D D7D S7D      SYS / # / OBS TYPES 
J   17 X1  C1C L1C D1C S1C C2L L2L D2L S2L C5Q L5Q D5Q S5Q  SYS / # / OBS TYPES 
       C1L L1L D1L S1L                                      SYS / # / OBS TYPES 
I    5 X1  C5A L5A D5A S5A                                  SYS / # / OBS TYPES 
SEPTENTRIO RECEIVERS OUTPUT ALIGNED CARRIER PHASES.         COMMENT             
NO FURTHER PHASE SHIFT APPLIED IN THE RINEX ENCODER.        COMMENT             
G L1C                                                       SYS / PHASE SHIFT   
G L2W                                                       SYS / PHASE SHIFT   
G L2L  0.00000                                              SYS / PHASE SHIFT   
G L5Q  0.00000                                              SYS / PHASE SHIFT   
G L1L  0.00000                                              SYS / PHASE SHIFT   
E L1C  0.00000                                              SYS / PHASE SHIFT   
E L6C  0.00000                                              SYS / PHASE SHIFT   
E L5Q  0.00000                                              SYS / PHASE SHIFT   
E L7Q  0.00000                                              SYS / PHASE SHIFT   
E L8Q  0.00000                                              SYS / PHASE SHIFT   
S L1C                                                       SYS / PHASE SHIFT   
S L5I                                                       SYS / PHASE SHIFT   
R L1C                                                       SYS / PHASE SHIFT   
R L2P  0.00000                                              SYS / PHASE SHIFT   
R L2C                                                       SYS / PHASE SHIFT   
R L3Q  0.00000                                              SYS / PHASE SHIFT   
C L1P  0.00000                                              SYS / PHASE SHIFT   
C L5P  0.00000                                              SYS / PHASE SHIFT   
C L2I                                                       SYS / PHASE SHIFT   
C L7I                                                       SYS / PHASE SHIFT   
C L6I                                                       SYS / PHASE SHIFT   
C L7D                                                       SYS / PHASE SHIFT   
J L1C                                                       SYS / PHASE SHIFT   
J L2L  0.00000                                              SYS / PHASE SHIFT   
J L5Q  0.00000                                              SYS / PHASE SHIFT   
J L1L  0.00000                                              SYS / PHASE SHIFT   
I L5A                                                       SYS / PHASE SHIFT   
  2025     1     1     0    15    0.0000000     GPS         TIME OF FIRST OBS   
 C1C    0.000 C2C    0.000 C2P    0.000                     GLONASS COD/PHS/BIS 
DBHZ                                                        SIGNAL STRENGTH UNIT
    18                                                      LEAP SECONDS        
 24 R01  1 R02 -4 R03  5 R04  6 R05  1 R06 -4 R07  5 R08  6 GLONASS SLOT / FRQ #
    R09 -2 R10 -7 R11  0 R12 -1 R13 -2 R14 -7 R15  0 R16 -1 GLONASS SLOT / FRQ #
    R17  4 R18 -3 R19  3 R20  2 R21  4 R22 -3 R23  3 R24  2 GLONASS SLOT / FRQ #
                                                            END OF HEADER       
> 2025 01 01 00 15  0.0000000  0 54
G28         1.000    23772007.977 6 124922752.77006      1600.650 6        40.410                                    23772004.718 4  97342384.33504      1247.262 4        26.251    23772004.664 6  97342390.34606      1247.309 6        40.713
G31         2.000    24349005.344 6 127954892.78806      2721.562 6        38.574                                    24349001.960 5  99705096.58505      2120.698 5        32.120    24349002.265 6  99705095.57606      2120.801 6        37.388
G14         3.000    24941664.215 5 131069369.56805     -2707.374 5        35.590                                    24941662.091 2 102131979.12702     -2109.638 2        16.906    24941662.517 5 102131981.09805     -2109.642 5        35.048
G10         4.000    25529051.987 6 134156129.90906     -3533.408 6        36.548                                    25529050.585 4 104537252.67904     -2753.308 4        26.311    25529051.221 5 104537251.69405     -2753.341 5        33.150
S21         5.000    38369761.339 6 201634320.53306      -419.720 6        41.733
R12         6.000    23935134.863 7 127857203.59307     -1775.893 7        44.089                                                                    23935135.287 6  99444506.46606     -1381.196 6        39.601
G21         7.000    21170339.314 7 111250946.60707     -1976.461 7        45.288                                    21170334.121 6  86689053.93906     -1540.102 6        36.934
E04         8.000    23737938.720 7 124743735.03107       143.865 7        46.948                                                                    23737937.127 8  93152794.16108       107.372 8        50.176    23737936.916 8  95582858.99008       110.150 8        50.983
G04        10.000    23963440.532 6 125928746.77606      3364.162 6        40.157                                    23963439.213 4  98126298.40104      2621.411 4        24.180    23963439.449 6  98126293.39906      2621.358 6        40.157
E09        11.000    25709059.997 7 135102058.78807      2426.950 7        43.380                                                                    25709059.655 7 100887914.98707      1812.233 7        45.884    25709059.316 7 103519773.23707      1859.589 7        47.586
S27        12.000    39023058.884 5 205067531.49305      -397.377 5        35.190
S36        14.000    38137498.078 7 200414420.12107      -419.045 7        43.217
E02        15.000    27653983.379 6 145322693.16106     -2397.582 6        37.467                                                                    27653983.354 6 108520211.03606     -1790.269 6        40.036    27653982.716 6 111351168.70706     -1837.156 6        40.107
E36        16.000    24780979.787 7 130224953.90307      1540.080 7        44.728                                                                    24780980.149 8  97245923.64708      1150.022 8        48.003    24780979.831 8  99782768.63708      1180.070 8        49.087
S45        17.000    63339195.327 6 332850393.37506      -461.730 6        36.741
G03        18.000    20659101.905 7 108564367.47407      1413.795 7        47.676                                    20659100.065 8  84595629.86108      1101.658 8        49.200    20659100.595 7  84595638.85807      1101.679 7        44.898
R21        19.000    21420597.397 8 114625977.44708      3142.150 8        48.646                                                                    21420596.042 7  89153546.90907      2443.878 7        43.494
R20        20.000    19095648.241 6 102113061.14606      -396.099 6        40.276                                                                    19095649.680 7  79421269.58707      -307.956 7        47.144
R05        21.000    19011602.574 8 101627954.88908      -178.939 8        52.183                                                                    19011601.343 7  79043970.85907      -139.171 7        46.802
I06        22.000    38197040.178 7 149893619.62507      -208.231 7        42.783
S28        23.000    40814794.227 5 214483190.78405      -411.366 5        33.527
E10        24.000    24473567.741 7 128609591.56907     -2046.093 7        46.317                                                                    24473566.866 8  96039697.83708     -1527.910 8        49.325    24473566.521 8  98545071.67108     -1567.786 8        50.314
S23        25.000    38089321.411 7 200160698.44007      -416.286 7        44.551
E06        26.000    24210152.942 7 127225268.36607      1540.404 7        47.210                                                                    24210152.729 8  95005880.49408      1150.374 8        48.856    24210152.497 8  97484293.41008      1180.325 8        49.839
E30        27.000    28391198.257 6 149196755.47106      -331.523 6        36.575                                                                    28391200.081 6 111413162.20406      -247.516 6        40.493    28391199.478 6 114319590.33706      -253.945 6        41.557
E12        28.000    26486683.304 6 139188605.78606     -2778.009 6        37.467                                                                    26486680.555 6 103939616.73806     -2074.538 6        41.943    26486680.409 7 106651072.71307     -2128.640 7        42.817
E19        30.000    25986207.597 6 136558454.10106     -2743.058 6        36.696                                                                    25986206.464 6 101975467.03706     -2048.250 6        39.432    25986205.735 6 104635694.02506     -2101.821 6        39.814
G32        31.000    23031554.784 7 121031655.70607     -3005.440 7        44.531                                    23031553.126 6  94310377.85506     -2341.901 6        41.857    23031553.816 6  94310382.85306     -2341.890 6        41.447
G02        32.000    20609779.792 8 108305169.90208      -560.971 8        50.178                                    20609773.168 7  84393636.25607      -437.120 7        43.680
G19        33.000    24703667.289 6 129818656.14606      3106.518 6        37.694                                    24703663.528 3 101157408.60803      2420.666 3        21.667
G17        34.000    22804597.688 7 119839022.89707      1515.634 7        44.012                                    22804593.217 6  93381067.18406      1181.015 6        40.772    22804593.335 6  93381067.18306      1180.940 6        39.982
E11        35.000    23215511.987 7 121998410.23007      -758.305 7        43.801                                                                    23215507.477 7  91102728.46207      -566.267 7        46.907    23215507.306 7  93479313.73807      -580.998 7        47.957
C32        36.000                                                                                                                                    22795223.998 8 118700742.11408     -2362.394 8        48.596                                                                    22795223.921 8  96454087.17108     -1919.646 8        49.852
C35        37.000                                                                                                                                    25308035.106 7 131785585.05207      2595.839 7        42.764                                                                    25308033.375 7 107086580.39607      2109.338 7        42.523
C29        39.000                                                                                                                                    21711061.178 8 113055197.82308      -107.284 8        50.689                                                                    21711058.484 8  91866604.10908       -87.174 8        49.145
G08        40.000    24120495.059 6 126754093.50906     -4110.529 6        39.814                                    24120494.861 5  98769444.02405     -3203.009 5        33.557    24120495.200 6  98769451.03706     -3203.176 6        36.677
S44        42.000    40486781.082 6 212759670.30406      -483.001 6        36.004
C09        43.000                                                                                                                                    39822902.027 6 207368313.70506      1105.544 6        39.261    39822898.831 7 160350323.14707       854.964 7        43.863    39822896.598 6 168503720.44706       898.438 6        39.739
C05        44.000                                                                                                                                    39055459.298 6 203372060.78906      -403.347 6        37.951    39055454.748 7 157260201.99107      -311.944 7        43.805    39055456.546 6 165256561.52306      -327.894 6        40.589
R06        45.000    22631044.085 6 120763613.13506      3526.791 6        36.129
R13        46.000    23884914.368 6 127544123.34606       791.353 6        37.452
C39        47.000                                                                                                                                    39017064.067 7 203172097.69507       228.977 7        42.100                                                                    39017059.440 7 165093960.86707       185.955 7        43.247
C20        48.000                                                                                                                                    22080949.589 8 114981345.08208       885.130 8        51.974                                                                    22080943.986 8  93431753.01208       719.235 8        49.269
C06        49.000                                                                                                                                    38919043.523 6 202661691.02206       762.964 6        39.736    38919038.373 7 156710857.17607       590.016 7        43.500    38919037.719 6 164679202.91906       620.074 6        40.122
C16        50.000                                                                                                                                    39244433.146 6 204356077.80906       640.399 6        40.861    39244433.759 7 158021090.30907       495.108 7        42.773    39244431.046 6 166056050.50706       520.442 6        38.622
S48        51.000    77124548.241 6 405292522.52206      -426.632 6        36.635
C19        52.000                                                                                                                                    25454683.926 7 132549255.83107      2673.535 7        42.944                                                                    25454680.131 7 107707126.47907      2172.463 7        43.426
R04        53.000    20893806.855 8 111885414.13208     -3734.101 8        49.691                                                                    20893804.996 7  87021996.53507     -2904.306 7        44.913
C60        54.000                                                                                                                                    40486783.853 6 210825510.95506      -478.643 6        38.357                                                                    40486767.721 6 171312966.96206      -389.003 6        40.336
C30        55.000                                                                                                                                    23265861.597 7 121151441.22007     -3184.274 7        47.874                                                                    23265862.185 7  98445467.88007     -2587.528 7        46.943
R19        56.000    22398308.979 6 119815884.28006     -4281.365 6        36.662                                                                    22398308.306 6  93190170.03606     -3329.742 6        39.168
C02        57.000                                                                                                                                    40468326.488 5 210729246.67305      -447.240 5        33.048    40468320.306 6 162949214.75606      -345.561 6        40.527    40468323.843 6 171234777.84906      -362.954 6        36.102
I03        58.000   133995402.899 6 450041500.40606       987.913 6        40.741
C13        59.000                                                                                                                                    40920160.279 6 213082078.17106     -1122.973 6        36.310    40920163.097 6 164768620.42906      -868.157 6        38.105    40920160.748 6 173146672.44106      -912.439 6        36.049
> 2025 01 01 00 15  5.0000000  0 54
G28         1.000    23770486.230 6 124914755.93006      1598.157 6        40.338                                    23770482.989 4  97336153.03104      1245.333 4        26.275    23770483.347 6  97336159.04906      1245.156 6        40.524
G31         2.000    24346416.922 6 127941288.49706      2720.240 6        38.979                                    24346413.141 5  99694495.84405      2119.664 5        32.024    24346412.971 6  99694494.84506      2119.804 6        37.172
G14         3.000    24944241.455 5 131082911.66305     -2709.206 5        35.267                                    24944238.814 2 102142531.39202     -2111.062 2        15.571    24944239.132 5 102142533.40305     -2111.162 5        33.641
G10         4.000    25532414.327 6 134173796.79906     -3533.647 6        36.877                                    25532412.597 4 104551019.07704     -2753.488 4        26.719    25532412.754 5 104551018.08505     -2753.440 5        33.425
S21         5.000    38370160.020 6 201636420.32606      -420.083 6        41.642
R12         6.000    23936797.887 7 127866093.52707     -1779.835 7        42.756                                                                    23936799.053 6  99451420.96706     -1384.462 6        40.176
G21         7.000    21172221.083 7 111260834.48807     -1978.639 7        45.145                                    21172215.717 6  86696758.77806     -1541.798 6        36.907
E04         8.000    23737803.583 7 124743023.30907       141.065 7        47.075                                                                    23737801.737 8  93152262.68508       105.349 8        50.175    23737801.457 8  95582313.65008       108.124 8        51.154
G04        10.000    23960240.119 6 125911929.03606      3363.260 6        39.934                                    23960238.729 4  98113193.68104      2620.730 4        24.406    23960239.220 6  98113188.67806      2620.674 6        40.095
E09        11.000    25706751.825 7 135089928.19907      2425.378 7        43.879                                                                    25706751.200 7 100878856.43307      1811.172 7        45.892    25706750.975 7 103510478.37507      1858.447 7        47.782
S27        12.000    39023435.891 5 205069519.93105      -397.812 5        35.338
S36        14.000    38137897.165 7 200416517.46407      -419.631 7        43.319
E02        15.000    27656265.708 6 145334685.55306     -2399.399 6        37.701                                                                    27656265.457 6 108529166.38206     -1791.455 6        39.982    27656264.812 6 111360357.67906     -1838.552 6        40.284
E36        16.000    24779515.208 7 130217256.76107      1538.960 7        44.781                                                                    24779515.490 8  97240175.78408      1149.141 8        48.075    24779515.137 8  99776870.83008      1179.159 8        49.194
S45        17.000    63339589.577 6 332852702.76406      -462.023 6        36.945
G03        18.000    20657757.695 7 108557304.31107      1411.546 7        47.513                                    20657756.003 8  84590126.09908      1099.904 8        49.160    20657756.466 7  84590135.10207      1099.935 7        44.614
R21        19.000    21417662.613 8 114610271.65508      3140.285 8        49.127                                                                    21417660.824 7  89141331.29107      2442.421 7        42.931
R20        20.000    19096021.184 6 102115051.70306      -400.248 6        40.236                                                                    19096022.348 7  79422817.78607      -311.190 7        47.244
R05        21.000    19011772.209 8 101628860.49708      -183.237 8        52.362                                                                    19011770.759 7  79044675.20907      -142.446 7        46.593
I06        22.000    38197305.670 7 149894661.41607      -208.485 7        42.737
S28        23.000    40815186.004 5 214485250.30305      -411.988 5        33.683
E10        24.000    24475515.137 7 128619826.26707     -2047.729 7        46.436                                                                    24475514.443 8  96047340.63308     -1529.178 8        49.325    24475514.064 8  98552913.83508     -1569.002 8        50.442
S23        25.000    38089717.538 7 200162781.03507      -416.663 7        44.558
E06        26.000    24208688.266 7 127217571.83707      1538.196 7        46.857                                                                    24208688.157 8  95000133.09008      1148.650 8        48.848    24208687.972 8  97478396.07508      1178.606 8        50.039
E30        27.000    28391514.987 6 149198419.24806      -334.049 6        37.372                                                                    28391516.551 6 111414404.68706      -249.572 6        40.710    28391516.092 7 114320865.22907      -255.988 7        42.059
E12        28.000    26489327.396 6 139202499.86606     -2779.437 6        37.747                                                                    26489324.662 7 103949992.18807     -2075.481 7        42.072    26489324.443 7 106661718.82607     -2129.627 7        42.631
E19        30.000    25988817.992 6 136572173.81406     -2744.846 6        36.265                                                                    25988817.029 6 101985712.26606     -2049.646 6        39.309    25988816.566 6 104646206.53706     -2103.217 6        39.667
G32        31.000    23034415.806 7 121046688.60307     -3007.643 7        44.290                                    23034413.802 6  94322091.79306     -2343.617 6        41.707    23034414.654 6  94322096.79706     -2343.635 6        41.807
G02        32.000    20610314.890 8 108307981.33208      -563.534 8        50.001                                    20610308.171 7  84395826.98207      -439.118 7        43.719
G19        33.000    24700712.387 6 129803127.35706      3104.886 6        37.353                                    24700708.622 3 101145308.24903      2419.387 3        21.762
G17        34.000    22803157.156 7 119831452.43307      1512.850 7        44.260                                    22803152.568 6  93375168.12806      1178.844 6        40.877    22803153.108 6  93375168.13706      1178.805 6        40.296
E11        35.000    23216234.531 7 122002206.57107      -760.096 7        43.771                                                                    23216229.955 7  91105563.38907      -567.642 7        46.923    23216229.727 8  93482222.61808      -582.351 8        48.119
C32        36.000                                                                                                                                    22797493.208 8 118712559.13408     -2364.316 8        49.099                                                                    22797493.245 8  96463689.46208     -1921.183 8        49.931
C35        37.000                                                                                                                                    25305542.814 7 131772609.04007      2594.518 7        42.648                                                                    25305541.540 7 107076036.31207      2108.313 7        42.307
C29        39.000                                                                                                                                    21711165.580 8 113055741.98508      -110.275 8        50.937                                                                    21711162.950 8  91867046.28008       -89.674 8        49.139
G08        40.000    24124406.089 6 126774647.84206     -4111.141 6        39.631                                    24124405.912 5  98785460.38105     -3203.489 5        32.976    24124406.390 6  98785467.38206     -3203.323 6        36.042
S44        42.000    40487242.898 5 212762086.88905      -483.463 5        35.619
C09        43.000                                                                                                                                    39821841.824 6 207362788.30606      1104.626 6        40.031    39821837.657 7 160346050.57207       854.257 7        44.027    39821835.464 6 168499230.61506       897.562 6        39.709
C05        44.000                                                                                                                                    39055846.854 6 203374079.02606      -403.756 6        38.165    39055842.241 7 157261762.61907      -312.215 7        43.863    39055844.128 6 165258201.50006      -328.079 6        40.689
R06        45.000    22627739.174 6 120745984.61306      3524.830 6        37.009
R13        46.000    23884176.347 6 127540176.62206       787.301 6        36.749
C39        47.000                                                                                                                                    39016845.152 7 203170956.55207       227.572 7        42.476                                                                    39016840.279 7 165093033.59007       184.945 7        43.179
C20        48.000                                                                                                                                    22080100.911 8 114976925.76108       882.678 8        52.039                                                                    22080095.278 8  93428161.94508       717.196 8        49.296
C06        49.000                                                                                                                                    38918312.233 6 202657879.12106       761.727 6        40.131    38918306.313 7 156707909.58407       589.060 7        43.619    38918305.617 6 164676105.43706       618.912 6        40.250
C16        50.000                                                                                                                                    39243819.498 6 204352879.47806       639.056 6        40.987    39243819.412 7 158018617.15607       494.119 7        42.806    39243816.846 6 166053451.59006       519.198 6        38.787
S48        51.000    77124943.018 6 405294656.64906      -426.864 6        37.021
C19        52.000                                                                                                                                    25452117.042 7 132535891.10707      2672.383 7        42.451                                                                    25452113.459 7 107696266.53807      2171.582 7        43.465
R04        53.000    20897294.442 8 111904090.67908     -3736.384 8        49.199                                                                    20897293.070 7  87036522.73007     -2906.070 7        45.065
C60        54.000                                                                                                                                    40487243.509 6 210827905.55106      -479.162 6        38.468                                                                    40487227.538 6 171314912.76706      -389.358 6        40.329
C30        55.000                                                                                                                                    23268920.102 8 121167367.76408     -3186.253 8        48.249                                                                    23268920.709 7  98458409.48307     -2589.046 7        46.894
R19        56.000    22402311.797 6 119837295.92506     -4283.450 6        37.130                                                                    22402311.280 6  93206823.54806     -3331.453 6        39.489
C02        57.000                                                                                                                                    40468755.800 5 210731482.30305      -447.380 5        33.114    40468749.881 6 162950943.53306      -346.067 6        40.536    40468752.814 6 171236594.49806      -363.404 6        36.280
I03        58.000   133994144.540 6 450036562.24106       987.528 6        40.682
C13        59.000                                                                                                                                    40921239.015 6 213087693.26006     -1122.744 6        36.363    40921241.131 6 164772962.40706      -868.548 6        37.822    40921239.151 6 173151235.15306      -912.519 6        36.231
> 2025 01 01 00 15 10.0000000  0 54
G28         1.000    23768966.956 6 124906770.48906      1596.014 6        40.632                                    23768963.608 4  97329930.61704      1243.648 4        26.156    23768963.415 6  97329936.62906      1243.508 6        40.808
G31         2.000    24343828.679 6 127927688.57406      2719.619 6        38.772                                    24343825.060 5  99683898.50505      2119.181 5        31.955    24343825.114 6  99683897.50306      2119.114 6        37.270
G14         3.000    24946820.412 5 131096460.81705     -2710.594 5        35.595                                    24946817.080 2 102153089.16502     -2112.145 2        15.571    24946817.793 5 102153091.13205     -2112.033 5        35.324
G10         4.000    25535776.008 6 134191463.54806     -3533.436 6        36.915                                    25535774.604 4 104564785.37804     -2753.331 4        26.778    25535774.439 5 104564784.35705     -2753.210 5        34.105
S21         5.000    38370562.247 6 201638520.23106      -419.951 6        41.816
R12         6.000    23938464.594 7 127875002.04407     -1783.591 7        43.627                                                                    23938467.108 6  99458349.73906     -1387.069 6        40.694
G21         7.000    21174104.076 7 111270731.41207     -1980.224 7        45.180                                    21174099.030 6  86704470.66506     -1543.032 6        36.862
E04         8.000    23737670.424 7 124742323.38707       138.866 7        46.910                                                                    23737668.557 8  93151740.01108       103.704 8        50.214    23737668.263 8  95581777.34408       106.389 8        51.106
G04        10.000    23957040.435 6 125895114.16906      3362.688 6        39.375                                    23957038.841 4  98100091.19204      2620.274 4        24.421    23957038.944 6  98100086.19406      2620.359 6        40.081
E09        11.000    25704444.383 7 135077803.36707      2424.470 7        44.158                                                                    25704443.924 7 100869802.18007      1810.429 7        45.952    25704443.813 7 103501187.92607      1857.657 7        47.762
S27        12.000    39023818.528 5 205071508.66005      -397.657 5        35.476
S36        14.000    38138294.500 7 200418614.65907      -419.514 7        43.354
E02        15.000    27658549.225 6 145346685.45106     -2400.539 6        37.739                                                                    27658548.845 6 108538127.34906     -1792.668 6        40.136    27658548.082 6 111369552.41206     -1839.483 6        40.358
E36        16.000    24778051.379 7 130209563.58107      1538.254 7        44.921                                                                    24778051.407 8  97234430.87908      1148.716 8        48.114    24778051.159 8  99770976.05308      1178.677 8        49.186
S45        17.000    63339984.993 6 332855012.18106      -461.850 6        36.930
G03        18.000    20656415.375 7 108550250.85007      1409.721 7        47.545                                    20656413.774 8  84584629.89808      1098.484 8        49.124    20656413.926 7  84584638.90007      1098.493 7        44.594
R21        19.000    21414729.218 8 114594573.79108      3138.840 8        49.122                                                                    21414727.684 7  89129121.82907      2441.358 7        43.547
R20        20.000    19096396.554 6 102117061.01206      -403.740 6        40.341                                                                    19096398.110 7  79424380.59207      -313.985 7        47.597
R05        21.000    19011945.148 8 101629785.65808      -186.912 8        52.314                                                                    19011943.859 7  79045394.78007      -145.410 7        46.617
I06        22.000    38197571.217 7 149895703.37907      -208.392 7        42.974
S28        23.000    40815577.445 5 214487309.83605      -411.860 5        33.778
E10        24.000    24477464.150 7 128630067.50007     -2048.822 7        46.403                                                                    24477463.345 8  96054988.30308     -1529.990 8        49.374    24477462.985 8  98560761.01608     -1569.931 8        50.373
S23        25.000    38090113.375 7 200164863.82207      -416.579 7        44.537
E06        26.000    24207225.408 7 127209884.72807      1536.497 7        46.831                                                                    24207225.341 8  94994392.71108      1147.417 8        48.911    24207225.190 8  97472505.94908      1177.326 8        50.001
E30        27.000    28391833.558 6 149200094.99406      -336.149 6        37.285                                                                    28391835.410 6 111415656.10906      -251.204 6        41.094    28391834.812 7 114322149.27707      -257.483 7        42.347
E12        28.000    26491972.119 6 139216398.29706     -2780.007 6        37.679                                                                    26491969.573 7 103960370.88307     -2076.118 7        42.229    26491969.477 7 106672368.26007     -2130.131 7        42.601
E19        30.000    25991430.266 6 136585900.50806     -2745.912 6        36.163                                                                    25991429.285 6 101995962.72506     -2050.676 6        39.207    25991428.769 6 104656724.39006     -2104.138 6        39.402
G32        31.000    23037278.199 7 121061731.24007     -3009.548 7        44.035                                    23037276.298 6  94333813.32006     -2345.100 6        41.545    23037276.983 6  94333818.30106     -2344.995 6        41.368
G02        32.000    20610851.883 8 108310803.86908      -565.588 8        49.860                                    20610845.285 7  84398026.35807      -440.717 7        43.621
G19        33.000    24697758.916 6 129787605.16806      3103.902 6        38.201                                    24697754.981 3 101133213.06103      2418.619 3        21.738
G17        34.000    22801718.976 7 119823894.29907      1510.449 7        44.181                                    22801714.288 6  93369278.66506      1176.973 6        40.775    22801714.711 6  93369278.66606      1176.977 6        40.400
E11        35.000    23216958.174 7 122006010.52907      -761.429 7        43.668                                                                    23216953.798 7  91108404.00507      -568.607 7        47.034    23216953.630 8  93485137.34708      -583.466 8        48.093
C32        36.000                                                                                                                                    22799764.286 8 118724384.08308     -2365.778 8        48.974                                                                    22799764.079 8  96473298.18908     -1922.280 8        49.967
C35        37.000                                                                                                                                    25303051.591 7 131759637.75707      2593.900 7        42.271                                                                    25303050.695 7 107065496.09407      2107.803 7        42.508
C29        39.000                                                                                                                                    21711272.495 8 113056299.47508      -112.811 8        50.631                                                                    21711270.068 8  91867499.27508       -91.612 8        49.133
G08        40.000    24128317.785 6 126795203.52506     -4111.159 6        39.174                                    24128317.097 5  98801477.79305     -3203.496 5        32.515    24128317.956 5  98801484.80305     -3203.587 5        35.952
S44        42.000    40487699.491 5 212764503.73305      -483.177 5        35.781
C09        43.000                                                                                                                                    39820781.562 6 207357266.31306      1104.067 6        39.790    39820777.165 7 160341780.60907       853.642 7        44.114    39820775.051 6 168494743.52706       897.178 6        39.646
C05        44.000                                                                                                                                    39056234.253 6 203376097.56006      -403.758 6        37.800    39056229.877 7 157263323.47207      -312.140 7        43.746    39056231.746 6 165259841.71306      -327.928 6        40.636
R06        45.000    22624436.918 6 120728363.26006      3523.621 6        36.953
R13        46.000    23883440.833 6 127536249.28906       783.780 6        37.183
C39        47.000                                                                                                                                    39016626.604 7 203169820.56307       226.665 7        42.275                                                                    39016622.132 7 165092110.48807       184.317 7        43.107
C20        48.000                                                                                                                                    22079254.337 8 114972517.28608       880.668 8        51.722                                                                    22079248.674 8  93424579.68708       715.631 8        49.229
C06        49.000                                                                                                                                    38917580.786 6 202654071.71906       761.102 6        39.667    38917575.369 7 156704965.45507       588.474 7        43.602    38917574.610 6 164673011.59606       618.470 6        40.410
C16        50.000                                                                                                                                    39243205.877 6 204349685.70806       638.351 6        40.698    39243206.108 7 158016147.53507       493.606 7        42.669    39243203.376 6 166050856.40006       518.648 6        38.745
S48        51.000    77125342.956 6 405296790.91606      -426.786 6        36.994
C19        52.000                                                                                                                                    25449552.075 7 132522530.70007      2671.726 7        42.828                                                                    25449547.715 7 107685410.11307      2171.000 7        43.585
R04        53.000    20900784.063 8 111922777.02308     -3738.208 8        49.738                                                                    20900782.465 7  87051056.55307     -2907.528 7        45.112
C60        54.000                                                                                                                                    40487703.196 6 210830300.43006      -478.936 6        38.204                                                                    40487687.596 6 171316858.77806      -389.162 6        40.200
C30        55.000                                                                                                                                    23271980.263 8 121183302.30508     -3187.658 8        48.075                                                                    23271980.826 7  98471357.60107     -2590.164 7        46.925
R19        56.000    22406316.257 6 119858715.84106     -4284.711 6        36.601                                                                    22406314.803 6  93223483.48606     -3332.641 6        39.483
C02        57.000                                                                                                                                    40469184.754 5 210733718.25805      -447.145 5        33.132    40469179.175 6 162952672.50106      -345.675 6        40.660    40469182.341 5 171238411.39205      -363.454 5        35.986
I03        58.000   133992886.476 6 450031624.40406       987.541 6        40.763
C13        59.000                                                                                                                                    40922316.649 6 213093307.91006     -1122.840 6        36.049    40922319.364 6 164777303.98806      -868.325 6        37.943    40922317.474 6 173155797.51506      -912.522 6        36.234
> 2025 01 01 00 15 15.0000000  0 54
G28         1.000    23767449.564 6 124898796.04806      1593.763 6        40.789                                    23767446.185 4  97323716.77704      1241.894 4        26.240    23767446.354 6  97323722.78106      1241.911 6        40.486
G31         2.000    24341241.536 6 127914092.61606      2718.818 6        39.264                                    24341237.752 5  99673304.25505      2118.561 5        32.090    24341237.882 6  99673303.26106      2118.513 6        37.187
G14         3.000    24949400.416 6 131110016.56706     -2711.756 6        36.212                                    24949396.719 2 102163652.08502     -2113.051 2        15.952    24949397.017 5 102163654.08405     -2113.073 5        35.648
G10         4.000    25539137.816 6 134209129.67406     -3533.255 6        36.892                                    25539136.580 4 104578551.17404     -2753.178 4        27.054    25539135.882 5 104578550.18805     -2753.068 5        33.234
S21         5.000    38370958.424 6 201640620.02906      -419.841 6        41.781
R12         6.000    23940136.659 7 127883929.00107     -1787.202 7        43.554                                                                    23940138.341 6  99465292.88206     -1389.999 6        39.501
G21         7.000    21175989.426 7 111280636.96207     -1982.006 7        45.427                                    21175984.034 6  86712189.27306     -1544.420 6        37.025
E04         8.000    23737539.431 7 124741634.84207       136.565 7        47.065                                                                    23737537.495 8  93151225.83808       101.959 8        50.183    23737537.199 8  95581249.75408       104.654 8        51.000
G04        10.000    23953840.766 6 125878301.74506      3362.233 6        39.084                                    23953839.475 4  98086990.62204      2619.923 4        24.030    23953839.724 6  98086985.62906      2619.935 6        39.799
E09        11.000    25702137.861 7 135065683.87707      2423.347 7        43.905                                                                    25702137.768 7 100860751.91107      1809.678 7        46.020    25702137.631 7 103491901.56807      1856.869 7        47.671
S27        12.000    39024195.477 5 205073496.71405      -397.729 5        35.414
S36        14.000    38138695.605 7 200420711.30907      -419.317 7        43.281
E02        15.000    27660833.682 6 145358692.42306     -2401.953 6        37.939                                                                    27660833.607 6 108547093.60206     -1793.698 6        40.043    27660833.153 6 111378752.54906     -1840.541 6        40.298
E36        16.000    24776587.915 7 130201873.94607      1537.608 7        45.070                                                                    24776588.145 8  97228688.62008      1148.194 8        48.072    24776587.907 8  99765084.00008      1178.158 8        49.160
S45        17.000    63340379.390 6 332857321.33706      -462.017 6        37.013
G03        18.000    20655075.247 7 108543206.66007      1407.913 7        47.989                                    20655073.306 8  84579140.92108      1097.075 8        49.236    20655073.756 7  84579149.91707      1097.046 7        44.385
R21        19.000    21411797.149 8 114578883.49108      3137.339 8        49.295                                                                    21411795.750 7  89116918.27107      2440.116 7        43.670
R20        20.000    19096775.387 6 102119088.71306      -407.358 6        40.095                                                                    19096777.081 7  79425957.69207      -316.824 7        47.279
R05        21.000    19012121.771 8 101630729.99008      -190.772 8        52.436                                                                    19012120.590 7  79046129.26707      -148.357 7        46.717
I06        22.000    38197836.582 7 149896745.19407      -208.448 7        42.781
S28        23.000    40815971.905 5 214489369.16505      -411.740 5        33.838
E10        24.000    24479414.260 7 128640314.85307     -2050.119 7        46.619                                                                    24479413.347 8  96062640.54108     -1530.809 8        49.307    24479413.012 8  98568612.88308     -1570.825 8        50.291
S23        25.000    38090510.120 7 200166946.48707      -416.500 7        44.513
E06        26.000    24205764.489 7 127202206.60107      1534.755 7        47.113                                                                    24205764.230 8  94988659.05108      1146.104 8        48.868    24205764.001 8  97466622.71108      1175.962 8        49.936
E30        27.000    28392154.618 6 149201782.42706      -338.698 6        36.756                                                                    28392156.352 6 111416916.28306      -253.009 6        40.996    28392155.736 7 114323442.32507      -259.506 7        42.392
E12        28.000    26494617.661 6 139230300.67006     -2780.879 6        38.048                                                                    26494615.102 7 103970752.51807     -2076.610 7        42.190    26494615.294 7 106683020.73707     -2130.676 7        42.809
E19        30.000    25994044.215 6 136599633.71706     -2747.160 6        36.261                                                                    25994042.704 6 102006218.02606     -2051.570 6        39.054    25994042.112 6 104667247.21806     -2105.085 6        39.517
G32        31.000    23040142.514 7 121076783.13807     -3011.259 7        44.257                                    23040140.528 6  94345542.06406     -2346.433 6        41.628    23040141.102 6  94345547.06406     -2346.492 6        40.687
G02        32.000    20611391.211 8 108313637.08708      -567.713 8        49.971                                    20611384.415 7  84400234.05907      -442.373 7        43.699
G19        33.000    24694806.381 6 129772088.96606      3102.636 6        36.911                                    24694802.252 3 101121122.53503      2417.627 3        21.857
G17        34.000    22800282.671 7 119816348.09307      1508.096 7        44.662                                    22800278.298 6  93363398.51206      1175.139 6        40.858    22800278.728 6  93363398.51306      1175.111 6        40.949
E11        35.000    23217683.573 7 122009821.70907      -762.925 7        43.702                                                                    23217679.008 7  91111250.01507      -569.697 7        47.004    23217678.879 7  93488057.59407      -584.543 7        47.904
C32        36.000                                                                                                                                    22802036.505 8 118736216.52808     -2367.260 8        48.825                                                                    22802036.382 8  96482913.04208     -1923.665 8        49.815
C35        37.000                                                                                                                                    25300561.018 6 131746670.75606      2592.946 6        41.981                                                                    25300560.580 7 107054959.36407      2106.927 7        42.387
C29        39.000                                                                                                                                    21711382.012 8 113056869.87408      -115.381 8        50.625                                                                    21711379.619 8  91867962.78608       -93.793 8        49.051
G08        40.000    24132229.549 6 126815760.11206     -4111.436 6        39.126                                    24132228.617 5  98817495.91305     -3203.717 5        32.419    24132230.555 6  98817502.91706     -3203.890 6        36.378
S44        42.000    40488164.253 5 212766920.40705      -483.257 5        35.790
C09        43.000                                                                                                                                    39819721.510 6 207351747.28706      1103.435 6        40.052    39819717.546 7 160337512.95007       853.341 7        44.196    39819715.207 6 168490258.89006       896.567 6        39.285
C05        44.000                                                                                                                                    39056622.014 6 203378115.96406      -403.814 6        37.913    39056617.290 7 157264884.22607      -312.053 7        43.790    39056619.306 6 165261481.84706      -328.158 6        40.343
R06        45.000    22621136.694 6 120710748.79606      3522.361 6        37.214
R13        46.000    23882707.728 6 127532340.96606       779.797 6        36.650
C39        47.000                                                                                                                                    39016409.316 7 203168689.28507       225.698 7        42.250                                                                    39016404.890 7 165091191.24707       183.363 7        43.086
C20        48.000                                                                                                                                    22078409.947 8 114968119.24308       878.577 8        51.949                                                                    22078404.113 8  93421005.94208       713.775 8        49.270
C06        49.000                                                                                                                                    38916849.924 6 202650268.42006       760.234 6        39.508    38916844.706 7 156702024.50507       587.955 7        43.439    38916844.386 6 164669921.12306       617.696 6        40.298
C16        50.000                                                                                                                                    39242593.121 6 204346496.11906       637.605 6        40.801    39242593.393 7 158013681.13807       493.028 7        42.574    39242591.001 6 166048264.59706       517.908 6        38.670
S48        51.000    77125739.732 6 405298924.87706      -426.756 6        37.013
C19        52.000                                                                                                                                    25446987.552 7 132509174.18107      2670.957 7        43.467                                                                    25446982.868 7 107674556.87107      2170.195 7        43.418
R04        53.000    20904275.556 8 111941472.74508     -3740.039 8        49.577                                                                    20904273.417 7  87065597.66207     -2908.885 7        45.317
C60        54.000                                                                                                                                    40488163.000 6 210832695.13506      -479.052 6        38.261                                                                    40488147.382 6 171318804.68606      -389.127 6        40.079
C30        55.000                                                                                                                                    23275041.534 7 121199244.43707     -3189.154 7        47.860                                                                    23275042.306 7  98484311.90407     -2591.528 7        46.812
R19        56.000    22410322.285 6 119880143.69406     -4286.397 6        37.331                                                                    22410321.439 6  93240149.58306     -3333.832 6        39.339
C02        57.000                                                                                                                                    40469614.463 5 210735954.15605      -447.138 5        33.096    40469608.822 6 162954401.44006      -345.727 6        40.451    40469611.764 5 171240228.26605      -363.612 5        35.829
I03        58.000   133991628.035 6 450026686.63106       987.531 6        40.856
C13        59.000                                                                                                                                    40923394.807 6 213098921.74906     -1122.485 6        36.548    40923397.248 6 164781644.94506      -867.946 6        37.939    40923395.717 6 173160359.23806      -912.537 6        36.389
> 2025 01 01 00 15 20.0000000  0 54
G28         1.000    23765933.761 6 124890833.07806      1591.535 6        40.381                                    23765930.864 4  97317511.86904      1240.148 4        26.012    23765930.722 6  97317517.87406      1240.064 6        39.925
G31         2.000    24338655.348 6 127900501.14306      2717.982 6        38.928                                    24338651.308 5  99662713.50005      2117.907 5        32.084    24338651.566 6  99662712.50006      2117.882 6        37.051
G14         3.000    24951981.130 5 131123579.44505     -2713.247 5        35.862                                    24951977.659 2 102174220.54902     -2114.217 2        15.857    24951978.073 5 102174222.58405     -2114.354 5        34.743
G10         4.000    25542499.215 6 134226795.63006     -3533.258 6        36.873                                    25542498.498 4 104592316.85304     -2753.190 4        26.587    25542498.264 5 104592315.87005     -2753.272 5        32.796
S21         5.000    38371359.045 6 201642719.86706      -420.165 6        41.807
R12         6.000    23941811.374 7 127892874.92407     -1791.052 7        43.462                                                                    23941812.999 6  99472250.79506     -1393.209 6        38.715
G21         7.000    21177875.874 7 111290551.58207     -1983.846 7        45.052                                    21177870.705 6  86719914.95006     -1545.855 6        36.832
E04         8.000    23737410.627 7 124740958.16407       134.200 7        47.369                                                                    23737408.746 8  93150720.53408       100.175 8        50.154    23737408.439 8  95580731.26608       102.781 8        50.975
G04        10.000    23950642.367 6 125861492.27706      3361.785 6        38.814                                    23950640.763 3  98073892.35303      2619.571 3        23.581    23950640.960 6  98073887.35906      2619.371 6        39.547
E09        11.000    25699832.663 7 135053570.20807      2422.159 7        44.045                                                                    25699832.689 7 100851706.00107      1808.740 7        46.039    25699832.441 7 103482619.67507      1855.922 7        47.778
S27        12.000    39024571.827 5 205075485.03605      -397.478 5        35.652
S36        14.000    38139091.630 7 200422808.68707      -419.459 7        43.329
E02        15.000    27663119.486 6 145370706.96406     -2403.681 6        37.508                                                                    27663120.226 6 108556065.47906     -1794.961 6        39.874    27663119.329 6 111387958.49006     -1841.884 6        40.403
E36        16.000    24775125.316 7 130194188.34007      1536.811 7        44.950                                                                    24775125.616 8  97222949.36808      1147.556 8        48.025    24775125.365 8  99759195.02708      1177.513 8        49.142
S45        17.000    63340774.905 6 332859630.79406      -461.860 6        37.009
G03        18.000    20653736.728 7 108536172.22007      1405.963 7        47.645                                    20653734.695 8  84573659.54008      1095.554 8        49.144    20653735.508 7  84573668.54107      1095.552 7        44.504
R21        19.000    21408865.800 8 114563201.22808      3135.684 8        48.904                                                                    21408864.558 7  89104720.97307      2438.852 7        43.261
R20        20.000    19097157.999 6 102121135.22406      -411.064 6        40.791                                                                    19097159.368 7  79427549.43107      -319.824 7        47.310
R05        21.000    19012302.188 8 101631693.90608      -194.699 8        52.498                                                                    19012300.558 7  79046878.97607      -151.493 7        46.589
I06        22.000    38198102.179 7 149897787.21007      -208.341 7        42.851
S28        23.000    40816361.920 5 214491428.81005      -411.709 5        33.832
E10        24.000    24481365.373 7 128650568.79407     -2051.457 7        46.622                                                                    24481364.631 8  96070297.70708     -1531.916 8        49.261    24481364.273 8  98576469.80108     -1571.884 8        50.211
S23        25.000    38090906.176 7 200169029.42607      -416.630 7        44.740
E06        26.000    24204305.342 7 127194537.94707      1532.811 7        47.210                                                                    24204304.911 8  94982932.46708      1144.600 8        48.804    24204304.727 8  97460746.73708      1174.437 8        49.918
E30        27.000    28392477.863 6 149203481.77006      -341.044 6        36.397                                                                    28392479.628 6 111418185.23506      -254.681 6        39.571    28392479.125 6 114324744.39206      -261.420 6        41.189
E12        28.000    26497264.309 6 139244207.45506     -2781.983 6        38.201                                                                    26497261.418 7 103981137.44207     -2077.250 7        42.182    26497261.724 7 106693676.58207     -2131.552 7        42.914
E19        30.000    25996659.192 6 136613374.08006     -2748.742 6        36.783                                                                    25996657.539 6 102016478.65906     -2052.621 6        38.946    25996656.861 6 104677775.53306     -2106.271 6        39.649
G32        31.000    23043008.635 7 121091844.79507     -3013.233 7        44.179                                    23043006.610 6  94357278.41506     -2347.973 6        41.459    23043007.272 6  94357283.40606     -2347.936 6        40.739
G02        32.000    20611932.344 8 108316481.47008      -569.947 8        49.739                                    20611925.691 7  84402450.45807      -444.114 7        43.594
G19        33.000    24691855.254 6 129756579.41206      3101.219 6        36.639                                    24691850.972 3 101109037.18103      2416.530 3        21.095
G17        34.000    22798849.056 7 119808814.27707      1505.537 7        44.822                                    22798844.669 6  93357528.01306      1173.146 6        40.732    22798844.787 6  93357528.00806      1173.236 6        40.441
E11        35.000    23218410.266 7 122013640.55107      -764.520 7        43.932                                                                    23218405.722 7  91114101.75007      -570.916 7        46.886    23218405.565 7  93490983.72307      -585.779 7        47.965
C32        36.000                                                                                                                                    22804310.434 8 118748056.93708     -2368.863 8        48.651                                                                    22804310.270 8  96492534.34808     -1924.998 8        49.833
C35        37.000                                                                                                                                    25298072.348 7 131733708.50007      2592.088 7        42.413                                                                    25298071.164 7 107044426.48107      2106.082 7        42.536
C29        39.000                                                                                                                                    21711494.138 8 113057453.64308      -118.083 8        50.554                                                                    21711491.732 8  91868437.16008       -96.153 8        49.045
G08        40.000    24136141.871 6 126836318.09206     -4111.855 6        38.901                                    24136140.603 5  98833515.10705     -3204.041 5        32.401    24136142.990 6  98833522.08606     -3203.993 6        36.779
S44        42.000    40488619.737 5 212769337.36205      -483.266 5        35.729
C09        43.000                                                                                                                                    39818661.316 6 207346231.66206      1102.798 6        39.748    39818658.494 7 160333247.92907       852.808 7        44.414    39818655.829 6 168485777.01506       895.892 6        39.279
C05        44.000                                                                                                                                    39057009.391 6 203380134.69106      -403.803 6        37.648    39057005.020 7 157266445.24107      -312.318 7        43.892    39057006.978 6 165263122.24106      -328.200 6        40.443
R06        45.000    22617836.867 6 120693141.76206      3520.686 6        36.847
R13        46.000    23881980.138 6 127528451.98006       775.908 6        37.807
C39        47.000                                                                                                                                    39016193.067 7 203167563.19207       224.720 7        42.421                                                                    39016188.568 7 165090276.22207       182.405 7        43.014
C20        48.000                                                                                                                                    22077567.328 8 114963732.09808       876.356 8        51.923                                                                    22077561.571 8  93417441.03608       711.927 8        49.176
C06        49.000                                                                                                                                    38916120.443 6 202646469.67906       759.192 6        39.210    38916115.172 7 156699087.07707       587.092 7        43.537    38916114.960 6 164666834.33006       617.079 6        40.319
C16        50.000                                                                                                                                    39241981.789 6 204343311.17206       636.695 6        40.889    39241981.851 7 158011218.33207       492.240 7        42.430    39241979.246 6 166045676.58206       517.029 6        38.477
S48        51.000    77126135.511 6 405301059.02806      -426.685 6        37.059
C19        52.000                                                                                                                                    25444422.672 7 132495822.02707      2669.946 7        43.994                                                                    25444418.784 7 107663707.16507      2169.428 7        43.316
R04        53.000    20907768.484 8 111960178.13008     -3742.037 8        49.395                                                                    20907766.461 7  87080146.29307     -2910.480 7        45.005
C60        54.000                                                                                                                                    40488622.718 6 210835090.12706      -478.909 6        38.306                                                                    40488607.360 6 171320750.83406      -389.344 6        40.174
C30        55.000                                                                                                                                    23278104.916 7 121215194.59807     -3190.768 7        47.846                                                                    23278105.318 7  98497272.72907     -2592.954 7        46.767
R19        56.000    22414329.502 6 119901579.90106     -4288.047 6        37.868                                                                    22414328.565 6  93256822.19306     -3335.151 6        39.757
C02        57.000                                                                                                                                    40470043.904 5 210738190.36405      -447.157 5        33.006    40470037.901 6 162956130.64006      -345.904 6        40.598    40470041.353 5 171242045.38805      -363.846 5        35.762
I03        58.000   133990370.006 6 450021749.23006       987.480 6        40.837
C13        59.000                                                                                                                                    40924473.557 6 213104535.26606     -1122.699 6        36.439    40924475.204 6 164785985.68306      -868.103 6        38.093    40924473.564 6 173164920.66706      -912.434 6        36.420
> 2025 01 01 00 15 25.0000000  0 54
G28         1.000    23764420.752 6 124882881.94106      1589.088 6        40.701                                    23764417.662 4  97311316.18604      1238.251 4        25.850    23764417.404 6  97311322.17506      1238.145 6        40.029
G31         2.000    24336069.304 6 127886914.51306      2716.792 6        39.309                                    24336065.775 5  99652126.51505      2116.990 5        32.084    24336066.171 6  99652125.50906      2117.016 6        37.331
G14         3.000    24954562.159 5 131137149.72905     -2714.692 5        35.810                                    24954560.053 2 102184794.78702     -2115.346 2        15.143    24954560.692 5 102184796.76205     -2115.207 5        34.962
G10         4.000    25545861.043 6 134244461.83006     -3533.429 6        36.737                                    25545860.264 4 104606082.73004     -2753.320 4        26.216    25545859.295 5 104606081.75005     -2753.448 5        32.449
S21         5.000    38371755.893 6 201644820.21706      -420.153 6        41.666
R12         6.000    23943489.123 7 127901840.17007     -1795.004 7        42.207                                                                    23943491.363 6  99479223.72106     -1395.871 6        39.547
G21         7.000    21179764.156 7 111300475.57007     -1985.687 7        45.166                                    21179759.215 6  86727647.92506     -1547.289 6        36.870
E04         8.000    23737284.025 7 124740293.68607       131.683 7        47.293                                                                    23737282.335 8  93150224.33408        98.302 8        50.316    23737282.002 8  95580222.11708       100.902 8        51.146
G04        10.000    23947444.820 6 125844686.08306      3360.913 6        39.501                                    23947442.524 3  98060796.62803      2618.890 3        23.486    23947442.895 6  98060791.62206      2619.110 6        39.081
E09        11.000    25697528.767 7 135041462.69607      2420.967 7        44.036                                                                    25697528.865 7 100842664.68807      1807.790 7        46.243    25697528.439 7 103473342.49307      1855.023 7        47.921
S27        12.000    39024949.321 5 205077474.36805      -398.248 5        35.619
S36        14.000    38139494.568 7 200424906.76007      -419.724 7        43.431
E02        15.000    27665407.847 6 145382729.34306     -2405.237 6        37.077                                                                    27665407.808 6 108565043.23406     -1796.055 6        40.155    27665407.442 6 111397170.44306     -1842.986 6        40.532
E36        16.000    24773663.841 7 130186507.07407      1535.880 7        44.715                                                                    24773663.941 8  97217213.36208      1146.930 8        48.141    24773663.665 8  99753309.38708      1176.831 8        49.260
S45        17.000    63341170.322 6 332860340.81016      -461.992 6        37.089
G03        18.000    20652399.578 7 108529147.83507      1403.938 7        47.907                                    20652397.993 8  84568185.99508      1093.976 8        49.152    20652398.610 7  84568195.00207      1093.880 7        44.381
R21        19.000    21405936.962 8 114547527.33408      3133.962 8        49.317                                                                    21405935.611 7  89092530.16207      2437.536 7        43.767
R20        20.000    19097544.157 6 102123200.89906      -415.169 6        40.224                                                                    19097545.990 7  79429156.04507      -322.788 7        47.068
R05        21.000    19012486.248 8 101632677.78408      -198.717 8        52.290                                                                    19012484.960 7  79047644.21407      -154.615 7        47.164
I06        22.000    38198367.932 7 149898829.67107      -208.519 7        42.870
S28        23.000    40816755.342 5 214493489.12905      -412.129 5        33.850
E10        24.000    24483317.823 7 128660829.64307     -2052.771 7        46.562                                                                    24483317.198 8  96077960.02608     -1532.895 8        49.435    24483316.926 8  98584332.00608     -1572.931 8        50.390
S23        25.000    38091303.471 7 200171113.18807      -416.834 7        44.603
E06        26.000    24202847.718 7 127186879.09707      1530.864 7        47.255                                                                    24202847.450 8  94977213.20408      1143.136 8        49.039    24202847.344 8  97454878.27308      1173.001 8        50.057
E30        27.000    28392804.092 6 149205193.36006      -343.491 6        36.733                                                                    28392805.324 6 111419463.25306      -256.582 6        40.691    28392805.006 7 114326055.76107      -263.243 7        42.480
E12        28.000    26499911.839 6 139258118.99706     -2782.718 6        37.894                                                                    26499908.559 7 103991525.94807     -2078.064 7        42.212    26499908.913 7 106704336.07807     -2132.290 7        43.139
E19        30.000    25999274.684 6 136627121.69906     -2750.504 6        36.522                                                                    25999273.702 6 102026744.72906     -2053.800 6        39.547    25999273.073 6 104688309.40706     -2107.259 6        39.661
G32        31.000    23045877.002 7 121106916.52407     -3015.330 7        44.123                                    23045874.647 6  94369022.60906     -2349.604 6        41.342    23045875.730 6  94369027.60306     -2349.598 6        40.560
G02        32.000    20612475.925 8 108319337.33308      -572.269 8        50.085                                    20612469.136 7  84404675.80807      -445.923 7        43.537
G19        33.000    24688905.537 6 129741076.75106      3100.008 6        37.732                                    24688900.717 3 101096957.22403      2415.586 3        21.429
G17        34.000    22797417.989 7 119801293.20807      1503.042 7        44.695                                    22797413.455 6  93351667.44206      1171.199 6        40.696    22797413.845 6  93351667.44506      1171.129 6        40.210
E11        35.000    23219138.437 7 122017467.40307      -766.193 7        43.839                                                                    23219133.937 7  91116959.46507      -572.171 7        47.133    23219133.781 8  93493915.99208      -587.092 8        48.086
C32        36.000                                                                                                                                    22806585.758 8 118759905.61908     -2370.489 8        48.454                                                                    22806585.658 8  96502162.35608     -1926.284 8        49.886
C35        37.000                                                                                                                                    25295584.117 6 131720751.31306      2591.089 6        41.869                                                                    25295582.811 7 107033897.70007      2105.388 7        42.525
C29        39.000                                                                                                                                    21711608.927 8 113058051.11508      -120.849 8        50.584                                                                    21711606.399 8  91868922.63708       -98.186 8        49.055
G08        40.000    24140053.932 6 126856877.70306     -4111.856 6        39.090                                    24140053.130 5  98849535.57705     -3204.043 5        32.826    24140055.298 6  98849542.56406     -3204.229 6        37.437
S44        42.000    40489080.936 5 212771754.98005      -483.530 5        35.871
C09        43.000                                                                                                                                    39817602.712 6 207340719.86006      1102.106 6        39.468    39817599.642 7 160328985.86807       852.089 7        44.457    39817597.275 6 168481298.20006       895.497 6        39.237
C05        44.000                                                                                                                                    39057397.501 6 203382154.09306      -404.119 6        37.754    39057392.933 7 157268006.75207      -312.280 7        43.820    39057394.779 6 165264763.14906      -328.224 6        40.625
R06        45.000    22614538.217 6 120675542.36806      3519.131 6        36.276
R13        46.000    23881254.996 6 127524582.79806       771.697 6        37.217
C39        47.000                                                                                                                                    39015977.740 7 203166442.63507       223.597 7        42.588                                                                    39015973.408 7 165089365.65707       181.721 7        43.069
C20        48.000                                                                                                                                    22076727.050 8 114959356.17608       874.120 8        51.937                                                                    22076721.250 8  93413885.22308       710.315 8        49.201
C06        49.000                                                                                                                                    38915391.917 6 202642675.78906       758.374 6        38.961    38915386.342 7 156696153.39907       586.302 7        43.683    38915386.303 6 164663751.48506       616.035 6        40.338
C16        50.000                                                                                                                                    39241371.104 6 204340131.17406       635.465 6        40.999    39241371.327 7 158008759.34807       491.462 7        42.413    39241368.697 6 166043092.55306       516.495 6        38.697
S48        51.000    77126531.902 6 405303193.55906      -427.148 6        37.070
C19        52.000                                                                                                                                    25441858.855 7 132482474.56607      2669.031 7        43.793                                                                    25441855.449 7 107652861.25107      2168.963 7        43.384
R04        53.000    20911263.135 8 111978893.57808     -3744.052 8        49.165                                                                    20911261.775 7  87094702.74507     -2912.082 7        44.450
C60        54.000                                                                                                                                    40489083.023 6 210837485.77406      -479.283 6        38.309                                                                    40489067.441 6 171322697.45906      -389.333 6        40.150
C30        55.000                                                                                                                                    23281169.498 7 121231153.13507     -3192.471 7        47.531                                                                    23281170.029 7  98510240.33207     -2594.238 7        46.894
R19        56.000    22418338.442 6 119923024.72306     -4289.600 6        37.422                                                                    22418337.246 6  93273501.49906     -3336.416 6        39.790
C02        57.000                                                                                                                                    40470474.034 5 210740427.27605      -447.459 5        33.120    40470467.539 6 162957860.33306      -345.958 6        40.625    40470470.839 6 171243863.02606      -363.451 6        36.042
I03        58.000   133989111.865 6 450016812.45506       987.441 6        40.789
C13        59.000                                                                                                                                    40925551.304 6 213110148.70706     -1122.554 6        36.231    40925553.145 6 164790326.35806      -868.033 6        37.898    40925551.525 6 173169482.03406      -912.097 6        36.454
> 2025 01 01 00 15 30.0000000  0 54
G28         1.000    23762910.424 6 124874942.27906      1586.841 6        40.667                                    23762906.697 4  97305129.43104      1236.500 4        25.549    23762907.180 6  97305135.44706      1236.520 6        40.093
G31         2.000    24333485.140 6 127873332.32206      2716.121 6        39.216                                    24333481.164 5  99641542.99905      2116.455 5        31.902    24333481.528 6  99641542.00906      2116.324 6        36.688
G14         3.000    24957146.346 5 131150727.07705     -2716.215 5        35.690                                    24957143.881 2 102195374.50902     -2116.534 2        14.905    24957144.273 5 102195376.53405     -2116.507 5        34.200
G10         4.000    25549223.097 6 134262127.83206     -3533.240 6        36.854                                    25549221.962 4 104619848.44904     -2753.186 4        25.699    25549221.045 5 104619847.50405     -2753.421 5        31.162
S21         5.000    38372155.723 6 201646920.53606      -419.899 6        41.492
R12         6.000    23945170.582 7 127910824.25107     -1798.710 7        42.639                                                                    23945173.247 6  99486211.36606     -1398.879 6        40.329
G21         7.000    21181654.499 7 111310408.61807     -1987.447 7        45.117                                    21181649.414 6  86735387.96106     -1548.658 6        36.541
E04         8.000    23737159.944 7 124739641.03907       129.399 7        47.114                                                                    23737158.110 8  93149736.96208        96.643 8        50.309    23737157.801 8  95579722.03608        99.180 8        51.211
G04        10.000    23944247.156 6 125827882.86606      3360.266 6        39.781                                    23944244.974 3  98047703.21803      2618.398 3        23.733    23944245.457 6  98047698.20006      2618.670 6        39.084
E09        11.000    25695225.989 7 135029360.99407      2419.904 7        44.050                                                                    25695226.049 7 100833627.70207      1807.011 7        46.212    25695225.500 7 103464069.76507      1854.177 7        47.854
S27        12.000    39025330.366 5 205079463.89705      -397.983 5        35.643
S36        14.000    38139894.433 7 200427004.75507      -419.472 7        43.496
E02        15.000    27667697.161 6 145394759.25106     -2406.818 6        37.713                                                                    27667697.079 6 108574026.59406     -1797.243 6        40.100    27667696.475 6 111406388.14306     -1844.104 6        40.477
E36        16.000    24772202.903 7 130178829.83107      1535.120 7        44.715                                                                    24772202.988 8  97211480.35308      1146.309 8        48.103    24772202.740 8  99747426.81508      1176.245 8        49.339
S45        17.000    63341562.425 6 332862651.05406      -462.032 6        37.153
G03        18.000    20651064.905 7 108522133.18907      1402.041 7        47.986                                    20651063.146 8  84562720.04008      1092.499 8        48.894    20651063.882 7  84562729.04207      1092.425 7        44.564
R21        19.000    21403009.612 8 114531861.40708      3132.437 8        48.716                                                                    21403008.217 7  89080345.56007      2436.400 7        43.331
R20        20.000    19097933.610 6 102125285.35506      -418.617 6        40.279                                                                    19097935.664 7  79430777.31707      -325.697 7        47.072
R05        21.000    19012673.630 8 101633681.15408      -202.537 8        52.185                                                                    19012672.611 7  79048424.61207      -157.549 7        46.836
I06        22.000    38198633.609 7 149899872.35007      -208.607 7        42.954
S28        23.000    40817146.627 5 214495549.61405      -412.191 5        33.635
E10        24.000    24485271.677 7 128671097.06507     -2054.096 7        46.271                                                                    24485271.006 8  96085627.24708     -1533.889 8        49.462    24485270.725 8  98592199.23908     -1573.895 8        50.440
S23        25.000    38091700.685 7 200173197.25407      -416.719 7        44.686
E06        26.000    24201392.131 7 127179229.72207      1528.974 7        47.354                                                                    24201391.854 8  94971500.99608      1141.789 8        48.987    24201391.701 8  97449017.05408      1171.591 8        50.059
E30        27.000    28393131.699 5 149206917.05205      -345.910 5        35.895                                                                    28393133.582 6 111420750.39806      -258.113 6        40.312    28393133.363 7 114327376.49907      -265.042 7        42.311
E12        28.000    26502559.920 6 139272034.92106     -2783.697 6        37.263                                                                    26502556.561 6 104001917.68706     -2078.613 6        41.890    26502557.001 7 106714998.91007     -2132.828 7        43.266
E19        30.000    26001892.060 6 136640876.33006     -2751.623 6        36.696                                                                    26001891.271 6 102037016.04006     -2054.683 6        39.715    26001890.596 6 104698848.67906     -2108.352 6        40.010
G32        31.000    23048746.732 7 121121997.93707     -3017.113 7        44.113                                    23048744.485 6  94380774.35606     -2350.995 6        41.163    23048745.144 6  94380779.36006     -2350.967 6        40.036
G02        32.000    20613021.556 8 108322204.37408      -574.427 8        49.896                                    20613014.715 7  84406909.86207      -447.604 7        43.276
G19        33.000    24685957.022 6 129725580.60206      3098.733 6        38.886                                    24685952.169 3 101084882.31303      2414.594 3        22.514
G17        34.000    22795988.809 7 119793784.57007      1500.571 7        44.796                                    22795984.619 6  93345816.55706      1169.272 6        40.517    22795985.076 6  93345816.57706      1169.078 6        39.529
E11        35.000    23219868.124 7 122021301.90707      -767.684 7        43.757                                                                    23219863.637 7  91119822.88407      -573.296 7        47.127    23219863.460 8  93496854.10608      -588.262 8        48.120
C32        36.000                                                                                                                                    22808862.704 8 118771762.22508     -2372.040 8        48.608                                                                    22808862.616 8  96511796.81708     -1927.480 8        49.758
C35        37.000                                                                                                                                    25293097.101 7 131707798.90207      2590.032 7        42.618                                                                    25293095.524 7 107023372.82107      2104.672 7        42.349
C29        39.000                                                                                                                                    21711726.344 8 113058661.95908      -123.429 8        50.625                                                                    21711723.755 8  91869418.99608      -100.349 8        48.919
G08        40.000    24143966.762 6 126877438.67606     -4112.225 6        38.856                                    24143966.085 5  98865557.10005     -3204.328 5        33.012    24143967.853 6  98865564.08506     -3204.331 6        37.675
S44        42.000    40489542.483 5 212774172.87205      -483.596 5        35.919
C09        43.000                                                                                                                                    39816544.296 6 207335211.44906      1101.359 6        39.520    39816542.049 7 160324726.41207       851.629 7        44.718    39816539.545 6 168476822.15606       895.047 6        39.150
C05        44.000                                                                                                                                    39057785.258 6 203384173.76606      -403.842 6        38.015    39057780.806 7 157269568.50607      -312.461 7        44.117    39057782.554 6 165266404.30106      -328.229 6        40.358
R06        45.000    22611242.329 6 120657950.25206      3517.839 6        37.236
R13        46.000    23880535.334 6 127520733.00306       768.216 6        37.236
C39        47.000                                                                                                                                    39015763.402 7 203165327.23407       222.618 7        42.773                                                                    39015759.204 7 165088459.30807       180.812 7        42.895
C20        48.000                                                                                                                                    22075888.630 8 114954991.13208       871.958 8        51.978                                                                    22075882.919 8  93410338.26808       708.556 8        49.077
C06        49.000                                                                                                                                    38914663.239 6 202638886.47506       757.334 6        38.919    38914658.554 7 156693223.24207       585.782 7        43.566    38914658.537 6 164660672.34606       615.425 6        40.327
C16        50.000                                                                                                                                    39240761.500 6 204336955.78806       634.585 6        40.968    39240761.322 7 158006303.92307       490.766 7        42.358    39240758.731 6 166040512.28406       515.582 6        38.501
S48        51.000    77126933.664 6 405305328.36106      -426.993 6        36.843
C19        52.000                                                                                                                                    25439295.762 7 132469131.47207      2668.293 7        42.973                                                                    25439293.168 7 107642018.90207      2168.156 7        43.316
R04        53.000    20914759.832 8 111997618.79508     -3745.976 8        49.367                                                                    20914758.780 7  87109266.79807     -2913.528 7        44.611
C60        54.000                                                                                                                                    40489543.541 6 210839881.65406      -479.245 6        38.189                                                                    40489527.575 6 171324644.33006      -389.342 6        40.174
C30        55.000                                                                                                                                    23284235.470 7 121247119.66907     -3194.032 7        47.921                                                                    23284236.288 7  98523214.44107     -2595.400 7        46.679
R19        56.000    22422348.596 6 119944477.81806     -4291.350 6        36.991                                                                    22422348.222 6  93290187.23006     -3337.769 6        39.465
C02        57.000                                                                                                                                    40470903.377 5 210742664.54405      -447.490 5        33.228    40470897.298 6 162959590.32906      -345.908 6        40.596    40470900.418 5 171245680.99605      -363.634 5        35.800
I03        58.000   133987853.799 6 450011876.06006       987.140 6        40.715
C13        59.000                                                                                                                                    40926628.277 6 213115761.80806     -1122.624 6        36.151    40926631.372 6 164794666.73106      -867.962 6        38.351    40926629.485 6 173174043.11306      -912.068 6        36.526
> 2025 01 01 00 15 35.0000000  0 54
G28         1.000    23761401.653 6 124867014.31606      1584.544 6        41.175                                    23761397.931 4  97298951.80504      1234.715 4        26.060    23761398.316 6  97298957.80606      1234.714 6        40.603
G31         2.000    24330901.385 6 127859754.89306      2715.143 6        39.246                                    24330897.429 5  99630963.17505      2115.692 5        32.036    24330897.482 6  99630962.18206      2115.742 6        37.055
G14         3.000    24959731.897 5 131164311.57905     -2717.353 5        35.943                                    24959729.011 2 102205959.86702     -2117.435 2        16.075    24959728.397 5 102205961.83805     -2117.271 5        33.341
G10         4.000    25552585.201 6 134279793.89506     -3532.995 6        37.217                                    25552583.540 4 104633614.21404     -2752.976 4        25.594    25552583.478 5 104633613.20505     -2752.821 5        31.645
S21         5.000    38372553.961 6 201649021.00706      -419.983 6        41.383
R12         6.000    23946856.500 7 127919827.30007     -1802.433 7        42.138                                                                    23946858.146 6  99493213.70106     -1401.990 6        39.324
G21         7.000    21183546.469 7 111320350.93007     -1989.281 7        45.186                                    21183541.349 6  86743135.21706     -1550.090 6        36.624
E04         8.000    23737037.850 7 124739000.43207       127.083 7        47.506                                                                    23737036.222 8  93149258.58508        94.909 8        50.299    23737035.901 8  95579231.18308        97.337 8        51.146
G04        10.000    23941050.372 6 125811082.76006      3359.890 6        40.203                                    23941047.912 4  98034612.24104      2618.100 4        24.165    23941048.486 6  98034607.24906      2617.957 6        39.760
E09        11.000    25692924.181 7 135017265.31807      2418.699 7        44.027                                                                    25692924.185 7 100824595.22207      1806.083 7        46.359    25692923.698 7 103454801.65407      1853.245 7        47.794
S27        12.000    39025709.568 5 205081453.47905      -397.767 5        35.652
S36        14.000    38140294.742 7 200429102.23207      -419.406 7        43.391
E02        15.000    27669987.909 6 145406796.83606     -2408.183 6        37.822                                                                    27669987.793 6 108583015.70006     -1798.392 6        39.949    27669987.146 6 111415611.74706     -1845.223 6        40.539
E36        16.000    24770742.748 7 130171156.79907      1534.233 7        44.826                                                                    24770742.874 8  97205750.48208      1145.748 8        48.112    24770742.605 8  99741547.47808      1175.584 8        49.245
S45        17.000    63341956.026 6 332864961.56906      -462.182 6        37.032
G03        18.000    20649731.861 7 108515128.46707      1400.071 7        47.749                                    20649730.187 8  84557261.82008      1090.964 8        49.000    20649730.944 7  84557270.81507      1090.980 7        44.939
R21        19.000    21400083.116 8 114516203.70608      3130.839 8        48.937                                                                    21400082.368 7  89068167.36107      2435.051 7        43.429
R20        20.000    19098327.211 6 102127388.86106      -422.325 6        40.143                                                                    19098329.181 7  79432413.35607      -328.583 7        47.172
R05        21.000    19012865.169 8 101634704.38508      -206.487 8        52.190                                                                    19012863.874 7  79049220.45807      -160.561 7        47.386
I06        22.000    38198899.526 7 149900915.35607      -208.608 7        43.062
S28        23.000    40817537.563 5 214497610.40505      -412.062 5        34.005
E10        24.000    24487227.019 7 128681371.24407     -2055.379 7        46.640                                                                    24487226.048 8  96093299.52608     -1534.872 8        49.387    24487225.816 8  98600071.66508     -1574.909 8        50.382
S23        25.000    38092095.516 7 200175281.49807      -416.772 7        44.590
E06        26.000    24199938.278 7 127171589.99307      1527.122 7        47.562                                                                    24199938.100 8  94965796.00808      1140.365 8        48.975    24199937.893 8  97443163.24208      1170.107 8        50.048
E30        27.000    28393462.693 5 149208652.97505      -348.537 5        35.733                                                                    28393464.148 6 111422046.60706      -260.036 6        39.976    28393463.568 6 114328706.52406      -266.808 6        41.857
E12        28.000    26505208.775 6 139285955.46006     -2784.423 6        37.962                                                                    26505205.534 6 104012312.89106     -2079.224 6        41.809    26505205.913 7 106725665.29807     -2133.557 7        43.378
E19        30.000    26004510.498 6 136654638.06606     -2752.964 6        36.771                                                                    26004509.886 6 102047292.66706     -2055.807 6        39.492    26004509.304 6 104709393.38806     -2109.416 6        39.931
G32        31.000    23051618.627 7 121137089.24707     -3019.067 7        44.442                                    23051616.232 6  94392533.81306     -2352.518 6        41.230    23051617.549 6  94392538.80806     -2352.448 6        40.284
G02        32.000    20613569.029 8 108325082.78608      -576.673 8        49.955                                    20613562.444 7  84409152.78007      -449.355 7        43.348
G19        33.000    24683008.765 6 129710091.29206      3097.394 6        37.981                                    24683004.690 3 101072812.73103      2413.553 3        21.762
G17        34.000    22794562.630 7 119786288.53907      1498.059 7        44.712                                    22794558.190 6  93339975.49506      1167.318 6        40.610    22794558.944 6  93339975.49306      1167.340 6        40.226
E11        35.000    23220599.161 7 122025144.24407      -769.153 7        43.985                                                                    23220594.798 7  91122692.16107      -574.355 7        47.089    23220594.668 8  93499798.23508      -589.311 8        48.069
C32        36.000                                                                                                                                    22811141.370 8 118783626.93308     -2373.668 8        48.945                                                                    22811141.131 8  96521437.87808     -1928.860 8        49.934
C35        37.000                                                                                                                                    25290610.531 7 131694851.44807      2588.995 7        42.955                                                                    25290608.997 7 107012851.96707      2103.744 7        42.322
C29        39.000                                                                                                                                    21711846.163 8 113059286.35308      -126.060 8        50.671                                                                    21711843.635 8  91869926.37508      -102.532 8        49.110
G08        40.000    24147879.940 6 126898001.14206     -4112.530 6        38.982                                    24147879.377 5  98881579.79305     -3204.568 5        33.329    24147880.302 6  98881586.78506     -3204.529 6        38.297
S44        42.000    40490000.659 5 212776591.22805      -483.314 5        35.667
C09        43.000                                                                                                                                    39815487.511 6 207329706.65106      1100.832 6        39.610    39815485.053 7 160320469.76707       851.141 7        44.855    39815482.396 6 168472349.08106       894.490 6        39.399
C05        44.000                                                                                                                                    39058173.256 6 203386193.97706      -403.860 6        38.069    39058168.858 7 157271130.66807      -312.328 7        44.053    39058170.610 6 165268045.89706      -328.375 6        40.729
R06        45.000    22607947.101 6 120640365.85706      3516.094 6        36.284
R13        46.000    23879817.610 6 127516902.91406       764.221 6        37.815
C39        47.000                                                                                                                                    39015550.086 7 203164217.20207       221.591 7        42.832                                                                    39015546.035 7 165087557.31807       179.998 7        43.103
C20        48.000                                                                                                                                    22075052.379 8 114950637.15408       869.843 8        52.026                                                                    22075046.808 8  93406800.32208       706.736 8        49.287
C06        49.000                                                                                                                                    38913936.571 6 202635101.83406       756.602 6        38.907    38913931.909 7 156690296.73707       584.997 7        43.534    38913931.798 6 164657597.04006       614.757 6        40.574
C16        50.000                                                                                                                                    39240152.179 6 204333785.20606       633.726 6        40.913    39240152.340 7 158003852.24907       490.012 7        42.205    39240150.051 6 166037935.93706       515.064 6        38.532
S48        51.000    77127330.221 6 405307463.32806      -426.924 6        36.870
C19        52.000                                                                                                                                    25436734.280 7 132455792.94907      2667.404 7        42.809                                                                    25436731.712 7 107631180.26307      2167.482 7        43.664
R04        53.000    20918258.272 8 112016353.85208     -3747.864 8        49.168                                                                    20918257.385 7  87123838.51507     -2914.958 7        44.698
C60        54.000                                                                                                                                    40490003.332 6 210842278.04506      -479.302 6        38.495                                                                    40489987.776 6 171326591.58106      -389.214 6        40.105
C30        55.000                                                                                                                                    23287303.721 7 121263094.40607     -3195.687 7        47.829                                                                    23287304.013 7  98536195.22807     -2596.814 7        46.931
R19        56.000    22426358.150 6 119965939.44506     -4293.038 6        36.594                                                                    22426359.692 6  93306879.62006     -3338.915 6        39.249
C02        57.000                                                                                                                                    40471332.523 5 210744902.37505      -447.761 5        32.838    40471327.101 6 162961320.74506      -345.994 6        40.787    40471330.088 6 171247499.39306      -363.731 6        36.008
I03        58.000   133986596.290 6 450006940.18706       987.143 6        40.856
C13        59.000                                                                                                                                    40927706.302 6 213121374.68906     -1122.559 6        36.178    40927709.235 6 164799006.99206      -867.936 6        38.312    40927707.535 6 173178604.04306      -912.097 6        36.567
> 2025 01 01 00 15 40.0000000  0 54
G28         1.000    23759895.235 6 124859097.95406      1582.298 6        41.213                                    23759891.388 4  97292783.20604      1232.952 4        26.084    23759891.640 6  97292789.21506      1232.885 6        40.594
G31         2.000    24328318.715 6 127846182.10006      2714.341 6        39.616                                    24328314.575 5  99620386.97705      2115.070 5        32.150    24328315.050 6  99620385.98206      2115.038 6        37.270
G14         3.000    24962317.577 5 131177903.26505     -2718.860 5        34.924                                    24962315.447 2 102216550.76702     -2118.586 2        15.571    24962315.440 5 102216552.78805     -2118.467 5        33.383
G10         4.000    25555946.358 6 134297459.92106     -3533.242 6        37.573                                    25555944.949 4 104647379.95304     -2753.178 4        25.654    25555944.189 5 104647378.95105     -2753.035 5        32.222
S21         5.000    38372956.144 6 201651121.64706      -419.895 6        41.681
R12         6.000    23948545.980 6 127928849.40606     -1806.084 6        41.886                                                                    23948547.691 6  99500230.86606     -1404.619 6        39.637
G21         7.000    21185440.259 7 111330302.39007     -1991.064 7        45.258                                    21185435.054 6  86750889.60106     -1551.479 6        36.699
E04         8.000    23736918.394 7 124738371.76807       124.617 7        47.264                                                                    23736916.570 8  93148789.12408        93.146 8        50.269    23736916.242 8  95578749.47308        95.566 8        51.123
G04        10.000    23937853.882 6 125794285.74306      3359.186 6        40.136                                    23937851.591 4  98021523.66704      2617.562 4        24.211    23937852.524 6  98021518.67106      2617.520 6        40.153
E09        11.000    25690623.610 7 135005175.58907      2417.416 7        43.881                                                                    25690623.420 7 100815567.16507      1805.279 7        46.307    25690623.130 7 103445538.08307      1852.404 7        47.809
S27        12.000    39026085.395 5 205083443.79305      -397.814 5        35.776
S36        14.000    38140692.265 7 200431200.02407      -419.426 7        43.454
E02        15.000    27672280.297 6 145418841.99806     -2409.692 6        37.263                                                                    27672279.850 6 108592010.46406     -1799.473 6        39.889    27672279.275 6 111424841.16406     -1846.434 6        40.534
E36        16.000    24769283.377 7 130163487.87407      1533.547 7        44.618                                                                    24769283.547 8  97200023.68808      1145.233 8        48.091    24769283.233 8  99735671.29008      1175.067 8        49.239
S45        17.000    63342349.869 6 332867272.53606      -461.930 6        37.093
G03        18.000    20648400.609 7 108508133.57307      1398.171 7        47.665                                    20648399.092 8  84551811.25408      1089.483 8        48.994    20648399.723 7  84551820.25307      1089.546 7        45.073
R21        19.000    21397158.741 8 114500554.18308      3129.211 8        48.695                                                                    21397157.745 7  89055995.49807      2433.895 7        43.393
R20        20.000    19098723.795 6 102129511.41606      -426.324 6        40.024                                                                    19098726.118 7  79434064.22507      -331.553 7        46.889
R05        21.000    19013060.566 8 101635747.20908      -210.352 8        52.226                                                                    19013059.031 7  79050031.55307      -163.625 7        47.383
I06        22.000    38199165.377 7 149901958.63207      -208.585 7        43.223
S28        23.000    40817930.024 5 214499671.32705      -412.067 5        33.868
E10        24.000    24489183.358 7 128691652.09307     -2056.664 7        46.403                                                                    24489182.404 8  96100976.77908     -1535.781 8        49.331    24489182.215 8  98607949.19308     -1575.848 8        50.379
S23        25.000    38092494.246 7 200177366.07407      -416.817 7        44.656
E06        26.000    24198486.340 7 127163959.84207      1525.257 7        47.286                                                                    24198486.136 8  94960098.17008      1138.965 8        48.938    24198485.986 8  97437316.75808      1168.713 8        50.027
E30        27.000    28393795.366 6 149210401.01006      -350.712 6        36.817                                                                    28393796.851 6 111423351.88606      -261.955 6        39.985    28393795.979 6 114330045.85906      -268.698 6        41.495
E12        28.000    26507858.966 6 139299880.42906     -2785.299 6        38.628                                                                    26507855.487 6 104022711.41806     -2079.908 6        41.661    26507855.619 7 106736335.09407     -2134.194 7        43.306
E19        30.000    26007130.962 6 136668406.87206     -2754.209 6        36.560                                                                    26007129.869 6 102057574.57006     -2056.782 6        39.532    26007129.504 6 104719943.50006     -2110.230 6        39.625
G32        31.000    23054492.069 7 121152190.34907     -3021.047 7        44.393                                    23054489.885 6  94404300.90106     -2354.057 6        41.251    23054491.318 6  94404305.89006     -2354.041 6        40.687
G02        32.000    20614119.114 8 108327972.44208      -578.910 8        50.048                                    20614112.328 7  84411404.46007      -451.097 7        43.465
G19        33.000    24680062.655 6 129694608.69706      3095.975 6        38.553                                    24680058.325 3 101060748.40003      2412.454 3        21.857
G17        34.000    22793138.421 7 119778805.04707      1495.611 7        44.766                                    22793134.103 6  93334144.21206      1165.409 6        40.737    22793134.245 6  93334144.20906      1165.430 6        40.129
E11        35.000    23221332.045 7 122028994.34107      -770.597 7        43.655                                                                    23221327.418 7  91125567.23907      -575.497 7        47.083    23221327.309 8  93502748.31408      -590.510 8        48.117
C32        36.000                                                                                                                                    22813421.367 8 118795499.65608     -2375.184 8        48.839                                                                    22813421.164 8  96531085.43708     -1930.094 8        49.686
C35        37.000                                                                                                                                    25288124.286 7 131681908.88407      2588.198 7        42.288                                                                    25288123.570 7 107002335.11307      2103.009 7        42.226
C29        39.000                                                                                                                                    21711968.576 8 113059924.21508      -128.764 8        50.628                                                                    21711966.153 8  91870444.69508      -104.719 8        48.944
G08        40.000    24151793.427 6 126918565.03206     -4112.827 6        39.132                                    24151792.851 5  98897603.58905     -3204.793 5        33.581    24151792.886 6  98897610.59506     -3205.027 6        38.375
S44        42.000    40490464.970 5 212779009.98705      -483.500 5        35.957
C09        43.000                                                                                                                                    39814430.880 6 207324205.40606      1100.084 6        39.498    39814428.488 7 160316215.85407       850.550 7        44.712    39814426.003 6 168467878.86706       893.873 6        39.480
C05        44.000                                                                                                                                    39058561.312 6 203388214.62106      -404.018 6        38.144    39058556.883 7 157272693.14407      -312.365 7        44.096    39058558.658 6 165269687.83706      -328.311 6        40.446
R06        45.000    22604652.479 6 120622788.79006      3514.833 6        36.529
R13        46.000    23879104.654 6 127513092.43606       760.172 6        37.724
C39        47.000                                                                                                                                    39015338.149 7 203163112.44007       220.698 7        42.849                                                                    39015333.812 7 165086659.61607       179.121 7        42.844
C20        48.000                                                                                                                                    22074218.717 8 114946294.17208       867.644 8        52.184                                                                    22074212.794 8  93403271.29308       704.937 8        48.991
C06        49.000                                                                                                                                    38913210.248 6 202631321.85206       755.615 6        38.949    38913206.117 7 156687373.81407       584.304 7        43.479    38913205.703 6 164654525.49906       613.901 6        40.198
C16        50.000                                                                                                                                    39239544.411 6 204330619.35306       632.790 6        40.851    39239544.501 7 158001404.20007       489.403 7        42.307    39239541.996 6 166035363.44406       513.924 6        38.261
S48        51.000    77127727.972 6 405309598.81206      -426.809 6        36.991
C19        52.000                                                                                                                                    25434174.672 6 132442458.88206      2666.460 6        41.897                                                                    25434170.882 7 107620345.24707      2166.695 7        43.409
R04        53.000    20921759.613 8 112035098.78908     -3749.816 8        49.492                                                                    20921757.744 7  87138417.90907     -2916.556 7        44.105
C60        54.000                                                                                                                                    40490463.891 6 210844674.80906      -479.262 6        38.529                                                                    40490447.982 6 171328539.18206      -389.631 6        40.031
C30        55.000                                                                                                                                    23290372.774 7 121279077.22607     -3197.213 7        47.967                                                                    23290373.406 7  98549182.58407     -2598.082 7        46.698
R19        56.000    22430373.281 6 119987409.46206     -4294.690 6        36.344                                                                    22430373.703 6  93323578.49706     -3340.254 6        39.739
C02        57.000                                                                                                                                    40471762.349 5                      -447.410 5        33.120    40471756.842 6 162963051.49706      -346.091 6        40.717    40471760.124 5 171249318.17905      -363.920 5        35.819
I03        58.000   133985338.636 6 450002004.77106       987.032 6        41.013
C13        59.000                                                                                                                                    40928784.404 6 213126987.27606     -1122.213 6        36.465    40928787.051 6 164803346.97606      -867.819 6        38.171    40928785.173 6 173183164.72506      -911.950 6        36.091
> 2025 01 01 00 15 45.0000000  0 54
G28         1.000    23758390.584 6 124851193.14906      1579.948 6        41.020                                    23758387.143 4  97286623.62204      1231.131 4        26.156    23758387.313 6  97286629.63306      1231.058 6        40.870
G31         2.000    24325736.883 6 127832613.86306      2713.462 6        39.264                                    24325732.629 5  99609814.32905      2114.389 5        32.623    24325733.205 6  99609813.34406      2114.434 6        37.890
G14         3.000    24964906.224 5 131191501.96105     -2720.398 5        35.157                                    24964903.184 2 102227147.15202     -2119.808 2        16.755    24964903.836 5 102227149.15105     -2119.581 5        35.724
G10         4.000    25559308.276 6 134315125.76906     -3533.081 6        37.837                                    25559306.424 4 104661145.55504     -2753.036 4        26.156    25559306.286 5 104661144.53705     -2752.822 5        32.467
S21         5.000    38373357.664 6 201653222.48706      -419.961 6        41.936
R12         6.000    23950238.040 7 127937890.31907     -1810.073 7        42.030                                                                    23950239.636 6  99507262.68106     -1407.664 6        39.420
G21         7.000    21187335.613 7 111340262.92607     -1992.826 7        45.102                                    21187330.521 6  86758651.05206     -1552.851 6        36.760
E04         8.000    23736801.107 7 124737754.97707       122.419 7        47.113                                                                    23736799.225 8  93148328.53808        91.433 8        50.312    23736798.886 8  95578276.87508        93.801 8        51.020
G04        10.000    23934657.697 6 125777491.71106      3358.704 6        39.817                                    23934656.009 4  98008437.42304      2617.170 4        24.496    23934656.765 6  98008432.43706      2617.160 6        40.255
E09        11.000    25688324.159 7 134993091.70107      2416.390 7        43.845                                                                    25688323.830 7 100806543.49307      1804.507 7        46.372    25688323.643 7 103436279.00907      1851.625 7        47.584
S27        12.000    39026463.895 5 205085434.16005      -397.918 5        35.686
S36        14.000    38141092.225 7 200433298.29907      -419.553 7        43.716
E02        15.000    27674573.514 6 145430894.69106     -2411.222 6        37.096                                                                    27674573.427 6 108601010.83206     -1800.527 6        39.919    27674572.544 6 111434076.33706     -1847.580 6        40.296
E36        16.000    24767824.611 7 130155823.01707      1532.832 7        44.623                                                                    24767824.993 8  97194299.93408      1144.592 8        48.161    24767824.696 8  99729798.22008      1174.445 8        49.161
S45        17.000    63342744.713 6 332869583.79706      -461.949 6        37.138
G03        18.000    20647071.745 7 108501148.45107      1396.236 7        47.968                                    20647069.880 8  84546368.30508      1087.978 8        49.161    20647070.272 7  84546377.30207      1088.046 7        45.359
R21        19.000    21394235.720 8 114484912.72508      3127.625 8        48.987                                                                    21394234.261 7  89043829.93207      2432.638 7        43.206
R20        20.000    19099124.890 6 102131652.94206      -430.045 6        39.778                                                                    19099126.781 7  79435729.85607      -334.380 7        47.390
R05        21.000    19013259.206 8 101636809.80708      -214.255 8        52.208                                                                    19013257.722 7  79050858.01207      -166.602 7        47.113
I06        22.000    38199431.182 7 149903002.13307      -208.462 7        43.103
S28        23.000    40818325.087 5 214501732.68305      -412.022 5        34.248
E10        24.000    24491140.972 7 128701939.53707     -2057.956 7        46.384                                                                    24491139.962 8  96108658.96308     -1536.793 8        49.421    24491139.848 8  98615831.78208     -1576.852 8        50.267
S23        25.000    38092889.327 7 200179450.77207      -416.773 7        44.853
E06        26.000    24197035.992 7 127156339.19707      1523.402 7        47.007                                                                    24197035.988 8  94954407.43008      1137.629 8        49.090    24197035.813 8  97431477.56908      1167.257 8        49.896
E30        27.000    28394129.923 6 149212161.22806      -353.156 6        36.533                                                                    28394131.729 6 111424666.28906      -263.690 6        40.639    28394130.975 6 114331394.54506      -270.504 6        41.807
E12        28.000    26510509.211 6 139313809.88206     -2786.168 6        38.625                                                                    26510506.287 7 104033113.28007     -2080.534 7        42.091    26510506.080 7 106747008.29907     -2134.798 7        43.073
E19        30.000    26009752.117 6 136682182.70906     -2755.905 6        36.329                                                                    26009751.332 6 102067861.71706     -2057.708 6        39.375    26009750.730 6 104730499.01606     -2111.369 6        39.526
G32        31.000    23057367.812 7 121167301.14207     -3022.942 7        43.992                                    23057365.482 6  94416075.54206     -2355.538 6        41.423    23057366.148 6  94416080.54006     -2355.513 6        41.132
G02        32.000    20614671.220 8 108330873.26208      -581.085 8        50.134                                    20614664.345 7  84413664.83907      -452.794 7        43.530
G19        33.000    24677117.092 6 129679132.75606      3094.700 6        38.598                                    24677113.171 3 101048689.25903      2411.447 3        22.381
G17        34.000    22791716.800 7 119771334.04907      1493.080 7        44.337                                    22791712.391 6  93328322.66206      1163.437 6        40.837    22791712.340 6  93328322.66906      1163.455 6        39.847
E11        35.000    23222065.987 7 122032852.13407      -772.046 7        43.754                                                                    23222061.507 7  91128448.05507      -576.540 7        47.113    23222061.420 7  93505704.27607      -591.512 7        47.870
C32        36.000                                                                                                                                    22815702.678 8 118807380.31208     -2376.740 8        49.179                                                                    22815702.713 8  96540739.42508     -1931.285 8        49.773
C35        37.000                                                                                                                                    25285639.631 7 131668971.12607      2587.219 7        42.694                                                                    25285639.091 7 106991822.10407      2102.356 7        42.483
C29        39.000                                                                                                                                    21712093.750 8 113060575.48008      -131.368 8        50.837                                                                    21712091.246 8  91870973.88508      -106.766 8        48.957
G08        40.000    24155706.851 6 126939130.22806     -4112.941 6        39.213                                    24155706.483 5  98913628.40405     -3204.886 5        33.844    24155706.763 6  98913635.39506     -3204.773 6        38.474
S44        42.000    40490921.706 5 212781429.06805      -483.637 5        35.948
C09        43.000                                                                                                                                    39813374.645 6 207318707.59306      1099.363 6        39.829    39813372.634 7 160311964.58907       850.115 7        44.591    39813370.329 6 168463411.43806       893.311 6        39.411
C05        44.000                                                                                                                                    39058949.351 6 203390235.58106      -404.059 6        38.261    39058944.997 7 157274255.88307      -312.362 7        44.092    39058946.795 6 165271330.02106      -328.292 6        40.360
R06        45.000    22601359.296 6 120605219.32206      3513.362 6        37.119
R13        46.000    23878394.594 6 127509301.48406       756.398 6        37.036
C39        47.000                                                                                                                                    39015126.577 7 203162012.90007       219.526 7        43.118                                                                    39015122.693 7 165085766.12607       178.429 7        42.899
C20        48.000                                                                                                                                    22073386.634 8 114941962.08608       865.499 8        52.262                                                                    22073380.887 8  93399751.10508       703.323 8        49.072
C06        49.000                                                                                                                                    38912485.603 6 202627546.44506       754.632 6        38.994    38912481.153 7 156684454.42607       583.630 7        43.399    38912480.543 6 164651457.65506       613.268 6        40.303
C16        50.000                                                                                                                                    39238937.324 6 204327458.14106       631.897 6        40.832    39238937.092 7 157998959.76307       488.610 7        42.512    39238934.813 6 166032794.66906       513.457 6        38.480
S48        51.000    77128122.914 6 405311734.43806      -427.172 6        37.115
C19        52.000                                                                                                                                    25431616.083 7 132429129.21507      2665.642 7        43.124                                                                    25431611.030 7 107609513.78607      2166.082 7        43.427
R04        53.000    20925261.879 8 112053853.31408     -3751.702 8        49.310                                                                    20925260.454 7  87153004.76007     -2918.023 7        44.704
C60        54.000                                                                                                                                    40490924.347 6 210847071.88706      -479.177 6        38.751                                                                    40490908.291 6 171330486.96906      -389.378 6        39.838
C30        55.000                                                                                                                                    23293443.645 8 121295068.07208     -3198.724 8        48.081                                                                    23293444.321 7  98562176.43107     -2599.159 7        46.816
R19        56.000    22434389.562 6 120008887.75706     -4296.455 6        37.066                                                                    22434388.722 6  93340283.86306     -3341.627 6        40.472
C02        57.000                                                                                                                                    40472192.371 5 210749379.21915      -447.793 5        33.174    40472186.806 6 162964782.52906      -345.958 6        40.918    40472189.949 6 171251137.21106      -363.728 6        36.011
I03        58.000   133984080.682 6 449997069.75306       987.081 6        40.915
C13        59.000                                                                                                                                    40929862.962 6 213132599.44906     -1122.372 6        37.172    40929864.274 6 164807686.67206      -867.739 6        37.958    40929862.806 6 173187725.06106      -911.772 6        36.314
> 2025 01 01 00 15 50.0000000  0 54
G28         1.000    23756888.590 6 124843299.43806      1577.757 6        40.813                                    23756884.892 4  97280472.68304      1229.422 4        25.940    23756884.823 6  97280478.67806      1229.422 6        41.077
G31         2.000    24323155.700 6 127819049.75306      2712.616 6        39.510                                    24323151.528 5  99599244.88905      2113.732 5        32.862    24323151.871 6  99599243.89806      2113.572 6        38.264
G14         3.000    24967495.099 6 131205107.19206     -2721.595 6        36.405                                    24967492.186 2 102237748.64002     -2120.724 2        17.585    24967493.648 6 102237750.63206     -2120.510 6        36.129
G10         4.000    25562669.188 6 134332791.02706     -3532.956 6        37.248                                    25562667.966 4 104674910.69104     -2752.958 4        26.359    25562668.087 5 104674909.69405     -2752.951 5        32.413
S21         5.000    38373758.080 6 201655323.05506      -420.051 6        41.800
R12         6.000    23951933.932 7 127946949.76407     -1813.642 7        42.798                                                                    23951936.060 6  99514308.92406     -1410.502 6        39.595
G21         7.000    21189232.634 7 111350232.09107     -1994.582 7        45.014                                    21189227.580 6  86766419.22806     -1554.221 6        36.752
E04         8.000    23736685.858 7 124737149.58907       120.064 7        47.375                                                                    23736683.996 8  93147876.46808        89.628 8        50.330    23736683.675 8  95577813.00408        91.961 8        50.935
G04        10.000    23931462.140 6 125760700.23806      3358.206 6        39.796                                    23931460.744 4  97995353.17304      2616.779 4        24.271    23931460.781 6  97995348.17906      2616.650 6        40.100
E09        11.000    25686025.718 7 134981013.22607      2415.306 7        43.831                                                                    25686025.390 7 100797523.86607      1803.581 7        46.314    25686025.198 7 103427024.08307      1850.656 7        47.452
S27        12.000    39026845.423 5 205087424.59005      -398.162 5        35.562
S36        14.000    38141490.119 7 200435396.29107      -419.351 7        43.623
E02        15.000    27676868.518 6 145442954.38806     -2412.442 6        37.240                                                                    27676868.388 6 108610016.46606     -1801.523 6        40.119    27676867.349 6 111443316.89206     -1848.617 6        40.160
E36        16.000    24766366.781 7 130148161.75707      1531.958 7        44.719                                                                    24766367.065 8  97188578.86108      1144.017 8        48.240    24766366.778 8  99723927.89708      1173.845 8        49.014
S45        17.000    63343143.054 6 332871894.69606      -462.142 6        37.214
G03        18.000    20645744.333 7 108494172.60507      1394.365 7        47.766                                    20645742.430 8  84540932.58608      1086.518 8        49.139    20645742.753 7  84540941.58607      1086.513 7        44.802
R21        19.000    21391314.992 8 114469279.03008      3126.051 8        48.537                                                                    21391313.538 7  89031670.38307      2431.348 7        42.914
R20        20.000    19099528.715 6 102133812.95306      -433.799 6        40.284                                                                    19099530.826 7  79437409.87007      -337.337 7        47.523
R05        21.000    19013461.429 8 101637891.36608      -218.138 8        52.317                                                                    19013459.940 7  79051699.22107      -169.649 7        46.643
I06        22.000    38199696.919 7 149904045.48507      -208.551 7        43.200
S28        23.000    40818715.375 5 214503793.73405      -411.803 5        34.176
E10        24.000    24493099.745 7 128712233.10807     -2059.262 7        46.320                                                                    24493098.781 8  96116345.71608     -1537.728 8        49.442    24493098.684 8  98623719.05908     -1577.898 8        50.201
S23        25.000    38093286.774 7 200181535.17307      -416.691 7        44.652
E06        26.000    24195587.455 7 127148727.58607      1521.532 7        47.117                                                                    24195587.561 8  94948723.43908      1136.228 8        49.048    24195587.361 8  97425645.29508      1165.874 8        49.772
E30        27.000    28394467.287 6 149213933.09206      -355.497 6        36.620                                                                    28394468.877 6 111425989.44906      -265.437 6        39.324    28394468.104 6 114332752.24206      -272.544 6        40.379
E12        28.000    26513160.409 6 139327743.26006     -2786.996 6        38.733                                                                    26513157.676 7 104043518.07007     -2081.163 7        42.172    26513157.436 7 106757684.52507     -2135.532 7        42.825
E19        30.000    26012374.831 6 136695965.08206     -2757.033 6        36.590                                                                    26012373.850 6 102078153.74606     -2058.975 6        39.441    26012373.522 6 104741059.52406     -2112.527 6        39.562
G32        31.000    23060244.960 7 121182421.16507     -3024.752 7        44.098                                    23060242.882 6  94427857.37106     -2356.950 6        41.361    23060243.915 6  94427862.37106     -2356.945 6        41.032
G02        32.000    20615225.143 8 108333784.81008      -583.214 8        50.139                                    20615218.380 7  84415933.57807      -454.451 7        43.465
G19        33.000    24674173.555 6 129663662.99706      3093.484 6        37.887                                    24674169.104 3 101036634.91103      2410.496 3        22.267
G17        34.000    22790297.003 7 119763875.00307      1490.710 7        44.021                                    22790293.004 6  93322510.43106      1161.595 6        40.815    22790293.454 6  93322510.42906      1161.657 6        39.922
E11        35.000    23222801.506 7 122036717.16007      -773.614 7        43.721                                                                    23222797.156 7  91131334.27307      -577.651 7        47.169    23222796.997 7  93508665.79007      -592.723 7        47.810
C32        36.000                                                                                                                                    22817985.865 8 118819268.42308     -2378.265 8        49.054                                                                    22817985.668 8  96550399.48608     -1932.542 8        49.711
C35        37.000                                                                                                                                    25283156.466 7 131656037.70407      2586.381 7        43.117                                                                    25283155.210 7 106981312.65807      2101.504 7        42.466
C29        39.000                                                                                                                                    21712221.245 8 113061239.70408      -134.015 8        50.716                                                                    21712218.761 8  91871513.61708      -108.921 8        48.963
G08        40.000    24159620.420 6 126959696.28106     -4113.343 6        39.378                                    24159620.270 5  98929653.89005     -3205.204 5        34.071    24159620.617 6  98929660.88406     -3205.221 6        38.607
S44        42.000    40491383.491 6 212783847.97606      -483.515 6        36.159
C09        43.000                                                                                                                                    39812319.711 6 207313212.81406      1098.674 6        39.393    39812317.343 7 160307715.66307       849.717 7        44.354    39812315.129 6 168458946.46206       892.832 6        39.333
C05        44.000                                                                                                                                    39059337.622 6 203392256.40206      -404.061 6        38.024    39059333.045 7 157275818.51407      -312.455 7        44.069    39059334.788 6 165272972.10106      -328.291 6        40.474
R06        45.000    22598069.515 6 120587656.67106      3512.058 6        36.677
R13        46.000    23877687.830 6 127505529.51806       752.528 6        36.832
C39        47.000                                                                                                                                    39014916.196 7 203160918.07107       218.673 7        42.935                                                                    39014912.411 7 165084876.48407       177.586 7        42.910
C20        48.000                                                                                                                                    22072556.468 8 114937640.46508       863.412 8        52.052                                                                    22072550.944 8  93396239.43608       701.553 8        49.144
C06        49.000                                                                                                                                    38911761.594 6 202623775.12606       753.937 6        38.862    38911757.100 7 156681538.21107       583.093 7        43.335    38911756.303 6 164648393.15006       612.660 6        40.265
C16        50.000                                                                                                                                    39238330.669 6 204324301.11506       631.023 6        40.627    39238331.097 7 157996518.54607       488.034 7        42.555    39238328.740 6 166030229.33106       512.761 6        38.441
S48        51.000    77128522.820 6 405313869.94906      -427.073 6        37.009
C19        52.000                                                                                                                                    25429056.943 7 132415803.47207      2664.879 7        43.875                                                                    25429051.917 7 107598685.54707      2165.356 7        43.445
R04        53.000    20928765.818 8 112072617.04608     -3753.587 8        49.295                                                                    20928764.359 7  87167598.77507     -2919.451 7        45.225
C60        54.000                                                                                                                                    40491384.280 6 210849468.82006      -479.397 6        38.745                                                                    40491368.488 6 171332434.67706      -389.580 6        39.907
C30        55.000                                                                                                                                    23296516.088 7 121311066.47207     -3200.333 7        47.512                                                                    23296516.576 7  98575176.44507     -2600.602 7        46.730
R19        56.000    22438405.966 6 120030373.85406     -4297.937 6        36.972                                                                    22438406.029 6  93356995.25606     -3342.825 6        40.534
C02        57.000                                                                                                                                    40472621.526 5                      -447.736 5        33.371    40472616.458 6 162966513.49406      -346.118 6        40.846    40472619.945 5 171252956.17405      -363.805 5        35.924
I03        58.000   133982823.585 6 449992134.76906       986.902 6        40.918
C13        59.000                                                                                                                                    40930940.227 6 213138210.85006     -1122.266 6        37.093    40930942.278 6 164812025.75706      -867.643 6        38.231    40930940.258 6 173192284.77206      -911.719 6        36.106
> 2025 01 01 00 15 55.0000000  0 54
G28         1.000    23755388.319 6 124835417.01606      1575.202 6        40.489                                    23755384.998 4  97274330.53504      1227.432 4        26.072    23755385.370 6  97274336.53706      1227.546 6        40.868
G31         2.000    24320575.396 6 127805489.95406      2711.396 6        39.366                                    24320571.299 5  99588678.81305      2112.779 5        32.946    24320571.548 6  99588677.80706      2112.936 6        37.955
G14         3.000    24970084.953 6 131218719.11806     -2723.129 6        36.193                                    24970082.512 2 102248355.31502     -2121.898 2        17.057    24970082.903 5 102248357.32605     -2121.879 5        35.081
G10         4.000    25566031.540 5 134350455.88005     -3533.201 5        35.967                                    25566029.410 4 104688675.52104     -2753.145 4        25.744    25566029.322 5 104688674.50805     -2752.399 5        31.849
S21         5.000    38374155.500 6 201657423.39806      -420.039 6        41.809
R12         6.000    23953633.586 7 127956027.52807     -1817.540 7        43.206                                                                    23953635.389 6  99521369.39606     -1413.734 6        39.048
G21         7.000    21191131.685 7 111360210.03107     -1996.580 7        44.770                                    21191126.316 6  86774194.24706     -1555.777 6        36.771
E04         8.000    23736572.802 7 124736555.77407       117.463 7        47.191                                                                    23736570.999 8  93147433.03708        87.696 8        50.278    23736570.693 8  95577358.00908        89.992 8        50.776
G04        10.000    23928267.790 6 125743911.50606      3357.434 6        39.943                                    23928266.060 4  97982271.05304      2616.176 4        24.226    23928266.199 6  97982266.05606      2616.211 6        39.607
E09        11.000    25683728.121 7 134968940.34307      2413.896 7        43.621                                                                    25683728.024 7 100788508.39907      1802.652 7        46.371    25683727.733 7 103417773.44007      1849.594 7        47.248
S27        12.000    39027222.291 5 205089414.76105      -397.998 5        35.829
S36        14.000    38141888.898 7 200437494.86107      -419.796 7        43.500
E02        15.000    27679165.003 6 145455021.31606     -2414.245 6        36.873                                                                    27679164.714 6 108619027.46906     -1802.866 6        40.086    27679163.668 6 111452562.96906     -1849.861 6        40.060
E36        16.000    24764909.627 7 130140504.25607      1530.964 7        44.579                                                                    24764909.897 8  97182860.59608      1143.316 8        48.202    24764909.639 8  99718060.46408      1173.157 8        48.902
S45        17.000    63343537.715 6 332872605.56916      -462.434 6        37.157
G03        18.000    20644418.431 7 108487206.25607      1392.228 7        47.635                                    20644416.786 8  84535504.26008      1084.852 8        49.173    20644417.008 7  84535513.26407      1084.857 7        44.430
R21        19.000    21388394.146 8 114453653.08808      3124.330 8        48.920                                                                    21388393.004 7  89019516.87807      2430.146 7        43.204
R20        20.000    19099937.431 6 102135991.56506      -437.694 6        40.539                                                                    19099938.261 7  79439104.34307      -340.423 7        46.942
R05        21.000    19013667.487 8 101638992.20108      -222.179 8        52.311                                                                    19013666.010 7  79052555.42907      -172.817 7        46.756
I06        22.000    38199963.098 7 149905088.84407      -208.705 7        43.238
S28        23.000    40819106.499 5 214505854.80805      -412.383 5        33.784
E10        24.000    24495059.680 7 128722532.98207     -2060.692 7        46.024                                                                    24495058.883 8  96124037.17708     -1538.820 8        49.335    24495058.679 8  98631611.16808     -1578.986 8        50.026
S23        25.000    38093682.683 7 200183619.55007      -416.956 7        44.766
E06        26.000    24194140.991 7 127141125.20307      1519.472 7        47.151                                                                    24194140.858 8  94943046.33708      1134.633 8        48.979    24194140.619 8  97419820.09308      1164.281 8        49.639
E30        27.000    28394806.434 6 149215716.73006      -358.169 6        36.488                                                                    28394808.243 6 111427321.39006      -267.287 6        40.181    28394807.512 6 114334118.92106      -274.234 6        40.984
E12        28.000    26515812.896 6 139341680.77206     -2787.943 6        38.529                                                                    26515809.953 7 104053925.95607     -2082.015 7        42.254    26515809.883 7 106768363.91507     -2136.241 7        42.658
E19        30.000    26014999.224 6 136709754.07106     -2758.775 6        36.174                                                                    26014997.762 6 102088450.71406     -2060.050 6        39.057    26014997.601 6 104751625.12906     -2113.964 6        39.162
G32        31.000    23063124.041 7 121197550.57607     -3026.908 7        44.835                                    23063121.972 6  94439646.51306     -2358.627 6        41.433    23063122.610 6  94439651.50906     -2358.587 6        40.577
G02        32.000    20615781.251 8 108336707.25308      -585.663 8        50.216                                    20615774.506 7  84418210.80007      -456.359 7        43.482
G19        33.000    24671231.079 6 129648199.59106      3091.774 6        37.456                                    24671226.302 3 101024585.52003      2409.169 3        22.590
G17        34.000    22788880.381 7 119756428.13707      1488.077 7        44.415                                    22788875.920 6  93316707.67806      1159.539 6        40.865    22788876.862 6  93316707.67606      1159.474 6        39.937
E11        35.000    23223538.381 7 122040589.58607      -775.268 7        43.702                                                                    23223534.033 7  91134226.01907      -578.908 7        47.051    23223533.780 7  93511632.97907      -594.070 7        47.671
C32        36.000                                                                                                                                    22820270.128 8 118831164.17008     -2379.990 8        48.984                                                                    22820270.153 8  96560065.73108     -1933.786 8        49.574
C35        37.000                                                                                                                                    25280673.100 7 131643108.82407      2585.282 7        42.307                                                                    25280672.374 7 106970806.85607      2100.987 7        42.227
C29        39.000                                                                                                                                    21712351.322 8 113061917.03808      -136.852 8        50.743                                                                    21712348.822 8  91872063.98808      -111.084 8        48.821
G08        40.000    24163534.160 6 126980263.31806     -4113.520 6        39.610                                    24163534.125 5  98945680.14205     -3205.336 5        34.162    24163534.176 6  98945687.15306     -3205.583 6        38.504
S44        42.000    40491844.090 6 212786266.91406      -483.884 6        36.019
C09        43.000                                                                                                                                    39811265.515 6 207307721.18806      1097.818 6        39.703    39811262.772 7 160303469.20407       849.017 7        44.167    39811260.575 6 168454484.04106       892.440 6        39.637
C05        44.000                                                                                                                                    39059725.392 6 203394277.29606      -404.223 6        38.042    39059721.038 7 157277381.19607      -312.619 7        43.915    39059722.849 6 165274614.23006      -328.451 6        40.336
R06        45.000    22594779.312 6 120570101.22606      3510.225 6        37.093
R13        46.000    23876985.264 6 127501776.92106       748.636 6        36.121
C39        47.000                                                                                                                                    39014707.068 7 203159828.17207       217.340 7        42.931                                                                    39014703.164 7 165083990.82507       176.843 7        42.730
C20        48.000                                                                                                                                    22071728.563 8 114933329.46408       861.097 8        52.026                                                                    22071723.061 8  93392736.37908       699.863 8        49.009
C06        49.000                                                                                                                                    38911038.467 6 202620008.09506       752.860 6        38.874    38911033.629 7 156678625.30307       582.160 7        43.137    38911032.942 6 164645332.10706       612.038 6        40.112
C16        50.000                                                                                                                                    39237725.358 6 204321148.46306       629.851 6        40.625    39237725.648 7 157994080.71107       487.134 7        42.794    39237723.280 6 166027667.52906       512.074 6        38.330
S48        51.000    77128920.048 6 405316005.25206      -427.340 6        36.945
C19        52.000                                                                                                                                    25426497.577 7 132402481.87107      2663.811 7        42.974                                                                    25426493.608 7 107587860.63507      2164.726 7        43.245
R04        53.000    20932271.455 8 112091390.14608     -3755.629 8        49.216                                                                    20932270.187 7  87182200.07907     -2921.099 7        45.415
C60        54.000                                                                                                                                    40491844.491 6 210851865.74506      -479.170 6        38.571                                                                    40491828.981 6 171334382.36706      -389.547 6        39.859
C30        55.000                                                                                                                                    23299589.574 7 121327072.56907     -3202.078 7        47.918                                                                    23299590.378 7  98588182.68507     -2601.750 7        46.636
R19        56.000    22442423.286 6 120051867.91506     -4299.764 6        36.189                                                                    22442423.767 6  93373712.85206     -3344.308 6        40.391
C02        57.000                                                                                                                                    40473051.719 5 210753856.30715      -447.711 5        33.587    40473046.655 6 162968244.52006      -346.374 6        40.687    40473049.740 5 171254775.19305      -363.916 5        35.552
I03        58.000   133981566.294 6 449987199.97006       986.931 6        41.046
C13        59.000                                                                                                                                    40932017.346 6 213143821.64806     -1122.136 6        37.361    40932020.402 6 164816364.37706      -867.826 6        38.441    40932017.981 5 173196843.99505      -911.776 5        35.938
> 2025 01 01 00 16  0.0000000  0 54
G28         1.000    23753890.576 6 124827545.68806      1573.260 6        40.553                                    23753887.152 4  97268197.04204      1225.922 4        26.096    23753887.337 6  97268203.06006      1225.781 6        40.703
G31         2.000    24317996.060 6 127791934.26506      2710.697 6        39.051                                    24317991.812 5  99578115.94005      2112.231 5        33.132    24317991.585 6  99578114.95306      2112.221 6        38.003
G14         3.000    24972675.814 6 131232337.60706     -2724.492 6        36.011                                    24972674.166 2 102258967.12802     -2122.977 2        16.906    24972674.762 5 102258969.10505     -2122.701 5        34.486
G10         4.000    25569392.327 6 134368120.09006     -3532.929 6        36.042                                    25569390.854 4 104702439.84704     -2752.928 4        25.173    25569390.328 5 104702438.86505     -2753.094 5        31.200
S21         5.000    38374558.008 6 201659523.15906      -419.906 6        41.709
R12         6.000    23955336.812 7 127965123.73807     -1821.049 7        44.178                                                                    23955338.736 6  99528444.17406     -1416.417 6        40.105
G21         7.000    21193031.635 7 111370196.59507     -1998.169 7        45.082                                    21193026.693 6  86781975.98306     -1557.015 6        36.824
E04         8.000    23736461.792 7 124735973.37407       115.357 7        47.072                                                                    23736460.100 8  93146998.12908        86.154 8        50.228    23736459.847 8  95576911.75708        88.374 8        50.740
G04        10.000    23925073.333 6 125727125.33306      3356.970 6        39.616                                    23925071.882 4  97969190.93804      2615.820 4        24.346    23925072.091 6  97969185.94706      2615.796 6        39.658
E09        11.000    25681431.672 7 134956872.87007      2412.940 7        43.439                                                                    25681431.684 7 100779496.98407      1801.840 7        46.287    25681431.460 7 103408526.93807      1848.838 7        47.295
S27        12.000    39027601.583 5 205091404.59705      -398.302 5        35.519
S36        14.000    38142287.149 7 200439593.31407      -419.606 7        43.490
E02        15.000    27681462.440 6 145467095.22406     -2415.423 6        37.191                                                                    27681462.158 6 108628043.70706     -1803.832 6        39.904    27681461.405 6 111461814.40006     -1850.791 6        39.796
E36        16.000    24763453.003 7 130132850.35307      1530.411 7        44.632                                                                    24763453.431 8  97177145.02608      1142.852 8        48.092    24763453.126 8  99712195.78808      1172.652 8        48.862
S45        17.000    63343930.646 6 332874916.33306      -462.192 6        37.115
G03        18.000    20643094.614 7 108480249.20207      1390.526 7        47.643                                    20643092.899 8  84530083.18108      1083.525 8        49.187    20643093.549 7  84530092.18107      1083.571 7        44.536
R21        19.000    21385475.527 8 114438034.82808      3122.837 8        49.102                                                                    21385474.664 7  89007369.34107      2428.974 7        43.344
R20        20.000    19100347.703 6 102138188.63706      -441.300 6        40.322                                                                    19100348.736 7  79440813.17707      -343.226 7        46.977
R05        21.000    19013876.664 8 101640112.23108      -225.970 8        52.198                                                                    19013875.494 7  79053426.56107      -175.708 7        46.718
I06        22.000    38200228.675 7 149906132.06307      -208.701 7        43.173
S28        23.000    40819498.982 5 214507915.58505      -412.069 5        33.988
E10        24.000    24497020.573 7 128732838.97807     -2061.787 7        45.970                                                                    24497020.087 8  96131733.21408     -1539.651 8        49.334    24497019.871 8  98639507.96808     -1579.839 8        49.993
S23        25.000    38094078.998 7 200185703.76907      -416.903 7        44.832
E06        26.000    24192696.100 7 127133531.87307      1517.742 7        47.007                                                                    24192695.848 8  94937375.99408      1133.365 8        48.971    24192695.597 8  97414001.83008      1162.965 8        49.608
E30        27.000    28395148.484 6 149217512.07206      -360.421 6        36.321                                                                    28395149.894 6 111428662.10806      -269.027 6        40.734    28395149.180 6 114335494.59606      -275.953 6        41.292
E12        28.000    26518465.461 6 139355622.22006     -2788.703 6        38.586                                                                    26518462.906 7 104064336.76307     -2082.425 7        42.127    26518462.994 7 106779046.32207     -2136.837 7        42.531
E19        30.000    26017624.414 6 136723549.57506     -2759.792 6        36.034                                                                    26017623.072 6 102098752.56006     -2061.020 6        39.165    26017622.882 6 104762195.69506     -2114.628 6        39.228
G32        31.000    23066004.756 7 121212689.17107     -3028.716 7        44.652                                    23066002.748 6  94451442.81506     -2360.042 6        41.380    23066003.718 6  94451447.81406     -2359.998 6        40.412
G02        32.000    20616339.327 8 108339640.42208      -587.742 8        49.971                                    20616332.686 7  84420496.38907      -457.982 7        43.475
G19        33.000    24668290.096 6 129632742.42306      3090.953 6        38.048                                    24668284.587 3 101012540.98503      2408.552 3        22.267
G17        34.000    22787465.860 7 119748993.29207      1485.756 7        44.456                                    22787461.125 6  93310914.29606      1157.731 6        40.884    22787462.133 6  93310914.30906      1157.647 6        40.491
E11        35.000    23224276.756 7 122044469.24307      -776.697 7        43.945                                                                    23224272.269 7  91137123.17207      -580.022 7        47.045    23224272.089 7  93514605.70307      -595.112 7        47.562
C32        36.000                                                                                                                                    22822556.129 8 118843067.34508     -2381.338 8        49.066                                                                    22822556.052 8  96569738.05308     -1935.164 8        49.808
C35        37.000                                                                                                                                    25278191.255 7 131630184.31307      2584.427 7        42.921                                                                    25278190.208 7 106960304.66507      2100.001 7        42.573
C29        39.000                                                                                                                                    21712484.119 8 113062607.32008      -139.362 8        50.817                                                                    21712481.419 8  91872624.91108      -113.297 8        49.032
G08        40.000    24167448.092 6 127000831.18806     -4113.607 6        39.426                                    24167448.091 5  98961707.04305     -3205.408 5        34.176    24167448.448 6  98961714.04606     -3205.547 6        38.483
S44        42.000    40492304.243 6 212788685.68706      -483.621 6        36.004
C09        43.000                                                                                                                                    39810211.462 6 207302232.54506      1097.599 6        39.616    39810208.766 7 160299225.05007       848.586 7        43.911    39810206.691 6 168450024.10706       891.497 6        40.226
C05        44.000                                                                                                                                    39060113.314 6 203396298.06806      -404.296 6        38.219    39060109.041 7 157278943.77907      -312.545 7        43.907    39060111.080 6 165276256.27606      -328.467 6        40.467
R06        45.000    22591490.460 6 120552552.73706      3508.811 6        36.922
R13        46.000    23876285.286 6 127498043.44706       744.729 6        36.824
C39        47.000                                                                                                                                    39014498.745 7 203158742.99907       216.502 7        42.961                                                                    39014494.801 7 165083109.05107       175.969 7        42.927
C20        48.000                                                                                                                                    22070902.873 8 114929028.90408       859.079 8        52.083                                                                    22070897.195 8  93389241.83508       697.980 8        49.128
C06        49.000                                                                                                                                    38910315.342 6 202616245.16106       752.070 6        38.778    38910310.888 7 156675715.56307       581.599 7        43.046    38910310.258 6 164642274.43106       611.157 6        40.148
C16        50.000                                                                                                                                    39237120.756 6 204317999.96906       629.295 6        40.791    39237121.376 7 157991646.11907       486.510 7        43.037    39237118.661 6 166025109.13106       511.278 6        38.580
S48        51.000    77129318.483 6 405318140.11306      -427.048 6        36.983
C19        52.000                                                                                                                                    25423939.880 7 132389164.20807      2663.144 7        43.429                                                                    25423936.058 7 107577038.96307      2163.868 7        43.242
R04        53.000    20935778.285 8 112110172.47108     -3757.347 8        49.572                                                                    20935777.536 7  87196808.55707     -2922.336 7        45.821
C60        54.000                                                                                                                                    40492305.014 6 210854262.55206      -479.380 6        38.480                                                                    40492289.227 6 171336329.96106      -389.573 6        40.117
C30        55.000                                                                                                                                    23302665.178 8 121343086.19208     -3203.486 8        48.254                                                                    23302665.547 7  98601195.08607     -2603.168 7        46.684
R19        56.000    22446442.493 6 120073369.74506     -4301.169 6        36.253                                                                    22446443.066 6  93390436.49306     -3345.288 6        40.577
C02        57.000                                                                                                                                    40473481.969 5 210756094.78705      -447.624 5        33.467    40473476.606 6 162969975.44806      -346.255 6        40.660    40473479.583 6 171256594.16006      -364.086 6        36.019
I03        58.000   133980308.343 6 449982265.22306       986.803 6        40.982
C13        59.000                                                                                                                                    40933095.567 6 213149431.58006     -1122.028 6        37.758    40933097.506 6 164820702.32706      -867.656 6        38.378    40933095.343 6 173201402.52306      -911.898 6        36.045
> 2025 01 01 00 16  5.0000000  0 54
G28         1.000    23752395.136 6 124819686.32106      1570.627 6        40.124                                    23752391.654 4  97262072.86204      1223.864 4        25.639    23752391.913 6  97262078.88006      1223.714 6        40.300
G31         2.000    24315416.952 6 127778383.57406      2709.430 6        39.012                                    24315413.224 5  99567556.97305      2111.246 5        33.048    24315413.413 6  99567555.97206      2111.458 6        38.174
G14         3.000    24975269.906 6 131245963.37406     -2725.840 6        36.582                                    24975267.014 2 102269584.59702     -2124.055 2        16.792    24975266.541 5 102269586.60705     -2123.790 5        33.892
G10         4.000    25572754.255 6 134385784.49806     -3532.907 6        36.231                                    25572752.271 4 104716204.31704     -2752.917 4        25.203    25572752.661 5 104716203.30505     -2752.817 5        30.596
S21         5.000    38374956.971 6 201661623.50206      -420.171 6        41.769
R12         6.000    23957044.372 7 127974239.25507     -1825.002 7        44.674                                                                    23957044.526 6  99535534.01806     -1419.378 6        39.523
G21         7.000    21194934.263 7 111380192.54007     -2000.156 7        45.290                                    21194928.819 6  86789765.02706     -1558.562 6        36.764
E04         8.000    23736353.390 7 124735403.18807       112.746 7        47.271                                                                    23736351.618 8  93146572.34008        84.219 8        50.290    23736351.362 8  95576474.86108        86.390 8        50.728
G04        10.000    23921879.751 6 125710342.54006      3356.418 6        39.354                                    23921878.204 4  97956113.44404      2615.390 4        24.331    23921878.114 6  97956108.44306      2615.248 6        39.859
E09        11.000    25679136.381 7 134944811.62007      2411.675 7        43.609                                                                    25679136.501 7 100770490.21907      1800.836 7        46.286    25679136.335 7 103399285.21007      1847.825 7        47.260
S27        12.000    39027981.121 5 205093395.29405      -398.272 5        35.386
S36        14.000    38142687.861 7 200441692.12107      -419.915 7        43.380
E02        15.000    27683761.325 6 145479176.95706     -2417.108 6        37.800                                                                    27683761.467 6 108637065.77506     -1804.968 6        39.952    27683760.732 6 111471071.83706     -1852.082 6        39.991
E36        16.000    24761997.384 7 130125200.86407      1529.337 7        45.019                                                                    24761997.807 8  97171432.74708      1142.108 8        48.152    24761997.465 8  99706334.49708      1171.890 8        48.827
S45        17.000    63344325.633 6 332877227.70506      -462.510 6        36.854
G03        18.000    20641772.676 7 108473302.25407      1388.335 7        47.876                                    20641770.945 8  84524669.97808      1081.818 8        49.179    20641771.263 7  84524678.97707      1081.779 7        44.424
R21        19.000    21382558.899 8 114422425.09708      3121.047 8        48.630                                                                    21382557.046 7  88995228.45707      2427.504 7        43.486
R20        20.000    19100761.362 6 102140404.95006      -445.198 6        40.567                                                                    19100763.329 7  79442536.96207      -346.229 7        47.341
R05        21.000    19014090.069 8 101641252.08808      -230.027 8        52.084                                                                    19014088.902 7  79054313.12707      -178.937 7        46.809
I06        22.000    38200494.715 7 149907175.74807      -208.741 7        43.209
S28        23.000    40819893.460 5 214509977.09405      -412.422 5        33.976
E10        24.000    24498983.496 7 128743151.90507     -2063.290 7        46.598                                                                    24498982.600 8  96139434.42408     -1540.730 8        49.301    24498982.308 8  98647410.08308     -1580.949 8        49.898
S23        25.000    38094477.089 7 200187788.70607      -417.130 7        44.596
E06        26.000    24191252.964 7 127125948.39407      1515.715 7        47.406                                                                    24191252.718 8  94931713.01008      1131.837 8        48.973    24191252.516 8  97408191.11608      1161.359 8        49.542
E30        27.000    28395492.294 6 149219319.61406      -362.766 6        36.847                                                                    28395494.079 6 111430011.81806      -270.996 6        40.358    28395493.215 6 114336879.52406      -277.869 6        40.992
E12        28.000    26521119.423 6 139369568.41606     -2789.673 6        38.568                                                                    26521116.639 6 104074751.14106     -2083.190 6        41.909    26521117.006 7 106789732.37507     -2137.608 7        42.607
E19        30.000    26020251.172 6 136737352.35806     -2761.159 6        36.310                                                                    26020249.714 6 102109059.81306     -2061.948 6        38.913    26020249.613 6 104772771.85506     -2115.836 6        39.324
G32        31.000    23068887.323 7 121227837.76707     -3030.778 7        43.702                                    23068885.424 6  94463246.91006     -2361.644 6        41.402    23068885.964 6  94463251.91306     -2361.630 6        40.465
G02        32.000    20616899.867 8 108342585.13408      -590.166 8        49.718                                    20616893.060 7  84422790.97007      -459.870 7        43.467
G19        33.000    24665349.674 6 129617292.30006      3089.273 6        38.366                                    24665344.455 3 101000501.94203      2407.233 3        21.905
G17        34.000    22786052.909 7 119741571.29107      1483.136 7        44.706                                    22786048.759 6  93305130.92106      1155.693 6        40.887    22786048.932 6  93305130.92606      1155.647 6        40.215
E11        35.000    23225016.515 7 122048356.94607      -778.515 7        44.065                                                                    23225012.041 7  91140026.32207      -581.275 7        46.956    23225011.900 7  93517584.59207      -596.481 7        47.548
C32        36.000                                                                                                                                    22824843.746 8 118854978.75208     -2383.135 8        48.846                                                                    22824843.541 8  96579417.04708     -1936.444 8        49.661
C35        37.000                                                                                                                                    25275710.328 7 131617264.95307      2583.337 7        42.489                                                                    25275709.203 7 106949806.63607      2099.260 7        42.394
C29        39.000                                                                                                                                    21712619.200 8 113063311.35408      -142.208 8        50.589                                                                    21712616.576 8  91873197.00008      -115.519 8        48.891
G08        40.000    24171361.999 6 127021400.66906     -4114.066 6        39.252                                    24171362.322 5  98977735.19805     -3205.765 5        34.038    24171362.897 6  98977742.19406     -3205.830 6        38.438
S44        42.000    40492763.751 5 212791105.10905      -483.743 5        35.690
C09        43.000                                                                                                                                    39809157.958 6 207296747.70406      1096.583 6        39.270    39809155.454 7 160294983.81407       847.808 7        43.678    39809153.536 6 168445567.21606       891.239 6        40.193
C05        44.000                                                                                                                                    39060502.131 6 203398319.48806      -404.360 6        37.743    39060497.446 7 157280506.88407      -312.652 7        43.799    39060499.056 6 165277898.86206      -328.569 6        40.336
R06        45.000    22588203.736 6 120535011.95706      3507.199 6        36.548
R13        46.000    23875589.548 6 127494330.04306       740.668 6        37.890
C39        47.000                                                                                                                                    39014291.474 7 203157663.36607       215.283 7        42.800                                                                    39014287.450 7 165082231.77507       174.928 7        42.660
C20        48.000                                                                                                                                    22070079.326 8 114924739.59408       856.658 8        51.897                                                                    22070073.461 8  93385756.42308       696.196 8        49.006
C06        49.000                                                                                                                                    38909593.834 6 202612487.13806       750.913 6        38.781    38909589.171 7 156672809.62207       580.731 7        43.084    38909588.677 6 164639220.73206       610.376 6        40.079
C16        50.000                                                                                                                                    39236517.549 6 204314856.47006       628.124 6        40.682    39236517.561 7 157989215.35907       485.739 7        43.145    39236515.032 6 166022554.77706       510.442 6        38.306
S48        51.000    77129714.964 6 405320275.46806      -427.329 6        36.794
C19        52.000                                                                                                                                    25421383.340 7 132375851.30907      2662.055 7        43.520                                                                    25421379.441 7 107566221.14007      2163.130 7        43.173
R04        53.000    20939288.656 8 112128964.64608     -3759.485 8        49.675                                                                    20939286.695 7  87211424.67407     -2924.015 7        45.667
C60        54.000                                                                                                                                    40492765.404 6 210856659.96606      -479.448 6        38.450                                                                    40492749.634 6 171338278.08006      -389.681 6        39.844
C30        55.000                                                                                                                                    23305742.093 7 121359108.13907     -3205.296 7        47.803                                                                    23305742.324 7  98614214.23207     -2604.495 7        46.546
R19        56.000    22450463.257 6 120094880.20506     -4302.870 6        36.166                                                                    22450463.764 6  93407166.84206     -3346.826 6        40.260
C02        57.000                                                                                                                                    40473911.988 5 210758333.97605      -447.981 5        33.234    40473906.413 6 162971706.92306      -346.329 6        40.551    40473909.494 5 171258413.67805      -363.866 5        35.671
I03        58.000   133979051.008 6 449977331.09206       986.728 6        40.901
C13        59.000                                                                                                                                    40934172.399 6 213155041.46206     -1121.978 6        37.225    40934174.735 6 164825040.27706      -867.587 6        38.565    40934172.628 5 173205961.04705      -911.808 5        35.714
> 2025 01 01 00 16 10.0000000  0 54
G28         1.000    23750901.885 6 124811838.70806      1568.443 6        40.186                                    23750898.324 4  97255957.84604      1222.169 4        25.880    23750898.933 6  97255963.85306      1222.022 6        40.501
G31         2.000    24312839.359 6 127764837.66306      2708.692 6        39.054                                    24312835.549 5  99557001.72005      2110.668 5        33.240    24312835.840 6  99557000.73806      2110.760 6        38.243
G14         3.000    24977863.711 6 131259596.26406     -2727.319 6        36.359                                    24977861.262 2 102280207.64102     -2125.195 2        16.906    24977861.762 5 102280209.62105     -2125.131 5        35.190
G10         4.000    25576116.127 6 134403448.91106     -3532.975 6        36.900                                    25576113.764 4 104729968.80704     -2752.975 4        25.414    25576114.616 5 104729967.80305     -2752.827 5        32.323
S21         5.000    38375356.569 6 201663724.16006      -420.288 6        41.518
R12         6.000    23958753.116 7 127983373.79207     -1828.711 7        42.904                                                                    23958754.276 6  99542638.71706     -1422.422 6        40.377
G21         7.000    21196838.249 7 111390197.73507     -2002.042 7        44.913                                    21196832.742 6  86797561.28306     -1560.032 6        36.847
E04         8.000    23736247.152 7 124734845.01407       110.428 7        47.247                                                                    23736245.452 8  93146155.52308        82.461 8        50.287    23736245.240 8  95576047.17008        84.620 8        50.822
G04        10.000    23918686.649 6 125693562.96906      3355.543 6        39.000                                    23918685.327 4  97943038.46604      2614.701 4        24.271    23918685.309 6  97943033.48306      2614.714 6        40.448
E09        11.000    25676842.641 7 134932756.44007      2410.505 7        43.848                                                                    25676842.363 7 100761487.97907      1799.955 7        46.265    25676842.366 7 103390048.13007      1846.981 7        47.414
S27        12.000    39028360.154 5 205095386.24705      -398.192 5        35.662
S36        14.000    38143087.454 7 200443791.70607      -419.892 7        43.259
E02        15.000    27686061.713 6 145491266.30206     -2418.549 6        36.934                                                                    27686062.008 6 108646093.54506     -1806.122 6        40.024    27686061.228 6 111480335.10706     -1853.170 6        40.033
E36        16.000    24760542.512 7 130117555.62007      1528.512 7        45.011                                                                    24760542.919 8  97165723.63908      1141.513 8        48.222    24760542.661 8  99700476.45708      1171.203 8        48.903
S45        17.000    63344722.516 6 332879539.45006      -462.417 6        36.922
G03        18.000    20640452.631 8 108466365.23508      1386.380 8        48.012                                    20640450.882 8  84519264.51008      1080.299 8        49.277    20640451.620 7  84519273.50607      1080.250 7        44.752
R21        19.000    21379642.928 8 114406823.66008      3119.462 8        48.725                                                                    21379641.421 7  88983094.01307      2426.301 7        42.897
R20        20.000    19101179.590 6 102142640.23306      -448.927 6        40.613                                                                    19101181.352 7  79444275.52307      -349.195 7        47.412
R05        21.000    19014307.085 8 101642411.64308      -233.912 8        52.135                                                                    19014305.925 7  79055214.99507      -181.964 7        47.057
I06        22.000    38200761.031 7 149908219.77207      -208.837 7        43.230
S28        23.000    40820283.855 5 214512038.73605      -412.288 5        33.647
E10        24.000    24500947.369 7 128753471.58807     -2064.595 7        46.631                                                                    24500946.450 8  96147140.68108     -1541.758 8        49.343    24500946.090 8  98655317.37008     -1581.943 8        50.015
S23        25.000    38094874.307 7 200189874.24807      -417.164 7        44.474
E06        26.000    24189811.803 7 127118374.60207      1513.789 7        47.264                                                                    24189811.470 8  94926057.25808      1130.390 8        49.019    24189811.317 8  97402387.82208      1159.931 8        49.662
E30        27.000    28395838.223 6 149221139.44006      -365.057 6        36.200                                                                    28395840.334 6 111431370.71306      -272.639 6        40.031    28395839.479 6 114338273.89406      -279.828 6        40.522
E12        28.000    26523774.183 6 139383519.17906     -2790.648 6        38.159                                                                    26523771.331 6 104085168.90806     -2083.848 6        41.800    26523771.659 7 106800421.90707     -2138.251 7        42.675
E19        30.000    26022878.999 6 136751162.28406     -2762.632 6        36.514                                                                    26022877.687 6 102119372.42406     -2063.019 6        39.204    26022877.619 6 104783353.48206     -2116.808 6        39.351
G32        31.000    23071771.596 7 121242996.16407     -3032.714 7        43.801                                    23071770.081 6  94475058.63406     -2363.151 6        41.392    23071770.812 6  94475063.62606     -2363.090 6        41.242
G02        32.000    20617462.261 8 108345541.20208      -592.353 8        49.977                                    20617455.564 7  84425094.39607      -461.573 7        43.589
G19        33.000    24662411.015 6 129601849.04906      3087.786 6        38.387                                    24662405.682 3 100988468.26303      2406.070 3        21.762
G17        34.000    22784643.035 7 119734161.98107      1480.612 7        44.671                                    22784638.785 6  93299357.43006      1153.725 6        41.061    22784638.863 6  93299357.43206      1153.740 6        40.729
E11        35.000    23225757.883 7 122052252.53007      -779.891 7        43.886                                                                    23225753.373 7  91142935.36407      -582.467 7        47.042    23225753.198 7  93520569.51907      -597.632 7        47.602
C32        36.000                                                                                                                                    22827132.490 8 118866898.21408     -2384.678 8        48.890                                                                    22827132.523 8  96589102.58808     -1937.688 8        49.841
C35        37.000                                                                                                                                    25273229.682 7 131604350.57107      2582.324 7        42.061                                                                    25273229.217 7 106939312.62807      2098.379 7        42.402
C29        39.000                                                                                                                                    21712756.959 8 113064028.96408      -144.924 8        50.607                                                                    21712754.420 8  91873780.11808      -117.651 8        48.971
G08        40.000    24175276.097 6 127041971.56906     -4114.186 6        38.856                                    24175276.762 5  98993764.45805     -3205.854 5        33.575    24175276.877 6  98993771.47106     -3206.131 6        38.210
S44        42.000    40493226.622 5 212793525.00805      -483.926 5        35.552
C09        43.000                                                                                                                                    39808105.614 6 207291266.50506      1095.773 6        39.291    39808102.741 7 160290745.41007       847.371 7        43.371    39808100.846 6 168441113.30806       890.548 6        40.331
C05        44.000                                                                                                                                    39060889.941 6 203400341.40606      -404.266 6        37.811    39060885.659 7 157282070.36907      -312.794 7        43.729    39060887.492 6 165279541.84306      -328.457 6        40.501
R06        45.000    22584917.630 6 120517478.85606      3505.862 6        36.491
R13        46.000    23874898.458 6 127490636.33506       736.785 6        37.970
C39        47.000                                                                                                                                    39014085.014 7 203156589.09707       214.313 7        42.918                                                                    39014081.077 7 165081358.83707       174.351 7        42.838
C20        48.000                                                                                                                                    22069257.670 8 114920461.36208       854.545 8        51.935                                                                    22069251.857 8  93382280.01508       694.447 8        49.195
C06        49.000                                                                                                                                    38908872.840 6 202608733.82306       750.075 6        38.685    38908868.358 7 156669907.31707       580.149 7        43.035    38908867.736 6 164636170.84206       609.736 6        40.234
C16        50.000                                                                                                                                    39235914.565 6 204311717.78406       627.324 6        40.965    39235914.519 7 157986788.32807       485.161 7        43.086    39235912.262 6 166020004.34606       509.793 6        38.565
S48        51.000    77130116.909 6 405322411.26206      -427.120 6        36.616
C19        52.000                                                                                                                                    25418827.160 7 132362542.98607      2661.183 7        42.681                                                                    25418823.759 7 107555407.04407      2162.538 7        43.418
R04        53.000    20942799.530 8 112147766.61608     -3761.295 8        49.232                                                                    20942797.471 7  87226048.42807     -2925.453 7        44.909
C60        54.000                                                                                                                                    40493225.735 6 210859057.86506      -479.540 6        38.414                                                                    40493210.175 6 171340226.57206      -389.696 6        40.091
C30        55.000                                                                                                                                    23308820.352 7 121375138.23007     -3206.831 7        47.582                                                                    23308820.745 7  98627239.98907     -2605.640 7        46.671
R19        56.000    22454486.365 6 120116398.98706     -4304.742 6        36.318                                                                    22454486.782 6  93423903.69006     -3348.046 6        40.446
C02        57.000                                                                                                                                    40474342.122 5 210760573.68605      -447.773 5        33.257    40474336.378 6 162973438.81406      -346.374 6        40.455    40474339.669 5 171260233.64405      -363.779 5        35.814
I03        58.000   133977793.952 6 449972397.49306       986.618 6        41.135
C13        59.000                                                                                                                                    40935249.356 6 213160651.22806     -1122.020 6        37.456    40935252.022 6 164829378.07906      -867.470 6        38.309    40935250.098 5 173210519.42405      -911.634 5        35.895
> 2025 01 01 00 16 15.0000000  0 54
G28         1.000    23749410.880 6 124804002.75906      1566.071 6        41.371                                    23749407.159 4  97249851.91804      1220.315 4        26.024    23749407.440 6  97249857.93006      1220.349 6        40.930
G31         2.000    24310262.686 6 127751296.42606      2707.848 6        39.036                                    24310258.825 5  99546450.11905      2110.006 5        33.054    24310258.556 6  99546449.12406      2110.016 6        38.306
G14         3.000    24980458.573 6 131273236.15206     -2728.582 6        36.382                                    24980456.994 2 102290836.12502     -2126.177 2        17.094    24980458.086 5 102290838.11005     -2126.390 5        35.090
G10         4.000    25579477.494 6 134421113.21206     -3532.891 6        37.025                                    25579475.230 4 104743733.19304     -2752.900 4        26.084    25579475.845 5 104743732.19505     -2752.654 5        32.455
S21         5.000    38375755.522 6 201665825.17606      -420.201 6        41.764
R12         6.000    23960466.329 7 127992527.02707     -1832.607 7        43.117                                                                    23960467.389 6  99549757.92806     -1425.254 6        38.982
G21         7.000    21198743.433 7 111400211.99707     -2003.621 7        44.915                                    21198738.404 6  86805364.60506     -1561.261 6        36.801
E04         8.000    23736143.329 7 124734298.75507       108.095 7        47.326                                                                    23736141.490 8  93145747.60208        80.757 8        50.295    23736141.198 8  95575628.60708        82.828 8        50.951
G04        10.000    23915493.758 6 125676786.48406      3355.082 6        39.111                                    23915493.076 4  97929965.90304      2614.341 4        24.241    23915492.637 6  97929960.90306      2614.340 6        40.386
E09        11.000    25674549.970 7 134920707.18107      2409.239 7        44.084                                                                    25674549.544 7 100752490.15407      1799.235 7        46.335    25674549.356 7 103380815.58407      1846.152 7        47.710
S27        12.000    39028737.201 5 205097377.40805      -398.172 5        35.643
S36        14.000    38143487.856 7 200445891.31507      -419.922 7        43.240
E02        15.000    27688364.307 6 145503363.15706     -2420.044 6        37.777                                                                    27688364.091 6 108655126.88906     -1807.112 6        40.291    27688363.087 6 111489604.11406     -1854.432 6        40.193
E36        16.000    24759088.656 7 130109914.46807      1527.786 7        45.008                                                                    24759088.847 8  97160017.59208      1140.976 8        48.191    24759088.611 8  99694621.55608      1170.722 8        49.065
S45        17.000    63345117.450 6 332881851.35406      -462.296 6        36.987
G03        18.000    20639134.216 7 108459438.01407      1384.485 7        47.842                                    20639132.687 8  84513866.67908      1078.823 8        49.249    20639133.337 7  84513875.67907      1078.799 7        44.950
R21        19.000    21376729.053 8 114391230.44808      3117.859 8        49.109                                                                    21376728.556 7  88970965.94707      2425.040 7        43.875
R20        20.000    19101601.943 6 102144894.51706      -452.624 6        40.455                                                                    19101602.989 7  79446028.86107      -352.118 7        47.280
R05        21.000    19014527.629 8 101643590.95008      -237.773 8        52.176                                                                    19014526.349 7  79056132.23807      -184.875 7        47.091
I06        22.000    38201026.870 7 149909264.02407      -208.843 7        43.027
S28        23.000    40820677.080 5 214514100.85005      -412.307 5        33.796
E10        24.000    24502912.232 7 128763797.89107     -2065.885 7        46.497                                                                    24502911.452 8  96154851.88108     -1542.700 8        49.382    24502911.101 8  98663229.73208     -1582.961 8        50.198
S23        25.000    38095270.323 7 200191959.96407      -417.138 7        44.566
E06        26.000    24188372.235 7 127110810.37207      1511.938 7        47.454                                                                    24188372.036 8  94920408.64408      1129.048 8        49.076    24188371.880 8  97396591.85208      1158.541 8        49.843
E30        27.000    28396186.754 6 149222971.36606      -367.452 6        36.612                                                                    28396188.996 6 111432738.72006      -274.515 6        40.083    28396188.049 6 114339677.57106      -281.601 6        40.851
E12        28.000    26526429.912 6 139397474.37406     -2791.340 6        38.045                                                                    26526426.833 6 104095590.00706     -2084.548 6        41.723    26526427.256 7 106811114.85407     -2138.824 7        42.889
E19        30.000    26025508.332 6 136764979.18606     -2763.958 6        36.389                                                                    26025506.939 6 102129690.23706     -2064.028 6        38.964    26025506.508 6 104793940.46106     -2117.982 6        39.363
G32        31.000    23074658.467 7 121258164.22307     -3034.603 7        44.394                                    23074656.594 6  94486877.89206     -2364.625 6        41.383    23074657.395 6  94486882.89306     -2364.616 6        41.676
G02        32.000    20618027.023 8 108348508.51808      -594.564 8        49.788                                    20618020.231 7  84427406.58907      -463.297 7        43.488
G19        33.000    24659473.257 6 129586412.66206      3086.627 6        38.216                                    24659468.533 3 100976439.98303      2405.149 3        22.590
G17        34.000    22783235.697 7 119726765.24807      1478.169 7        44.695                                    22783231.239 6  93293593.73806      1151.821 6        40.894    22783231.835 6  93293593.75406      1151.734 6        40.381
E11        35.000    23226500.566 7 122056155.84107      -781.431 7        43.975                                                                    23226496.132 7  91145850.16607      -583.554 7        47.091    23226495.932 7  93523560.36307      -598.797 7        47.857
C32        36.000                                                                                                                                    22829423.121 8 118878825.57908     -2386.204 8        48.984                                                                    22829423.064 8  96598794.54208     -1938.993 8        49.950
C35        37.000                                                                                                                                    25270751.024 6 131591441.12406      2581.483 6        41.909                                                                    25270750.051 7 106928822.64507      2097.529 7        42.489
C29        39.000                                                                                                                                    21712897.294 8 113064760.00808      -147.480 8        50.570                                                                    21712894.808 8  91874374.14508      -119.877 8        49.131
G08        40.000    24179191.056 6 127062543.75206     -4114.489 6        38.589                                    24179191.395 5  99009794.71705     -3206.090 5        32.886    24179191.861 6  99009801.71806     -3206.062 6        37.592
S44        42.000    40493685.021 5 212795945.22905      -483.888 5        35.676
C09        43.000                                                                                                                                    39807053.170 6 207285788.77406      1095.226 6        39.012    39807050.869 7 160286509.67007       846.914 7        43.414    39807048.916 6 168436662.19306       889.943 6        40.482
C05        44.000                                                                                                                                    39061278.252 6 203402363.72106      -404.410 6        37.841    39061273.979 7 157283634.13107      -312.704 7        43.791    39061275.754 6 165281185.11606      -328.747 6        40.572
R06        45.000    22581632.040 6 120499953.29406      3504.448 6        36.616
R13        46.000    23874210.469 6 127486962.37506       732.809 6        37.917
C39        47.000                                                                                                                                    39013879.745 7 203155520.04607       213.201 7        42.878                                                                    39013875.750 7 165080490.14507       173.198 7        43.050
C20        48.000                                                                                                                                    22068438.097 8 114916194.06408       852.442 8        52.035                                                                    22068432.405 8  93378812.47408       692.589 8        49.287
C06        49.000                                                                                                                                    38908153.217 6 202604985.11606       749.243 6        38.766    38908148.227 7 156667008.57907       579.414 7        42.902    38908147.902 6 164633124.71306       608.912 6        40.236
C16        50.000                                                                                                                                    39235312.852 6 204308583.76706       626.414 6        40.970    39235312.752 7 157984364.91307       484.393 7        43.166    39235310.411 6 166017457.68906       509.029 6        38.658
S48        51.000    77130513.323 6 405324547.14006      -427.095 6        37.062
C19        52.000                                                                                                                                    25416272.708 7 132349239.11907      2660.361 7        43.001                                                                    25416268.964 7 107544596.55707      2161.698 7        43.653
R04        53.000    20946311.913 8 112166578.23308     -3763.190 8        49.408                                                                    20946310.647 7  87240679.69407     -2926.889 7        45.216
C60        54.000                                                                                                                                    40493686.375 6 210861456.10306      -479.728 6        38.652                                                                    40493670.627 6 171342175.32606      -389.909 6        40.238
C30        55.000                                                                                                                                    23311900.188 7 121391176.32107     -3208.357 7        47.554                                                                    23311900.797 7  98640272.24007     -2607.141 7        46.836
R19        56.000    22458512.001 6 120137926.00106     -4306.000 6        36.643                                                                    22458511.217 6  93440646.92506     -3349.452 6        39.787
C02        57.000                                                                                                                                    40474771.536 5 210762813.80905      -448.085 5        33.323    40474766.494 6 162975171.00206      -346.483 6        40.436    40474770.067 6 171262053.88406      -363.995 6        36.136
I03        58.000   133976536.775 6 449967464.30006       986.603 6        41.008
C13        59.000                                                                                                                                    40936327.536 6 213166260.61806     -1121.744 6        37.308    40936329.270 6 164833715.62406      -867.487 6        38.751    40936327.253 5 173215077.54405      -911.830 5        35.743
> 2025 01 01 00 16 20.0000000  0 54
G28         1.000    23747922.201 6 124796178.03906      1563.704 6        41.199                                    23747918.136 4  97243754.74004      1218.475 4        26.455    23747918.678 6  97243760.75106      1218.437 6        41.075
G31         2.000    24307686.684 6 127737759.45306      2706.775 6        39.141                                    24307682.880 5  99535901.83605      2109.173 5        33.006    24307682.979 6  99535900.83506      2109.231 6        38.135
G14         3.000    24983055.991 6 131286882.51506     -2729.817 6        37.093                                    24983053.929 2 102301469.65702     -2127.114 2        16.226    24983053.317 5 102301471.65105     -2127.282 5        34.100
G10         4.000    25582837.931 6 134438776.92706     -3532.944 6        36.907                                    25582836.531 4 104757497.12204     -2752.944 4        26.563    25582836.229 5 104757496.12805     -2753.077 5        33.054
S21         5.000    38376155.192 6 201667925.89706      -420.113 6        41.189
R12         6.000    23962183.178 7 128001698.70507     -1836.202 7        43.486                                                                    23962185.035 6  99556891.47906     -1428.243 6        39.682
G21         7.000    21200651.017 7 111410234.90107     -2005.462 7        44.959                                    21200645.730 6  86813174.65406     -1562.699 6        36.828
E04         8.000    23736041.502 7 124733763.93507       105.800 7        46.955                                                                    23736039.728 8  93145348.22608        78.932 8        50.368    23736039.357 8  95575218.81108        81.010 8        50.985
G04        10.000    23912302.071 6 125660012.68206      3354.382 6        39.474                                    23912301.156 4  97916895.42304      2613.806 4        24.120    23912300.638 6  97916890.41606      2613.850 6        40.007
E09        11.000    25672257.790 7 134908663.42807      2408.089 7        43.727                                                                    25672257.772 7 100743496.45007      1798.227 7        46.414    25672257.480 7 103371587.25807      1845.174 7        47.724
S27        12.000    39029119.614 5 205099368.90905      -398.209 5        35.319
S36        14.000    38143885.723 7 200447990.71507      -420.011 7        43.098
E02        15.000    27690667.375 6 145515467.01806     -2421.555 6        36.900                                                                    27690667.209 6 108664165.49506     -1808.369 6        40.048    27690666.317 6 111498878.50006     -1855.490 6        40.153
E36        16.000    24757635.224 7 130102277.00607      1527.074 7        44.707                                                                    24757635.463 8  97154314.29108      1140.331 8        48.268    24757635.229 8  99688769.46608      1170.134 8        49.113
S45        17.000    63345511.878 6 332884163.13206      -462.389 6        36.919
G03        18.000    20637817.833 7 108452520.17307      1382.526 7        47.687                                    20637816.269 8  84508476.15108      1077.293 8        49.236    20637816.877 7  84508485.15807      1077.327 7        45.117
R21        19.000    21373816.933 8 114375645.12708      3116.209 8        49.458                                                                    21373815.721 7  88958844.03107      2423.717 7        43.539
R20        20.000    19102026.666 6 102147167.44006      -456.573 6        40.276                                                                    19102027.745 7  79447796.67407      -355.049 7        46.836
R05        21.000    19014751.726 8 101644789.30508      -241.654 8        52.224                                                                    19014750.526 7  79057064.29607      -187.956 7        46.955
I06        22.000    38201292.971 7 149910308.20407      -208.941 7        43.026
S28        23.000    40821069.188 5 214516162.87605      -412.559 5        33.593
E10        24.000    24504878.325 7 128774130.38107     -2067.256 7        46.080                                                                    24504877.610 8  96162567.69008     -1543.704 8        49.398    24504877.292 8  98671146.82708     -1583.957 8        50.250
S23        25.000    38095666.482 7 200194045.42707      -417.194 7        44.448
E06        26.000    24186934.760 7 127103255.26807      1510.038 7        46.956                                                                    24186934.384 8  94914766.84508      1127.639 8        49.175    24186934.210 8  97390802.88008      1157.055 8        49.865
E30        27.000    28396537.960 6 149224815.12106      -369.929 6        36.442                                                                    28396539.799 6 111434115.60706      -276.239 6        41.302    28396539.067 6 114341090.38106      -283.407 6        41.969
E12        28.000    26529085.816 6 139411433.60806     -2792.394 6        37.781                                                                    26529083.335 6 104106014.09206     -2085.178 6        41.757    26529083.551 7 106821810.86907     -2139.515 7        42.965
E19        30.000    26028138.807 6 136778802.58806     -2765.378 6        36.174                                                                    26028137.323 6 102140012.90706     -2064.991 6        39.282    26028136.920 6 104804532.40606     -2118.946 6        39.559
G32        31.000    23077546.646 7 121273341.48707     -3036.434 7        44.454                                    23077544.815 6  94498704.32406     -2366.056 6        41.447    23077544.802 6  94498709.33406     -2366.141 6        40.934
G02        32.000    20618593.676 8 108351486.67308      -596.770 8        49.867                                    20618586.956 7  84429727.23107      -465.013 7        43.471
G19        33.000    24656536.622 6 129570982.43606      3085.439 6        37.308                                    24656532.609 3 100964416.47403      2404.235 3        22.476
G17        34.000    22781830.560 7 119719380.64407      1475.652 7        44.522                                    22781825.982 6  93287839.50406      1149.857 6        40.930    22781826.359 6  93287839.51006      1149.717 6        40.279
E11        35.000    23227244.716 7 122060066.44107      -782.966 7        43.488                                                                    23227240.280 7  91148770.41307      -584.634 7        47.059    23227240.125 7  93526556.78907      -599.859 7        47.890
C32        36.000                                                                                                                                    22831715.046 8 118890760.40408     -2387.725 8        49.021                                                                    22831715.025 8  96608492.56208     -1940.142 8        49.874
C35        37.000                                                                                                                                    25268273.231 7 131578536.19007      2580.478 7        42.430                                                                    25268271.781 7 106918336.33507      2096.995 7        42.476
C29        39.000                                                                                                                                    21713040.298 8 113065504.07908      -150.169 8        50.542                                                                    21713037.749 8  91874978.76008      -121.970 8        49.011
G08        40.000    24183105.675 6 127083116.76906     -4114.708 6        38.823                                    24183106.081 5  99025825.62205     -3206.265 5        32.389    24183106.396 6  99025832.63906     -3206.402 6        36.934
S44        42.000    40494144.552 5 212798365.37405      -484.116 5        35.362
C09        43.000                                                                                                                                    39806001.820 6 207280314.10906      1094.645 6        39.018    39805999.515 7 160282276.31007       846.557 7        43.452    39805997.614 6 168432213.58606       889.471 6        40.412
C05        44.000                                                                                                                                    39061666.800 6 203404385.94806      -404.590 6        37.958    39061662.331 7 157285197.83807      -312.762 7        43.666    39061664.307 6 165282828.33506      -328.630 6        40.448
R06        45.000    22578349.715 6 120482434.81706      3502.882 6        36.715
R13        46.000    23873525.520 6 127483307.33106       728.948 6        36.930
C39        47.000                                                                                                                                    39013675.326 7 203154455.78107       212.297 7        42.847                                                                    39013671.439 7 165079625.33907       172.573 7        42.995
C20        48.000                                                                                                                                    22067620.678 8 114911937.27408       850.249 8        51.971                                                                    22067614.911 8  93375353.47908       691.037 8        49.196
C06        49.000                                                                                                                                    38907434.063 6 202601240.57306       748.535 6        38.937    38907429.151 7 156664113.07307       578.738 7        43.041    38907428.707 6 164630081.97606       608.235 6        40.207
C16        50.000                                                                                                                                    39234711.953 6 204305454.01006       625.409 6        41.282    39234711.931 7 157981944.77307       483.633 7        43.253    39234709.575 6 166014914.51006       508.261 6        38.727
S48        51.000    77130907.836 6 405326682.70206      -427.101 6        36.684
C19        52.000                                                                                                                                    25413719.208 7 132335939.29007      2659.395 7        43.793                                                                    25413714.971 7 107533789.34807      2161.144 7        43.710
R04        53.000    20949826.654 8 112185398.87708     -3765.109 8        49.412                                                                    20949825.278 7  87255317.97007     -2928.464 7        45.458
C60        54.000                                                                                                                                    40494147.050 6 210863854.22806      -479.712 6        38.526                                                                    40494131.303 6 171344123.99106      -389.623 6        40.072
C30        55.000                                                                                                                                    23314981.804 7 121407221.96407     -3209.924 7        47.351                                                                    23314982.335 7  98653310.63207     -2608.300 7        46.748
R19        56.000    22462537.907 6 120159460.85506     -4307.925 6        37.142                                                                    22462536.947 6  93457396.22606     -3350.479 6        40.234
C02        57.000                                                                                                                                    40475202.525 5 210765053.78405      -447.814 5        33.144    40475196.830 6 162976903.12706      -346.438 6        40.417    40475199.870 6 171263874.08206      -364.186 6        36.155
I03        58.000   133975279.908 6 449962531.18906       986.620 6        40.927
C13        59.000                                                                                                                                    40937404.847 6 213171869.25906     -1121.704 6        36.904    40937406.198 6 164838052.56106      -867.369 6        39.084    40937404.197 5 173219634.97805      -911.237 5        35.938
> 2025 01 01 00 16 25.0000000  0 54
G28         1.000    23746434.729 6 124788364.75406      1561.630 6        40.410                                    23746431.209 4  97237666.46504      1216.852 4        26.611    23746431.678 6  97237672.46006      1216.882 6        40.706
G31         2.000    24305111.422 6 127724226.89006      2706.212 6        39.408                                    24305107.592 5  99525356.98305      2108.740 5        32.886    24305107.555 6  99525355.98206      2108.744 6        37.728
G14         3.000    24985653.751 5 131300535.62205     -2731.179 5        35.924                                    24985651.897 2 102312108.42602     -2128.202 2        16.226    24985651.703 5 102312110.43105     -2128.049 5        34.576
G10         4.000    25586199.410 6 134456440.25506     -3532.667 6        36.193                                    25586198.006 4 104771260.75404     -2752.731 4        25.759    25586198.215 5 104771259.77205     -2752.647 5        31.970
S21         5.000    38376557.843 6 201670026.86406      -420.127 6        41.714
R12         6.000    23963904.563 7 128010888.91007     -1839.746 7        43.846                                                                    23963905.337 6  99564039.44206     -1431.007 6        39.027
G21         7.000    21202559.968 7 111420266.62207     -2007.071 7        44.912                                    21202554.675 6  86820991.58106     -1563.952 6        36.801
E04         8.000    23735941.854 7 124733240.80307       103.623 7        47.166                                                                    23735940.200 8  93144957.57908        77.295 8        50.364    23735939.915 8  95574817.96708        79.329 8        50.911
G04        10.000    23909111.090 6 125643241.73106      3354.183 6        39.910                                    23909109.607 4  97903827.16004      2613.643 4        24.256    23909108.659 6  97903822.16106      2613.645 6        39.501
E09        11.000    25669966.939 7 134896625.36707      2407.211 7        43.577                                                                    25669967.073 7 100734506.99607      1797.575 7        46.409    25669966.678 7 103362363.29407      1844.461 7        47.641
S27        12.000    39029496.460 5 205101360.08405      -397.973 5        35.486
S36        14.000    38144285.151 7 200450089.10107      -419.590 7        43.323
E02        15.000    27692972.020 6 145527578.09906     -2422.545 6        36.760                                                                    27692971.802 6 108673209.48306     -1809.167 6        40.017    27692970.900 6 111508158.41206     -1856.471 6        40.010
E36        16.000    24756182.720 7 130094643.41007      1526.491 7        44.746                                                                    24756182.880 8  97148613.87808      1139.904 8        48.273    24756182.560 8  99682920.35408      1169.651 8        48.966
S45        17.000    63345908.225 6 332886474.80806      -462.184 6        36.975
G03        18.000    20636503.213 7 108445611.88007      1380.880 7        47.677                                    20636501.661 8  84503093.07108      1076.011 8        49.256    20636502.299 7  84503102.06907      1076.059 7        45.195
R21        19.000    21370906.021 8 114360067.71708      3114.751 8        49.379                                                                    21370904.058 7  88946728.27407      2422.605 7        43.052
R20        20.000    19102454.783 6 102149459.12206      -460.089 6        40.596                                                                    19102456.135 7  79449579.10207      -357.786 7        46.935
R05        21.000    19014979.618 8 101646007.02008      -245.335 8        52.241                                                                    19014978.188 7  79058011.40507      -190.786 7        46.959
I06        22.000    38201559.232 7 149911352.42807      -208.860 7        42.891
S28        23.000    40821459.914 5 214518224.75305      -412.147 5        33.904
E10        24.000    24506845.774 7 128784469.23007     -2068.278 7        46.031                                                                    24506845.005 8  96170288.26408     -1544.486 8        49.444    24506844.794 8  98679068.80708     -1584.795 8        50.138
S23        25.000    38096064.966 7 200196130.78907      -416.873 7        44.596
E06        26.000    24185498.668 7 127095709.48707      1508.382 7        46.930                                                                    24185498.440 8  94909132.01508      1126.391 8        49.174    24185498.242 8  97385021.05208      1155.782 8        49.738
E30        27.000    28396890.971 6 149226670.68006      -372.110 6        36.571                                                                    28396892.751 6 111435501.27006      -277.995 6        40.524    28396892.098 6 114342512.19306      -285.305 6        41.263
E12        28.000    26531743.089 6 139425396.97906     -2792.769 6        38.189                                                                    26531740.460 6 104116441.30106     -2085.692 6        41.738    26531740.867 7 106832510.08707     -2140.050 7        43.045
E19        30.000    26030770.544 6 136792632.63706     -2766.490 6        36.072                                                                    26030769.213 6 102150340.54306     -2065.958 6        39.282    26030768.753 6 104815129.45306     -2119.552 6        39.267
G32        31.000    23080436.500 7 121288528.15807     -3038.100 7        43.970                                    23080434.767 6  94510538.08906     -2367.348 6        41.416    23080434.967 6  94510543.09306     -2367.462 6        40.968
G02        32.000    20619162.475 8 108354475.80008      -598.784 8        50.131                                    20619155.782 7  84432056.41607      -466.586 7        43.484
G19        33.000    24653602.360 6 129555558.82406      3084.363 6        38.144                                    24653597.731 3 100952398.10303      2403.389 3        22.629
G17        34.000    22780427.380 7 119712008.39007      1473.367 7        44.433                                    22780423.091 6  93282094.88906      1148.076 6        40.937    22780423.780 6  93282094.89506      1148.015 6        40.200
E11        35.000    23227990.458 7 122063984.51707      -784.193 7        43.617                                                                    23227985.891 7  91151696.25007      -585.579 7        47.154    23227985.682 7  93529558.96107      -600.914 7        47.730
C32        36.000                                                                                                                                    22834008.345 8 118902702.89408     -2389.131 8        49.067                                                                    22834008.436 8  96618196.80208     -1941.370 8        49.866
C35        37.000                                                                                                                                    25265795.604 7 131565635.90407      2579.763 7        42.400                                                                    25265794.521 7 106907853.80807      2096.304 7        42.681
C29        39.000                                                                                                                                    21713185.677 8 113066261.36308      -152.652 8        50.591                                                                    21713183.137 8  91875594.10408      -124.021 8        49.078
G08        40.000    24187021.096 6 127103690.78206     -4114.762 6        39.087                                    24187020.844 5  99041857.31305     -3206.307 5        31.970    24187020.963 6  99041864.31106     -3206.259 6        36.423
S44        42.000    40494606.457 5 212800785.60005      -484.027 5        35.719
C09        43.000                                                                                                                                    39804951.035 6 207274842.68306      1094.232 6        38.955    39804948.857 7 160278045.48007       845.976 7        43.386    39804946.730 6 168427767.60206       889.066 6        40.462
C05        44.000                                                                                                                                    39062054.937 6 203406408.28106      -403.982 6        38.075    39062050.919 7 157286761.65407      -312.578 7        43.712    39062052.605 6 165284471.65306      -328.408 6        40.574
R06        45.000    22575068.946 6 120464923.58906      3501.532 6        36.628
R13        46.000    23872845.967 6 127479671.54106       725.373 6        37.130
C39        47.000                                                                                                                                    39013471.732 7 203153396.52207       211.509 7        42.637                                                                    39013468.083 7 165078764.59507       171.810 7        43.016
C20        48.000                                                                                                                                    22066805.215 8 114907691.18908       848.313 8        51.989                                                                    22066799.475 8  93371903.18708       689.352 8        49.249
C06        49.000                                                                                                                                    38906715.839 6 202597500.43506       747.578 6        38.787    38906711.005 7 156661220.94607       578.161 7        43.037    38906710.480 6 164627042.78406       607.557 6        40.160
C16        50.000                                                                                                                                    39234112.043 6 204302328.68306       624.763 6        41.185    39234111.442 7 157979528.08707       483.126 7        42.963    39234109.342 6 166012374.92406       507.612 6        38.649
S48        51.000    77131309.491 6 405328818.39506      -426.904 6        36.930
C19        52.000                                                                                                                                    25411165.150 7 132322643.66607      2658.801 7        43.208                                                                    25411161.712 7 107522985.57307      2160.484 7        43.674
R04        53.000    20953343.588 8 112204228.92408     -3766.802 8        50.015                                                                    20953341.558 7  87269963.56207     -2929.808 7        44.740
C60        54.000                                                                                                                                    40494607.565 6 210866252.45806      -479.451 6        38.751                                                                    40494591.781 6 171346072.73906      -389.694 6        40.055
C30        55.000                                                                                                                                    23318064.343 7 121423275.34907     -3211.301 7        47.375                                                                    23318065.168 7  98666355.31907     -2609.476 7        46.814
R19        56.000    22466564.154 6 120181003.73306     -4309.348 6        36.457                                                                    22466563.944 6  93474151.80306     -3351.771 6        40.226
C02        57.000                                                                                                                                    40475633.343 5 210767294.04405      -448.159 5        33.365    40475627.264 6 162978635.42006      -346.377 6        40.381    40475630.416 5 171265694.46905      -364.068 5        35.676
I03        58.000   133974022.459 6 449957598.30806       986.715 6        40.713
C13        59.000                                                                                                                                    40938481.331 6 213177477.30706     -1121.510 6        37.255    40938483.659 6 164842389.07006      -867.282 6        39.282    40938481.074 5 173224191.98105      -911.285 5        35.852
> 2025 01 01 00 16 30.0000000  0 54
G28         1.000    23744950.375 6 124780562.76106      1559.357 6        40.288                                    23744946.496 4  97231587.00004      1215.073 4        26.192    23744946.694 6  97231593.00306      1215.134 6        40.129
G31         2.000    24302537.295 6 127710698.69206      2705.165 6        39.444                                    24302533.096 5  99514815.54305      2107.919 5        32.419    24302533.479 6  99514814.52906      2107.955 6        37.108
G14         3.000    24988253.131 6 131314195.28706     -2732.469 6        36.026                                    24988251.220 2 102322752.31002     -2129.219 2        15.048    24988252.151 5 102322754.33605     -2129.220 5        34.605
G10         4.000    25589560.409 6 134474103.12006     -3532.539 6        36.113                                    25589559.343 4 104785024.02604     -2752.622 4        24.602    25589559.344 5 104785023.07005     -2752.576 5        32.048
S21         5.000    38376956.153 6 201672128.08806      -420.160 6        41.347
R12         6.000    23965627.324 7 128020097.52107     -1843.451 7        42.919                                                                    23965629.048 6  99571201.68706     -1433.733 6        39.577
G21         7.000    21204470.720 7 111430307.05107     -2008.800 7        44.962                                    21204465.318 6  86828815.28906     -1565.298 6        36.733
E04         8.000    23735844.568 7 124732729.17507       101.298 7        47.217                                                                    23735842.803 8  93144575.51308        75.741 8        50.241    23735842.554 8  95574425.94108        77.680 8        50.900
G04        10.000    23905920.278 6 125626473.54506      3353.571 6        39.940                                    23905918.568 4  97890761.05604      2613.182 4        24.105    23905918.041 6  97890756.05906      2613.001 6        39.303
E09        11.000    25667677.480 7 134884592.90407      2406.030 7        43.979                                                                    25667677.343 7 100725521.72107      1796.704 7        46.213    25667677.001 7 103353143.62107      1843.596 7        47.702
S27        12.000    39029876.821 5 205103351.31405      -398.119 5        35.186
S36        14.000    38144685.835 7 200452187.72307      -419.649 7        43.170
E02        15.000    27695277.957 6 145539696.27406     -2424.226 6        37.244                                                                    27695277.968 6 108682258.76306     -1810.265 6        40.052    27695277.001 6 111517443.77206     -1857.488 6        40.024
E36        16.000    24754730.816 7 130087013.57307      1525.649 7        44.903                                                                    24754730.966 8  97142916.27608      1139.339 8        48.147    24754730.654 8  99677074.11608      1169.037 8        49.014
S45        17.000    63346300.033 6 332887186.27516      -462.196 6        36.673
G03        18.000    20635190.497 7 108438713.05507      1378.833 7        47.808                                    20635188.846 8  84497717.36508      1074.414 8        49.159    20635189.198 7  84497726.36307      1074.411 7        44.755
R21        19.000    21367995.859 8 114344498.31608      3113.165 8        49.095                                                                    21367994.625 7  88934618.76207      2421.302 7        43.636
R20        20.000    19102886.491 6 102151769.44906      -463.834 6        40.291                                                                    19102888.404 7  79451376.01407      -360.750 7        46.961
R05        21.000    19015211.185 8 101647244.02008      -249.189 8        52.237                                                                    19015209.577 7  79058973.50807      -193.844 7        46.895
I06        22.000    38201825.134 7 149912396.61307      -208.709 7        43.065
S28        23.000    40821851.865 5 214520286.36505      -412.052 5        33.335
E10        24.000    24508814.588 7 128794814.34807     -2069.546 7        46.305                                                                    24508813.624 8  96178013.50608     -1545.404 8        49.276    24508813.457 8  98686995.57408     -1585.702 8        50.084
S23        25.000    38096461.657 7 200198215.84907      -416.931 7        44.543
E06        26.000    24184064.467 7 127088172.92207      1506.444 7        47.292                                                                    24184064.302 8  94903504.06108      1125.032 8        48.990    24184064.109 8  97379246.28408      1154.316 8        49.757
E30        27.000    28397246.475 6 149228537.93706      -374.543 6        36.488                                                                    28397248.189 6 111436895.68706      -279.659 6        39.955    28397247.504 6 114343942.96906      -286.835 6        40.698
E12        28.000    26534401.371 6 139439364.45106     -2793.884 6        38.300                                                                    26534398.519 6 104126871.53306     -2086.290 6        41.905    26534398.805 7 106843212.42607     -2140.685 7        43.033
E19        30.000    26033403.522 6 136806469.28706     -2767.881 6        36.401                                                                    26033402.309 6 102160673.11306     -2066.957 6        38.916    26033401.892 6 104825731.57006     -2120.751 6        39.303
G32        31.000    23083327.724 7 121303724.09507     -3040.028 7        44.066                                    23083326.458 6  94522379.07406     -2368.850 6        41.216    23083326.825 6  94522384.05506     -2368.795 6        41.237
G02        32.000    20619733.419 8 108357475.79708      -600.986 8        50.014                                    20619726.634 7  84434394.07807      -468.300 7        43.363
G19        33.000    24650668.153 6 129540141.65806      3082.939 6        38.724                                    24650663.966 3 100940384.76203      2402.287 3        22.971
G17        34.000    22779027.125 7 119704648.40407      1470.979 7        44.220                                    22779022.507 6  93276359.83806      1146.215 6        40.853    22779023.040 6  93276359.85306      1146.076 6        39.784
E11        35.000    23228737.369 7 122067909.98907      -785.720 7        43.962                                                                    23228732.896 7  91154627.60707      -586.650 7        47.124    23228732.662 7  93532566.78007      -601.904 7        47.761
C32        36.000                                                                                                                                    22836303.274 8 118914652.91808     -2390.656 8        48.906                                                                    22836303.352 8  96627907.17508     -1942.610 8        49.739
C35        37.000                                                                                                                                    25263319.211 7 131552740.17007      2578.708 7        42.349                                                                    25263317.987 7 106897374.97707      2095.487 7        42.354
C29        39.000                                                                                                                                    21713333.549 8 113067031.73608      -155.298 8        50.591                                                                    21713331.094 8  91876220.10508      -126.265 8        48.992
G08        40.000    24190936.831 6 127124265.68106     -4115.011 6        39.351                                    24190935.678 5  99057889.70105     -3206.498 5        31.668    24190936.499 5  99057896.72405     -3206.573 5        35.462
S44        42.000    40495066.909 5 212803205.80005      -483.875 5        35.333
C09        43.000                                                                                                                                    39803901.507 6 207269374.46006      1093.383 6        38.889    39803898.590 7 160273817.09907       845.342 7        43.278    39803896.495 6 168423324.21706       888.592 6        40.200
C05        44.000                                                                                                                                    39062444.040 6 203408430.66206      -404.286 6        38.117    39062439.025 7 157288325.47707      -312.607 7        43.560    39062440.853 6 165286115.00906      -328.535 6        40.231
R06        45.000    22571788.701 6 120447419.50706      3500.211 6        36.571
R13        46.000    23872167.626 6 127476054.90806       721.505 6        36.771
C39        47.000                                                                                                                                    39013269.474 7 203152342.12607       210.543 7        42.455                                                                    39013265.637 7 165077907.82107       170.909 7        42.952
C20        48.000                                                                                                                                    22065992.005 8 114903455.67608       846.162 8        51.926                                                                    22065986.077 8  93368461.49308       687.578 8        49.069
C06        49.000                                                                                                                                    38905998.986 6 202593764.47906       746.979 6        38.718    38905993.580 7 156658332.08007       577.486 7        42.965    38905993.158 6 164624007.03906       606.800 6        40.124
C16        50.000                                                                                                                                    39233512.264 6 204299207.68506       623.894 6        41.235    39233512.456 7 157977114.71907       482.479 7        42.863    39233509.880 6 166009838.84906       507.027 6        38.462
S48        51.000    77131704.389 6 405330953.97906      -426.966 6        36.805
C19        52.000                                                                                                                                    25408612.909 7 132309352.14607      2658.063 7        43.007                                                                    25408609.064 7 107512185.13807      2159.780 7        43.581
R04        53.000    20956861.493 8 112223068.13408     -3768.639 8        49.552                                                                    20956859.549 7  87284616.27507     -2931.170 7        44.433
C60        54.000                                                                                                                                    40495067.797 6 210868650.64606      -479.551 6        38.571                                                                    40495052.300 6 171348021.47806      -389.629 6        40.181
C30        55.000                                                                                                                                    23321148.954 7 121439336.35607     -3212.911 7        47.482                                                                    23321149.441 7  98679406.20107     -2610.753 7        46.659
R19        56.000    22470591.455 5 120202554.43605     -4310.817 5        35.252                                                                    22470592.935 6  93490913.46606     -3352.924 6        39.988
C02        57.000                                                                                                                                    40476062.749 5 210769534.30605      -448.066 5        32.808    40476057.389 6 162980367.72006      -346.296 6        40.350    40476060.483 5 171267514.86505      -364.168 5        35.743
I03        58.000   133972765.514 6 449952665.58006       986.655 6        40.956
C13        59.000                                                                                                                                    40939557.824 6 213183084.70306     -1121.421 6        37.384    40939560.289 6 164846725.05006      -867.044 6        38.964    40939558.047 5 173228748.45205      -910.972 5        35.967
> 2025 01 01 00 16 35.0000000  0 54
G28         1.000    23743467.921 6 124772772.13906      1556.855 6        40.543                                    23743463.912 4  97225516.38804      1213.130 4        26.204    23743464.621 6  97225522.38706      1213.122 6        40.629
G31         2.000    24299963.417 6 127697174.88606      2704.032 6        38.844                                    24299959.476 5  99504277.51605      2107.033 5        32.192    24299959.766 6  99504276.51306      2106.935 6        37.161
G14         3.000    24990854.346 5 131327861.51505     -2734.041 5        35.700                                    24990851.822 2 102333401.34302     -2130.416 2        15.571    24990852.250 5 102333403.33805     -2130.334 5        35.410
G10         4.000    25592921.796 5 134491765.54705     -3532.908 5        34.729                                    25592920.702 3 104798786.94603     -2752.919 3        23.752    25592920.921 5 104798785.93105     -2752.577 5        32.114
S21         5.000    38377357.334 6 201674229.50706      -420.575 6        41.688
R12         6.000    23967354.299 7 128029324.74007     -1847.458 7        42.239                                                                    23967357.109 6  99578378.44806     -1436.896 6        39.853
G21         7.000    21206382.955 7 111440356.25007     -2010.844 7        45.287                                    21206377.670 6  86836645.82606     -1566.891 6        36.919
E04         8.000    23735749.503 7 124732229.10207        98.708 7        47.280                                                                    23735747.613 8  93144202.09708        73.651 8        50.300    23735747.354 8  95574042.78008        75.607 8        50.987
G04        10.000    23902729.587 6 125609708.16306      3352.666 6        40.424                                    23902727.926 4  97877697.12804      2612.465 4        24.481    23902727.932 6  97877692.12906      2612.433 6        40.174
E09        11.000    25665389.141 7 134872566.04807      2404.601 7        44.426                                                                    25665388.691 7 100716540.63007      1795.658 7        46.259    25665388.294 7 103343928.23907      1842.478 7        47.616
S27        12.000    39030252.393 5 205105342.38905      -398.531 5        35.438
S36        14.000    38145084.664 7 200454285.82407      -419.621 7        43.407
E02        15.000    27697585.269 6 145551821.57306     -2426.055 6        37.251                                                                    27697585.254 6 108691313.34406     -1811.547 6        39.913    27697584.332 6 111526734.57406     -1858.916 6        39.931
E36        16.000    24753279.322 7 130079387.51107      1524.625 7        45.099                                                                    24753279.755 8  97137221.49508      1138.545 8        48.161    24753279.493 8  99671230.77408      1168.214 8        49.093
S45        17.000    63346697.932 6 332889497.53806      -462.386 6        37.195
G03        18.000    20633879.609 8 108431823.66908      1376.789 8        48.044                                    20633877.833 8  84492349.01608      1072.823 8        49.342    20633878.419 7  84492358.01607      1072.832 7        44.710
R21        19.000    21365087.944 8 114328936.76708      3111.268 8        48.738                                                                    21365087.066 7  88922515.35007      2419.885 7        43.691
R20        20.000    19103322.593 6 102154098.25406      -467.956 6        40.169                                                                    19103324.068 7  79453187.31607      -363.945 7        47.105
R05        21.000    19015446.230 8 101648500.21808      -253.413 8        52.189                                                                    19015444.744 7  79059950.55707      -197.110 7        46.860
I06        22.000    38202091.121 7 149913440.76007      -209.011 7        43.136
S28        23.000    40822249.562 5 214522348.10105      -412.528 5        33.748
E10        24.000    24510784.281 7 128805165.72607     -2071.105 7        46.489                                                                    24510783.440 8  96185743.43408     -1546.646 8        49.371    24510783.216 8  98694927.15408     -1586.951 8        50.171
S23        25.000    38096857.119 7 200200300.72007      -417.154 7        44.518
E06        26.000    24182632.222 7 127080645.58307      1504.405 7        47.506                                                                    24182631.887 8  94897882.99908      1123.435 8        49.060    24182631.716 8  97373478.58408      1152.735 8        49.802
E30        27.000    28397603.710 6 149230416.95806      -377.140 6        36.858                                                                    28397605.713 6 111438298.84406      -281.595 6        40.286    28397604.981 6 114345382.73506      -288.924 6        41.237
E12        28.000    26537060.135 6 139453335.98806     -2794.982 6        38.538                                                                    26537057.322 7 104137304.83407     -2087.149 7        42.002    26537057.506 7 106853917.89407     -2141.465 7        43.145
E19        30.000    26036038.076 6 136820312.53406     -2769.619 6        36.805                                                                    26036036.687 6 102171010.59106     -2068.151 6        39.057    26036036.247 6 104836338.73306     -2122.221 6        39.144
G32        31.000    23086221.584 7 121318929.29607     -3042.115 7        44.409                                    23086219.866 6  94534227.27906     -2370.476 6        41.425    23086220.261 6  94534232.27806     -2370.514 6        41.030
G02        32.000    20620306.267 8 108360486.68308      -603.459 8        50.014                                    20620299.592 7  84436740.22307      -470.229 7        43.528
G19        33.000    24647735.030 6 129524730.87606      3081.340 6        38.168                                    24647731.235 3 100928376.38003      2401.034 3        23.124
G17        34.000    22777628.761 7 119697300.60107      1468.123 7        44.471                                    22777624.262 6  93270634.28106      1143.991 6        41.054    22777625.184 6  93270634.27706      1144.002 6        40.591
E11        35.000    23229485.823 7 122071842.83207      -787.398 7        44.008                                                                    23229481.315 7  91157564.47107      -588.029 7        47.063    23229481.119 7  93535580.26507      -603.385 7        47.833
C32        36.000                                                                                                                                    22838599.467 8 118926610.46008     -2392.447 8        48.986                                                                    22838599.640 8  96637623.67308     -1944.176 8        50.022
C35        37.000                                                                                                                                    25260843.612 7 131539848.98007      2577.594 7        42.396                                                                    25260842.379 7 106886899.85607      2094.344 7        42.760
C29        39.000                                                                                                                                    21713484.146 8 113067815.22808      -158.218 8        50.662                                                                    21713481.578 8  91876856.77108      -128.655 8        49.195
G08        40.000    24194852.180 6 127144841.44206     -4115.373 6        39.480                                    24194850.700 5  99073922.76505     -3206.785 5        31.819    24194852.002 5  99073929.79805     -3206.969 5        35.324
S44        42.000    40495527.433 5 212805625.97505      -484.040 5        35.643
C09        43.000                                                                                                                                    39802852.194 6 207263909.35006      1092.510 6        38.958    39802849.260 7 160269591.13507       844.786 7        43.390    39802847.034 6 168418883.40206       887.610 6        40.462
C05        44.000                                                                                                                                    39062832.329 6 203410453.05606      -404.631 6        38.033    39062827.448 7 157289889.32007      -312.927 7        43.759    39062829.263 6 165287758.37306      -328.885 6        40.665
R06        45.000    22568509.565 6 120429922.65306      3498.449 6        36.386
R13        46.000    23871493.532 6 127472457.64406       717.053 6        36.227
C39        47.000                                                                                                                                    39013067.977 7 203151292.61007       209.196 7        42.362                                                                    39013064.024 7 165077055.00607       169.900 7        43.117
C20        48.000                                                                                                                                    22065180.723 8 114899230.76908       843.751 8        52.080                                                                    22065174.717 8  93365028.43108       685.486 8        49.318
C06        49.000                                                                                                                                    38905282.611 6 202590032.79406       745.702 6        38.871    38905276.489 7 156655446.50607       576.692 7        43.126    38905276.549 6 164620974.75106       605.850 6        40.520
C16        50.000                                                                                                                                    39232913.377 6 204296091.00406       622.796 6        40.880    39232913.801 7 157974704.70907       481.530 7        42.923    39232911.454 6 166007306.31406       506.058 6        38.865
S48        51.000    77132104.384 6 405333089.37706      -427.300 6        36.877
C19        52.000                                                                                                                                    25406061.672 7 132296064.75807      2656.885 7        43.788                                                                    25406057.443 7 107501388.07707      2158.823 7        43.970
R04        53.000    20960381.176 8 112241916.60708     -3770.803 8        49.612                                                                    20960379.961 7  87299276.19707     -2932.818 7        45.281
C60        54.000                                                                                                                                    40495528.536 6 210871048.83306      -479.721 6        38.649                                                                    40495512.927 6 171349970.20406      -389.933 6        40.305
C30        55.000                                                                                                                                    23324234.592 7 121455404.97707     -3214.691 7        47.805                                                                    23324235.290 7  98692463.28907     -2612.279 7        46.915
R19        56.000    22474621.825 5 120224112.99505     -4312.764 5        35.976                                                                    22474622.042 6  93507681.21206     -3354.335 6        39.444
C02        57.000                                                                                                                                    40476493.433 5 210771774.58105      -448.443 5        33.593    40476487.461 6 162982100.05806      -346.709 6        40.570    40476490.725 5 171269335.28805      -364.292 5        35.810
I03        58.000   133971508.794 6 449947733.00806       986.420 6        40.956
C13        59.000                                                                                                                                    40940634.688 6 213188691.43506     -1121.413 6        37.558    40940636.560 6 164851060.53906      -867.207 6        38.817    40940634.794 6 173233304.40606      -911.257 6        36.151
> 2025 01 01 00 16 40.0000000  0 54
G28         1.000    23741987.685 6 124764993.14006      1554.489 6        41.080                                    23741983.693 4  97219454.83404      1211.280 4        26.180    23741984.570 6  97219460.83506      1211.130 6        40.567
G31         2.000    24297391.465 6 127683655.73406      2703.115 6        38.661                                    24297386.786 5  99493743.11005      2106.322 5        31.804    24297386.889 6  99493742.10806      2106.438 6        36.832
G14         3.000    24993455.459 5 131341534.55505     -2735.527 5        35.686                                    24993453.595 2 102344055.62802     -2131.580 2        15.190    24993453.174 5 102344057.65205     -2131.615 5        35.067
G10         4.000    25596283.021 5 134509427.66705     -3532.624 5        35.538                                    25596281.739 3 104812549.63803     -2752.686 3        23.371    25596281.038 5 104812548.61605     -2752.563 5        31.540
S21         5.000    38377756.515 6 201676330.98506      -420.434 6        41.819
R12         6.000    23969085.637 7 128038570.64807     -1851.188 7        42.402                                                                    23969088.061 6  99585569.82806     -1439.857 6        40.915
G21         7.000    21208296.858 7 111450414.45707     -2012.689 7        45.040                                    21208291.690 6  86844483.39506     -1568.327 6        36.896
E04         8.000    23735656.498 7 124731740.85707        96.297 7        47.212                                                                    23735654.741 8  93143837.49508        71.876 8        50.226    23735654.487 8  95573668.66608        73.776 8        51.018
G04        10.000    23899539.948 6 125592945.83706      3351.926 6        40.372                                    23899538.197 4  97864635.58704      2611.882 4        24.797    23899538.862 6  97864630.58206      2612.005 6        40.210
E09        11.000    25663101.481 7 134860545.05307      2403.387 7        44.290                                                                    25663101.136 7 100707563.92407      1794.785 7        46.320    25663100.707 7 103334717.35807      1841.568 7        47.712
S27        12.000    39030634.332 5 205107333.90405      -398.605 5        35.624
S36        14.000    38145485.004 7 200456383.70707      -419.854 7        43.464
E02        15.000    27699894.224 6 145563954.19906     -2427.298 6        37.236                                                                    27699894.032 6 108700373.41406     -1812.580 6        39.934    27699892.981 6 111536030.99206     -1859.932 6        40.176
E36        16.000    24751828.705 7 130071765.50307      1523.778 7        45.192                                                                    24751829.351 8  97131529.72908      1137.870 8        48.116    24751829.084 8  99665390.52608      1167.615 8        49.141
S45        17.000    63347091.537 6 332891808.89806      -462.494 6        37.558
G03        18.000    20632570.392 8 108424944.00808      1374.775 8        48.023                                    20632568.672 8  84486988.24508      1071.254 8        49.339    20632568.999 7  84486997.24407      1071.227 7        44.393
R21        19.000    21362181.785 8 114313383.39208      3109.671 8        48.764                                                                    21362180.033 7  88910418.27807      2418.615 7        43.558
R20        20.000    19103761.947 6 102156445.89106      -471.638 6        39.931                                                                    19103762.698 7  79455013.25607      -366.794 7        47.188
R05        21.000    19015684.779 8 101649775.97708      -257.271 8        51.825                                                                    19015683.555 7  79060942.80907      -200.037 7        46.778
I06        22.000    38202357.410 7 149914485.10507      -208.974 7        43.094
S28        23.000    40822640.431 5 214524409.99805      -412.473 5        33.766
E10        24.000    24512755.261 7 128815523.64307     -2072.488 7        46.543                                                                    24512754.446 8  96193478.24208     -1547.662 8        49.265    24512754.163 8  98702863.74108     -1588.005 8        50.242
S23        25.000    38097253.890 7 200202385.73007      -417.211 7        44.700
E06        26.000    24181201.464 7 127073127.73407      1502.448 7        47.476                                                                    24181201.314 8  94892269.02408      1121.948 8        48.991    24181201.118 8  97367718.15508      1151.239 8        49.824
E30        27.000    28397963.813 6 149232307.90906      -379.533 6        36.775                                                                    28397965.635 6 111439710.92606      -283.501 6        40.412    28397964.696 6 114346831.65106      -290.867 6        41.416
E12        28.000    26539719.503 6 139467311.85806     -2795.833 6        38.168                                                                    26539716.791 7 104147741.36407     -2087.894 7        42.066    26539716.953 7 106864626.67707     -2142.220 7        43.200
E19        30.000    26038673.275 6 136834162.64106     -2770.780 6        36.783                                                                    26038672.277 6 102181353.21206     -2069.296 6        39.102    26038671.971 6 104846951.17306     -2123.310 6        39.339
G32        31.000    23089116.744 7 121334144.01507     -3044.012 7        44.444                                    23089115.098 6  94546082.90106     -2371.955 6        41.349    23089115.445 6  94546087.90106     -2372.022 6        40.257
G02        32.000    20620881.363 8 108363508.71408      -605.710 8        49.689                                    20620874.660 7  84439095.05107      -471.980 7        43.534
G19        33.000    24644803.992 6 129509326.88206      3079.907 6        37.989                                    24644799.719 3 100916373.27103      2399.920 3        22.267
G17        34.000    22776233.176 7 119689965.23907      1465.632 7        44.603                                    22776228.410 6  93264918.41606      1142.053 6        41.077    22776228.907 6  93264918.40806      1142.134 6        40.462
E11        35.000    23230235.607 7 122075783.33007      -789.011 7        44.156                                                                    23230231.121 7  91160507.05307      -589.254 7        47.023    23230230.957 7  93538599.59907      -604.611 7        47.934
C32        36.000                                                                                                                                    22840897.318 8 118938575.78408     -2394.061 8        49.490                                                                    22840897.439 8  96647346.46008     -1945.245 8        49.980
C35        37.000                                                                                                                                    25258369.307 7 131526962.65707      2576.659 7        43.331                                                                    25258367.710 7 106876428.64807      2093.753 7        42.724
C29        39.000                                                                                                                                    21713637.142 8 113068612.08108      -160.908 8        50.823                                                                    21713634.617 8  91877504.25908      -130.624 8        49.253
G08        40.000    24198767.864 6 127165418.36206     -4115.624 6        39.285                                    24198766.093 5  99089956.73705     -3206.984 5        32.120    24198768.142 6  99089963.72406     -3206.838 6        36.265
S44        42.000    40495991.440 5 212808046.42005      -484.297 5        35.905
C09        43.000                                                                                                                                    39801802.979 6 207258447.67706      1091.736 6        39.351    39801800.305 7 160265367.82307       844.259 7        43.367    39801797.969 6 168414445.32106       887.303 6        40.091
C05        44.000                                                                                                                                    39063220.492 6 203412475.71506      -404.611 6        38.162    39063215.956 7 157291453.37707      -312.957 7        43.700    39063217.838 6 165289401.94406      -328.786 6        40.675
R06        45.000    22565232.058 6 120412433.24106      3496.992 6        36.389
R13        46.000    23870823.218 6 127468880.10606       713.562 6        36.397
C39        47.000                                                                                                                                    39012867.614 7 203150248.23707       208.162 7        42.495                                                                    39012863.425 7 165076206.35107       169.198 7        43.141
C20        48.000                                                                                                                                    22064371.386 8 114895016.71708       841.557 8        52.280                                                                    22064365.446 8  93361604.15208       683.880 8        49.345
C06        49.000                                                                                                                                    38904567.235 6 202586305.59206       744.922 6        39.432    38904561.141 7 156652564.42307       575.835 7        43.050    38904560.938 6 164617946.08406       605.336 6        40.393
C16        50.000                                                                                                                                    39232315.510 6 204292978.92606       621.830 6        40.939    39232316.057 7 157972298.26007       480.831 7        42.686    39232313.736 6 166004777.48906       505.246 6        38.739
S48        51.000    77132500.499 6 405335225.02606      -427.407 6        36.945
C19        52.000                                                                                                                                    25403510.156 7 132282781.76007      2655.960 7        43.657                                                                    25403506.597 7 107490594.53507      2158.275 7        43.790
R04        53.000    20963902.930 8 112260774.50608     -3772.712 8        49.873                                                                    20963901.138 7  87313943.44507     -2934.382 7        45.213
C60        54.000                                                                                                                                    40495989.108 6 210873447.28106      -479.995 6        38.997                                                                    40495973.365 6 171351919.12706      -389.802 6        40.312
C30        55.000                                                                                                                                    23327321.789 8 121471481.47908     -3216.319 8        48.196                                                                    23327322.647 7  98705526.75307     -2613.472 7        46.875
R19        56.000    22478654.848 6 120245679.65406     -4314.640 6        36.628                                                                    22478653.371 6  93524455.27206     -3355.572 6        39.354
C02        57.000                                                                                                                                    40476923.818 5 210774015.16105      -448.651 5        33.180    40476917.895 6 162983832.62506      -346.769 6        40.448    40476920.917 6 171271155.91906      -364.214 6        36.015
I03        58.000   133970251.529 6 449942800.77606       986.231 6        40.930
C13        59.000                                                                                                                                    40941711.048 6 213194297.74506     -1121.504 6        37.482    40941712.945 6 164855395.67706      -867.193 6        38.571    40941711.275 6 173237859.98406      -911.186 6        36.106
> 2025 01 01 00 16 45.0000000  0 54
G28         1.000    23740509.403 6 124757225.71206      1552.565 6        40.830                                    23740505.670 4  97213402.29804      1209.798 4        26.216    23740505.973 6  97213408.30406      1209.737 6        40.863
G31         2.000    24294819.083 6 127670141.20806      2702.787 6        39.204                                    24294815.066 5  99483212.31105      2106.069 5        31.713    24294815.976 6  99483211.34106      2105.813 6        37.198
G14         3.000    24996059.238 6 131355214.39406     -2736.358 6        36.257                                    24996056.791 2 102354715.27302     -2132.219 2        14.714    24996055.643 5 102354717.26305     -2132.259 5        34.243
G10         4.000    25599643.512 5 134527089.56105     -3532.135 5        35.800                                    25599642.565 4 104826312.13404     -2752.309 4        24.451    25599642.083 5 104826311.13905     -2752.440 5        32.018
S21         5.000    38378155.116 6 201678432.64206      -420.212 6        41.714
R12         6.000    23970819.397 7 128047835.13007     -1854.522 7        42.476                                                                    23970820.782 6  99592775.54606     -1442.313 6        38.796
G21         7.000    21210212.409 7 111460481.65007     -2014.177 7        45.096                                    21210207.445 6  86852327.95806     -1569.487 6        36.915
E04         8.000    23735565.857 7 124731264.36207        94.291 7        47.204                                                                    23735564.040 8  93143481.66708        70.399 8        50.332    23735563.813 8  95573303.56008        72.236 8        51.055
G04        10.000    23896350.231 6 125576186.52906      3351.745 6        40.005                                    23896349.085 4  97851576.40404      2611.751 4        24.602    23896349.261 6  97851571.40106      2611.786 6        40.446
E09        11.000    25660814.602 7 134848529.90807      2402.595 7        43.973                                                                    25660814.811 7 100698591.58607      1794.148 7        46.393    25660814.400 7 103325510.95307      1841.003 7        47.695
S27        12.000    39031013.990 5 205109325.17505      -397.796 5        35.590
S36        14.000    38145885.294 7 200458481.42307      -419.267 7        43.592
E02        15.000    27702204.400 6 145576094.12006     -2428.552 6        37.414                                                                    27702203.926 6 108709438.93906     -1813.347 6        39.919    27702203.248 6 111545332.99906     -1860.860 6        40.231
E36        16.000    24750379.326 7 130064147.48007      1523.439 7        45.144                                                                    24750379.719 8  97125840.95008      1137.616 8        48.155    24750379.420 8  99659553.34708      1167.285 8        49.121
S45        17.000    63347487.719 6 332894120.57206      -461.857 6        37.301
G03        18.000    20631262.790 7 108418074.03107      1373.264 7        47.463                                    20631261.353 8  84481635.01308      1070.076 8        49.290    20631262.080 7  84481644.01707      1070.047 7        44.783
R21        19.000    21359276.289 8 114297838.20408      3108.445 8        48.764                                                                    21359275.469 7  88898327.58107      2417.682 7        43.507
R20        20.000    19104204.652 6 102158812.39906      -475.030 6        40.281                                                                    19104205.450 7  79456853.85907      -369.395 7        47.238
R05        21.000    19015926.614 8 101651071.02508      -260.816 8        51.869                                                                    19015925.912 7  79061950.07607      -202.797 7        46.917
I06        22.000    38202623.603 7 149915529.56607      -208.771 7        43.128
S28        23.000    40823029.905 5 214526471.95805      -412.182 5        34.005
E10        24.000    24514727.636 7 128825888.03007     -2073.350 7        46.591                                                                    24514726.724 8  96201217.87808     -1548.235 8        49.289    24514726.422 8  98710805.28808     -1588.706 8        50.284
S23        25.000    38097650.961 7 200204470.76407      -416.854 7        44.784
E06        26.000    24179772.897 7 127065619.34507      1500.929 7        47.315                                                                    24179772.428 8  94886662.11208      1120.790 8        49.004    24179772.378 8  97361964.97808      1150.032 8        49.920
E30        27.000    28398325.724 6 149234210.93106      -381.746 6        36.658                                                                    28398327.702 6 111441132.00706      -284.974 6        40.248    28398326.835 6 114348289.81606      -292.426 6        41.211
E12        28.000    26542379.676 6 139481292.03606     -2796.281 6        37.860                                                                    26542377.132 7 104158181.08907     -2088.064 7        42.209    26542377.186 7 106875338.75107     -2142.535 7        43.217
E19        30.000    26041309.859 6 136848019.52606     -2771.809 6        36.567                                                                    26041309.092 6 102191700.86706     -2069.805 6        39.279    26041308.890 6 104857568.76406     -2123.747 6        39.508
G32        31.000    23092013.656 7 121349368.21407     -3045.533 7        44.573                                    23092012.070 6  94557945.90506     -2373.143 6        41.318    23092012.612 6  94557950.91406     -2373.219 6        40.472
G02        32.000    20621458.597 8 108366541.83208      -607.565 8        49.566                                    20621451.839 7  84441458.51907      -473.427 7        43.501
G19        33.000    24641874.163 6 129493929.73706      3078.830 6        39.051                                    24641869.344 3 100904375.53903      2399.074 3        22.095
G17        34.000    22774839.605 7 119682642.42807      1463.522 7        44.196                                    22774834.931 6  93259212.32806      1140.405 6        41.025    22774835.239 6  93259212.34106      1140.324 6        40.451
E11        35.000    23230986.866 7 122079731.44507      -790.383 7        44.170                                                                    23230982.386 7  91163455.31407      -590.153 7        47.048    23230982.262 7  93541624.77707      -605.552 7        47.895
C32        36.000                                                                                                                                    22843196.690 8 118950548.84508     -2395.265 8        49.307                                                                    22843196.764 8  96657075.56408     -1946.301 8        49.939
C35        37.000                                                                                                                                    25255894.993 7 131514081.14007      2575.941 7        42.557                                                                    25255893.890 7 106865961.37907      2093.161 7        42.650
C29        39.000                                                                                                                                    21713792.508 8 113069422.28008      -163.162 8        50.803                                                                    21713790.169 8  91878162.63008      -132.622 8        49.159
G08        40.000    24202683.783 6 127185996.33206     -4115.495 6        39.090                                    24202681.978 5  99105991.52105     -3206.879 5        32.569    24202684.757 6  99105998.49806     -3207.036 6        37.611
S44        42.000    40496452.522 5 212810467.07605      -484.051 5        35.648
C09        43.000                                                                                                                                    39800754.645 6 207252989.32906      1091.409 6        39.255    39800752.044 7 160261147.08607       844.091 7        43.409    39800749.631 6 168410009.98506       886.800 6        40.095
C05        44.000                                                                                                                                    39063609.103 6 203414498.62806      -404.557 6        38.339    39063604.424 7 157293017.60807      -312.656 7        43.685    39063606.274 6 165291045.73506      -328.618 6        40.513
R06        45.000    22561955.966 6 120394951.37706      3495.792 6        37.524
R13        46.000    23870158.385 6 127465321.74206       709.924 6        37.467
C39        47.000                                                                                                                                    39012668.035 7 203149208.95707       207.509 7        42.339                                                                    39012663.864 7 165075361.85907       168.593 7        43.090
C20        48.000                                                                                                                                    22063564.091 8 114890813.47108       839.755 8        52.213                                                                    22063558.280 8  93358188.68508       682.358 8        49.319
C06        49.000                                                                                                                                    38903851.909 6 202582582.91806       744.074 6        39.619    38903846.275 7 156649685.79407       575.503 7        43.007    38903846.068 6 164614921.12006       604.728 6        40.391
C16        50.000                                                                                                                                    39231719.046 6 204289871.40606       621.200 6        40.818    39231719.189 7 157969895.34307       480.209 7        42.817    39231716.926 6 166002252.38606       504.737 6        38.724
S48        51.000    77132901.657 6 405337361.02206      -427.102 6        37.047
C19        52.000                                                                                                                                    25400959.536 7 132269503.11907      2655.563 7        42.957                                                                    25400956.472 7 107479804.56607      2157.766 7        43.820
R04        53.000    20967426.369 8 112279641.88408     -3774.208 8        50.117                                                                    20967424.105 7  87328618.07507     -2935.461 7        44.871
C60        54.000                                                                                                                                    40496449.574 6 210875845.90906      -479.693 6        38.760                                                                    40496434.117 6 171353868.22806      -389.628 6        40.160
C30        55.000                                                                                                                                    23330410.727 8 121487565.79308     -3217.452 8        48.528                                                                    23330411.532 7  98718596.59207     -2614.474 7        46.857
R19        56.000    22482688.470 5 120267254.34705     -4315.494 5        35.962                                                                    22482688.451 6  93541235.62306     -3356.611 6        40.110
C02        57.000                                                                                                                                    40477353.876 5 210776256.04705      -448.096 5        33.659    40477348.364 6 162985565.42006      -346.433 6        40.336    40477351.101 5 171272976.84005      -364.003 5        35.929
I03        58.000   133968994.886 6 449937868.85906       986.573 6        40.758
C13        59.000                                                                                                                                    40942787.808 6 213199903.56406     -1120.820 6        36.854    40942790.016 6 164859730.45906      -866.762 6        38.586    40942787.996 6 173242415.17306      -911.023 6        36.087
> 2025 01 01 00 16 50.0000000  0 54
G28         1.000    23739033.466 6 124749469.83106      1549.877 6        40.451                                    23739029.806 4  97207358.75504      1207.690 4        26.299    23739030.088 6  97207364.75706      1207.875 6        40.727
G31         2.000    24292248.579 6 127656631.30006      2701.350 6        39.351                                    24292244.170 5  99472685.11505      2104.949 5        31.849    24292244.393 6  99472684.13306      2104.983 6        36.767
G14         3.000    24998663.571 5 131368900.87305     -2738.144 5        35.976                                    24998661.180 2 102365380.04202     -2133.623 2        15.476    24998661.353 5 102365382.03205     -2133.496 5        35.152
G10         4.000    25603004.216 5 134544751.15105     -3532.612 5        34.614                                    25603003.312 4 104840074.41304     -2752.685 4        24.752    25603003.416 5 104840073.39905     -2752.578 5        31.441
S21         5.000    38378555.559 6 201680534.69106      -420.600 6        41.697
R12         6.000    23972558.427 7 128057118.03807     -1858.667 7        43.270                                                                    23972559.073 6  99599995.58906     -1445.612 6        39.258
G21         7.000    21212129.952 7 111470557.74307     -2016.328 7        45.311                                    21212124.886 6  86860179.45506     -1571.165 6        37.002
E04         8.000    23735477.582 7 124730799.57007        91.664 7        47.463                                                                    23735475.579 8  93143134.58508        68.449 8        50.287    23735475.406 8  95572947.42208        70.192 8        51.173
G04        10.000    23893161.831 6 125559430.17906      3350.814 6        39.787                                    23893160.394 4  97838519.51804      2611.024 4        24.857    23893160.660 6  97838514.52206      2611.055 6        39.841
E09        11.000    25658529.539 7 134836520.53907      2401.240 7        44.420                                                                    25658529.538 7 100689623.54407      1793.119 7        46.417    25658529.102 7 103316308.97707      1839.825 7        47.851
S27        12.000    39031388.981 5 205111316.76605      -398.533 5        35.629
S36        14.000    38146283.926 7 200460579.47707      -419.690 7        43.511
E02        15.000    27704515.653 6 145588241.27006     -2430.250 6        37.716                                                                    27704515.506 6 108718509.85306     -1814.803 6        40.029    27704515.046 6 111554640.54506     -1862.219 6        40.169
E36        16.000    24748930.432 7 130056533.40207      1522.348 7        45.263                                                                    24748930.758 8  97120155.11308      1136.768 8        48.166    24748930.485 8  99653719.18208      1166.383 8        49.283
S45        17.000    63347880.989 6 332896432.40006      -462.633 6        37.059
G03        18.000    20629957.325 7 108411213.66207      1370.960 7        47.537                                    20629955.876 8  84476289.27608      1068.280 8        49.447    20629956.695 7  84476298.27507      1068.371 7        44.933
R21        19.000    21356373.251 8 114282301.30008      3106.417 8        49.390                                                                    21356371.828 7  88886243.30007      2416.163 7        43.416
R20        20.000    19104650.884 6 102161197.74406      -479.260 6        40.231                                                                    19104651.517 7  79458709.13007      -372.611 7        47.203
R05        21.000    19016173.042 8 101652385.54008      -264.919 8        52.051                                                                    19016171.894 7  79062972.48207      -206.110 7        47.109
I06        22.000    38202889.742 7 149916574.10207      -208.912 7        43.158
S28        23.000    40823426.328 5 214528533.99805      -412.501 5        34.000
E10        24.000    24516701.235 7 128836258.85107     -2074.978 7        46.677                                                                    24516700.219 8  96208962.31808     -1549.461 8        49.303    24516699.947 8  98718751.74808     -1589.913 8        50.240
S23        25.000    38098047.970 7 200206555.82007      -417.128 7        44.743
E06        26.000    24178345.618 7 127058120.34807      1498.729 7        47.438                                                                    24178345.465 8  94881062.21108      1119.207 8        49.008    24178345.371 8  97356218.99308      1148.393 8        50.023
E30        27.000    28398690.726 6 149236125.71806      -384.223 6        37.255                                                                    28398691.966 6 111442561.87806      -286.865 6        39.871    28398691.329 6 114349756.98306      -294.488 6        41.156
E12        28.000    26545040.490 6 139495276.44806     -2797.434 6        37.664                                                                    26545038.374 7 104168623.99507     -2088.996 7        42.336    26545038.182 7 106886054.07707     -2143.445 7        43.094
E19        30.000    26043948.150 6 136861883.13106     -2773.461 6        36.276                                                                    26043947.224 6 102202053.54306     -2071.051 6        39.066    26043946.781 6 104868191.51006     -2125.167 6        39.447
G32        31.000    23094912.981 7 121364601.79107     -3047.775 7        43.863                                    23094910.804 6  94569816.22206     -2374.889 6        41.497    23094911.538 6  94569821.22306     -2374.943 6        40.560
G02        32.000    20622037.965 8 108369586.01208      -610.091 8        49.851                                    20622031.120 7  84443830.60707      -475.395 7        43.602
G19        33.000    24638945.693 6 129478539.17306      3077.232 6        40.133                                    24638940.373 3 100892382.93903      2397.843 3        23.276
G17        34.000    22773448.238 7 119675331.98107      1460.737 7        44.537                                    22773443.805 6  93253515.88206      1138.236 6        41.206    22773444.465 6  93253515.87906      1138.279 6        40.424
E11        35.000    23231739.792 7 122083687.09207      -792.047 7        44.149                                                                    23231735.199 7  91166409.21207      -591.526 7        47.036    23231735.071 7  93544655.73207      -606.952 7        47.926
C32        36.000                                                                                                                                    22845497.410 8 118962529.55808     -2397.034 8        49.063                                                                    22845497.562 8  96666810.86208     -1947.676 8        50.084
C35        37.000                                                                                                                                    25253421.934 7 131501204.37607      2574.757 7        42.472                                                                    25253420.818 7 106855497.94607      2092.262 7        42.991
C29        39.000                                                                                                                                    21713950.678 8 113070245.75308      -166.120 8        50.694                                                                    21713948.329 8  91878831.76008      -134.881 8        49.389
G08        40.000    24206599.626 6 127206575.31006     -4115.994 6        38.820                                    24206598.314 5  99122027.07605     -3207.266 5        33.263    24206600.583 6  99122034.07106     -3207.518 6        38.258
S44        42.000    40496911.172 6 212812887.86206      -484.493 6        36.019
C09        43.000                                                                                                                                    39799707.150 6 207247534.31006      1090.527 6        39.114    39799704.382 7 160256928.92507       843.220 7        43.403    39799702.042 6 168405577.35006       886.224 6        40.143
C05        44.000                                                                                                                                    39063997.330 6 203416521.67606      -404.668 6        38.018    39063992.766 7 157294581.97007      -312.967 7        43.619    39063994.756 6 165292689.62806      -328.742 6        40.791
R06        45.000    22558681.138 6 120377476.81006      3494.213 6        36.631
R13        46.000    23869495.377 6 127461783.04006       705.795 6        37.614
C39        47.000                                                                                                                                    39012469.289 7 203148174.69807       206.213 7        42.434                                                                    39012465.192 7 165074521.43507       167.642 7        43.319
C20        48.000                                                                                                                                    22062758.804 8 114886620.97708       837.303 8        52.195                                                                    22062753.185 8  93354781.92908       680.519 8        49.483
C06        49.000                                                                                                                                    38903137.929 6 202578864.63406       742.997 6        39.559    38903132.134 7 156646810.58007       574.609 7        42.946    38903131.965 6 164611899.69306       604.020 6        40.796
C16        50.000                                                                                                                                    39231122.862 6 204286768.37506       620.057 6        40.572    39231123.158 7 157967495.86507       479.456 7        42.660    39231121.053 6 165999730.89706       503.904 6        38.925
S48        51.000    77133298.867 6 405339496.84206      -427.191 6        37.036
C19        52.000                                                                                                                                    25398410.893 7 132256228.78107      2654.266 7        42.794                                                                    25398407.179 7 107469018.05607      2157.007 7        43.822
R04        53.000    20970951.506 8 112298518.50908     -3776.344 8        49.898                                                                    20970949.117 7  87343299.88007     -2937.156 7        44.823
C60        54.000                                                                                                                                    40496910.513 6 210878244.68206      -479.942 6        38.598                                                                    40496894.864 6 171355817.40706      -389.752 6        40.334
C30        55.000                                                                                                                                    23333501.309 8 121503657.87008     -3219.365 8        48.588                                                                    23333501.881 7  98731672.71607     -2615.833 7        47.030
R19        56.000    22486722.065 5 120288837.03805     -4317.561 5        35.490                                                                    22486722.669 6  93558022.13306     -3357.970 6        40.436
C02        57.000                                                                                                                                    40477783.702 5 210778497.10805      -448.453 5        33.024    40477778.356 6 162987298.33006      -346.696 6        40.467    40477781.611 6 171274797.87906      -364.057 6        36.053
I03        58.000   133967737.962 6 449932937.21106       986.120 6        40.789
C13        59.000                                                                                                                                    40943864.607 6 213205508.92906     -1121.285 6        36.643    40943866.496 6 164864064.87906      -867.071 6        38.345    40943864.536 6 173246969.97606      -910.982 6        36.212
