     3.04           OBSERVATION DATA    M                   RINEX VERSION / TYPE
ssrcrin-15.6.1x                         20250101 020000 UTC PGM / RUN BY / DATE 
(00000000023479385599111004) Septentrio proprietary         COMMENT             
rref                                                        MARKER NAME         
01                                                          MARKER NUMBER       
geodetic                                                    MARKER TYPE         
NFB                 CLIMERS@TUW                             OBSERVER / AGENCY   
3297213             SEPT ASTERX SB3 PROB4.14.4              REC # / TYPE / VERS 
Unknown             Unknown                                 ANT # / TYPE        
  4127831.5850  1207193.1270  4695247.3417                  APPROX POSITION XYZ 
        0.0000        0.0000        0.0000                  ANTENNA: DELTA H/E/N
G   23 X1  C1C L1C D1C S1C C1W S1W C2W L2W D2W S2W C2L L2L  SYS / # / OBS TYPES 
       D2L S2L C5Q L5Q D5Q S5Q C1L L1L D1L S1L              SYS / # / OBS TYPES 
E   21 X1  C1C L1C D1C S1C C6C L6C D6C S6C C5Q L5Q D5Q S5Q  SYS / # / OBS TYPES 
       C7Q L7Q D7Q S7Q C8Q L8Q D8Q S8Q                      SYS / # / OBS TYPES 
S    9 X1  C1C L1C D1C S1C C5I L5I D5I S5I                  SYS / # / OBS TYPES 
R   17 X1  C1C L1C D1C S1C C2P L2P D2P S2P C2C L2C D2C S2C  SYS / # / OBS TYPES 
       C3Q L3Q D3Q S3Q                                      SYS / # / OBS TYPES 
C   25 X1  C1P L1P D1P S1P C5P L5P D5P S5P C2I L2I D2I S2I  SYS / # / OBS TYPES 
       C7I L7I D7I S7I C6I L6I D6I S6I C7D L7D D7D S7D      SYS / # / OBS TYPES 
J   17 X1  C1C L1C D1C S1C C2L L2L D2L S2L C5Q L5Q D5Q S5Q  SYS / # / OBS TYPES 
       C1L L1L D1L S1L                                      SYS / # / OBS TYPES 
I    5 X1  C5A L5A D5A S5A                                  SYS / # / OBS TYPES 
SEPTENTRIO RECEIVERS OUTPUT ALIGNED CARRIER PHASES.         COMMENT             
NO FURTHER PHASE SHIFT APPLIED IN THE RINEX ENCODER.        COMMENT             
G L1C                                                       SYS / PHASE SHIFT   
G L2W                                                       SYS / PHASE SHIFT   
G L2L  0.00000                                              SYS / PHASE SHIFT   
G L5Q  0.00000                                              SYS / PHASE SHIFT   
G L1L  0.00000                                              SYS / PHASE SHIFT   
E L1C  0.00000                                              SYS / PHASE SHIFT   
E L6C  0.00000                                              SYS / PHASE SHIFT   
E L5Q  0.00000                                              SYS / PHASE SHIFT   
E L7Q  0.00000                                              SYS / PHASE SHIFT   
E L8Q  0.00000                                              SYS / PHASE SHIFT   
S L1C                                                       SYS / PHASE SHIFT   
S L5I                                                       SYS / PHASE SHIFT   
R L1C                                                       SYS / PHASE SHIFT   
R L2P  0.00000                                              SYS / PHASE SHIFT   
R L2C                                                       SYS / PHASE SHIFT   
R L3Q  0.00000                                              SYS / PHASE SHIFT   
C L1P  0.00000                                              SYS / PHASE SHIFT   
C L5P  0.00000                                              SYS / PHASE SHIFT   
C L2I                                                       SYS / PHASE SHIFT   
C L7I                                                       SYS / PHASE SHIFT   
C L6I                                                       SYS / PHASE SHIFT   
C L7D                                                       SYS / PHASE SHIFT   
J L1C                                                       SYS / PHASE SHIFT   
J L2L  0.00000                                              SYS / PHASE SHIFT   
J L5Q  0.00000                                              SYS / PHASE SHIFT   
J L1L  0.00000                                              SYS / PHASE SHIFT   
I L5A                                                       SYS / PHASE SHIFT   
  2025     1     1     2     0    0.0000000     GPS         TIME OF FIRST OBS   
 C1C    0.000 C2C    0.000 C2P    0.000                     GLONASS COD/PHS/BIS 
DBHZ                                                        SIGNAL STRENGTH UNIT
    18                                                      LEAP SECONDS        
 24 R01  1 R02 -4 R03  5 R04  6 R05  1 R06 -4 R07  5 R08  6 GLONASS SLOT / FRQ #
    R09 -2 R10 -7 R11  0 R12 -1 R13 -2 R14 -7 R15  0 R16 -1 GLONASS SLOT / FRQ #
    R17  4 R18 -3 R19  3 R20  2 R21  4 R22 -3 R23  3 R24  2 GLONASS SLOT / FRQ #
                                                            END OF HEADER       
> 2025 01 01 02 00  0.0000000  0 53
G28         1.000    23757383.407 6 124845907.62206     -2197.763 6        40.958                                    23757379.035 4  97282507.13804     -1712.537 4        26.659    23757380.264 6  97282513.14406     -1712.659 6        40.672
G31         2.000    22342005.052 7 117408042.64607      -472.848 7        45.547                                    22342000.220 7  91486774.42807      -368.455 7        42.404    22342000.388 6  91486773.43806      -368.471 6        41.638
G09         3.000    22261634.367 7 116985714.26507      2642.813 7        44.513                                    22261632.447 7  91157708.25107      2059.334 7        44.873    22261632.873 6  91157709.25106      2059.476 6        41.580
E34         4.000    26207426.634 7 137720965.56907      2131.492 7        42.544                                                                    26207427.012 7 102843585.45607      1591.615 7        45.546    26207426.806 7 105526460.98107      1633.156 7        46.029
S21         5.000    38574245.768 7 202708881.90707      -403.383 7        42.440
E05         6.000    25028080.299 6 131523477.78206      2366.718 6        41.445                                                                    25028081.043 7  98215609.15107      1767.457 7        44.406    25028080.814 7 100777748.07007      1813.457 7        45.412
G21         7.000    24379214.135 6 128113686.34606     -3612.732 6        38.180                                    24379209.632 3  99828847.92103     -2815.115 3        21.405
E04         8.000    24879092.703 7 130740537.77607     -2298.274 7        44.894                                                                    24879090.918 8  97630925.89708     -1716.175 8        48.421    24879090.615 8 100177811.56608     -1761.006 8        48.904
R14         9.000    23356461.007 7 124503075.47407      -855.692 7        44.280                                                                    23356461.718 6  96835712.36106      -665.659 6        39.937
G04        10.000    20661583.975 7 108577398.17907      1220.649 7        47.125                                    20661580.810 6  84605773.47406       951.157 6        38.889    20661580.868 7  84605768.47407       951.108 7        47.030
E09        11.000    23677846.148 8 124427968.14108       298.685 8        48.801                                                                    23677845.282 8  92917006.09708       223.107 8        50.699    23677844.825 8  95340927.25408       228.900 8        51.034
S27        12.000    39207523.873 6 206036914.75806      -393.151 6        36.015
G06        13.000    23694055.180 6 124513125.65106      2852.002 6        39.583                                    23694054.158 6  97023218.39206      2222.334 6        36.998    23694055.051 6  97023229.38806      2222.439 6        40.145
S36        14.000    38341678.534 7 201487367.57107      -403.382 7        43.975
E36        16.000    23535388.301 8 123679329.51008      -220.402 8        48.091                                                                    23535388.546 8  92357958.15308      -164.600 8        50.776    23535388.328 8  94767290.90808      -168.885 8        51.144
S45        17.000    63537469.830 6 333893246.03706      -443.554 6        37.418
G03        18.000    20174423.788 8 106017369.56508     -1102.175 8        49.845                                    20174421.633 8  82610956.84008      -858.837 8        52.033    20174422.040 7  82610965.85307      -858.967 7        45.869
R21        19.000    19565035.171 8 104696493.70308     -1168.570 8        52.481                                                                    19565033.560 7  81430615.98307      -908.957 7        46.099
R20        20.000    21957761.700 6 117418053.32506     -4546.694 6        36.938                                                                    21957763.823 7  91325149.15907     -3536.300 7        43.276
R05        21.000    21239182.508 8 113535644.15908     -3475.902 8        48.814                                                                    21239181.994 7  88305505.91007     -2703.463 7        45.368
I06        22.000    38246237.236 7 150086678.04807      -216.300 7        42.840
S28        23.000    41010478.972 5 215511562.74305      -397.098 5        33.796
E10        24.000    27508751.165 6 144559575.82406     -3370.282 6        39.826                                                                    27508751.393 7 107950396.72107     -2516.716 7        44.001    27508751.229 7 110766484.87607     -2582.439 7        44.531
S23        25.000    38289382.385 7 201212066.86907      -399.821 7        44.200
E06        26.000    23615183.915 8 124098690.32008     -1028.804 8        48.222                                                                    23615183.414 8  92671099.62808      -768.275 8        50.898    23615183.379 8  95088605.05108      -788.303 8        51.353
R15        27.000    23286002.987 7 124433339.88107      2221.139 7        45.091                                                                    23286003.395 6  96781497.15106      1727.671 6        41.223
C22        30.000                                                                                                                                    26629177.691 6 138665111.33806      2502.793 6        40.343                                                                    26629173.065 6 112676741.95106      2033.834 6        39.192
I01        31.000   333720916.820 7   6451747.18407     -2600.321 7        43.759
G02        32.000    22665150.570 7 119106206.18807     -3231.382 7        46.343                                    22665144.618 5  92810025.64105     -2517.958 5        35.233
G19        33.000    22421451.738 7 117825554.44007      -299.913 7        43.839                                    22421445.194 5  91812141.31705      -233.691 5        32.305
G17        34.000    22835790.546 7 120002938.21407     -2058.017 7        44.871                                    22835786.210 6  93508792.57606     -1603.647 6        41.771    22835786.370 6  93508792.56806     -1603.656 6        40.405
E11        35.000    25023680.230 7 131500389.32607     -2728.039 7        43.024                                                                    25023676.403 7  98198359.62507     -2037.178 7        44.792    25023676.008 7 100760048.63507     -2090.297 7        44.885
C32        36.000                                                                                                                                    26093209.942 6 135874208.09606     -3258.138 6        40.343                                                                    26093210.433 7 110408932.61607     -2647.585 7        42.451
C35        37.000                                                                                                                                    23132837.405 8 120458773.75008        97.412 8        48.499                                                                    23132836.082 7  97882620.45907        79.246 7        47.447
I09        38.000    37379802.996 7 146686373.23707      -478.244 7        42.595
C29        39.000                                                                                                                                    23521731.764 8 122483825.76208     -3148.303 8        48.215                                                                    23521729.639 7  99528134.75607     -2558.310 7        46.493
R22        40.000    21797220.200 7 116355072.81807      2978.369 7        47.825                                                                    21797218.367 7  90498404.23807      2316.489 7        44.835
S44        42.000    40776694.773 6 214283172.89806      -480.513 6        37.308
C09        43.000                                                                                                                                    38760538.900 7 201836320.85607       130.452 7        42.182    38760535.788 7 156072637.23707       100.829 7        46.316    38760533.763 6 164008524.61606       106.104 6        41.895
C05        44.000                                                                                                                                    39261835.170 6 204446715.44706      -415.278 6        38.213    39261830.768 7 158091192.64807      -321.370 7        42.629    39261832.927 6 166129806.01206      -337.435 6        39.997
R06        45.000    19735491.212 6 105312418.75406       615.129 6        40.682
C44        46.000                                                                                                                                    25785621.462 6 134272523.28406      2278.636 6        40.091                                                                    25785620.556 6 109107425.89506      1851.749 6        41.049
C39        47.000                                                                                                                                    39174559.097 7 203992222.33107      -916.739 7        43.473                                                                    39174555.770 7 165760379.40507      -744.822 7        42.586
C20        48.000                                                                                                                                    22252978.293 8 115877144.00808     -1493.754 8        51.805                                                                    22252972.336 8  94159663.38808     -1213.764 8        49.571
C06        49.000                                                                                                                                    38396742.028 6 199941933.96006      -379.122 6        40.834    38396736.213 7 154607769.49107      -293.183 7        44.399    38396736.028 6 162469178.32306      -307.944 6        41.716
C16        50.000                                                                                                                                    38869212.700 7 202402206.84507      -487.981 7        43.113    38869212.483 7 156510234.14807      -377.353 7        43.556    38869210.015 6 164468370.96206      -396.570 6        39.544
S48        51.000    77324318.167 6 406342885.73106      -400.073 6        37.206
C19        52.000                                                                                                                                    22788037.377 8 118663348.12608      1122.662 8        49.898                                                                    22788032.538 8  96423693.43708       912.256 8        49.321
C60        54.000                                                                                                                                    40776697.419 6 212335163.47106      -476.081 6        38.925                                                                    40776682.025 6 172539682.17506      -386.865 6        40.112
C37        56.000                                                                                                                                    25803786.915 7 134367089.30507      1685.725 7        42.296                                                                    25803789.709 7 109184282.55607      1369.946 7        42.222
C02        57.000                                                                                                                                    40729517.633 5 212089332.87505      -460.946 5        34.571    40729511.701 6 164000918.77506      -356.465 6        40.229    40729515.162 6 172339958.58006      -374.705 6        36.336
I03        58.000   132152733.922 6 442810465.70106       949.786 6        41.647
R07        59.000    22679270.735 7 121403922.01307      2912.300 7        47.320                                                                    22679269.898 6  94425270.88206      2265.170 6        41.185
> 2025 01 01 02 00  5.0000000  0 53
G28         1.000    23759475.364 6 124856903.60206     -2200.583 6        41.037                                    23759471.624 4  97291075.43004     -1714.744 4        26.719    23759472.083 6  97291081.43106     -1714.655 6        40.541
G31         2.000    22342456.470 7 117410415.45107      -476.362 7        45.553                                    22342451.733 7  91488623.37007      -371.190 7        42.400    22342452.036 6  91488622.36606      -371.128 6        41.673
G09         3.000    22259120.640 7 116972503.67207      2641.330 7        44.752                                    22259118.564 7  91147414.28807      2058.179 7        44.792    22259118.816 6  91147415.29406      2058.184 6        41.361
E34         4.000    26205399.364 7 137710310.26107      2130.821 7        42.362                                                                    26205399.391 7 102835628.57307      1591.105 7        45.455    26205399.221 7 105518296.53307      1632.598 7        45.877
S21         5.000    38574636.279 7 202710899.37707      -403.523 7        42.544
E05         6.000    25025828.430 6 131511645.82806      2366.010 6        41.404                                                                    25025829.593 7  98206773.61507      1766.810 7        44.558    25025829.277 7 100768682.03507      1812.957 7        45.324
G21         7.000    24382651.896 6 128131751.34606     -3613.260 6        37.357                                    24382647.250 3  99842924.54703     -2815.523 3        21.548
E04         8.000    24881279.812 7 130752032.23807     -2299.395 7        45.008                                                                    24881278.214 8  97639509.42308     -1717.159 8        48.462    24881277.992 8 100186619.01208     -1761.983 8        48.789
R14         9.000    23357265.572 7 124507364.12807      -859.747 7        44.763                                                                    23357266.556 6  96839047.97806      -668.619 6        40.539
G04        10.000    20660423.660 7 108571301.32507      1218.146 7        47.011                                    20660420.590 6  84601022.68406       949.206 6        38.868    20660420.537 7  84601017.68507       949.200 7        46.795
E09        11.000    23677562.847 8 124426479.03908       296.857 8        48.788                                                                    23677561.928 8  92915894.11208       221.666 8        50.783    23677561.474 8  95339786.25908       227.490 8        50.932
S27        12.000    39207904.533 6 206038880.05306      -393.062 6        36.170
G06        13.000    23691342.546 6 124498867.87806      2851.019 6        40.110                                    23691340.996 6  97012108.44406      2221.572 6        36.972    23691341.419 6  97012119.44106      2221.694 6        39.970
S36        14.000    38342062.790 7 201489384.66407      -403.384 7        44.087
E36        16.000    23535598.892 8 123680436.27408      -222.305 8        48.172                                                                    23535599.139 8  92358784.62808      -165.998 8        50.849    23535598.888 8  94768138.94408      -170.306 8        51.034
S45        17.000    63537850.128 6 333893764.08516      -443.611 6        37.701
G03        18.000    20175473.193 8 106022885.15208     -1104.057 8        49.626                                    20175471.221 8  82615254.70308      -860.305 8        51.974    20175471.753 7  82615263.70807      -860.369 7        45.928
R21        19.000    19566128.822 8 104702347.65708     -1173.001 8        52.587                                                                    19566127.721 7  81435169.06607      -912.390 7        46.172
R20        20.000    21962013.029 6 117440791.03206     -4548.633 6        36.790                                                                    21962015.502 7  91342834.05207     -3537.796 7        43.117
R05        21.000    21242433.764 7 113553026.10807     -3476.875 7        47.988                                                                    21242433.826 7  88319025.20807     -2704.316 7        45.479
I06        22.000    38246512.650 7 150087759.47107      -216.302 7        42.629
S28        23.000    41010864.475 5 215513548.68305      -396.985 5        33.916
E10        24.000    27511957.951 6 144576428.56006     -3370.794 6        39.363                                                                    27511958.162 7 107962981.55107     -2517.102 7        43.826    27511958.079 7 110779398.00607     -2582.858 7        44.479
S23        25.000    38289760.814 7 201214065.19007      -399.642 7        43.816
E06        26.000    23616163.489 8 124103838.68008     -1030.575 8        48.220                                                                    23616163.121 8  92674944.18308      -769.550 8        51.000    23616163.068 8  95092549.90108      -789.664 8        51.277
R15        27.000    23283926.371 7 124422240.83807      2218.398 7        44.190                                                                    23283926.824 6  96772864.57706      1725.356 6        41.218
C22        30.000                                                                                                                                    26626774.318 6 138652598.56306      2502.487 6        40.148                                                                    26626769.884 6 112666574.31106      2033.382 6        39.192
I01        31.000   333724229.492 7   6464748.30207     -2600.239 7        43.484
G02        32.000    22668226.021 7 119122366.50807     -3232.843 7        46.283                                    22668219.852 5  92822618.09105     -2519.102 5        35.190
G19        33.000    22421738.758 7 117827062.78807      -303.403 7        44.402                                    22421732.236 5  91813316.65505      -236.415 5        32.216
G17        34.000    22837750.039 7 120013234.14207     -2060.393 7        44.591                                    22837745.465 6  93516815.37506     -1605.497 6        41.795    22837745.712 6  93516815.37706     -1605.359 6        40.300
E11        35.000    25026276.249 7 131514032.61107     -2729.457 7        43.022                                                                    25026272.655 7  98208547.79807     -2038.287 7        44.767    25026272.521 7 100770502.57607     -2091.294 7        44.807
C32        36.000                                                                                                                                    26096338.132 6 135890498.55206     -3258.043 6        40.791                                                                    26096338.604 7 110422169.94607     -2647.501 7        42.400
C35        37.000                                                                                                                                    23132745.165 8 120458293.51608        94.636 8        48.428                                                                    23132743.811 7  97882230.22507        76.892 7        47.582
I09        38.000    37380412.559 7 146688764.37507      -478.200 7        42.584
C29        39.000                                                                                                                                    23524755.817 8 122499571.25708     -3149.881 8        48.051                                                                    23524753.253 7  99540929.25407     -2559.647 7        46.623
R22        40.000    21794431.079 8 116340187.04308      2975.920 8        48.302                                                                    21794429.971 7  90486826.42407      2314.635 7        44.566
S44        42.000    40777152.314 6 214285574.94706      -480.398 6        36.775
C09        43.000                                                                                                                                    38760414.502 7 201835670.33707       129.696 7        42.231    38760410.770 7 156072134.20907       100.334 7        46.027    38760408.712 6 164007996.01306       105.396 6        41.862
C05        44.000                                                                                                                                    39262233.847 6 204448792.67106      -415.473 6        38.426    39262229.824 7 158092798.87907      -321.164 7        42.718    39262231.559 6 166131493.92806      -337.653 6        39.856
R06        45.000    19734916.116 6 105309349.18706       612.568 6        40.787
C44        46.000                                                                                                                                    25783434.330 6 134261133.51706      2277.292 6        40.253                                                                    25783433.386 6 109098170.80106      1850.435 6        41.461
C39        47.000                                                                                                                                    39175439.884 7 203996807.57407      -917.402 7        43.460                                                                    39175436.357 7 165764105.28907      -745.436 7        42.681
C20        48.000                                                                                                                                    22254413.206 8 115884616.27308     -1495.136 8        51.700                                                                    22254407.333 8  94165735.21508     -1214.988 8        49.726
C06        49.000                                                                                                                                    38397106.476 6 199943831.38706      -379.914 6        40.868    38397100.740 7 154609236.70207      -293.702 7        44.391    38397100.559 6 162470720.14806      -308.743 6        41.681
C16        50.000                                                                                                                                    38869682.006 7 202404648.69207      -488.727 7        43.300    38869681.051 7 156512122.34607      -377.945 7        43.464    38869678.886 6 164470355.15706      -397.303 6        39.631
S48        51.000    77324687.737 6 406344886.12106      -400.113 6        36.945
C19        52.000                                                                                                                                    22786959.897 8 118657738.35608      1121.245 8        49.949                                                                    22786955.202 8  96419135.04008       911.073 8        49.341
C60        54.000                                                                                                                                    40777154.580 6 212337543.67506      -475.900 6        39.012                                                                    40777139.306 6 172541616.27606      -386.783 6        40.341
C37        56.000                                                                                                                                    25802168.975 7 134358664.15807      1684.268 7        42.823                                                                    25802171.713 6 109177436.43206      1368.556 6        41.969
C02        57.000                                                                                                                                    40729960.082 5 212091638.01605      -461.234 5        34.443    40729954.276 6 164002701.22906      -356.415 6        40.150    40729958.175 6 172341831.68106      -374.707 6        36.280
I03        58.000   132151523.742 6 442805716.83906       949.801 6        41.471
R07        59.000    22676551.075 7 121389363.66007      2911.068 7        46.918                                                                    22676550.566 6  94413947.71906      2264.095 6        40.343
> 2025 01 01 02 00 10.0000000  0 53
G28         1.000    23761571.172 6 124867914.05706     -2203.401 6        40.644                                    23761566.942 4  97299655.00804     -1716.939 4        26.671    23761567.279 6  97299661.00906     -1716.961 6        40.749
G31         2.000    22342911.453 7 117412806.50107      -480.014 7        45.458                                    22342906.698 7  91490486.52707      -374.038 7        42.461    22342906.880 6  91490485.51906      -374.014 6        41.294
G09         3.000    22256608.361 7 116959301.22507      2639.764 7        44.707                                    22256606.205 7  91137126.66707      2056.957 7        44.880    22256606.731 6  91137127.66306      2056.998 6        41.509
E34         4.000    26203372.408 7 137699659.13507      2129.910 7        42.508                                                                    26203372.537 7 102827674.81307      1590.471 7        45.305    26203372.331 7 105510135.27607      1632.014 7        45.878
S21         5.000    38575022.887 7 202712917.17707      -403.498 7        42.586
E05         6.000    25023578.067 6 131499818.31306      2365.064 6        41.883                                                                    25023578.935 7  98197941.37907      1766.198 7        44.406    25023578.552 7 100759619.39907      1812.168 7        45.381
G21         7.000    24386090.335 6 128149819.53506     -3613.847 6        36.575                                    24386085.784 3  99857003.64003     -2815.986 3        21.952
E04         8.000    24883468.625 7 130763533.20507     -2300.767 7        45.151                                                                    24883466.875 8  97648097.81008     -1718.078 8        48.395    24883466.565 8 100195431.44408     -1762.999 8        48.828
R14         9.000    23358073.808 7 124511673.93707      -863.888 7        44.749                                                                    23358074.793 6  96842400.07806      -671.980 6        40.355
G04        10.000    20659265.957 7 108565217.45307      1215.578 7        47.205                                    20659262.882 6  84596282.00406       947.205 6        39.012    20659263.029 7  84596277.00307       947.216 7        47.085
E09        11.000    23677281.204 8 124424999.83308       294.959 8        48.722                                                                    23677280.433 8  92914789.50908       220.288 8        50.687    23677279.993 8  95338652.84308       225.996 8        50.971
S27        12.000    39208271.532 5 206040845.57005      -393.167 5        35.514
G06        13.000    23688630.447 6 124484615.65206      2850.063 6        40.446                                    23688628.872 6  97001002.81506      2220.826 6        37.096    23688629.506 6  97001013.81406      2220.824 6        40.107
S36        14.000    38342444.201 7 201491402.44807      -403.563 7        43.862
E36        16.000    23535811.353 8 123681553.25308      -224.278 8        48.228                                                                    23535811.709 8  92359618.73508      -167.460 8        50.703    23535811.423 8  94768994.81308      -171.853 8        51.078
S45        17.000    63538229.447 6 333895982.26206      -443.529 6        37.558
G03        18.000    20176524.667 8 106028410.76508     -1106.087 8        49.602                                    20176522.714 8  82619560.37408      -861.887 8        52.106    20176523.436 7  82619569.37107      -861.844 7        46.043
R21        19.000    19567227.380 8 104708224.44408     -1177.569 8        52.654                                                                    19567225.999 7  81439739.87707      -915.896 7        46.227
R20        20.000    21966266.447 6 117463538.37006     -4550.282 6        36.181                                                                    21966269.702 7  91360526.43807     -3539.151 7        43.854
R05        21.000    21245686.852 8 113570413.78708     -3478.032 8        48.476                                                                    21245686.251 7  88332548.94407     -2705.156 7        45.258
I06        22.000    38246788.193 7 150088841.09807      -216.287 7        42.449
S28        23.000    41011241.200 5 215515535.18205      -397.326 5        34.319
E10        24.000    27515165.095 6 144593284.72606     -3371.507 6        38.541                                                                    27515165.780 7 107975568.93007     -2517.672 7        43.670    27515165.652 7 110792313.74707     -2583.384 7        44.477
S23        25.000    38290141.086 7 201216063.80107      -399.731 7        44.029
E06        26.000    23617145.183 8 124108996.42608     -1032.410 8        48.192                                                                    23617144.622 8  92678795.74508      -770.929 8        50.874    23617144.549 8  95096501.93608      -791.024 8        51.312
R15        27.000    23281851.596 7 124411155.91807      2215.673 7        44.647                                                                    23281851.512 6  96764242.98906      1723.272 6        41.025
C22        30.000                                                                                                                                    26624371.942 6 138640087.67206      2502.154 6        40.141                                                                    26624366.979 6 112656408.15006      2033.257 6        39.033
I01        31.000   333727542.803 7   6477750.10407     -2600.427 7        43.232
G02        32.000    22671302.829 7 119138535.02907     -3234.415 7        45.862                                    22671296.654 5  92835216.93805     -2520.322 5        35.067
G19        33.000    22422029.002 7 117828589.11407      -306.974 7        43.835                                    22422022.682 5  91814506.00105      -239.201 5        32.359
G17        34.000    22839711.473 7 120023542.41907     -2062.737 7        45.014                                    22839707.103 6  93524847.79706     -1607.325 6        41.774    22839707.111 6  93524847.80106     -1607.305 6        40.393
E11        35.000    25028873.920 7 131527683.06607     -2730.788 7        42.597                                                                    25028870.226 7  98218741.30307     -2039.207 7        44.707    25028870.140 7 100780962.00707     -2092.404 7        44.942
C32        36.000                                                                                                                                    26099466.737 6 135906789.62506     -3258.271 6        41.549                                                                    26099467.052 7 110435407.76707     -2647.490 7        42.070
C35        37.000                                                                                                                                    23132655.813 8 120457827.52908        91.852 8        48.519                                                                    23132654.345 7  97881851.55307        74.744 7        47.561
I09        38.000    37381022.151 7 146691156.27907      -478.314 7        42.461
C29        39.000                                                                                                                                    23527780.905 7 122515325.06707     -3151.499 7        47.585                                                                    23527778.540 7  99553730.49007     -2560.751 7        46.712
R22        40.000    21791645.298 7 116325313.84807      2973.462 7        47.625                                                                    21791643.562 7  90475258.38107      2312.629 7        44.792
S44        42.000    40777609.837 6 214287977.13106      -480.357 6        37.406
C09        43.000                                                                                                                                    38760290.694 7 201835024.15607       128.850 7        42.356    38760286.589 7 156071634.54207        99.644 7        46.016    38760284.708 7 164007470.91407       104.935 7        42.028
C05        44.000                                                                                                                                    39262632.818 6 204450870.09706      -415.560 6        38.327    39262628.983 7 158094405.27007      -321.172 7        42.663    39262630.495 6 166133181.97906      -337.520 6        39.610
R06        45.000    19734343.880 6 105306293.23106       609.963 6        40.853
C44        46.000                                                                                                                                    25781248.614 6 134249751.52306      2275.757 6        40.372                                                                    25781247.542 6 109088921.99906      1849.275 6        41.847
C39        47.000                                                                                                                                    39176321.601 7 204001396.71907      -918.159 7        43.427                                                                    39176317.768 7 165767834.33407      -746.019 7        42.749
C20        48.000                                                                                                                                    22255849.431 8 115892095.91308     -1496.569 8        51.691                                                                    22255843.674 8  94171813.01308     -1215.997 8        49.769
C06        49.000                                                                                                                                    38397471.951 6 199945733.29106      -380.771 6        40.782    38397466.103 7 154610707.37207      -294.376 7        44.503    38397465.745 6 162472265.57606      -309.327 6        41.855
C16        50.000                                                                                                                                    38870151.856 7 202407094.82907      -489.572 7        43.278    38870151.004 7 156514013.85107      -378.607 7        43.473    38870148.615 6 164472342.82406      -397.691 6        39.712
S48        51.000    77325073.263 6 406346886.64306      -400.247 6        37.259
C19        52.000                                                                                                                                    22785884.175 8 118652136.03908      1119.807 8        50.032                                                                    22785879.321 8  96414582.68808       910.004 8        49.471
C60        54.000                                                                                                                                    40777611.553 6 212339924.02806      -476.071 6        38.985                                                                    40777596.328 6 172543550.48106      -386.715 6        40.312
C37        56.000                                                                                                                                    25800552.045 7 134350247.38107      1682.697 7        42.952                                                                    25800555.296 7 109170597.09807      1367.429 7        42.032
C02        57.000                                                                                                                                    40730403.354 5 212093943.30605      -461.163 5        34.552    40730396.855 6 164004483.83906      -356.463 6        39.649    40730400.807 6 172343704.91006      -374.631 6        36.189
I03        58.000   132150313.651 6 442800968.22706       949.782 6        41.461
R07        59.000    22673831.904 7 121374812.00607      2909.726 7        46.570                                                                    22673831.792 6  94402629.80206      2263.133 6        40.899
> 2025 01 01 02 00 15.0000000  0 53
G28         1.000    23763668.733 6 124878938.20406     -2206.111 6        40.779                                    23763664.991 4  97308245.24904     -1719.051 4        26.707    23763665.494 6  97308251.24106     -1718.932 6        41.125
G31         2.000    22343369.773 7 117415214.94107      -483.285 7        44.993                                    22343364.982 7  91492363.23607      -376.591 7        42.400    22343365.302 6  91492362.24006      -376.522 6        41.628
G09         3.000    22254097.268 7 116946106.08907      2638.481 7        44.960                                    22254095.223 7  91126844.74407      2055.958 7        44.789    22254095.861 7  91126845.73907      2055.931 7        42.055
E34         4.000    26201346.164 7 137689011.35007      2129.343 7        42.482                                                                    26201346.424 7 102819723.55007      1590.093 7        45.287    26201346.228 7 105501976.59407      1631.513 7        45.959
S21         5.000    38575409.664 7 202714934.37307      -403.320 7        42.703
E05         6.000    25021327.751 6 131487994.38106      2364.527 6        41.561                                                                    25021328.824 7  98189111.83407      1765.744 7        44.506    25021328.549 7 100750559.51207      1811.837 7        45.285
G21         7.000    24389529.309 6 128167890.03906     -3614.104 6        36.533                                    24389524.547 3  99871084.54503     -2816.169 3        21.381
E04         8.000    24885658.170 7 130775039.86707     -2301.810 7        44.969                                                                    24885656.445 8  97656690.44408     -1718.885 8        48.345    24885656.236 8 100204248.23108     -1763.770 8        48.877
R14         9.000    23358885.958 7 124516003.70507      -867.794 7        44.659                                                                    23358886.910 6  96845767.66606      -674.896 6        39.634
G04        10.000    20658110.555 7 108559145.74507      1213.233 7        47.529                                    20658107.473 6  84591550.80406       945.376 6        38.982    20658107.746 7  84591545.80407       945.375 7        47.212
E09        11.000    23677001.505 8 124423529.69808       293.273 8        48.749                                                                    23677000.692 8  92913691.68308       218.976 8        50.642    23677000.223 8  95337526.37408       224.659 8        50.966
S27        12.000    39208647.721 6 206042810.16406      -392.606 6        36.110
G06        13.000    23685919.345 6 124470368.18606      2849.122 6        40.100                                    23685917.629 6  96989900.90006      2220.091 6        37.123    23685918.560 6  96989911.89806      2220.164 6        40.307
S36        14.000    38342825.479 7 201493419.63007      -403.292 7        44.017
E36        16.000    23536025.817 8 123682679.63608      -226.063 8        48.163                                                                    23536026.049 8  92360459.86508      -168.846 8        50.740    23536025.807 8  94769857.88608      -173.250 8        51.049
S45        17.000    63538610.930 6 333898199.68606      -443.370 6        37.766
G03        18.000    20177578.009 8 106033945.57608     -1107.729 8        49.856                                    20177575.960 8  82623873.21508      -863.163 8        52.039    20177576.428 7  82623882.20907      -863.116 7        45.731
R21        19.000    19568330.180 8 104714123.27008     -1181.880 8        52.903                                                                    19568328.515 7  81444327.85207      -919.205 7        46.310
R20        20.000    21970523.357 6 117486294.41606     -4551.984 6        36.741                                                                    21970525.047 7  91378225.56407     -3540.405 7        44.004
R05        21.000    21248941.493 8 113587806.36108     -3478.812 8        49.004                                                                    21248939.793 7  88346076.50307     -2705.723 7        45.148
I06        22.000    38247064.027 7 150089922.29607      -216.041 7        42.411
S28        23.000    41011617.586 5 215517520.76505      -396.912 5        34.424
E10        24.000    27518373.605 6 144610143.42506     -3371.786 6        38.874                                                                    27518373.910 7 107988158.22207     -2517.982 7        43.484    27518373.865 7 110805231.45307     -2583.673 7        44.530
S23        25.000    38290521.120 7 201218061.74607      -399.479 7        43.879
E06        26.000    23618128.375 8 124114162.70408     -1033.989 8        48.176                                                                    23618127.716 8  92682653.68408      -772.124 8        50.911    23618127.657 8  95100460.51808      -792.281 8        51.279
R15        27.000    23279779.853 7 124400084.48207      2213.141 7        44.321                                                                    23279779.886 6  96755631.87806      1721.228 6        40.300
C22        30.000                                                                                                                                    26621969.557 6 138627577.82406      2501.977 6        39.850                                                                    26621964.825 6 112646242.90206      2032.950 6        39.222
I01        31.000   333730856.128 7   6490751.89107     -2600.235 7        43.173
G02        32.000    22674380.983 7 119154710.92407     -3235.751 7        45.533                                    22674374.870 5  92847821.52405     -2521.366 5        34.905
G19        33.000    22422322.657 7 117830132.61107      -310.333 7        43.850                                    22422316.396 5  91815708.71705      -241.820 5        32.263
G17        34.000    22841675.426 7 120033862.20407     -2064.928 7        45.452                                    22841670.892 6  93532889.18706     -1609.034 6        41.714    22841671.167 6  93532889.19306     -1609.101 6        40.360
E11        35.000    25031472.621 7 131541339.85507     -2731.913 7        42.736                                                                    25031468.889 7  98228939.54907     -2040.050 7        44.576    25031468.911 7 100791426.29907     -2093.217 7        44.953
C32        36.000                                                                                                                                    26102595.599 6 135923080.44106     -3257.935 6        41.583                                                                    26102595.425 7 110448645.39807     -2647.229 7        42.087
C35        37.000                                                                                                                                    23132569.045 8 120457374.97408        89.310 8        48.468                                                                    23132567.487 7  97881483.83007        72.577 7        47.564
I09        38.000    37381631.441 7 146693548.36007      -478.352 7        42.561
C29        39.000                                                                                                                                    23530807.740 7 122531086.35707     -3152.926 7        47.425                                                                    23530805.405 7  99566537.82707     -2561.876 7        46.518
R22        40.000    21788861.084 7 116310452.38207      2971.178 7        47.725                                                                    21788859.673 7  90463699.46007      2311.037 7        45.120
S44        42.000    40778069.408 6 214290378.62206      -480.192 6        37.191
C09        43.000                                                                                                                                    38760167.392 7 201834381.45307       128.280 7        42.624    38760163.237 7 156071137.57507        99.103 7        45.848    38760161.286 6 164006948.69406       104.176 6        41.883
C05        44.000                                                                                                                                    39263032.487 6 204452946.90306      -415.209 6        38.586    39263027.660 7 158096011.20507      -321.120 7        42.529    39263029.408 6 166134869.56506      -337.210 6        39.787
R06        45.000    19733773.645 6 105303249.93206       607.554 6        40.937
C44        46.000                                                                                                                                    25779063.420 6 134238376.53106      2274.388 6        39.985                                                                    25779062.917 6 109079678.89106      1848.184 6        41.018
C39        47.000                                                                                                                                    39177203.144 7 204005988.95307      -918.620 7        43.198                                                                    39177199.531 7 165771565.91007      -746.505 7        42.844
C20        48.000                                                                                                                                    22257287.207 8 115899582.08708     -1497.782 8        51.920                                                                    22257281.354 8  94177896.16108     -1217.056 8        49.637
C06        49.000                                                                                                                                    38397837.389 6 199947638.85906      -381.400 6        40.799    38397832.137 7 154612180.87907      -294.902 7        44.554    38397831.687 6 162473814.02106      -309.850 6        41.702
C16        50.000                                                                                                                                    38870622.434 7 202409544.44507      -490.135 7        43.204    38870621.186 7 156515908.04907      -378.956 7        43.287    38870619.005 6 164474333.34506      -398.211 6        39.586
S48        51.000    77325455.466 6 406348886.46306      -399.545 6        37.372
C19        52.000                                                                                                                                    22784809.638 8 118646540.37308      1118.581 8        49.915                                                                    22784804.729 8  96410035.76408       908.975 8        49.328
C60        54.000                                                                                                                                    40778068.745 6 212342303.67706      -475.687 6        39.132                                                                    40778053.082 6 172545484.16606      -386.716 6        40.191
C37        56.000                                                                                                                                    25798936.459 7 134341838.16007      1681.265 7        42.345                                                                    25798940.554 7 109163763.94407      1365.966 7        42.131
C02        57.000                                                                                                                                    40730846.090 5 212096248.00005      -460.947 5        35.005    40730839.706 6 164006265.98406      -356.276 6        39.721    40730843.140 6 172345577.70206      -374.507 6        36.083
I03        58.000   132149103.300 6 442796219.26306       950.023 6        41.504
R07        59.000    22671114.748 7 121360266.22607      2908.664 7        46.989                                                                    22671114.252 6  94391316.42206      2262.342 6        41.876
> 2025 01 01 02 00 20.0000000  0 53
G28         1.000    23765769.369 6 124889976.74906     -2209.251 6        40.915                                    23765765.617 4  97316846.72104     -1721.496 4        26.766    23765765.838 6  97316852.73006     -1721.557 6        41.280
G31         2.000    22343831.238 7 117417641.57807      -487.094 7        45.524                                    22343826.739 7  91494254.12107      -379.552 7        42.286    22343826.732 6  91494253.11506      -379.503 6        41.783
G09         3.000    22251587.662 7 116932919.05607      2636.512 7        44.343                                    22251585.803 7  91116569.13607      2054.425 7        44.618    22251586.524 7  91116570.14107      2054.359 7        42.705
E34         4.000    26199320.507 7 137678367.71007      2128.285 7        42.305                                                                    26199320.926 7 102811775.37107      1589.255 7        45.350    26199320.783 7 105493821.06507      1630.759 7        45.685
S21         5.000    38575787.633 7 202716951.72907      -403.510 7        42.711
E05         6.000    25019078.494 6 131476174.81506      2363.466 6        41.657                                                                    25019079.728 7  98180285.54207      1764.957 7        44.498    25019079.219 7 100741502.97007      1810.982 7        45.153
G21         7.000    24392968.361 6 128185963.61206     -3614.920 6        36.594                                    24392963.677 3  99885167.85503     -2816.822 3        20.595
E04         8.000    24887848.964 7 130786552.96707     -2303.369 7        44.710                                                                    24887847.338 8  97665287.87508     -1719.956 8        48.360    24887847.054 8 100213069.94408     -1764.875 8        48.733
R14         9.000    23359701.902 7 124520354.58707      -872.313 7        43.765                                                                    23359703.402 6  96849151.71706      -678.504 6        39.465
G04        10.000    20656957.609 7 108553086.96107      1210.441 7        47.366                                    20656954.532 6  84586829.67506       943.201 6        38.805    20656954.513 7  84586824.67807       943.218 7        47.337
E09        11.000    23676723.488 8 124422069.38508       291.019 8        48.798                                                                    23676722.782 8  92912601.19008       217.309 8        50.633    23676722.314 8  95336407.43208       223.006 8        50.821
S27        12.000    39209021.106 5 206044775.11405      -393.324 5        35.652
G06        13.000    23683208.375 6 124456126.22006      2847.685 6        40.324                                    23683207.454 6  96978803.27106      2218.976 6        37.047    23683208.099 6  96978814.26206      2219.072 6        40.470
S36        14.000    38343213.759 7 201495437.16407      -403.537 7        43.793
E36        16.000    23536242.215 8 123683816.17608      -228.360 8        48.016                                                                    23536242.350 8  92361308.57808      -170.512 8        50.771    23536242.113 8  94770728.73908      -174.968 8        50.989
S45        17.000    63538987.347 6 333900417.05106      -443.475 6        37.410
G03        18.000    20178633.378 8 106039490.36408     -1110.031 8        49.996                                    20178631.089 8  82628193.82808      -864.959 8        51.872    20178631.714 7  82628202.82607      -864.932 7        45.849
R21        19.000    19569436.654 8 104720044.99108     -1186.621 8        52.800                                                                    19569434.989 7  81448933.64007      -922.984 7        45.902
R20        20.000    21974780.855 5 117509059.92805     -4553.781 5        35.714                                                                    21974782.354 7  91395932.07607     -3542.035 7        43.947
R05        21.000    21252194.875 8 113605204.58908     -3480.282 8        48.454                                                                    21252194.573 7  88359608.45407     -2706.901 7        45.296
I06        22.000    38247339.457 7 150091003.64607      -216.263 7        42.681
S28        23.000    41011999.216 5 215519506.46505      -397.121 5        33.934
E10        24.000    27521582.579 6 144627005.45606     -3372.773 6        39.249                                                                    27521582.614 7 108000749.98807     -2518.615 7        43.446    27521582.559 7 110818151.69807     -2584.374 7        44.138
S23        25.000    38290902.880 7 201220059.63507      -399.643 7        44.123
E06        26.000    23619113.224 8 124119338.30208     -1036.077 8        48.054                                                                    23619112.602 8  92686518.57908      -773.695 8        50.908    23619112.561 8  95104426.23608      -793.867 8        51.190
R15        27.000    23277710.380 7 124389027.22007      2209.970 7        45.693                                                                    23277710.837 6  96747031.77006      1718.914 6        40.365
C22        30.000                                                                                                                                    26619567.870 6 138615069.80306      2501.426 6        38.718                                                                    26619562.863 6 112636079.12906      2032.511 6        39.336
I01        31.000   333734169.331 7   6503754.27507     -2600.540 7        43.141
G02        32.000    22677460.880 7 119170894.95307     -3237.614 7        45.123                                    22677454.629 5  92860432.45505     -2522.812 5        34.824
G19        33.000    22422619.803 7 117831694.02807      -314.127 7        44.333                                    22422613.508 5  91816925.41205      -244.770 5        32.162
G17        34.000    22843641.041 7 120044194.24507     -2067.656 7        45.220                                    22843637.020 6  93540940.12806     -1611.159 6        41.588    22843637.372 6  93540940.13106     -1611.134 6        40.322
E11        35.000    25034073.065 7 131555003.72007     -2733.506 7        42.711                                                                    25034069.054 7  98239143.09207     -2041.277 7        44.488    25034068.927 7 100801896.01807     -2094.479 7        44.697
C32        36.000                                                                                                                                    26105723.929 6 135939371.79106     -3258.246 6        41.895                                                                    26105724.121 6 110461883.47506     -2647.732 6        41.990
C35        37.000                                                                                                                                    23132484.650 8 120456936.60208        86.238 8        48.118                                                                    23132483.256 7  97881127.62907        70.007 7        47.430
I09        38.000    37382241.246 7 146695941.17507      -478.687 7        42.669
C29        39.000                                                                                                                                    23533836.110 7 122546855.87507     -3154.744 7        46.931                                                                    23533833.640 7  99579351.86407     -2563.507 7        46.426
R22        40.000    21786079.078 8 116295603.42808      2968.453 8        48.476                                                                    21786077.585 7  90452150.29007      2308.821 7        44.668
S44        42.000    40778523.359 6 214292780.17806      -480.498 6        36.968
C09        43.000                                                                                                                                    38760044.631 7 201833742.99807       127.223 7        42.226    38760040.611 7 156070643.87007        98.359 7        45.753    38760038.694 6 164006429.90206       103.462 6        41.838
C05        44.000                                                                                                                                    39263431.244 6 204455023.86206      -415.510 6        38.390    39263426.609 7 158097617.22507      -321.237 7        42.671    39263428.312 6 166136557.29506      -337.674 6        39.841
R06        45.000    19733205.835 6 105300220.23106       604.549 6        40.975
C44        46.000                                                                                                                                    25776880.828 6 134227009.23506      2272.594 6        39.339                                                                    25776879.618 6 109070442.05706      1846.736 6        40.987
C39        47.000                                                                                                                                    39178085.623 7 204010585.02907      -919.697 7        43.062                                                                    39178082.005 7 165775300.59207      -747.153 7        42.654
C20        48.000                                                                                                                                    22258726.406 8 115907075.56708     -1499.445 8        51.685                                                                    22258720.404 8  94183985.23508     -1218.414 8        49.580
C06        49.000                                                                                                                                    38398203.442 6 199949548.83306      -382.476 6        40.634    38398199.009 7 154613657.78807      -295.665 7        44.623    38398198.447 6 162475366.03406      -310.647 6        41.795
C16        50.000                                                                                                                                    38871093.688 7 202411998.27707      -491.166 7        42.872    38871092.372 7 156517805.51207      -379.849 7        43.676    38871090.275 6 164476327.30406      -399.100 6        39.474
S48        51.000    77325832.701 6 406350886.25806      -400.134 6        36.979
C19        52.000                                                                                                                                    22783736.175 8 118640952.10208      1116.922 8        49.660                                                                    22783731.565 8  96405494.85408       907.514 8        49.272
C60        54.000                                                                                                                                    40778525.736 6 212344683.38906      -475.974 6        38.997                                                                    40778510.207 6 172547417.88506      -386.851 6        40.043
C37        56.000                                                                                                                                    25797322.699 6 134333437.25406      1679.366 6        41.228                                                                    25797327.311 7 109156937.52207      1364.618 7        42.328
C02        57.000                                                                                                                                    40731288.087 5 212098552.85805      -461.045 5        34.624    40731282.500 6 164008048.23706      -356.481 6        40.169    40731285.665 6 172347450.55306      -374.392 6        36.049
I03        58.000   132147893.434 6 442791470.51206       949.712 6        41.728
R07        59.000    22668399.285 7 121345727.17107      2907.053 7        47.156                                                                    22668398.330 6  94380008.25106      2261.034 6        41.428
> 2025 01 01 02 00 25.0000000  0 53
G28         1.000    23767872.748 6 124901029.60806     -2212.047 6        41.085                                    23767868.911 4  97325459.34604     -1723.669 4        26.527    23767868.855 6  97325465.35806     -1723.706 6        40.691
G31         2.000    22344296.944 7 117420086.31107      -490.781 7        45.403                                    22344291.949 7  91496159.11007      -382.427 7        42.180    22344292.122 6  91496158.12306      -382.412 6        41.151
G09         3.000    22249079.630 7 116919740.00907      2634.989 7        44.510                                    22249077.947 7  91106299.75507      2053.240 7        44.591    22249078.770 7  91106300.77307      2053.070 7        42.950
E34         4.000    26197296.059 7 137667728.05707      2127.527 7        42.857                                                                    26197296.263 7 102803830.18707      1588.693 7        45.238    26197296.080 7 105485668.61407      1630.129 7        45.965
S21         5.000    38576170.632 7 202718969.33507      -403.587 7        42.671
E05         6.000    25016830.086 6 131464359.52806      2362.518 6        41.976                                                                    25016831.413 7  98171462.43707      1764.349 7        44.602    25016830.735 7 100732449.69707      1810.302 7        45.127
G21         7.000    24396408.262 6 128204040.18006     -3615.734 6        36.915                                    24396403.414 3  99899253.46703     -2817.460 3        20.762
E04         8.000    24890041.007 7 130798072.40007     -2304.572 7        45.007                                                                    24890039.387 8  97673890.05308     -1720.906 8        48.314    24890039.091 8 100221896.52508     -1765.833 8        48.873
R14         9.000    23360521.892 7 124524726.22507      -876.431 7        44.137                                                                    23360523.964 6  96852551.87106      -681.738 6        40.381
G04        10.000    20655806.973 7 108547041.02107      1207.830 7        47.218                                    20655804.024 6  84582118.55606       941.167 6        38.757    20655804.205 7  84582113.55507       941.149 7        47.127
E09        11.000    23676447.299 8 124420618.79508       289.069 8        48.952                                                                    23676446.721 8  92911517.95808       215.898 8        50.653    23676446.292 8  95335295.94308       221.496 8        50.980
S27        12.000    39209389.800 5 206046739.85405      -392.932 5        35.733
G06        13.000    23680499.367 6 124441889.66006      2846.823 6        40.091                                    23680498.340 6  96967709.85406      2218.307 6        36.888    23680499.271 6  96967720.86906      2218.050 6        39.904
S36        14.000    38343595.000 7 201497454.59807      -403.676 7        43.780
E36        16.000    23536460.485 8 123684962.77708      -230.318 8        48.261                                                                    23536460.514 8  92362164.80908      -172.027 8        50.732    23536460.299 8  94771607.30508      -176.512 8        51.029
S45        17.000    63539368.034 6 333902634.44306      -443.462 6        37.539
G03        18.000    20179690.215 8 106045045.00108     -1111.953 8        50.018                                    20179688.091 8  82632522.11208      -866.456 8        51.824    20179688.793 7  82632531.10707      -866.420 7        45.798
R21        19.000    19570547.038 8 104725989.31908     -1191.203 8        52.776                                                                    19570545.749 7  81453557.00307      -926.478 7        45.825
R20        20.000    21979039.687 5 117531834.79205     -4555.871 5        35.862                                                                    21979041.517 7  91413645.86007     -3543.568 7        44.065
R05        21.000    21255450.724 8 113622608.43108     -3481.308 8        48.435                                                                    21255450.461 7  88373144.77807     -2707.702 7        44.969
I06        22.000    38247614.823 7 150092085.07907      -216.312 7        42.701
S28        23.000    41012373.196 5 215521492.01305      -397.303 5        33.886
E10        24.000    27524792.156 6 144643870.68406     -3373.245 6        40.017                                                                    27524792.035 7 108013344.16507     -2519.130 7        43.653    27524791.814 7 110831074.41307     -2584.865 7        44.453
S23        25.000    38291281.801 7 201222057.38807      -399.546 7        44.107
E06        26.000    23620099.633 8 124124523.10208     -1037.953 8        48.198                                                                    23620099.266 8  92690390.34008      -775.097 8        50.898    23620099.173 8  95108398.99708      -795.257 8        51.325
R15        27.000    23275644.860 7 124377984.10107      2207.236 7        45.589                                                                    23275644.024 6  96738442.68306      1716.603 6        40.193
C22        30.000                                                                                                                                    26617166.459 6 138602563.48906      2500.986 6        38.859                                                                    26617161.013 6 112625916.71906      2032.225 6        38.997
I01        31.000   333737482.918 7   6516757.19007     -2600.701 7        43.124
G02        32.000    22680541.937 7 119187087.00007     -3239.268 7        46.173                                    22680535.890 5  92873049.62905     -2524.102 5        34.671
G19        33.000    22422920.303 7 117833273.24707      -317.597 7        44.135                                    22422914.019 5  91818155.97105      -247.479 5        32.066
G17        34.000    22845609.618 7 120054538.43407     -2070.054 7        44.786                                    22845605.473 6  93549000.53106     -1613.026 6        41.476    22845605.830 6  93549000.53006     -1612.982 6        40.198
E11        35.000    25036674.518 7 131568674.60407     -2734.869 7        42.988                                                                    25036670.626 7  98249351.85907     -2042.241 7        44.682    25036670.235 7 100812371.10507     -2095.518 7        44.834
C32        36.000                                                                                                                                    26108852.753 7 135955663.55807     -3258.460 7        42.148                                                                    26108852.843 7 110475121.86407     -2647.777 7        42.009
C35        37.000                                                                                                                                    23132402.991 8 120456512.32608        83.420 8        48.061                                                                    23132401.842 7  97880782.85807        67.771 7        47.303
I09        38.000    37382851.405 7 146698334.65107      -478.744 7        42.747
C29        39.000                                                                                                                                    23536865.699 7 122562633.48907     -3156.383 7        47.423                                                                    23536863.701 7  99592172.46207     -2564.778 7        46.285
R22        40.000    21783300.549 8 116280766.95108      2965.950 8        48.886                                                                    21783298.253 7  90440610.79907      2306.903 7        44.408
S44        42.000    40778976.996 6 214295181.69406      -480.368 6        36.873
C09        43.000                                                                                                                                    38759922.151 7 201833108.68607       126.295 7        42.229    38759919.184 7 156070153.37207        97.774 7        45.851    38759916.924 6 164005914.46606       102.684 6        41.595
C05        44.000                                                                                                                                    39263829.438 6 204457100.86906      -415.447 6        38.126    39263825.116 7 158099223.30307      -321.315 7        42.739    39263827.306 6 166138245.02706      -337.674 6        39.676
R06        45.000    19732640.293 6 105297203.92306       601.865 6        40.698
C44        46.000                                                                                                                                    25774699.747 6 134215649.60806      2271.072 6        39.637                                                                    25774698.233 6 109061211.42306      1845.514 6        41.251
C39        47.000                                                                                                                                    39178969.125 7 204015184.81107      -920.302 7        42.775                                                                    39178965.357 7 165779038.29707      -747.899 7        42.565
C20        48.000                                                                                                                                    22260166.746 8 115914576.25608     -1500.925 8        51.610                                                                    22260160.783 8  94190080.15608     -1219.618 8        49.449
C06        49.000                                                                                                                                    38398571.219 6 199951463.08106      -383.320 6        40.574    38398566.474 7 154615138.00907      -296.394 7        44.614    38398566.044 6 162476921.51906      -311.370 6        41.540
C16        50.000                                                                                                                                    38871565.092 7 202414456.22107      -492.003 7        43.166    38871564.524 7 156519706.15707      -380.491 7        43.746    38871562.253 6 164478324.58306      -399.810 6        39.538
S48        51.000    77326215.476 6 406352885.90106      -400.022 6        37.297
C19        52.000                                                                                                                                    22782664.678 8 118635371.13008      1115.426 8        49.759                                                                    22782659.807 8  96400959.84208       906.405 8        49.128
C60        54.000                                                                                                                                    40778982.731 6 212347063.08806      -475.950 6        39.078                                                                    40778967.122 6 172549351.57606      -386.705 6        40.091
C37        56.000                                                                                                                                    25795711.895 6 134325044.57706      1677.781 6        41.735                                                                    25795715.689 7 109150117.78807      1363.258 7        42.398
C02        57.000                                                                                                                                    40731730.912 5 212100857.71205      -461.121 5        34.633    40731725.029 6 164009830.50006      -356.434 6        40.093    40731728.463 5 172349323.45005      -374.603 5        35.862
I03        58.000   132146683.267 6 442786721.86106       949.716 6        41.499
R07        59.000    22665684.489 7 121331194.69307      2905.793 7        47.509                                                                    22665683.661 6  94368705.22806      2260.147 6        41.218
> 2025 01 01 02 00 30.0000000  0 53
G28         1.000    23769978.714 6 124912096.61806     -2214.800 6        41.375                                    23769974.862 4  97334082.99304     -1725.814 4        26.659    23769975.149 6  97334089.00406     -1725.796 6        40.796
G31         2.000    22344765.343 7 117422548.97407      -494.405 7        45.196                                    22344760.575 7  91498078.06507      -385.252 7        42.256    22344760.760 6  91498077.06606      -385.192 6        41.321
G09         3.000    22246573.570 7 116906568.81907      2633.463 7        44.503                                    22246571.611 7  91096036.49807      2052.053 7        44.707    22246571.672 7  91096037.50507      2051.998 7        42.828
E34         4.000    26195272.293 7 137657092.30307      2126.662 7        42.662                                                                    26195272.401 7 102795887.90707      1588.117 7        45.260    26195272.186 7 105477519.13707      1629.602 7        45.720
S21         5.000    38576552.826 7 202720987.14507      -403.648 7        42.372
E05         6.000    25014582.927 7 131452548.35907      2361.861 7        42.006                                                                    25014583.918 7  98162642.42907      1763.646 7        44.659    25014583.227 7 100723399.59107      1809.741 7        44.966
G21         7.000    24399849.059 6 128222119.55306     -3616.186 6        37.134                                    24399843.711 3  99913341.29503     -2817.799 3        20.667
E04         8.000    24892234.458 7 130809597.99307     -2305.745 7        44.882                                                                    24892232.614 8  97682496.83208     -1721.853 8        48.349    24892232.344 8 100230727.83308     -1766.790 8        48.597
R14         9.000    23361346.046 7 124529118.74007      -880.518 7        44.876                                                                    23361348.286 6  96855968.26106      -684.945 6        40.358
G04        10.000    20654658.901 7 108541007.75607      1205.318 7        46.992                                    20654655.913 6  84577417.31106       939.211 6        38.886    20654655.942 7  84577412.31007       939.217 7        46.827
E09        11.000    23676173.064 8 124419177.77508       287.140 8        48.527                                                                    23676172.529 8  92910441.87708       214.427 8        50.620    23676172.092 8  95334191.78908       220.050 8        50.755
S27        12.000    39209766.856 6 206048704.19906      -392.866 6        36.023
G06        13.000    23677791.478 6 124427658.40306      2845.602 6        40.231                                    23677790.245 6  96956620.56506      2217.349 6        37.036    23677790.819 6  96956631.56806      2217.210 6        39.868
S36        14.000    38343977.637 7 201499472.31707      -403.479 7        43.843
E36        16.000    23536680.438 8 123686119.30308      -232.375 8        48.029                                                                    23536680.602 8  92363028.45008      -173.517 8        50.689    23536680.364 8  94772493.47708      -178.043 8        50.900
S45        17.000    63539745.667 6 333904851.42706      -443.350 6        37.183
G03        18.000    20180748.888 8 106050609.35808     -1113.940 8        49.895                                    20180746.944 8  82636857.97608      -868.005 8        51.919    20180747.691 7  82636866.97007      -868.000 7        46.127
R21        19.000    19571662.008 8 104731956.32608     -1195.680 8        52.668                                                                    19571660.908 7  81458198.00107      -929.948 7        46.145
R20        20.000    21983300.759 6 117554618.81106     -4557.888 6        36.484                                                                    21983301.818 7  91431366.73607     -3544.941 7        43.917
R05        21.000    21258707.513 8 113640017.63508     -3482.465 8        48.575                                                                    21258707.281 7  88386685.26707     -2708.583 7        44.740
I06        22.000    38247890.712 7 150093166.48107      -216.355 7        42.673
S28        23.000    41012754.406 5 215523477.39505      -397.033 5        33.617
E10        24.000    27528001.959 6 144660739.00706     -3374.029 6        39.655                                                                    27528002.129 7 108025940.61907     -2519.533 7        43.522    27528001.697 7 110843999.47407     -2585.205 7        44.125
S23        25.000    38291662.761 7 201224054.79007      -399.574 7        44.190
E06        26.000    23621088.085 7 124129716.94907     -1039.715 7        47.876                                                                    23621087.644 8  92694268.86508      -776.439 8        50.820    23621087.552 8  95112378.70008      -796.663 8        51.117
R15        27.000    23273580.909 7 124366955.02407      2204.407 7        45.169                                                                    23273580.260 6  96729864.51506      1714.518 6        40.226
C22        30.000                                                                                                                                    26614766.069 6 138590058.74006      2500.854 6        39.814                                                                    26614759.438 6 112615755.60106      2032.242 6        39.060
I01        31.000   333740796.400 7   6529760.50507     -2600.799 7        43.118
G02        32.000    22683624.695 7 119203286.88107     -3240.815 7        46.658                                    22683618.613 5  92885672.91105     -2525.313 5        34.833
G19        33.000    22423224.228 7 117834870.14507      -321.254 7        44.366                                    22423217.924 5  91819400.29905      -250.326 5        32.180
G17        34.000    22847580.445 7 120064894.60107     -2072.604 7        45.037                                    22847576.211 6  93557070.27006     -1615.018 6        41.607    22847576.416 6  93557070.27806     -1614.943 6        40.079
E11        35.000    25039277.189 7 131582352.32707     -2736.268 7        42.857                                                                    25039273.441 7  98259565.74007     -2043.179 7        44.585    25039273.067 7 100822851.43807     -2096.587 7        44.667
C32        36.000                                                                                                                                    26111981.610 7 135971955.59107     -3258.535 7        42.057                                                                    26111981.851 7 110488360.47407     -2647.814 7        42.512
C35        37.000                                                                                                                                    23132324.398 8 120456101.99608        80.587 8        48.211                                                                    23132323.014 7  97880449.44107        65.521 7        47.436
I09        38.000    37383461.388 7 146700728.66907      -478.936 7        42.808
C29        39.000                                                                                                                                    23539897.662 7 122578419.07507     -3158.056 7        47.258                                                                    23539895.160 7  99604999.54307     -2566.040 7        46.285
R22        40.000    21780523.145 8 116265942.76008      2963.462 8        48.251                                                                    21780521.858 7  90429080.87207      2304.921 7        44.867
S44        42.000    40779440.108 6 214297583.02006      -480.189 6        37.115
C09        43.000                                                                                                                                    38759801.007 7 201832478.41407       125.572 7        42.127    38759797.859 7 156069666.02907        97.083 7        45.947    38759795.887 6 164005402.31906       102.185 6        41.769
C05        44.000                                                                                                                                    39264228.315 6 204459177.80306      -415.539 6        38.150    39264224.025 7 158100829.31007      -321.247 7        42.580    39264226.220 6 166139932.69806      -337.666 6        39.823
R06        45.000    19732077.192 6 105294200.84706       599.350 6        40.646
C44        46.000                                                                                                                                    25772519.538 6 134204297.53806      2269.637 6        39.985                                                                    25772518.662 6 109051986.95006      1844.282 6        41.661
C39        47.000                                                                                                                                    39179852.851 7 204019788.21507      -921.101 7        42.720                                                                    39179849.553 7 165782778.93407      -748.364 7        42.580
C20        48.000                                                                                                                                    22261608.515 8 115922083.98208     -1502.331 8        51.455                                                                    22261602.601 8  94196180.80008     -1220.729 8        49.489
C06        49.000                                                                                                                                    38398939.875 6 199953381.49706      -384.050 6        40.863    38398935.078 7 154616621.46707      -297.132 7        44.689    38398934.553 6 162478480.39806      -312.019 6        41.616
C16        50.000                                                                                                                                    38872038.173 7 202416918.16507      -492.907 7        43.029    38872037.715 7 156521609.89307      -381.078 7        44.041    38872035.130 6 164480325.11406      -400.390 6        39.483
S48        51.000    77326591.714 6 406354885.22206      -400.025 6        37.365
C19        52.000                                                                                                                                    22781594.007 8 118629797.29608      1113.961 8        49.789                                                                    22781589.422 8  96396430.65508       905.266 8        49.198
C60        54.000                                                                                                                                    40779439.910 6 212349442.59406      -475.927 6        39.198                                                                    40779424.086 6 172551285.12106      -386.699 6        39.994
C37        56.000                                                                                                                                    25794102.449 7 134316660.01107      1675.909 7        42.138                                                                    25794105.620 7 109143304.63307      1362.034 7        42.620
C02        57.000                                                                                                                                    40732173.866 5 212103162.49205      -460.955 5        34.548    40732167.644 6 164011612.70206      -356.412 6        40.212    40732171.136 6 172351196.28006      -374.636 6        36.038
I03        58.000   132145473.473 6 442781973.25306       949.719 6        41.561
R07        59.000    22662971.056 7 121316668.77507      2904.421 7        46.729                                                                    22662970.221 6  94357407.30106      2259.098 6        40.808
> 2025 01 01 02 00 35.0000000  0 53
G28         1.000    23772087.167 6 124923177.44506     -2217.708 6        40.770                                    23772083.389 4  97342717.41404     -1728.086 4        26.407    23772083.224 6  97342723.42006     -1728.107 6        40.563
G31         2.000    22345237.266 7 117425029.18107      -497.873 7        45.535                                    22345232.555 7  91500010.69707      -387.955 7        42.210    22345233.111 6  91500009.70206      -387.966 6        41.073
G09         3.000    22244068.216 7 116893405.15907      2631.809 7        44.584                                    22244066.711 7  91085779.10507      2050.759 7        44.813    22244066.584 7  91085780.09907      2050.845 7        42.487
E34         4.000    26193248.802 7 137646460.10407      2126.036 7        42.720                                                                    26193249.117 7 102787948.26707      1587.680 7        45.374    26193248.924 7 105469372.38907      1629.003 7        45.731
S21         5.000    38576938.154 7 202723004.61107      -403.484 7        42.610
E05         6.000    25012335.864 6 131440740.98506      2360.946 6        41.416                                                                    25012336.866 7  98153825.24507      1763.083 7        44.706    25012336.351 7 100714352.39407      1809.080 7        44.969
G21         7.000    24403289.011 6 128240201.42606     -3616.652 6        36.938                                    24403284.570 3  99927431.06303     -2818.174 3        20.714
E04         8.000    24894428.717 7 130821129.44107     -2306.942 7        44.796                                                                    24894426.990 8  97691107.97908     -1722.744 8        48.394    24894426.773 8 100239563.61608     -1767.669 8        48.510
R14         9.000    23362174.572 7 124533531.64407      -884.679 7        45.081                                                                    23362175.648 6  96859400.48506      -688.036 6        40.219
G04        10.000    20653513.372 7 108534986.85607      1202.815 7        47.157                                    20653510.167 6  84572725.70306       937.260 6        38.853    20653510.149 7  84572720.70107       937.339 7        46.980
E09        11.000    23675900.707 8 124417745.99508       285.337 8        48.481                                                                    23675900.059 8  92909372.69608       213.110 8        50.640    23675899.627 8  95333094.71708       218.626 8        50.748
S27        12.000    39210139.499 6 206050668.37106      -393.095 6        36.174
G06        13.000    23675084.426 6 124413432.10406      2844.751 6        40.617                                    23675083.071 6  96945535.14306      2216.692 6        37.161    23675083.848 6  96945546.15506      2216.709 6        40.391
S36        14.000    38344365.054 7 201501489.21107      -403.385 7        44.212
E36        16.000    23536902.306 7 123687285.42107      -234.243 7        47.981                                                                    23536902.506 8  92363899.25408      -174.934 8        50.745    23536902.270 8  94773386.99808      -179.528 8        50.855
S45        17.000    63540122.504 6 333907067.85906      -443.263 6        37.482
G03        18.000    20181809.559 8 106056183.09708     -1115.846 8        50.134                                    20181807.591 8  82641201.15208      -869.490 8        51.910    20181808.095 7  82641210.15107      -869.454 7        46.066
R21        19.000    19572781.578 8 104737945.56008     -1200.202 8        52.843                                                                    19572779.961 7  81462856.29907      -933.472 7        45.962
R20        20.000    21987563.240 6 117577411.65806     -4559.714 6        36.541                                                                    21987564.125 7  91449094.49807     -3546.352 7        43.422
R05        21.000    21261965.497 8 113657431.88108     -3483.430 8        48.742                                                                    21261965.090 7  88400229.68607     -2709.273 7        44.658
I06        22.000    38248166.156 7 150094247.57507      -216.215 7        42.578
S28        23.000    41013132.326 5 215525462.41405      -397.297 5        34.162
E10        24.000    27531212.405 6 144677610.04406     -3374.539 6        39.796                                                                    27531212.566 7 108038539.12707     -2519.969 7        43.378    27531212.098 7 110856926.63507     -2585.700 7        43.987
S23        25.000    38292040.948 7 201226051.72607      -399.383 7        44.309
E06        26.000    23622078.134 8 124134919.49608     -1041.465 8        48.011                                                                    23622077.646 8  92698153.88608      -777.718 8        50.874    23622077.527 8  95116365.07408      -798.011 8        51.058
R15        27.000    23271518.645 7 124355939.51207      2201.588 7        44.497                                                                    23271519.541 6  96721296.91906      1712.288 6        40.296
C22        30.000                                                                                                                                    26612364.074 6 138577555.24606      2500.665 6        39.901                                                                    26612358.308 6 112605595.49106      2031.860 6        38.949
I01        31.000   333744110.129 7   6542763.95007     -2600.749 7        43.043
G02        32.000    22686708.533 7 119219494.28207     -3242.324 7        46.628                                    22686702.807 5  92898302.05005     -2526.482 5        34.971
G19        33.000    22423531.304 7 117836484.36807      -324.678 7        44.290                                    22423525.147 5  91820658.13405      -252.991 5        32.132
G17        34.000    22849553.525 7 120075262.42307     -2074.831 7        44.501                                    22849549.131 6  93565149.09406     -1616.749 6        41.490    22849549.284 6  93565149.07706     -1616.676 6        40.365
E11        35.000    25041881.103 7 131596036.55607     -2737.605 7        42.622                                                                    25041877.428 7  98269784.48407     -2044.292 7        44.727    25041877.171 7 100833336.74907     -2097.613 7        44.561
C32        36.000                                                                                                                                    26115109.961 7 135988247.54107     -3258.508 7        42.379                                                                    26115110.664 7 110501599.01907     -2647.723 7        42.792
C35        37.000                                                                                                                                    23132248.223 8 120455705.29508        77.934 8        48.196                                                                    23132246.838 7  97880127.08607        63.278 7        47.536
I09        38.000    37384071.701 7 146703122.98207      -478.878 7        42.756
C29        39.000                                                                                                                                    23542929.994 7 122594212.27907     -3159.454 7        47.267                                                                    23542928.047 7  99617832.81107     -2567.295 7        46.265
R22        40.000    21777747.836 8 116251130.53808      2961.183 8        48.733                                                                    21777746.436 7  90417560.26407      2303.134 7        44.451
S44        42.000    40779894.264 6 214299983.86706      -480.462 6        37.040
C09        43.000                                                                                                                                    38759680.763 7 201831851.80407       124.881 7        42.040    38759677.780 7 156069181.49707        96.502 7        45.902    38759675.586 6 164004893.15406       101.384 6        41.831
C05        44.000                                                                                                                                    39264627.122 6 204461254.30606      -415.349 6        38.177    39264622.777 7 158102435.00507      -321.303 7        42.919    39264624.883 6 166141620.02306      -337.531 6        39.793
R06        45.000    19731516.706 6 105291210.63306       596.629 6        40.713
C44        46.000                                                                                                                                    25770340.858 6 134192952.63206      2268.027 6        39.613                                                                    25770339.972 6 109042768.27606      1843.020 6        41.209
C39        47.000                                                                                                                                    39180737.712 7 204024394.85907      -921.759 7        42.542                                                                    39180734.009 7 165786522.21707      -748.982 7        42.732
C20        48.000                                                                                                                                    22263051.492 8 115929598.41808     -1503.632 8        51.363                                                                    22263045.658 8  94202286.89208     -1221.857 8        49.606
C06        49.000                                                                                                                                    38399309.631 6 199955303.78406      -384.945 6        40.746    38399304.218 7 154618107.88507      -297.726 7        44.646    38399303.526 6 162480042.40506      -312.782 6        41.671
C16        50.000                                                                                                                                    38872511.580 7 202419383.72707      -493.490 7        43.263    38872511.305 7 156523516.42107      -381.566 7        43.892    38872508.518 6 164482328.58706      -401.086 6        39.589
S48        51.000    77326968.542 6 406356883.93806      -399.837 6        37.202
C19        52.000                                                                                                                                    22780524.768 8 118624230.28608      1112.651 8        49.739                                                                    22780520.278 8  96391907.00908       904.073 8        49.289
C60        54.000                                                                                                                                    40779896.485 6 212351821.58806      -475.833 6        39.036                                                                    40779881.059 6 172553218.24606      -386.670 6        40.143
C37        56.000                                                                                                                                    25792493.598 7 134308283.19807      1674.458 7        42.269                                                                    25792496.996 7 109136497.79607      1360.581 7        42.955
C02        57.000                                                                                                                                    40732616.047 5 212105466.81605      -460.874 5        34.857    40732610.147 6 164013394.55106      -356.379 6        40.195    40732613.643 5 172353068.73805      -374.830 5        35.914
I03        58.000   132144263.002 6 442777224.39706       949.729 6        41.373
R07        59.000    22660258.536 7 121302148.86207      2903.224 7        47.490                                                                    22660257.285 6  94346114.04206      2258.013 6        39.817
> 2025 01 01 02 00 40.0000000  0 53
G28         1.000    23774198.348 6 124934272.55706     -2220.475 6        40.849                                    23774194.782 4  97351362.95704     -1730.237 4        26.251    23774194.750 6  97351368.96506     -1730.315 6        41.330
G31         2.000    22345712.733 7 117427527.49407      -501.524 7        45.567                                    22345707.969 7  91501957.43707      -390.797 7        42.095    22345708.466 6  91501956.44206      -390.791 6        41.201
G09         3.000    22241565.386 7 116880249.50607      2630.293 7        44.089                                    22241563.291 7  91075527.94807      2049.577 7        44.661    22241563.400 7  91075528.96307      2049.612 7        42.804
E34         4.000    26191226.215 7 137635831.93107      2125.205 7        42.351                                                                    26191226.596 7 102780011.64107      1586.985 7        45.381    26191226.465 7 105461228.71507      1628.402 7        45.846
S21         5.000    38577322.061 7 202725022.01507      -403.491 7        42.944
E05         6.000    25010089.601 6 131428937.87206      2360.159 6        40.951                                                                    25010090.705 7  98145011.24207      1762.511 7        44.853    25010090.324 7 100705308.46507      1808.508 7        45.088
G21         7.000    24406730.837 6 128258286.24606     -3617.484 6        37.134                                    24406725.971 3  99941523.13003     -2818.824 3        21.071
E04         8.000    24896624.356 7 130832667.20707     -2308.238 7        44.482                                                                    24896622.568 8  97699723.83708     -1723.646 8        48.446    24896622.277 8 100248404.23708     -1768.624 8        48.632
R14         9.000    23363006.284 7 124537965.34407      -888.794 7        44.784                                                                    23363007.580 6  96862848.91206      -691.415 6        40.515
G04        10.000    20652369.952 7 108528978.78707      1200.313 7        47.172                                    20652366.849 6  84568044.09106       935.308 6        38.697    20652367.208 7  84568039.09107       935.267 7        47.215
E09        11.000    23675630.148 8 124416323.93308       283.419 8        48.195                                                                    23675629.500 8  92908310.76808       211.663 8        50.693    23675629.033 8  95332005.08508       217.169 8        50.812
S27        12.000    39210514.449 6 206052632.96006      -392.752 6        36.053
G06        13.000    23672378.331 6 124399211.22706      2843.598 6        40.830                                    23672376.952 6  96934453.94806      2215.793 6        36.915    23672377.567 6  96934464.96606      2215.726 6        40.405
S36        14.000    38344747.480 7 201503505.50607      -403.382 7        44.284
E36        16.000    23537126.215 7 123688461.61607      -236.252 7        47.738                                                                    23537126.315 8  92364777.57708      -176.445 8        50.790    23537126.053 8  94774288.23008      -181.007 8        50.920
S45        17.000    63540504.591 6 333907584.27316      -443.292 6        37.667
G03        18.000    20182872.139 8 106061766.68708     -1117.712 8        49.942                                    20182870.111 8  82645551.99708      -870.943 8        51.759    20182870.588 7  82645560.99707      -870.983 7        46.189
R21        19.000    19573905.180 8 104743957.52808     -1204.701 8        53.252                                                                    19573903.610 7  81467532.26607      -936.960 7        46.310
R20        20.000    21991826.929 6 117600213.92106     -4561.385 6        36.197                                                                    21991828.582 7  91466829.59507     -3547.779 7        43.469
R05        21.000    21265224.557 8 113674851.62308     -3484.553 8        49.002                                                                    21265223.514 7  88413778.36707     -2710.177 7        45.168
I06        22.000    38248441.425 7 150095328.74807      -216.206 7        42.440
S28        23.000    41013508.474 5 215527447.09605      -397.005 5        33.928
E10        24.000    27534423.499 6 144694484.27706     -3375.214 6        39.393                                                                    27534423.562 7 108051140.01107     -2520.469 7        43.462    27534423.297 7 110869856.23107     -2586.122 7        43.877
S23        25.000    38292423.281 7 201228048.72107      -399.447 7        44.367
E06        26.000    23623069.841 7 124140131.24007     -1043.323 7        47.808                                                                    23623069.444 8  92702045.77308      -779.084 8        50.962    23623069.331 8  95120358.48608      -799.370 8        51.134
R15        27.000    23269458.878 7 124344938.10707      2198.817 7        44.528                                                                    23269460.324 6  96712740.28106      1710.110 6        40.555
C22        30.000                                                                                                                                    26609962.439 6 138565053.47206      2500.169 6        39.646                                                                    26609957.401 6 112595436.76006      2031.794 6        38.715
I01        31.000   333747424.244 7   6555767.97007     -2600.894 7        42.868
G02        32.000    22689794.278 7 119235709.66707     -3243.912 7        46.216                                    22689788.562 5  92910937.41605     -2527.725 5        34.890
G19        33.000    22423841.813 7 117838116.37807      -328.215 7        44.114                                    22423835.639 5  91821929.82905      -255.750 5        32.024
G17        34.000    22851528.756 7 120085642.36207     -2077.201 7        45.236                                    22851524.336 6  93573237.35306     -1618.598 6        41.368    22851524.299 6  93573237.35706     -1618.593 6        40.574
E11        35.000    25044486.504 7 131609727.77907     -2739.084 7        42.180                                                                    25044482.746 7  98280008.43707     -2045.315 7        44.834    25044482.519 7 100843827.41407     -2098.703 7        44.685
C32        36.000                                                                                                                                    26118238.830 7 136004539.92407     -3258.586 7        42.125                                                                    26118239.416 7 110514837.89507     -2647.719 7        42.768
C35        37.000                                                                                                                                    23132174.593 8 120455322.69708        75.052 8        48.651                                                                    23132173.328 7  97879816.16907        61.208 7        47.517
I09        38.000    37384681.692 7 146705517.96907      -479.055 7        42.834
C29        39.000                                                                                                                                    23545964.836 7 122610013.55807     -3161.083 7        47.884                                                                    23545962.555 7  99630672.63407     -2568.439 7        46.417
R22        40.000    21774975.753 8 116236330.82708      2958.668 8        48.391                                                                    21774974.075 7  90406049.39107      2301.117 7        45.199
S44        42.000    40780350.969 6 214302384.66606      -480.289 6        37.520
C09        43.000                                                                                                                                    38759561.008 7 201831229.33007       123.983 7        42.042    38759558.306 7 156068700.14607        95.971 7        46.026    38759556.078 6 164004387.32706       101.051 6        41.905
C05        44.000                                                                                                                                    39265025.753 6 204463330.86306      -415.414 6        38.261    39265021.816 7 158104040.72307      -321.126 7        42.775    39265023.644 6 166143307.38706      -337.473 6        39.838
R06        45.000    19730959.122 6 105288233.86106       594.142 6        40.749
C44        46.000                                                                                                                                    25768163.781 6 134181615.37406      2266.771 6        40.262                                                                    25768162.517 6 109033555.82706      1842.007 6        41.061
C39        47.000                                                                                                                                    39181623.103 7 204029005.22707      -922.469 7        42.813                                                                    39181619.446 7 165790268.50507      -749.426 7        42.842
C20        48.000                                                                                                                                    22264495.988 8 115937120.04108     -1505.083 8        51.522                                                                    22264490.088 8  94208398.80908     -1222.803 8        49.578
C06        49.000                                                                                                                                    38399679.693 6 199957230.34306      -385.872 6        40.806    38399673.760 7 154619597.62307      -298.466 7        44.582    38399673.562 6 162481607.88206      -313.305 6        41.735
C16        50.000                                                                                                                                    38872985.995 7 202421853.43307      -494.328 7        43.407    38872985.381 7 156525426.15107      -382.231 7        44.008    38872982.973 6 164484335.40906      -401.527 6        39.510
S48        51.000    77327345.401 6 406358882.52106      -399.792 6        37.422
C19        52.000                                                                                                                                    22779457.213 8 118618670.56208      1111.169 8        49.888                                                                    22779452.602 8  96387389.26408       903.108 8        49.322
C60        54.000                                                                                                                                    40780353.118 6 212354200.57506      -475.907 6        38.907                                                                    40780338.068 6 172555151.34406      -386.572 6        40.310
C37        56.000                                                                                                                                    25790886.202 7 134299914.65307      1672.789 7        42.353                                                                    25790889.960 7 109129697.65907      1359.502 7        43.079
C02        57.000                                                                                                                                    40733058.903 5 212107771.20405      -460.923 5        35.010    40733052.775 6 164015176.46106      -356.465 6        40.002    40733056.186 6 172354941.21106      -374.283 6        36.215
I03        58.000   132143053.111 6 442772475.67006       949.789 6        41.580
R07        59.000    22657547.499 7 121287635.62407      2902.050 7        46.711                                                                    22657545.939 6  94334825.97006      2257.194 6        40.801
> 2025 01 01 02 00 45.0000000  0 53
G28         1.000    23776312.257 6 124945381.41106     -2223.243 6        40.717                                    23776308.723 4  97360019.21604     -1732.392 4        26.072    23776309.065 6  97360025.21906     -1732.460 6        40.963
G31         2.000    22346191.501 7 117430043.35307      -504.971 7        45.449                                    22346186.714 7  91503917.84607      -393.484 7        42.017    22346187.471 6  91503916.84706      -393.489 6        41.027
G09         3.000    22239063.295 7 116867101.37607      2628.740 7        44.584                                    22239061.248 7  91065282.65607      2048.368 7        44.640    22239061.427 7  91065283.66107      2048.449 7        42.209
E34         4.000    26189204.616 7 137625207.32207      2124.420 7        42.389                                                                    26189204.848 7 102772077.66707      1586.462 7        45.375    26189204.729 7 105453087.77907      1627.854 7        45.865
S21         5.000    38577705.145 7 202727038.95507      -403.392 7        42.768
E05         6.000    25007844.491 6 131417138.54606      2359.338 6        41.066                                                                    25007845.239 7  98136200.06407      1761.916 7        44.597    25007845.132 7 100696267.43407      1807.778 7        45.178
G21         7.000    24410173.208 6 128276373.47906     -3617.542 6        37.565                                    24410167.972 3  99955617.05603     -2818.857 3        21.262
E04         8.000    24898820.969 7 130844210.75707     -2309.389 7        44.751                                                                    24898819.184 8  97708344.02108     -1724.458 8        48.431    24898818.905 8 100257249.29308     -1769.461 8        48.569
R14         9.000    23363841.296 7 124542419.39707      -892.964 7        44.400                                                                    23363843.290 6  96866313.18206      -694.643 6        40.746
G04        10.000    20651229.226 7 108522983.03807      1197.802 7        47.376                                    20651225.879 6  84563372.08406       933.351 6        38.694    20651226.018 7  84563367.08407       933.385 7        47.415
E09        11.000    23675361.430 8 124414911.07708       281.566 8        48.280                                                                    23675360.661 8  92907255.71608       210.244 8        50.600    23675360.115 8  95330922.50808       215.740 8        50.736
S27        12.000    39210887.821 6 206054596.48206      -392.809 6        36.204
G06        13.000    23669672.823 6 124384995.32106      2842.552 6        40.398                                    23669671.777 6  96923376.61906      2214.974 6        36.960    23669672.315 6  96923387.62106      2214.906 6        40.222
S36        14.000    38345135.304 7 201505521.92507      -403.339 7        44.236
E36        16.000    23537351.924 7 123689647.36107      -238.196 7        47.699                                                                    23537351.979 8  92365663.03808      -177.875 8        50.728    23537351.701 8  94775196.79208      -182.494 8        50.844
S45        17.000    63540885.113 6 333909800.21106      -443.128 6        37.784
G03        18.000    20183936.225 8 106067359.61408     -1119.646 8        49.997                                    20183934.415 8  82649910.12408      -872.452 8        51.741    20183934.828 7  82649919.12207      -872.449 7        45.890
R21        19.000    19575032.639 8 104749991.60908     -1209.196 8        52.856                                                                    19575031.253 7  81472225.44107      -940.389 7        46.586
R20        20.000    21996091.423 6 117623025.02306     -4563.305 6        36.677                                                                    21996093.784 7  91484571.55707     -3549.073 7        43.010
R05        21.000    21268483.744 8 113692276.46708     -3485.550 8        48.299                                                                    21268483.168 7  88427331.02207     -2710.960 7        45.199
I06        22.000    38248717.037 7 150096409.62007      -216.198 7        42.586
S28        23.000    41013885.199 5 215529431.43305      -396.753 5        33.437
E10        24.000    27537634.992 6 144711361.19506     -3375.672 6        39.156                                                                    27537634.906 7 108063742.89407     -2520.818 7        43.117    27537634.931 7 110882787.89707     -2586.579 7        43.564
S23        25.000    38292802.238 7 201230045.07307      -399.342 7        44.330
E06        26.000    23624063.213 7 124145351.65107     -1045.046 7        47.853                                                                    23624062.816 8  92705944.12608      -780.373 8        50.881    23624062.694 8  95124358.53808      -800.755 8        51.072
R15        27.000    23267403.438 7 124333950.49307      2196.162 7        45.258                                                                    23267404.019 6  96704194.35906      1708.028 6        40.994
C22        30.000                                                                                                                                    26607562.465 6 138552552.91206      2499.867 6        39.568                                                                    26607556.986 6 112585279.06606      2031.283 6        38.631
I01        31.000   333750737.935 7   6568772.10407     -2600.859 7        43.122
G02        32.000    22692881.298 7 119251932.53107     -3245.424 7        45.588                                    22692875.690 5  92923578.60205     -2528.901 5        34.695
G19        33.000    22424155.819 7 117839765.69707      -331.666 7        44.117                                    22424149.551 5  91823215.01005      -258.443 5        31.932
G17        34.000    22853506.076 7 120096033.92007     -2079.565 7        45.079                                    22853501.732 6  93581334.67106     -1620.439 6        41.321    22853502.398 6  93581334.66706     -1620.558 6        40.892
E11        35.000    25047093.213 6 131623425.45306     -2740.270 6        41.926                                                                    25047089.308 7  98290237.22207     -2046.392 7        44.632    25047089.245 7 100854323.03807     -2099.686 7        44.625
C32        36.000                                                                                                                                    26121367.337 6 136020832.19206     -3258.721 6        41.428                                                                    26121368.007 7 110528076.68707     -2647.784 7        42.785
C35        37.000                                                                                                                                    23132103.820 8 120454953.67408        72.344 8        48.439                                                                    23132102.496 7  97879516.31907        58.834 7        47.588
I09        38.000    37385292.499 7 146707913.22007      -479.088 7        43.141
C29        39.000                                                                                                                                    23549000.641 7 122625822.40907     -3162.641 7        47.499                                                                    23548998.461 7  99643518.62607     -2569.926 7        46.454
R22        40.000    21772205.324 8 116221543.06908      2956.223 8        48.414                                                                    21772204.144 7  90394547.79907      2299.350 7        44.653
S44        42.000    40780809.534 6 214304784.89906      -480.074 6        37.263
C09        43.000                                                                                                                                    38759441.982 6 201830610.49506       123.325 6        41.890    38759439.005 7 156068221.63007        95.339 7        46.045    38759437.167 6 164003884.49306       100.203 6        41.964
C05        44.000                                                                                                                                    39265425.100 6 204465406.95906      -415.210 6        38.066    39265420.421 7 158105646.08207      -321.053 7        42.887    39265422.298 6 166144994.38806      -337.481 6        39.832
R06        45.000    19730404.665 6 105285270.04406       591.482 6        40.560
C44        46.000                                                                                                                                    25765987.614 6 134170285.38906      2265.225 6        40.427                                                                    25765986.499 6 109024349.31306      1840.644 6        41.197
C39        47.000                                                                                                                                    39182509.351 7 204033618.80307      -923.194 7        42.533                                                                    39182505.551 7 165794017.42707      -750.208 7        42.773
C20        48.000                                                                                                                                    22265941.706 8 115944648.32808     -1506.473 8        51.421                                                                    22265935.837 8  94214516.16808     -1224.151 8        49.648
C06        49.000                                                                                                                                    38400049.950 6 199959160.70706      -386.424 6        40.717    38400044.523 7 154621090.29807      -298.848 7        44.503    38400044.172 6 162483176.47906      -314.221 6        41.819
C16        50.000                                                                                                                                    38873460.710 7 202424326.73007      -495.140 7        43.103    38873460.402 7 156527338.66207      -382.786 7        44.017    38873457.939 6 164486345.18506      -402.344 6        39.510
S48        51.000    77327727.926 6 406360880.67906      -399.375 6        37.342
C19        52.000                                                                                                                                    22778391.066 8 118613117.63108      1109.787 8        49.806                                                                    22778386.207 8  96382877.06708       901.762 8        49.383
C60        54.000                                                                                                                                    40780810.274 6 212356578.99706      -475.799 6        39.054                                                                    40780794.741 6 172557084.00506      -386.537 6        40.248
C37        56.000                                                                                                                                    25789280.783 6 134291553.86506      1671.320 6        41.900                                                                    25789284.377 7 109122903.84607      1358.040 7        43.350
C02        57.000                                                                                                                                    40733501.035 5 212110075.13805      -460.890 5        34.719    40733495.215 6 164016957.99906      -356.424 6        39.742    40733498.890 5 172356813.35905      -374.615 5        35.967
I03        58.000   132141842.853 6 442767726.68906       949.729 6        41.681
R07        59.000    22654836.609 7 121273128.38107      2900.784 7        46.793                                                                    22654836.655 6  94323542.59006      2256.170 6        40.870
> 2025 01 01 02 00 50.0000000  0 53
G28         1.000    23778429.410 6 124956504.27006     -2226.190 6        40.269                                    23778425.236 4  97368686.38704     -1734.701 4        26.275    23778425.425 6  97368692.38206     -1734.569 6        40.563
G31         2.000    22346673.641 7 117432577.01207      -508.488 7        44.628                                    22346668.840 7  91505892.12707      -396.223 7        42.027    22346669.526 6  91505891.12806      -396.272 6        41.139
G09         3.000    22236562.918 7 116853960.99907      2627.161 7        44.495                                    22236560.659 7  91055043.40607      2047.135 7        44.671    22236561.028 6  91055044.41206      2047.108 6        41.509
E34         4.000    26187183.365 7 137614586.49207      2123.852 7        42.332                                                                    26187183.862 7 102764146.54107      1585.846 7        45.418    26187183.664 7 105444949.75107      1627.231 7        45.943
S21         5.000    38578088.189 7 202729055.64007      -403.334 7        42.690
E05         6.000    25005600.032 6 131405343.23406      2358.723 6        41.111                                                                    25005600.618 7  98127391.89607      1761.375 7        44.456    25005600.579 7 100687229.48207      1807.265 7        45.389
G21         7.000    24413615.535 6 128294463.42706     -3618.341 6        37.425                                    24413610.786 3  99969713.12503     -2819.468 3        21.095
E04         8.000    24901018.903 7 130855760.34807     -2310.604 7        44.509                                                                    24901017.044 8  97716968.71808     -1725.418 8        48.367    24901016.761 8 100266098.98108     -1770.446 8        48.726
R14         9.000    23364680.811 7 124546894.19007      -897.033 7        44.045                                                                    23364681.858 6  96869793.59106      -697.618 6        40.026
G04        10.000    20650090.776 7 108516999.89207      1195.286 7        47.173                                    20650087.301 6  84558709.89406       931.391 6        38.763    20650087.561 7  84558704.89207       931.412 7        46.936
E09        11.000    23675094.271 8 124413507.68808       279.685 8        48.202                                                                    23675093.534 8  92906207.73308       208.825 8        50.621    23675093.137 8  95329847.18508       214.326 8        50.789
S27        12.000    39211264.219 5 206056559.74005      -392.417 5        35.800
G06        13.000    23666968.802 6 124370784.63106      2841.507 6        39.931                                    23666967.581 6  96912303.35606      2214.159 6        37.074    23666968.051 6  96912314.34606      2214.298 6        40.005
S36        14.000    38345517.476 7 201507538.07407      -403.316 7        44.128
E36        16.000    23537579.339 7 123690842.94407      -240.161 7        47.672                                                                    23537579.492 8  92366555.84208      -179.276 8        50.691    23537579.265 8  94776112.88908      -183.993 8        50.947
S45        17.000    63541259.960 6 333912015.83906      -443.123 6        37.285
G03        18.000    20185002.498 8 106072962.15908     -1121.477 8        49.878                                    20185000.553 8  82654275.74208      -873.878 8        51.814    20185001.000 7  82654284.73907      -873.838 7        45.747
R21        19.000    19576164.583 8 104756048.14308     -1213.654 8        52.984                                                                    19576162.627 7  81476936.07807      -943.963 7        46.404
R20        20.000    22000360.964 6 117645845.26206     -4564.937 6        37.093                                                                    22000361.855 7  91502320.61707     -3550.597 7        43.670
R05        21.000    21271744.088 8 113709706.49708     -3486.579 8        48.318                                                                    21271743.728 7  88440887.71407     -2711.699 7        45.017
I06        22.000    38248992.420 7 150097490.34407      -216.080 7        42.696
S28        23.000    41014264.621 5 215531415.58505      -396.794 5        34.410
E10        24.000    27540847.280 6 144728241.05906     -3376.287 6        39.057                                                                    27540847.074 7 108076347.98507     -2521.272 7        42.969    27540846.938 7 110895721.81207     -2587.002 7        43.790
S23        25.000    38293184.110 7 201232041.11507      -399.202 7        44.464
E06        26.000    23625058.334 7 124150580.97607     -1046.845 7        47.770                                                                    23625057.906 8  92709849.14408      -781.704 8        50.932    23625057.778 8  95128365.42808      -802.103 8        51.218
R15        27.000    23265350.696 7 124322976.84007      2193.319 7        45.711                                                                    23265350.228 6  96695659.28406      1705.885 6        40.951
C22        30.000                                                                                                                                    26605162.201 6 138540053.82306      2499.764 6        39.877                                                                    26605156.655 6 112575122.53406      2031.044 6        38.730
I01        31.000   333754051.539 7   6581776.56307     -2600.973 7        43.054
G02        32.000    22695970.003 7 119268163.12007     -3246.901 7        45.970                                    22695964.173 5  92936225.80805     -2530.054 5        34.643
G19        33.000    22424473.341 7 117841432.57907      -335.185 7        44.114                                    22424466.795 5  91824513.88105      -261.176 5        31.992
G17        34.000    22855486.091 7 120106437.34707     -2081.946 7        44.454                                    22855481.387 6  93589441.23406     -1622.294 6        41.378    22855481.709 6  93589441.22106     -1622.224 6        40.250
E11        35.000    25049701.083 7 131637129.86107     -2741.748 7        42.002                                                                    25049697.182 7  98300471.02407     -2047.374 7        44.599    25049696.969 7 100864823.80207     -2100.653 7        44.748
C32        36.000                                                                                                                                    26124496.043 6 136037124.59406     -3258.552 6        40.958                                                                    26124496.741 7 110541315.59207     -2647.845 7        42.705
C35        37.000                                                                                                                                    23132035.604 8 120454598.52208        69.551 8        48.427                                                                    23132034.289 7  97879227.73507        56.526 7        47.580
I09        38.000    37385902.851 7 146710308.95107      -479.223 7        43.056
C29        39.000                                                                                                                                    23552038.067 7 122641639.06907     -3164.184 7        47.592                                                                    23552035.898 7  99656370.95707     -2571.077 7        46.497
R22        40.000    21769437.003 8 116206767.59208      2953.830 8        48.361                                                                    21769435.870 7  90383055.73807      2297.446 7        44.840
S44        42.000    40781263.144 6 214307184.86906      -480.032 6        36.896
C09        43.000                                                                                                                                    38759323.681 6 201829995.54806       122.583 6        41.993    38759321.063 7 156067746.10907        94.837 7        46.110    38759319.102 6 164003384.78706        99.563 6        41.938
C05        44.000                                                                                                                                    39265823.844 6 204467482.85306      -415.260 6        38.189    39265819.294 7 158107251.31607      -321.097 7        42.997    39265820.948 6 166146681.22206      -337.387 6        39.949
R06        45.000    19729850.983 6 105282319.27006       588.831 6        40.670
C44        46.000                                                                                                                                    25763813.218 6 134158962.87106      2263.826 6        40.069                                                                    25763812.446 6 109015148.86806      1839.448 6        41.385
C39        47.000                                                                                                                                    39183395.762 7 204038235.84907      -923.681 7        42.588                                                                    39183392.213 7 165797769.15207      -750.730 7        42.749
C20        48.000                                                                                                                                    22267388.780 8 115952183.54308     -1507.780 8        51.518                                                                    22267382.891 8  94220639.14908     -1225.212 8        49.625
C06        49.000                                                                                                                                    38400421.622 6 199961095.10906      -387.352 6        40.665    38400416.097 7 154622586.11607      -299.564 7        44.470    38400415.793 6 162484748.32406      -314.579 6        41.673
C16        50.000                                                                                                                                    38873936.399 7 202426803.88607      -495.780 7        42.976    38873935.721 7 156529254.17107      -383.486 7        44.143    38873933.584 6 164488358.07806      -402.963 6        39.799
S48        51.000    77328103.453 6 406362878.56906      -399.427 6        37.161
C19        52.000                                                                                                                                    22777325.988 8 118607571.74408      1108.466 8        49.801                                                                    22777321.180 8  96378370.58408       900.670 8        49.376
C60        54.000                                                                                                                                    40781266.943 6 212358957.13506      -475.729 6        39.090                                                                    40781251.325 6 172559016.45606      -386.589 6        40.281
C37        56.000                                                                                                                                    25787677.145 7 134283201.11007      1669.770 7        42.218                                                                    25787680.346 7 109116116.55307      1356.770 7        43.333
C02        57.000                                                                                                                                    40733943.623 5 212112378.86405      -460.722 5        34.695    40733937.566 6 164018739.36906      -356.337 6        40.172    40733941.044 6 172358685.31006      -374.471 6        36.238
I03        58.000   132140632.326 6 442762977.64506       949.791 6        41.352
R07        59.000    22652128.008 7 121258627.57307      2899.439 7        47.262                                                                    22652127.488 6  94312264.20306      2255.066 6        41.297
> 2025 01 01 02 00 55.0000000  0 53
G28         1.000    23780548.360 6 124967640.87306     -2228.688 6        40.634                                    23780544.589 4  97377364.25904     -1736.638 4        26.347    23780544.400 6  97377370.25506     -1736.660 6        40.851
G31         2.000    22347159.057 7 117435128.26607      -511.891 7        45.126                                    22347154.338 6  91507880.11706      -398.878 6        41.886    22347154.883 6  91507879.12606      -398.939 6        41.220
G09         3.000    22234063.795 7 116840828.18507      2625.815 7        44.674                                    22234061.514 7  91044810.04807      2046.090 7        44.618    22234062.006 6  91044811.04306      2046.176 6        41.871
E34         4.000    26185163.024 7 137603969.27407      2123.164 7        42.231                                                                    26185163.436 7 102756218.10007      1585.373 7        45.281    26185163.265 7 105436814.47007      1626.860 7        45.791
S21         5.000    38578471.675 7 202731071.64307      -403.031 7        42.707
E05         6.000    25003356.178 6 131393551.73506      2357.916 6        41.604                                                                    25003356.741 7  98118586.55007      1760.884 7        44.433    25003356.608 7 100678194.43507      1806.752 7        45.210
G21         7.000    24417058.257 6 128312555.79306     -3618.626 6        37.274                                    24417053.761 3  99983811.06903     -2819.705 3        21.190
E04         8.000    24903217.940 7 130867315.74207     -2311.630 7        44.606                                                                    24903215.981 8  97725597.74208     -1726.205 8        48.398    24903215.741 8 100274953.11608     -1771.255 8        48.542
R14         9.000    23365523.641 7 124551389.29107      -900.971 7        44.418                                                                    23365526.127 6  96873289.77506      -700.753 6        40.386
G04        10.000    20648954.356 7 108511029.08507      1192.979 7        47.121                                    20648951.088 6  84554057.32006       929.592 6        38.787    20648951.210 7  84554052.32007       929.586 7        47.102
E09        11.000    23674828.874 8 124412113.51308       277.986 8        48.285                                                                    23674828.235 8  92905166.62808       207.565 8        50.605    23674827.835 8  95328778.92608       212.957 8        50.762
S27        12.000    39211630.092 5 206058522.58605      -392.599 5        35.243
G06        13.000    23664265.800 6 124356578.93006      2840.668 6        39.775                                    23664264.347 6  96901233.98106      2213.506 6        36.972    23664264.998 6  96901244.98406      2213.461 6        40.255
S36        14.000    38345899.102 7 201509554.31207      -403.086 7        43.945
E36        16.000    23537808.336 7 123692048.10907      -241.902 7        47.726                                                                    23537808.829 8  92367455.80808      -180.638 8        50.712    23537808.583 8  94777036.32908      -185.356 8        50.846
S45        17.000    63541637.423 6 333914230.81906      -443.025 6        36.987
G03        18.000    20186070.492 8 106078574.05208     -1123.241 8        49.572                                    20186068.466 8  82658648.64508      -875.253 8        51.799    20186069.238 7  82658657.63607      -875.206 7        46.097
R21        19.000    19577300.568 8 104762126.96608     -1217.912 8        52.991                                                                    19577299.023 7  81481664.04707      -947.339 7        46.656
R20        20.000    22004630.735 6 117668674.25206     -4566.499 6        36.862                                                                    22004631.414 7  91520076.50107     -3551.749 7        43.742
R05        21.000    21275005.754 8 113727141.45608     -3487.502 8        48.267                                                                    21275005.555 7  88454448.22907     -2712.488 7        44.909
I06        22.000    38249267.809 7 150098570.79807      -216.010 7        42.794
S28        23.000    41014637.501 5 215533398.80105      -396.391 5        33.796
E10        24.000    27544059.941 6 144745123.59606     -3376.703 6        38.727                                                                    27544059.854 7 108088955.07507     -2521.551 7        43.117    27544059.601 7 110908657.79107     -2587.414 7        43.592
S23        25.000    38293563.692 7 201234036.49107      -398.936 7        44.233
E06        26.000    23626055.250 7 124155818.98207     -1048.405 7        47.876                                                                    23626054.700 8  92713760.64408      -782.912 8        50.899    23626054.575 8  95132378.96408      -803.351 8        51.098
R15        27.000    23263299.099 7 124312016.69707      2190.624 7        44.742                                                                    23263299.282 6  96687134.73406      1704.025 6        40.930
C22        30.000                                                                                                                                    26602761.647 6 138527555.98006      2499.454 6        40.236                                                                    26602756.657 6 112564967.01106      2031.077 6        39.063
I01        31.000   333757365.578 7   6594781.16907     -2600.877 7        42.813
G02        32.000    22699060.291 7 119284401.18707     -3248.310 7        46.154                                    22699054.117 5  92948878.84505     -2531.153 5        34.462
G19        33.000    22424793.169 7 117843116.74407      -338.466 7        44.230                                    22424787.263 5  91825826.21505      -263.737 5        31.909
G17        34.000    22857467.608 7 120116852.31607     -2084.025 7        45.380                                    22857463.241 6  93597556.79006     -1623.912 6        41.192    22857463.634 6  93597556.78506     -1623.876 6        40.315
E11        35.000    25052310.130 7 131650840.73207     -2742.792 7        42.146                                                                    25052306.275 7  98310709.66407     -2048.214 7        44.539    25052305.937 7 100875329.54007     -2101.545 7        44.512
C32        36.000                                                                                                                                    26127624.851 6 136053416.89106     -3258.448 6        41.375                                                                    26127625.538 7 110554554.44107     -2647.757 7        42.533
C35        37.000                                                                                                                                    23131969.943 8 120454256.96208        67.003 8        48.443                                                                    23131968.697 7  97878950.21007        54.475 7        47.753
I09        38.000    37386513.417 7 146712704.94607      -479.203 7        43.154
C29        39.000                                                                                                                                    23555077.023 7 122657463.29007     -3165.539 7        47.604                                                                    23555074.782 7  99669229.44607     -2572.243 7        46.638
R22        40.000    21766671.348 7 116192004.19207      2951.531 7        47.780                                                                    21766670.173 7  90371573.11207      2295.621 7        45.506
S44        42.000    40781719.384 6 214309584.30306      -479.860 6        37.036
C09        43.000                                                                                                                                    38759206.651 7 201829384.26207       122.007 7        42.083    38759203.550 7 156067273.44507        94.180 7        46.024    38759201.625 7 164002888.08707        99.137 7        42.142
C05        44.000                                                                                                                                    39266222.006 6 204469558.29106      -414.905 6        38.243    39266217.393 7 158108856.18007      -321.017 7        42.950    39266219.575 6 166148367.72206      -337.384 6        40.148
R06        45.000    19729300.827 6 105279381.48006       586.214 6        40.963
C44        46.000                                                                                                                                    25761640.056 6 134147647.56806      2262.310 6        39.973                                                                    25761639.501 6 109005954.30306      1838.425 6        41.561
C39        47.000                                                                                                                                    39184283.280 7 204042856.12107      -924.232 7        42.366                                                                    39184279.389 7 165801523.51807      -751.120 7        42.847
C20        48.000                                                                                                                                    22268837.183 8 115959725.42008     -1508.931 8        51.577                                                                    22268831.230 8  94226767.56008     -1226.144 8        49.877
C06        49.000                                                                                                                                    38400793.240 6 199963033.33706      -388.015 6        40.658    38400788.303 7 154624084.87107      -299.919 7        44.289    38400787.939 6 162486323.31806      -315.221 6        41.943
C16        50.000                                                                                                                                    38874412.712 7 202429284.67307      -496.405 7        42.798    38874412.210 7 156531172.47207      -384.005 7        43.968    38874410.010 6 164490373.93506      -403.386 6        39.745
S48        51.000    77328481.833 6 406364876.03006      -399.462 6        37.070
C19        52.000                                                                                                                                    22776262.316 8 118602032.66508      1107.187 8        50.104                                                                    22776257.489 8  96373869.64408       899.681 8        49.584
C60        54.000                                                                                                                                    40781723.348 6 212361334.75406      -475.496 6        39.168                                                                    40781708.008 6 172560948.46506      -386.302 6        40.238
C37        56.000                                                                                                                                    25786074.249 7 134274856.15507      1668.240 7        42.104                                                                    25786077.670 7 109109335.61507      1355.608 7        43.456
C02        57.000                                                                                                                                    40734385.477 5 212114682.11405      -460.593 5        34.457    40734379.680 6 164020520.38606      -356.187 6        40.014    40734383.404 6 172360556.89406      -374.418 6        36.189
I03        58.000   132139422.261 6 442758228.35306       949.945 6        41.383
R07        59.000    22649420.296 7 121244132.88607      2898.358 7        47.337                                                                    22649419.592 6  94300990.53506      2254.343 6        40.810
> 2025 01 01 02 01  0.0000000  0 53
G28         1.000    23782670.114 6 124978791.13206     -2231.434 6        40.453                                    23782666.521 4  97386052.78204     -1738.788 4        26.491    23782666.293 6  97386058.78306     -1738.775 6        40.791
G31         2.000    22347648.100 7 117437696.99007      -515.500 7        44.834                                    22347643.148 7  91509881.72607      -401.690 7        42.025    22347643.823 6  91509880.73606      -401.733 6        41.740
G09         3.000    22231566.061 7 116827702.78307      2624.307 7        44.470                                    22231563.786 7  91034582.46207      2044.909 7        44.587    22231564.379 7  91034583.46007      2044.912 7        42.051
E34         4.000    26183143.619 7 137593355.51107      2122.341 7        42.569                                                                    26183143.758 7 102748292.23107      1584.873 7        45.207    26183143.507 7 105428681.83707      1626.279 7        46.004
S21         5.000    38578860.715 7 202733086.75507      -402.883 7        42.851
E05         6.000    25001112.962 6 131381763.91706      2357.246 6        41.235                                                                    25001113.793 7  98109783.97807      1760.228 7        44.387    25001113.462 7 100669162.22307      1806.157 7        45.496
G21         7.000    24420501.982 6 128330650.50306     -3619.146 6        37.543                                    24420497.232 3  99997910.84403     -2820.102 3        21.095
E04         8.000    24905417.545 7 130878876.80907     -2312.733 7        44.694                                                                    24905416.003 8  97734231.00908     -1727.095 8        48.333    24905415.697 8 100283811.59508     -1772.112 8        48.746
R14         9.000    23366371.315 7 124555904.59207      -905.133 7        44.874                                                                    23366372.909 6  96876801.71506      -703.999 6        39.093
G04        10.000    20647820.411 7 108505070.53107      1190.471 7        47.191                                    20647817.174 6  84549414.29406       927.635 6        38.748    20647817.611 7  84549409.29007       927.674 7        46.984
E09        11.000    23674565.486 8 124410728.44708       276.050 8        48.312                                                                    23674564.684 8  92904132.33108       206.147 8        50.602    23674564.234 8  95327717.64208       211.527 8        50.938
S27        12.000    39212006.437 5 206060485.03405      -392.473 5        35.714
G06        13.000    23661563.354 6 124342378.11306      2839.667 6        40.186                                    23661562.002 6  96890168.41106      2212.726 6        36.979    23661562.391 6  96890179.41606      2212.690 6        40.372
S36        14.000    38346282.535 7 201511569.53907      -403.070 7        44.086
E36        16.000    23538039.756 7 123693262.75507      -243.876 7        47.817                                                                    23538039.975 8  92368362.84708      -182.140 8        50.691    23538039.718 8  94777967.03108      -186.930 8        51.041
S45        17.000    63542020.560 6 333916445.13306      -442.964 6        37.395
G03        18.000    20187140.221 8 106084195.18508     -1125.143 8        49.627                                    20187138.141 8  82663028.74708      -876.735 8        51.754    20187138.772 7  82663037.74307      -876.756 7        46.166
R21        19.000    19578440.350 8 104768227.79808     -1222.393 8        52.881                                                                    19578438.901 7  81486409.13907      -950.765 7        46.085
R20        20.000    22008899.973 6 117691511.80106     -4568.519 6        36.450                                                                    22008901.845 7  91537839.02807     -3553.166 7        43.020
R05        21.000    21278268.296 7 113744581.34607     -3488.515 7        47.990                                                                    21278267.992 7  88468012.59107     -2713.238 7        44.938
I06        22.000    38249543.055 7 150099650.85207      -215.919 7        42.618
S28        23.000    41015017.803 5 215535381.55005      -396.678 5        34.295
E10        24.000    27547272.730 6 144762008.71006     -3377.390 6        39.252                                                                    27547273.045 7 108101564.09207     -2522.031 7        43.357    27547272.595 7 110921595.73607     -2587.856 7        43.750
S23        25.000    38293941.383 7 201236031.21007      -398.811 7        44.363
E06        26.000    23627053.408 8 124161065.54508     -1050.179 8        48.088                                                                    23627053.132 8  92717678.53308      -784.258 8        50.854    23627052.934 8  95136399.05808      -804.698 8        51.267
R15        27.000    23261250.108 7 124301070.40507      2187.967 7        45.314                                                                    23261251.029 6  96678620.96506      1701.656 6        41.368
C22        30.000                                                                                                                                    26600360.925 6 138515059.27106      2499.261 6        39.348                                                                    26600356.865 6 112554812.41006      2030.683 6        39.144
I01        31.000   333760679.526 7   6607785.81207     -2600.924 7        42.754
G02        32.000    22702151.615 7 119300646.59607     -3249.821 7        46.586                                    22702145.422 5  92961537.60005     -2532.329 5        34.605
G19        33.000    22425116.831 7 117844818.11907      -342.118 7        43.727                                    22425111.017 5  91827151.96205      -266.587 5        31.804
G17        34.000    22859452.091 7 120127278.73707     -2086.439 7        45.476                                    22859447.300 6  93605681.27306     -1625.797 6        41.364    22859447.969 6  93605681.27906     -1625.753 6        40.250
E11        35.000    25054920.472 7 131664557.94107     -2744.054 7        42.730                                                                    25054916.549 7  98320953.03807     -2049.204 7        44.656    25054916.288 7 100885840.12907     -2102.518 7        44.688
C32        36.000                                                                                                                                    26130753.552 6 136069709.00606     -3258.429 6        40.896                                                                    26130754.222 7 110567793.09007     -2647.690 7        42.197
C35        37.000                                                                                                                                    23131906.880 8 120453928.94408        64.185 8        48.632                                                                    23131905.688 7  97878683.65107        52.187 7        47.639
I09        38.000    37387123.906 7 146715101.13707      -479.278 7        43.175
C29        39.000                                                                                                                                    23558117.264 7 122673294.95307     -3167.113 7        47.738                                                                    23558115.197 7  99682093.95607     -2573.593 7        46.607
R22        40.000    21763907.824 8 116177252.73208      2949.011 8        48.414                                                                    21763906.935 7  90360099.76007      2293.653 7        45.118
S44        42.000    40782179.268 6 214311983.09206      -479.731 6        37.013
C09        43.000                                                                                                                                    38759090.529 7 201828776.51607       121.162 7        42.277    38759087.106 7 156066803.49007        93.797 7        46.133    38759085.021 7 164002394.24907        98.338 7        42.083
C05        44.000                                                                                                                                    39266620.276 6 204471633.20406      -414.950 6        38.252    39266615.981 7 158110460.62807      -320.827 7        42.965    39266617.925 6 166150053.72806      -337.230 6        39.829
R06        45.000    19728752.832 6 105276456.38006       583.678 6        41.168
C44        46.000                                                                                                                                    25759468.989 6 134136339.33406      2261.008 6        40.355                                                                    25759467.754 6 108996765.44206      1837.144 6        41.728
C39        47.000                                                                                                                                    39185171.025 7 204047479.51107      -924.951 7        42.330                                                                    39185167.276 7 165805280.38807      -751.739 7        42.747
C20        48.000                                                                                                                                    22270286.835 8 115967273.87108     -1510.348 8        51.476                                                                    22270280.841 8  94232901.28308     -1227.334 8        49.802
C06        49.000                                                                                                                                    38401165.902 6 199964975.26806      -388.717 6        40.760    38401161.234 7 154625586.49807      -300.606 7        44.369    38401160.836 6 162487901.28606      -315.949 6        41.745
C16        50.000                                                                                                                                    38874889.611 7 202431768.96707      -497.332 7        42.849    38874889.163 7 156533093.48507      -384.502 7        43.917    38874887.041 6 164492392.62606      -404.150 6        39.417
S48        51.000    77328867.470 6 406366872.57306      -399.237 6        37.614
C19        52.000                                                                                                                                    22775199.620 8 118596500.27808      1105.793 8        50.051                                                                    22775195.015 8  96369374.11808       898.577 8        49.453
C60        54.000                                                                                                                                    40782179.865 6 212363711.74906      -475.425 6        38.880                                                                    40782164.422 6 172562879.95906      -386.265 6        40.064
C37        56.000                                                                                                                                    25784472.940 7 134266518.88907      1666.642 7        42.440                                                                    25784476.520 7 109102560.89407      1354.332 7        43.134
C02        57.000                                                                                                                                    40734827.712 5 212116984.79405      -460.283 5        34.638    40734821.950 6 164022300.98006      -356.144 6        40.286    40734825.554 6 172362428.02406      -374.326 6        36.132
I03        58.000   132138211.959 6 442753478.74206       949.879 6        41.526
R07        59.000    22646713.701 7 121229644.22807      2897.139 7        47.005                                                                    22646713.356 6  94289721.59206      2253.328 6        41.333
> 2025 01 01 02 01  5.0000000  0 53
G28         1.000    23784795.095 6 124989955.60006     -2234.319 6        40.236                                    23784791.154 4  97394752.36004     -1741.024 4        26.575    23784791.002 6  97394758.34306     -1740.867 6        40.565
G31         2.000    22348140.260 7 117440283.73407      -519.045 7        45.011                                    22348135.385 7  91511897.36907      -404.452 7        42.125    22348136.133 6  91511896.37306      -404.432 6        41.743
G09         3.000    22229069.559 7 116814585.41507      2622.623 7        44.394                                    22229067.633 7  91024361.13907      2043.603 7        44.767    22229068.710 7  91024362.13807      2043.699 7        42.927
E34         4.000    26181124.601 7 137582745.77507      2121.637 7        42.870                                                                    26181124.722 7 102740369.37107      1584.301 7        45.186    26181124.413 7 105420552.30407      1625.651 7        45.872
S21         5.000    38579243.432 7 202735101.62107      -402.867 7        42.851
E05         6.000    24998870.700 6 131369980.38106      2356.299 6        41.855                                                                    24998871.471 7  98100984.58207      1759.608 7        44.266    24998871.194 7 100660133.28007      1805.455 7        45.243
G21         7.000    24423945.548 6 128348748.10006     -3619.783 6        37.467                                    24423941.182 3 100012012.85903     -2820.609 3        21.190
E04         8.000    24907618.806 7 130890444.13907     -2314.014 7        44.926                                                                    24907617.203 8  97742868.94408     -1727.979 8        48.186    24907616.876 8 100292674.86508     -1773.032 8        48.621
R14         9.000    23367222.567 7 124560440.74307      -909.212 7        44.352                                                                    23367224.079 6  96880329.82606      -707.188 6        39.372
G04        10.000    20646688.941 7 108499124.79807      1187.899 7        47.106                                    20646685.728 6  84544781.26006       925.633 6        38.907    20646685.871 7  84544776.26407       925.615 7        47.099
E09        11.000    23674303.765 8 124409353.06308       274.176 8        48.584                                                                    23674302.900 8  92903105.25608       204.750 8        50.473    23674302.544 8  95326663.78008       210.071 8        50.742
S27        12.000    39212380.752 6 206062447.13906      -392.390 6        36.079
G06        13.000    23658862.267 6 124328182.77206      2838.613 6        40.987                                    23658860.677 6  96879107.12106      2211.905 6        37.202    23658861.278 6  96879118.13206      2211.904 6        40.975
S36        14.000    38346666.374 7 201513584.59007      -402.968 7        44.120
E36        16.000    23538272.929 8 123694487.46608      -245.919 8        48.141                                                                    23538273.035 8  92369277.40208      -183.624 8        50.547    23538272.772 8  94778905.44608      -188.464 8        50.837
S45        17.000    63542394.969 6 333918659.28106      -442.730 6        37.921
G03        18.000    20188211.884 8 106089826.15408     -1127.083 8        49.638                                    20188209.684 8  82667416.51608      -878.247 8        51.943    20188210.205 7  82667425.51907      -878.304 7        46.039
R21        19.000    19579584.552 8 104774351.40008     -1226.916 8        52.851                                                                    19579583.578 7  81491171.93607      -954.213 7        46.606
R20        20.000    22013169.932 5 117714358.48405     -4570.289 5        35.676                                                                    22013174.981 7  91555608.68207     -3554.613 7        43.674
R05        21.000    21281531.973 8 113762026.65208     -3489.538 8        48.397                                                                    21281531.480 7  88481581.16507     -2714.152 7        44.834
I06        22.000    38249818.104 7 150100730.96207      -215.979 7        42.601
S28        23.000    41015399.233 5 215537364.06105      -396.515 5        34.538
E10        24.000    27550486.529 6 144778896.99906     -3378.001 6        38.805                                                                    27550486.831 7 108114175.45207     -2522.437 7        43.166    27550486.311 7 110934536.09507     -2588.285 7        43.329
S23        25.000    38294321.476 7 201238025.88207      -398.845 7        44.445
E06        26.000    23628053.752 8 124166321.24608     -1051.994 8        48.074                                                                    23628053.213 8  92721603.24908      -785.638 8        50.724    23628053.085 8  95140426.15908      -806.102 8        51.069
R15        27.000    23259204.932 7 124290138.14607      2185.081 7        44.847                                                                    23259205.631 6  96670118.10006      1699.451 6        41.619
C22        30.000                                                                                                                                    26597961.805 6 138502564.24906      2498.893 6        40.219                                                                    26597957.290 6 112544659.18306      2030.498 6        39.012
I01        31.000   333763993.296 7   6620790.96107     -2601.115 7        42.764
G02        32.000    22705244.323 7 119316899.95207     -3251.441 7        46.285                                    22705238.219 5  92974202.55405     -2533.594 5        34.719
G19        33.000    22425444.080 7 117846537.24407      -345.481 7        44.096                                    22425438.170 5  91828491.53405      -269.209 5        32.072
G17        34.000    22861438.145 7 120137717.23407     -2088.802 7        45.521                                    22861433.671 6  93613815.16606     -1627.638 6        41.490    22861434.394 6  93613815.16806     -1627.643 6        40.915
E11        35.000    25057531.974 7 131678282.09107     -2745.353 7        42.950                                                                    25057528.237 7  98331201.58907     -2050.120 7        44.349    25057527.976 7 100896356.04207     -2103.638 7        44.623
C32        36.000                                                                                                                                    26133882.479 6 136086001.46606     -3258.415 6        40.856                                                                    26133882.927 7 110581032.03907     -2647.877 7        42.019
C35        37.000                                                                                                                                    23131846.732 8 120453614.98808        61.480 8        48.559                                                                    23131845.430 7  97878428.53507        49.882 7        47.530
I09        38.000    37387734.860 7 146717497.96107      -479.387 7        43.137
C29        39.000                                                                                                                                    23561159.287 7 122689134.62407     -3168.679 7        47.908                                                                    23561157.105 7  99694964.98207     -2574.873 7        46.520
R22        40.000    21761147.394 8 116162513.81608      2946.584 8        48.747                                                                    21761145.508 7  90348636.16307      2291.733 7        44.927
S44        42.000    40782635.937 6 214314381.81606      -479.547 6        36.968
C09        43.000                                                                                                                                    38758974.555 7 201828172.87907       120.467 7        42.155    38758971.218 7 156066336.71707        93.074 7        46.085    38758969.020 6 164001903.73106        97.768 6        41.914
C05        44.000                                                                                                                                    39267018.518 6 204473708.10706      -414.710 6        38.129    39267014.585 7 158112065.08507      -320.863 7        42.859    39267016.329 6 166151739.77006      -337.259 6        39.706
R06        45.000    19728206.717 6 105273544.74206       581.113 6        40.849
C44        46.000                                                                                                                                    25757299.135 6 134125038.81106      2259.291 6        40.565                                                                    25757297.346 6 108987582.85606      1835.829 6        41.294
C39        47.000                                                                                                                                    39186059.781 7 204052106.60307      -925.718 7        42.425                                                                    39186055.793 7 165809040.27007      -752.420 7        42.665
C20        48.000                                                                                                                                    22271737.722 8 115974829.46108     -1511.789 8        51.396                                                                    22271731.793 8  94239040.81108     -1228.482 8        49.651
C06        49.000                                                                                                                                    38401539.653 6 199966921.45506      -389.606 6        40.651    38401534.828 7 154627091.42207      -301.185 7        44.325    38401534.805 6 162489482.73806      -316.727 6        41.633
C16        50.000                                                                                                                                    38875367.535 7 202434257.34607      -498.064 7        42.595    38875367.126 7 156535017.65707      -385.192 7        43.776    38875364.787 6 164494414.61906      -404.739 6        39.676
S48        51.000    77329243.954 6 406368868.96106      -399.307 6        38.009
C19        52.000                                                                                                                                    22774138.414 8 118590975.16208      1104.363 8        49.787                                                                    22774133.974 8  96364884.50308       897.295 8        49.372
C60        54.000                                                                                                                                    40782636.458 6 212366088.65306      -475.280 6        39.222                                                                    40782620.867 6 172564811.39606      -386.327 6        40.150
C37        56.000                                                                                                                                    25782873.666 7 134258189.91207      1664.971 7        42.349                                                                    25782876.886 7 109095792.92907      1352.803 7        42.961
C02        57.000                                                                                                                                    40735270.322 5 212119287.54105      -460.529 5        34.676    40735264.466 6 164024081.59006      -356.152 6        40.360    40735267.726 6 172364299.17506      -374.193 6        36.045
I03        58.000   132137001.736 6 442748729.23306       949.958 6        41.416
R07        59.000    22644008.445 7 121215162.27807      2895.818 7        46.814                                                                    22644006.962 6  94278457.85506      2252.125 6        40.217
> 2025 01 01 02 01 10.0000000  0 53
G28         1.000    23786922.225 6 125001133.71906     -2236.725 6        41.402                                    23786918.274 4  97403462.58104     -1742.896 4        26.419    23786918.377 6  97403468.58606     -1743.064 6        40.872
G31         2.000    22348636.019 7 117442888.00607      -522.505 7        45.150                                    22348630.957 7  91513926.67507      -407.146 7        42.176    22348631.311 6  91513925.67806      -407.166 6        41.304
G09         3.000    22226575.168 7 116801475.52407      2621.340 7        44.460                                    22226572.923 7  91014145.64307      2042.600 7        44.883    22226573.276 7  91014146.65307      2042.601 7        42.563
E34         4.000    26179106.001 7 137572139.57007      2120.992 7        42.974                                                                    26179106.421 7 102732449.15507      1583.782 7        45.052    26179106.176 7 105412425.47707      1625.108 7        45.574
S21         5.000    38579628.734 7 202737115.74107      -402.666 7        42.715
E05         6.000    24996628.915 6 131358200.57506      2355.688 6        41.974                                                                    24996629.870 7  98092187.98707      1759.143 7        44.244    24996629.354 7 100651107.21007      1804.992 7        45.083
G21         7.000    24427389.403 6 128366848.05706     -3620.136 6        37.051                                    24427385.275 3 100026116.72403     -2820.892 3        21.190
E04         8.000    24909821.066 7 130902017.16907     -2315.092 7        44.864                                                                    24909819.462 8  97751511.14108     -1728.762 8        48.136    24909819.158 8 100301542.51908     -1773.930 8        48.398
R14         9.000    23368077.129 7 124564997.26007      -913.234 7        45.007                                                                    23368078.272 6  96883873.80206      -710.219 6        40.234
G04        10.000    20645559.974 7 108493191.35507      1185.568 7        47.219                                    20645556.608 6  84540157.80106       923.818 6        38.955    20645557.065 7  84540152.79907       923.806 7        47.176
E09        11.000    23674043.674 8 124407986.83208       272.424 8        48.697                                                                    23674042.936 8  92902085.02308       203.458 8        50.376    23674042.523 8  95325616.92908       208.757 8        50.589
S27        12.000    39212756.860 6 206064409.14106      -392.184 6        36.344
G06        13.000    23656161.953 6 124313992.39606      2837.656 6        40.524                                    23656160.331 6  96868049.68806      2211.164 6        37.316    23656160.938 6  96868060.69606      2211.099 6        40.212
S36        14.000    38347046.105 7 201515598.83907      -402.743 7        43.627
E36        16.000    23538507.756 8 123695721.70008      -247.635 8        48.267                                                                    23538507.896 8  92370199.06908      -184.943 8        50.453    23538507.629 8  94779851.15808      -189.767 8        50.726
S45        17.000    63542773.421 6 333920872.90006      -442.720 6        37.278
G03        18.000    20189285.140 8 106095466.41608     -1128.951 8        49.938                                    20189282.999 8  82671811.52308      -879.701 8        51.999    20189283.366 7  82671820.52107      -879.611 7        45.880
R21        19.000    19580733.265 8 104780497.08608     -1231.266 8        52.746                                                                    19580731.580 7  81495951.91707      -957.704 7        46.470
R20        20.000    22017446.336 6 117737213.86006     -4571.739 6        36.068                                                                    22017449.029 7  91573385.08907     -3555.868 7        43.774
R05        21.000    21284796.921 8 113779476.82508     -3490.409 8        48.730                                                                    21284795.970 7  88495153.52207     -2714.746 7        45.198
I06        22.000    38250093.221 7 150101810.73307      -215.870 7        42.849
S28        23.000    41015773.628 5 215539346.42605      -396.243 5        34.433
E10        24.000    27553700.550 6 144795787.88006     -3378.312 6        39.006                                                                    27553700.975 7 108126788.77207     -2522.805 7        43.043    27553700.556 7 110947478.44507     -2588.540 7        43.162
S23        25.000    38294703.876 7 201240020.15307      -398.638 7        44.698
E06        26.000    23629055.552 8 124171585.54708     -1053.714 8        48.349                                                                    23629054.981 8  92725534.37808      -786.786 8        50.606    23629054.824 8  95144459.83808      -807.294 8        50.898
R15        27.000    23257161.577 7 124279219.69607      2182.441 7        45.214                                                                    23257162.380 6  96661625.96506      1697.577 6        41.056
C22        30.000                                                                                                                                    26595562.797 6 138490070.41606      2498.729 6        40.377                                                                    26595558.143 6 112534506.92206      2030.391 6        39.306
I01        31.000   333767307.375 7   6633796.22907     -2600.966 7        42.872
G02        32.000    22708338.650 7 119333160.72507     -3252.893 7        45.454                                    22708332.555 5  92986873.28005     -2534.716 5        34.762
G19        33.000    22425774.884 7 117848273.62107      -348.949 7        43.738                                    22425768.542 5  91829844.55305      -271.904 5        32.126
G17        34.000    22863426.490 7 120148167.25807     -2091.023 7        45.175                                    22863422.264 6  93621958.04006     -1629.367 6        41.604    22863422.933 6  93621958.03406     -1629.427 6        41.292
E11        35.000    25060145.021 7 131692012.66607     -2746.673 7        42.918                                                                    25060141.106 7  98341454.93607     -2051.057 7        44.331    25060140.770 7 100906876.86507     -2104.483 7        44.498
C32        36.000                                                                                                                                    26137011.445 6 136102293.74506     -3258.293 6        40.698                                                                    26137011.704 6 110594270.84406     -2647.689 6        41.888
C35        37.000                                                                                                                                    23131789.274 8 120453314.61108        58.777 8        48.437                                                                    23131787.769 7  97878184.43807        47.780 7        47.547
I09        38.000    37388345.803 7 146719895.02507      -479.303 7        43.232
C29        39.000                                                                                                                                    23564202.571 7 122704981.76907     -3170.056 7        47.457                                                                    23564200.397 7  99707842.06407     -2575.961 7        46.491
R22        40.000    21758388.692 8 116147786.93808      2944.217 8        49.035                                                                    21758386.323 7  90337181.91407      2289.909 7        43.981
S44        42.000    40783089.695 6 214316779.93806      -479.525 6        37.168
C09        43.000                                                                                                                                    38758859.153 7 201827572.83107       119.723 7        42.430    38758855.795 7 156065872.72707        92.583 7        46.054    38758853.708 6 164001416.13906        97.277 6        41.948
C05        44.000                                                                                                                                    39267417.061 6 204475782.51706      -414.816 6        37.989    39267412.940 7 158113669.13307      -320.674 7        42.690    39267414.639 6 166153425.35706      -336.916 6        39.781
R06        45.000    19727663.498 6 105270645.88006       578.468 6        41.025
C44        46.000                                                                                                                                    25755129.665 6 134113745.46106      2257.985 6        40.868                                                                    25755128.619 6 108978406.09306      1834.795 6        41.395
C39        47.000                                                                                                                                    39186948.959 7 204056736.84807      -926.312 7        42.315                                                                    39186945.073 7 165812802.70107      -752.670 7        42.660
C20        48.000                                                                                                                                    22273189.779 8 115982391.64208     -1513.018 8        51.513                                                                    22273183.996 8  94245185.68808     -1229.406 8        49.614
C06        49.000                                                                                                                                    38401914.302 6 199968871.40006      -390.246 6        40.772    38401909.542 7 154628599.23607      -301.772 7        44.230    38401909.035 6 162491067.21506      -317.202 6        41.712
C16        50.000                                                                                                                                    38875845.756 7 202436749.25607      -498.697 7        42.847    38875845.754 7 156536944.56207      -385.551 7        43.632    38875843.423 6 164496439.50206      -405.187 6        39.523
S48        51.000    77329617.724 6 406370864.86506      -399.046 6        37.478
C19        52.000                                                                                                                                    22773078.751 8 118585456.78408      1103.120 8        49.779                                                                    22773074.262 8  96360400.36208       896.368 8        49.273
C60        54.000                                                                                                                                    40783093.248 6 212368464.99006      -475.224 6        39.432                                                                    40783077.192 6 172566742.32106      -385.929 6        40.124
C37        56.000                                                                                                                                    25781275.552 7 134249868.70107      1663.541 7        42.135                                                                    25781278.696 7 109089031.24607      1351.805 7        42.707
C02        57.000                                                                                                                                    40735712.060 5 212121589.68605      -459.982 5        34.743    40735706.428 6 164025861.76906      -355.838 6        40.272    40735709.580 6 172366169.85206      -373.957 6        36.227
I03        58.000   132135791.506 6 442743979.43406       950.026 6        41.561
R07        59.000    22641303.551 7 121200686.30107      2894.747 7        46.907                                                                    22641303.129 6  94267198.77706      2251.398 6        41.216
> 2025 01 01 02 01 15.0000000  0 53
G28         1.000    23789051.515 6 125012325.81006     -2239.726 6        41.125                                    23789047.987 4  97412183.69504     -1745.244 4        26.240    23789047.619 6  97412189.69006     -1745.303 6        41.151
G31         2.000    22349134.985 7 117445510.08007      -525.958 7        45.333                                    22349129.918 7  91515969.85107      -409.840 7        42.119    22349130.262 6  91515968.85906      -409.938 6        41.015
G09         3.000    22224081.982 7 116788373.43607      2619.867 7        44.826                                    22224079.725 7  91003936.23007      2041.455 7        44.868    22224080.021 7  91003937.22507      2041.421 7        42.455
E34         4.000    26177088.405 7 137561537.18707      2120.336 7        42.701                                                                    26177088.933 7 102724531.79007      1583.390 7        45.100    26177088.709 7 105404301.57507      1624.615 7        45.750
S21         5.000    38580004.078 7 202739129.38507      -402.477 7        42.491
E05         6.000    24994388.036 6 131346424.80206      2354.940 6        41.983                                                                    24994389.001 7  98083394.39607      1758.702 7        44.302    24994388.532 7 100642084.22507      1804.442 7        45.077
G21         7.000    24430834.593 6 128384950.64106     -3620.542 6        36.526                                    24430829.998 3 100040222.62703     -2821.199 3        20.905
E04         8.000    24912024.556 7 130913596.20507     -2316.323 7        45.071                                                                    24912022.884 8  97760157.82608     -1729.627 8        48.201    24912022.484 8 100310414.76408     -1774.794 8        48.473
R14         9.000    23368936.118 7 124569574.27107      -917.343 7        45.487                                                                    23368937.240 6  96887433.66106      -713.510 6        39.928
G04        10.000    20644433.175 7 108487270.50907      1183.124 7        47.389                                    20644429.898 6  84535544.15606       921.914 6        38.913    20644430.353 7  84535539.15207       921.943 7        47.041
E09        11.000    23673785.413 8 124406630.03608       270.638 8        48.789                                                                    23673784.761 8  92901071.83308       202.140 8        50.357    23673784.354 8  95324577.31308       207.367 8        50.715
S27        12.000    39213130.657 6 206066370.34606      -391.979 6        36.193
G06        13.000    23653462.002 6 124299807.26906      2836.642 6        40.751                                    23653461.023 6  96856996.33906      2210.369 6        37.270    23653461.583 6  96857007.34806      2210.375 6        40.386
S36        14.000    38347431.174 7 201517612.11407      -402.448 7        44.173
E36        16.000    23538744.604 8 123696965.76408      -249.587 8        48.275                                                                    23538744.591 8  92371128.07608      -186.394 8        50.388    23538744.392 8  94780804.39908      -191.246 8        50.770
S45        17.000    63543151.988 6 333923086.21506      -442.481 6        37.675
G03        18.000    20190360.307 8 106101116.24308     -1130.688 8        49.758                                    20190358.129 8  82676213.98408      -881.057 8        51.946    20190358.783 7  82676222.98107      -881.085 7        45.649
R21        19.000    19581885.748 8 104786665.27508     -1235.685 8        52.960                                                                    19581884.660 7  81500749.39107      -961.041 7        46.403
R20        20.000    22021723.220 6 117760078.04906     -4573.577 6        36.427                                                                    22021723.845 7  91591168.32007     -3557.144 7        43.283
R05        21.000    21288062.641 8 113796932.21108     -3491.317 8        49.210                                                                    21288061.240 7  88508729.92107     -2715.500 7        45.081
I06        22.000    38250368.451 7 150102890.37707      -215.772 7        42.730
S28        23.000    41016149.052 5 215541328.13705      -395.723 5        34.462
E10        24.000    27556915.337 6 144812681.66606     -3378.767 6        38.976                                                                    27556915.738 7 108139404.25307     -2523.159 7        43.162    27556915.475 7 110960423.02807     -2588.927 7        43.363
S23        25.000    38295084.513 7 201242014.06907      -398.479 7        44.466
E06        26.000    23630058.842 8 124176858.71808     -1055.205 8        48.315                                                                    23630058.442 8  92729472.14108      -788.051 8        50.665    23630058.260 8  95148500.32708      -808.578 8        51.006
R15        27.000    23255121.121 7 124268315.28507      2179.717 7        44.715                                                                    23255121.194 6  96653144.77106      1695.394 6        41.061
C22        30.000                                                                                                                                    26593163.107 6 138477578.03906      2498.664 6        40.010                                                                    26593158.803 6 112524355.86006      2030.289 6        39.009
I01        31.000   333770621.306 7   6646801.76407     -2600.992 7        42.609
G02        32.000    22711434.590 7 119349429.15307     -3254.301 7        45.543                                    22711428.376 5  92999549.97805     -2535.818 5        34.543
G19        33.000    22426108.573 7 117850027.48507      -352.321 7        43.456                                    22426102.318 5  91831211.20305      -274.534 5        32.036
G17        34.000    22865417.378 7 120158629.05907     -2093.307 7        45.198                                    22865413.133 6  93630110.09206     -1631.149 6        41.511    22865413.164 6  93630110.08906     -1631.099 6        40.818
E11        35.000    25062758.859 7 131705749.91707     -2747.885 7        42.641                                                                    25062755.232 7  98351713.26507     -2051.975 7        44.384    25062754.833 7 100917402.80607     -2105.528 7        44.552
C32        36.000                                                                                                                                    26140140.215 6 136118586.15506     -3258.373 6        40.765                                                                    26140140.552 6 110607509.75906     -2647.770 6        41.900
C35        37.000                                                                                                                                    23131734.401 8 120453028.05408        56.230 8        48.534                                                                    23131732.799 7  97877951.60207        45.635 7        47.448
I09        38.000    37388957.046 7 146722292.54307      -479.495 7        43.346
C29        39.000                                                                                                                                    23567247.276 7 122720836.65707     -3171.501 7        47.675                                                                    23567245.062 7  99720725.47407     -2577.221 7        46.482
R22        40.000    21755631.772 8 116133072.37508      2941.846 8        48.273                                                                    21755630.494 7  90325737.26507      2288.127 7        44.692
S44        42.000    40783546.158 6 214319177.75406      -479.454 6        36.646
C09        43.000                                                                                                                                    38758744.861 7 201826976.65307       119.133 7        42.578    38758741.401 7 156065411.73407        92.107 7        45.884    38758739.345 6 164000931.71206        96.658 6        41.943
C05        44.000                                                                                                                                    39267815.576 6 204477856.71406      -414.616 6        38.195    39267811.402 7 158115273.03007      -320.679 7        42.942    39267813.364 6 166155110.83206      -337.001 6        39.775
R06        45.000    19727122.415 6 105267760.07506       576.177 6        40.932
C44        46.000                                                                                                                                    25752961.937 6 134102459.59706      2256.648 6        40.529                                                                    25752961.179 6 108969235.43306      1833.656 6        40.861
C39        47.000                                                                                                                                    39187839.134 7 204061370.51407      -926.829 7        42.559                                                                    39187834.952 7 165816567.96007      -753.183 7        42.669
C20        48.000                                                                                                                                    22274643.564 8 115989960.69508     -1514.258 8        51.556                                                                    22274637.589 8  94251336.18608     -1230.545 8        49.592
C06        49.000                                                                                                                                    38402290.355 6 199970825.34806      -390.929 6        40.763    38402284.605 7 154630110.14807      -302.374 7        44.582    38402284.298 6 162492654.96306      -317.767 6        41.676
C16        50.000                                                                                                                                    38876325.418 7 202439245.00907      -499.372 7        42.627    38876325.116 7 156538874.44307      -386.132 7        43.490    38876322.702 6 164498467.51506      -405.734 6        39.408
S48        51.000    77329994.605 6 406372860.48106      -398.777 6        37.425
C19        52.000                                                                                                                                    22772020.441 8 118579945.43008      1101.849 8        49.773                                                                    22772015.838 8  96355921.95508       895.222 8        49.241
C60        54.000                                                                                                                                    40783549.152 6 212370841.00106      -474.943 6        39.033                                                                    40783533.548 6 172568673.06606      -386.060 6        40.219
C37        56.000                                                                                                                                    25779679.022 7 134241555.55507      1662.098 7        42.377                                                                    25779682.188 7 109082276.14107      1350.450 7        42.337
C02        57.000                                                                                                                                    40736154.460 5 212123891.64705      -460.173 5        34.981    40736148.479 6 164027641.77706      -355.874 6        40.017    40736152.114 5 172368040.39705      -373.936 5        35.848
I03        58.000   132134580.855 6 442739229.55306       950.149 6        41.478
R07        59.000    22638601.177 7 121186216.71607      2893.486 7        47.409                                                                    22638600.489 7  94255944.66107      2250.574 7        42.140
> 2025 01 01 02 01 20.0000000  0 53
G28         1.000    23791183.960 6 125023531.95706     -2242.644 6        40.851                                    23791180.379 4  97420915.76304     -1747.528 4        26.347    23791180.322 6  97420921.77106     -1747.523 6        41.271
G31         2.000    22349637.311 7 117448150.07307      -529.787 7        45.917                                    22349632.305 7  91518026.98907      -412.822 7        42.229    22349632.923 6  91518026.00006      -412.852 6        41.838
G09         3.000    22221590.347 7 116775279.28707      2618.080 7        44.668                                    22221588.034 7  90993733.00007      2040.061 7        44.945    22221588.334 7  90993734.02307      2039.969 7        42.878
E34         4.000    26175071.669 7 137550938.79607      2119.366 7        42.707                                                                    26175072.023 7 102716617.41407      1582.594 7        45.121    26175071.900 7 105396180.73007      1623.860 7        45.828
S21         5.000    38580388.928 7 202741143.20207      -402.762 7        42.853
E05         6.000    24992148.146 6 131334653.21206      2354.013 6        41.888                                                                    24992149.020 7  98074603.94507      1757.765 7        44.363    24992148.450 7 100633064.44807      1803.634 7        45.023
G21         7.000    24434279.789 6 128403055.99606     -3621.317 6        36.117                                    24434275.473 3 100054330.68703     -2821.805 3        20.667
E04         8.000    24914229.488 7 130925181.36007     -2317.662 7        45.196                                                                    24914227.453 8  97768809.07408     -1730.638 8        48.162    24914227.066 8 100319291.69908     -1775.839 8        48.492
R14         9.000    23369798.947 7 124574172.02807      -921.471 7        44.916                                                                    23369800.272 6  96891009.63106      -716.599 6        40.150
G04        10.000    20643308.863 7 108481362.38707      1180.371 7        47.118                                    20643305.602 6  84530940.42706       919.769 6        38.988    20643305.846 7  84530935.42307       919.857 7        47.319
E09        11.000    23673529.072 8 124405282.83408       268.512 8        48.673                                                                    23673528.410 8  92900065.80408       200.511 8        50.414    23673527.957 8  95323545.03108       205.761 8        50.657
S27        12.000    39213503.094 5 206068331.72805      -392.308 5        35.614
G06        13.000    23650763.693 6 124285627.54906      2835.390 6        41.149                                    23650762.739 6  96845947.21506      2209.394 6        37.369    23650763.050 6  96845958.21606      2209.320 6        40.021
S36        14.000    38347817.316 7 201519625.54507      -402.533 7        44.182
E36        16.000    23538982.986 8 123698219.80308      -251.821 8        48.192                                                                    23538983.301 8  92372064.53108      -188.006 8        50.484    23538982.974 8  94781765.28008      -192.923 8        50.747
S45        17.000    63543530.703 6 333923599.49216      -442.490 6        37.622
G03        18.000    20191437.214 8 106106775.79308     -1132.891 8        49.798                                    20191435.115 8  82680624.02608      -882.772 8        51.994    20191435.658 7  82680633.02207      -882.747 7        45.786
R21        19.000    19583042.792 8 104792855.92908     -1240.370 8        52.568                                                                    19583041.152 7  81505564.33807      -964.703 7        46.098
R20        20.000    22026000.426 6 117782951.19306     -4575.746 6        36.726                                                                    22026001.357 7  91608958.56007     -3558.734 7        44.020
R05        21.000    21291328.773 8 113814392.93808     -3492.706 8        49.047                                                                    21291327.313 7  88522310.48607     -2716.606 7        44.442
I06        22.000    38250643.278 7 150103969.97907      -215.963 7        42.834
S28        23.000    41016530.495 5 215543309.55505      -396.295 5        34.019
E10        24.000    27560130.869 6 144829578.48106     -3379.602 6        39.625                                                                    27560131.098 7 108152021.99707     -2523.692 7        43.281    27560131.111 7 110973369.93307     -2589.510 7        43.467
S23        25.000    38295459.097 7 201244007.81107      -398.749 7        44.403
E06        26.000    23631063.913 8 124182140.92808     -1057.262 8        48.296                                                                    23631063.587 8  92733416.64208      -789.558 8        50.680    23631063.437 8  95152547.72508      -810.134 8        50.980
R15        27.000    23253082.677 7 124257425.06307      2176.608 7        44.144                                                                    23253083.650 6  96644674.62006      1692.998 6        41.185
C22        30.000                                                                                                                                    26590763.688 6 138465087.30306      2498.087 6        39.312                                                                    26590759.809 6 112514206.11406      2029.831 6        38.997
I01        31.000   333773935.891 7   6659807.73107     -2601.232 7        42.650
G02        32.000    22714532.115 7 119365705.37507     -3255.961 7        45.354                                    22714525.610 5  93012232.73905     -2537.113 5        34.529
G19        33.000    22426445.667 7 117851799.04507      -356.026 7        43.776                                    22426439.456 5  91832591.63405      -277.423 5        32.042
G17        34.000    22867410.628 7 120169102.83207     -2095.937 7        44.954                                    22867406.283 6  93638271.47306     -1633.195 6        41.578    22867406.365 6  93638271.47406     -1633.155 6        40.987
E11        35.000    25065374.443 7 131719494.00507     -2749.581 7        42.550                                                                    25065370.537 7  98361976.69207     -2053.102 7        44.235    25065370.343 7 100927933.98407     -2106.744 7        44.417
C32        36.000                                                                                                                                    26143269.034 6 136134878.79706     -3258.521 6        40.863                                                                    26143269.397 7 110620748.87907     -2647.807 7        42.131
C35        37.000                                                                                                                                    23131681.855 8 120452755.51308        53.092 8        48.470                                                                    23131680.414 7  97877730.14607        43.142 7        47.643
I09        38.000    37389567.905 7 146724690.60907      -479.638 7        43.395
C29        39.000                                                                                                                                    23570293.589 7 122736699.43307     -3173.360 7        47.358                                                                    23570291.215 7  99733615.28207     -2578.624 7        46.524
R22        40.000    21752877.353 7 116118370.34407      2939.135 7        47.652                                                                    21752876.403 7  90314302.36307      2286.044 7        44.588
S44        42.000    40784002.666 6 214321575.41206      -479.267 6        36.873
C09        43.000                                                                                                                                    38758631.694 7 201826384.53707       118.065 7        42.552    38758627.669 7 156064953.85507        91.304 7        46.010    38758625.648 7 164000450.57107        95.978 7        42.064
C05        44.000                                                                                                                                    39268214.038 6 204479930.81306      -414.786 6        38.282    39268209.524 7 158116876.85707      -320.663 7        42.825    39268211.540 6 166156796.22206      -337.119 6        40.040
R06        45.000    19726584.427 6 105264887.64706       573.127 6        40.977
C44        46.000                                                                                                                                    25750796.052 6 134091181.37006      2254.957 6        40.300                                                                    25750795.326 6 108960070.96706      1832.315 6        41.139
C39        47.000                                                                                                                                    39188729.379 7 204066007.76807      -927.680 7        42.660                                                                    39188725.426 7 165820336.13007      -753.914 7        42.751
C20        48.000                                                                                                                                    22276098.544 8 115997536.78508     -1515.873 8        51.597                                                                    22276092.467 8  94257492.39108     -1231.808 8        49.758
C06        49.000                                                                                                                                    38402666.170 6 199972783.49406      -392.043 6        40.965    38402660.779 7 154631624.30707      -303.075 7        44.594    38402660.328 6 162494246.12906      -318.495 6        41.707
C16        50.000                                                                                                                                    38876805.779 7 202441744.77707      -500.319 7        42.646    38876805.221 7 156540807.40807      -386.845 7        43.608    38876802.882 6 164500498.77806      -406.489 6        39.757
S48        51.000    77330367.279 6 406374855.89006      -399.082 6        37.331
C19        52.000                                                                                                                                    22770963.585 8 118574441.25908      1100.145 8        49.809                                                                    22770958.821 8  96351449.37308       893.935 8        49.414
C60        54.000                                                                                                                                    40784004.998 6 212373216.86106      -475.059 6        39.219                                                                    40783989.917 6 172570603.65206      -386.065 6        40.143
C37        56.000                                                                                                                                    25778084.149 6 134233250.62506      1660.113 6        41.747                                                                    25778087.450 7 109075527.71107      1349.043 7        42.593
C02        57.000                                                                                                                                    40736596.511 5 212126193.52705      -460.689 5        35.081    40736590.007 6 164029421.72706      -356.016 6        40.122    40736593.955 6 172369910.86006      -374.246 6        36.276
I03        58.000   132133370.529 6 442734479.71006       950.065 6        41.569
R07        59.000    22635898.917 7 121171753.80007      2891.949 7        46.707                                                                    22635898.904 6  94244695.74706      2249.379 6        41.719
> 2025 01 01 02 01 25.0000000  0 53
G28         1.000    23793318.854 6 125034751.97706     -2245.498 6        40.417                                    23793315.467 4  97429658.63904     -1749.748 4        26.395    23793315.583 6  97429664.63806     -1749.660 6        41.390
G31         2.000    22350142.934 7 117450807.80407      -533.270 7        45.818                                    22350138.090 7  91520097.95607      -415.533 7        42.231    22350138.649 6  91520096.95206      -415.500 6        41.299
G09         3.000    22219099.704 7 116762192.86707      2616.549 7        44.640                                    22219097.783 7  90983535.79607      2038.869 7        44.859    22219097.981 7  90983536.79807      2038.836 7        42.271
E34         4.000    26173055.778 7 137540344.16607      2118.435 7        42.836                                                                    26173055.954 7 102708705.84007      1581.977 7        45.085    26173055.765 7 105388062.76407      1623.340 7        45.782
S21         5.000    38580779.520 7 202743156.85507      -402.829 7        42.787
E05         6.000    24989908.303 6 131322885.61406      2353.105 6        41.924                                                                    24989909.692 7  98065816.45007      1757.200 7        44.477    24989909.225 7 100624047.70807      1803.070 7        45.177
G21         7.000    24437725.364 6 128421163.86006     -3621.877 6        37.463                                    24437721.135 3 100068440.68903     -2822.230 3        21.000
E04         8.000    24916435.106 7 130936772.41907     -2318.748 7        45.041                                                                    24916433.151 8  97777464.73808     -1731.633 8        48.204    24916432.706 8 100328173.15708     -1776.730 8        48.483
R14         9.000    23370664.613 7 124578790.40407      -925.640 7        44.743                                                                    23370665.962 6  96894601.71406      -719.927 6        40.060
G04        10.000    20642186.961 7 108475466.79907      1177.813 7        47.121                                    20642183.730 6  84526346.46606       917.778 6        38.913    20642184.093 7  84526341.46107       917.840 7        47.174
E09        11.000    23673274.486 8 124403944.99508       266.647 8        48.628                                                                    23673273.811 8  92899066.77108       199.052 8        50.485    23673273.382 8  95322519.93808       204.275 8        50.779
S27        12.000    39213874.019 6 206070292.76406      -392.317 6        36.091
G06        13.000    23648066.655 6 124271453.03206      2834.425 6        40.782                                    23648065.469 6  96834902.14206      2208.641 6        37.270    23648066.137 6  96834913.14106      2208.535 6        39.486
S36        14.000    38348197.637 7 201521638.43507      -402.520 7        44.244
E36        16.000    23539223.487 8 123699483.58808      -253.753 8        48.113                                                                    23539223.780 8  92373008.26908      -189.443 8        50.472    23539223.481 8  94782733.64008      -194.414 8        50.819
S45        17.000    63543909.459 6 333925812.33006      -442.411 6        37.221
G03        18.000    20192516.013 8 106112444.84708     -1134.745 8        49.757                                    20192513.907 8  82685041.46808      -884.217 8        51.938    20192514.761 7  82685050.46707      -884.214 7        45.707
R21        19.000    19584203.954 8 104799069.02408     -1244.818 8        52.952                                                                    19584202.231 7  81510396.75407      -968.194 7        45.893
R20        20.000    22030278.654 5 117805833.26205     -4577.155 5        35.781                                                                    22030280.293 7  91626755.73507     -3560.185 7        43.473
R05        21.000    21294595.349 8 113831858.92808     -3493.699 8        48.702                                                                    21294595.158 7  88535895.14407     -2717.256 7        44.393
I06        22.000    38250918.702 7 150105049.41107      -215.905 7        42.540
S28        23.000    41016908.799 5 215545290.73005      -396.241 5        34.171
E10        24.000    27563346.889 6 144846478.11006     -3380.333 6        39.571                                                                    27563347.007 7 108164641.84307     -2524.138 7        43.291    27563347.029 7 110986318.99507     -2590.053 7        43.799
S23        25.000    38295836.005 7 201246001.01807      -398.543 7        44.175
E06        26.000    23632070.786 8 124187431.93808     -1059.030 8        48.420                                                                    23632070.473 8  92737367.72008      -790.893 8        50.684    23632070.307 8  95156601.87508      -811.506 8        51.038
R15        27.000    23251046.469 7 124246548.67507      2173.835 7        44.190                                                                    23251048.154 6  96636215.23706      1690.627 6        40.336
C22        30.000                                                                                                                                    26588366.316 6 138452597.95806      2497.741 6        39.063                                                                    26588361.397 6 112504057.49106      2029.354 6        39.273
I01        31.000   333777250.422 7   6672813.94607     -2601.311 7        42.540
G02        32.000    22717630.718 7 119381989.21107     -3257.557 7        45.576                                    22717624.341 5  93024921.44105     -2538.354 5        34.495
G19        33.000    22426786.215 7 117853588.06407      -359.463 7        43.081                                    22426779.916 5  91833985.67005      -280.096 5        32.018
G17        34.000    22869405.772 7 120179588.28607     -2098.237 7        45.229                                    22869401.628 6  93646441.95306     -1634.987 6        41.456    22869401.561 6  93646441.94306     -1634.941 6        40.853
E11        35.000    25067991.165 7 131733244.70207     -2751.007 7        42.648                                                                    25067987.265 7  98372245.06907     -2054.198 7        44.268    25067987.009 7 100938470.22207     -2107.754 7        44.646
C32        36.000                                                                                                                                    26146398.005 6 136151171.46306     -3258.673 6        41.173                                                                    26146398.256 7 110633987.99407     -2647.915 7        42.218
C35        37.000                                                                                                                                    23131631.918 8 120452496.74608        50.360 8        48.405                                                                    23131630.718 7  97877519.86207        40.836 7        47.499
I09        38.000    37390178.671 7 146727089.08607      -479.739 7        43.162
C29        39.000                                                                                                                                    23573341.174 7 122752569.85707     -3174.861 7        47.250                                                                    23573338.965 7  99746511.28707     -2579.908 7        46.396
R22        40.000    21750125.716 8 116103680.62808      2936.721 8        48.141                                                                    21750124.353 7  90302877.03007      2284.099 7        44.265
S44        42.000    40784458.735 6 214323972.69806      -479.574 6        36.991
C09        43.000                                                                                                                                    38758518.754 7 201825796.19507       117.267 7        42.525    38758514.730 7 156064498.93007        90.694 7        46.142    38758512.675 7 163999972.49207        95.254 7        42.013
C05        44.000                                                                                                                                    39268612.348 6 204482004.65706      -414.784 6        38.315    39268608.075 7 158118480.46807      -320.764 7        42.948    39268609.707 6 166158481.37006      -337.087 6        39.910
R06        45.000    19726048.430 6 105262028.25706       570.611 6        40.746
C44        46.000                                                                                                                                    25748632.369 6 134079910.59706      2253.374 6        40.329                                                                    25748630.887 6 108950912.56206      1830.846 6        40.934
C39        47.000                                                                                                                                    39189620.821 7 204070648.40107      -928.522 7        42.872                                                                    39189616.626 7 165824107.00207      -754.538 7        42.533
C20        48.000                                                                                                                                    22277554.772 8 116005119.67508     -1517.242 8        51.673                                                                    22277548.751 8  94263654.08908     -1232.952 8        49.555
C06        49.000                                                                                                                                    38403043.176 6 199974745.56606      -392.971 6        40.915    38403037.576 7 154633141.50607      -303.726 7        44.644    38403037.229 6 162495840.43906      -319.209 6        41.623
C16        50.000                                                                                                                                    38877286.643 7 202444248.29007      -501.158 7        42.662    38877286.067 7 156542743.27607      -387.522 7        43.397    38877283.666 6 164502533.07606      -407.163 6        39.474
S48        51.000    77330748.682 6 406376850.75706      -398.943 6        37.168
C19        52.000                                                                                                                                    22769907.901 8 118568944.03408      1098.730 8        49.751                                                                    22769903.098 8  96346982.41508       892.696 8        49.259
C60        54.000                                                                                                                                    40784461.810 6 212375592.36206      -475.223 6        39.105                                                                    40784446.045 6 172572533.91206      -386.133 6        40.195
C37        56.000                                                                                                                                    25776491.203 6 134224953.69206      1658.537 6        41.726                                                                    25776494.200 7 109068785.76907      1347.624 7        42.491
C02        57.000                                                                                                                                    40737038.862 5 212128495.08605      -460.240 5        35.248    40737032.009 6 164031201.45206      -355.928 6        39.988    40737036.185 5 172371781.08505      -374.386 5        35.748
I03        58.000   132132160.253 6 442729729.73006       950.055 6        41.530
R07        59.000    22633199.070 7 121157296.98307      2890.725 7        47.674                                                                    22633197.613 6  94233451.53306      2248.374 6        41.156
> 2025 01 01 02 01 30.0000000  0 53
G28         1.000    23795456.998 6 125045985.62806     -2248.118 6        40.102                                    23795453.184 4  97438412.13604     -1751.773 4        26.395    23795452.879 6  97438418.14006     -1751.818 6        41.435
G31         2.000    22350651.508 7 117453483.02607      -536.778 7        44.935                                    22350647.238 7  91522182.54107      -418.269 7        42.282    22350647.600 6  91522181.54906      -418.280 6        41.330
G09         3.000    22216610.799 7 116749113.96907      2615.111 7        44.721                                    22216608.923 7  90973344.44807      2037.748 7        44.891    22216609.146 7  90973345.45107      2037.716 7        42.174
E34         4.000    26171040.305 7 137529753.07007      2117.854 7        42.734                                                                    26171040.484 7 102700796.90907      1581.510 7        45.216    26171040.385 7 105379947.51807      1622.743 7        45.789
S21         5.000    38581157.953 7 202745169.97007      -402.544 7        42.931
E05         6.000    24987670.142 7 131311121.75107      2352.314 7        42.044                                                                    24987670.911 7  98057031.74807      1756.651 7        44.546    24987670.678 7 100615033.85207      1802.469 7        45.296
G21         7.000    24441171.763 6 128439273.97706     -3622.399 6        37.641                                    24441167.298 3 100082552.46403     -2822.667 3        21.238
E04         8.000    24918641.763 7 130948369.16407     -2319.849 7        44.758                                                                    24918639.945 8  97786124.64008     -1732.373 8        48.298    24918639.513 8 100337058.96908     -1777.535 8        48.616
R14         9.000    23371534.469 7 124583428.95007      -929.584 7        44.575                                                                    23371536.467 6  96898209.49906      -723.147 6        40.358
G04        10.000    20641067.310 7 108469583.49507      1175.474 7        46.893                                    20641064.219 6  84521762.07706       915.950 6        38.925    20641064.272 7  84521757.07207       915.984 7        47.070
E09        11.000    23673021.740 8 124402616.29508       264.842 8        48.755                                                                    23673020.955 8  92898074.55908       197.769 8        50.468    23673020.549 8  95321501.84108       202.973 8        50.824
S27        12.000    39214245.620 6 206072252.95406      -392.078 6        36.045
G06        13.000    23645370.017 6 124257283.51006      2833.383 6        40.167                                    23645369.170 6  96823860.96306      2207.828 6        37.323    23645370.049 6  96823871.96306      2207.785 6        40.529
S36        14.000    38348580.090 7 201523650.27307      -402.229 7        43.852
E36        16.000    23539465.996 8 123700756.92308      -255.627 8        48.123                                                                    23539466.063 8  92373959.13008      -190.865 8        50.602    23539465.792 8  94783709.30608      -195.835 8        50.907
S45        17.000    63544287.794 6 333928024.47906      -442.383 6        37.297
G03        18.000    20193596.509 8 106118123.18908     -1136.590 8        49.560                                    20193594.453 8  82689466.15108      -885.658 8        51.958    20193594.928 7  82689475.15607      -885.685 7        45.878
R21        19.000    19585369.233 8 104805304.22208     -1249.228 8        53.036                                                                    19585367.873 7  81515246.33907      -971.553 7        46.307
R20        20.000    22034557.770 6 117828724.04006     -4579.055 6        36.204                                                                    22034561.597 7  91644559.63707     -3561.425 7        43.554
R05        21.000    21297863.847 8 113849329.58108     -3494.659 8        48.473                                                                    21297863.750 7  88549483.44507     -2718.012 7        44.886
I06        22.000    38251193.519 7 150106128.49107      -215.829 7        42.337
S28        23.000    41017277.068 5 215547271.52905      -396.054 5        33.563
E10        24.000    27566562.883 6 144863380.31506     -3380.578 6        39.195                                                                    27566563.532 7 108177263.62607     -2524.626 7        43.566    27566563.126 7 110999270.03107     -2590.267 7        43.695
S23        25.000    38296216.912 7 201247993.67807      -398.467 7        44.078
E06        26.000    23633079.460 8 124192731.50808     -1060.807 8        48.424                                                                    23633078.931 8  92741325.18808      -792.057 8        50.749    23633078.759 8  95160662.58808      -812.778 8        51.102
R15        27.000    23249013.879 7 124235686.12407      2171.153 7        44.327                                                                    23249015.231 6  96627766.57106      1688.778 6        40.560
C22        30.000                                                                                                                                    26585968.248 6 138440109.77106      2497.515 6        39.093                                                                    26585963.773 6 112493909.83806      2029.371 6        39.844
I01        31.000   333780564.619 7   6685820.25307     -2601.246 7        42.667
G02        32.000    22720730.762 7 119398280.37607     -3258.951 7        45.577                                    22720724.490 5  93037615.85505     -2539.443 5        34.510
G19        33.000    22427129.964 7 117855394.32407      -362.909 7        43.126                                    22427123.712 5  91835393.14705      -282.788 5        32.090
G17        34.000    22871403.606 7 120190085.12407     -2100.463 7        44.698                                    22871399.151 6  93654621.30906     -1636.726 6        41.526    22871399.313 6  93654621.31606     -1636.815 6        40.672
E11        35.000    25070608.896 7 131747001.76507     -2752.081 7        42.961                                                                    25070605.174 7  98382518.20207     -2055.147 7        44.278    25070604.878 7 100949011.35407     -2108.719 7        44.498
C32        36.000                                                                                                                                    26149527.058 6 136167463.94606     -3258.551 6        41.476                                                                    26149527.227 7 110647226.96607     -2647.771 7        42.542
C35        37.000                                                                                                                                    23131584.903 8 120452251.53508        47.711 8        48.425                                                                    23131583.572 7  97877320.61007        38.644 7        47.652
I09        38.000    37390789.987 7 146729487.78507      -479.663 7        43.149
C29        39.000                                                                                                                                    23576390.315 7 122768447.69607     -3176.254 7        47.201                                                                    23576388.148 7  99759413.32907     -2581.087 7        46.540
R22        40.000    21747376.025 7 116089003.00807      2934.292 7        47.784                                                                    21747374.966 7  90291461.12107      2282.171 7        44.643
S44        42.000    40784915.118 6 214326369.38306      -479.167 6        36.801
C09        43.000                                                                                                                                    38758406.054 7 201825211.43907       116.605 7        42.480    38758402.382 7 156064046.74307        90.251 7        46.121    38758400.349 7 163999497.32707        94.713 7        42.063
C05        44.000                                                                                                                                    39269011.060 6 204484077.94306      -414.485 6        38.282    39269006.049 7 158120083.68007      -320.614 7        43.069    39269008.057 6 166160166.08906      -336.870 6        40.031
R06        45.000    19725515.474 6 105259181.61106       567.978 6        40.424
C44        46.000                                                                                                                                    25746469.001 6 134068647.02006      2252.077 6        40.660                                                                    25746467.939 6 108941759.99606      1829.854 6        41.170
C39        47.000                                                                                                                                    39190512.516 7 204075292.16607      -928.988 7        42.883                                                                    39190508.330 7 165827880.44207      -754.990 7        42.794
C20        48.000                                                                                                                                    22279012.204 8 116012709.14208     -1518.524 8        51.478                                                                    22279006.211 8  94269821.15208     -1233.962 8        49.706
C06        49.000                                                                                                                                    38403420.588 6 199976711.36606      -393.539 6        40.803    38403415.149 7 154634661.60407      -304.214 7        44.804    38403414.593 6 162497437.83606      -319.746 6        41.747
C16        50.000                                                                                                                                    38877767.778 7 202446755.33607      -501.802 7        42.675    38877767.249 7 156544681.88307      -387.942 7        43.505    38877765.013 6 164504570.25806      -407.722 6        39.712
S48        51.000    77331127.697 6 406378844.89606      -398.982 6        37.399
C19        52.000                                                                                                                                    22768853.400 8 118563453.54908      1097.406 8        49.550                                                                    22768848.733 8  96342520.94908       891.682 8        49.413
C60        54.000                                                                                                                                    40784917.719 6 212377967.25106      -474.971 6        39.183                                                                    40784901.994 6 172574463.71206      -386.150 6        40.210
C37        56.000                                                                                                                                    25774899.559 6 134216664.57706      1656.999 6        41.869                                                                    25774902.409 7 109062050.17707      1346.429 7        42.607
C02        57.000                                                                                                                                    40737479.970 5 212130796.12905      -460.425 5        34.690    40737474.338 6 164032980.73806      -355.681 6        40.057    40737477.865 6 172373650.81506      -373.984 6        36.060
I03        58.000   132130949.871 6 442724979.45906       950.113 6        41.533
R07        59.000    22630500.351 7 121142846.35407      2889.599 7        46.601                                                                    22630498.860 6  94222212.18106      2247.394 6        41.347
> 2025 01 01 02 01 35.0000000  0 53
G28         1.000    23797597.199 6 125057233.13906     -2251.034 6        40.403                                    23797593.423 4  97447176.43204     -1754.051 4        26.335    23797593.265 6  97447182.42506     -1753.851 6        40.770
G31         2.000    22351164.181 7 117456175.98507      -540.418 7        45.163                                    22351159.762 7  91524280.95407      -421.102 7        42.313    22351160.400 6  91524279.95006      -421.110 6        41.333
G09         3.000    22214123.595 7 116736042.84007      2613.491 7        44.557                                    22214121.556 7  90963159.15607      2036.486 7        44.910    22214121.828 7  90963160.15807      2036.454 7        42.377
E34         4.000    26169025.549 7 137519165.76807      2117.097 7        42.897                                                                    26169025.792 7 102692890.80607      1580.892 7        45.309    26169025.517 7 105371835.16807      1622.171 7        45.871
S21         5.000    38581536.109 7 202747182.62307      -402.568 7        42.554
E05         6.000    24985432.431 6 131299361.87606      2351.446 6        41.948                                                                    24985433.031 7  98048250.03907      1755.949 7        44.591    24985432.757 7 100606023.04107      1801.804 7        45.296
G21         7.000    24444618.253 6 128457386.69506     -3622.775 6        37.440                                    24444613.980 3 100096666.26903     -2822.930 3        21.524
E04         8.000    24920849.609 7 130959971.82707     -2321.103 7        44.764                                                                    24920847.787 8  97794788.96908     -1733.404 8        48.370    24920847.404 8 100345949.32508     -1778.550 8        48.714
R14         9.000    23372409.367 7 124588088.02507      -934.028 7        44.105                                                                    23372410.359 6  96901833.21606      -726.333 6        39.523
G04        10.000    20639950.304 7 108463712.75007      1172.798 7        46.779                                    20639947.051 6  84517187.47206       913.868 6        39.015    20639947.114 7  84517182.47407       913.902 7        46.862
E09        11.000    23672770.633 8 124401296.97708       262.857 8        48.734                                                                    23672769.881 8  92897089.35808       196.298 8        50.616    23672769.488 8  95320490.94208       201.419 8        50.897
S27        12.000    39214625.082 5 206074212.93405      -392.090 5        35.971
G06        13.000    23642674.936 6 124243119.22506      2832.284 6        40.002                                    23642673.815 6  96812823.85506      2206.975 6        37.425    23642674.779 6  96812834.86206      2206.969 6        40.324
S36        14.000    38348964.940 7 201525662.16907      -402.386 7        43.767
E36        16.000    23539710.043 8 123702040.03808      -257.658 8        48.010                                                                    23539710.234 8  92374917.30408      -192.403 8        50.682    23539710.010 8  94784692.47408      -197.392 8        50.954
S45        17.000    63544665.445 6 333930236.19106      -442.476 6        37.474
G03        18.000    20194678.776 8 106123811.04408     -1138.572 8        49.604                                    20194676.818 8  82693898.24608      -887.199 8        51.984    20194677.424 7  82693907.24007      -887.216 7        45.818
R21        19.000    19586538.265 8 104811561.71908     -1253.864 8        52.709                                                                    19586536.873 7  81520113.28707      -975.236 7        46.342
R20        20.000    22038840.454 5 117851623.56205     -4580.766 5        35.748                                                                    22038843.743 7  91662370.37107     -3562.851 7        44.129
R05        21.000    21301132.847 8 113866805.32908     -3495.712 8        48.615                                                                    21301132.742 7  88563075.68207     -2718.918 7        44.856
I06        22.000    38251468.565 7 150107207.39807      -215.875 7        42.425
S28        23.000    41017658.064 5 215549251.84205      -396.188 5        34.052
E10        24.000    27569780.082 6 144880285.35806     -3381.179 6        39.063                                                                    27569780.521 7 108189887.50507     -2525.006 7        43.706    27569779.928 7 111012223.24507     -2590.923 7        43.845
S23        25.000    38296598.390 7 201249986.06507      -398.513 7        44.403
E06        26.000    23634089.673 8 124198039.90508     -1062.601 8        48.543                                                                    23634089.095 8  92745289.25408      -793.537 8        50.916    23634088.929 8  95164730.05908      -814.205 8        51.191
R15        27.000    23246984.411 7 124224837.58307      2168.261 7        45.174                                                                    23246985.446 6  96619328.83506      1686.418 6        40.412
C22        30.000                                                                                                                                    26583570.967 6 138427623.04406      2497.099 6        40.253                                                                    26583565.643 6 112483763.35306      2029.108 6        39.261
I01        31.000   333783879.224 7   6698826.82507     -2601.458 7        42.631
G02        32.000    22723832.184 7 119414579.11507     -3260.487 7        45.627                                    22723826.017 5  93050316.16405     -2540.640 5        34.538
G19        33.000    22427477.336 7 117857218.05507      -366.476 7        44.135                                    22427470.710 5  91836814.23805      -285.566 5        32.018
G17        34.000    22873402.899 7 120200593.67507     -2102.938 7        44.921                                    22873398.883 6  93662809.78406     -1638.652 6        41.592    22873399.107 6  93662809.78006     -1638.669 6        40.882
E11        35.000    25073228.087 7 131760765.45807     -2753.452 7        42.671                                                                    25073224.383 7  98392796.28107     -2056.182 7        44.597    25073224.067 7 100959557.55607     -2109.826 7        44.721
C32        36.000                                                                                                                                    26152655.626 6 136183756.48306     -3258.667 6        41.988                                                                    26152656.074 7 110660465.98707     -2647.610 7        42.677
C35        37.000                                                                                                                                    23131540.768 8 120452020.12308        44.905 8        48.434                                                                    23131539.129 7  97877132.57907        36.540 7        47.688
I09        38.000    37391401.653 7 146731886.91207      -479.909 7        43.209
C29        39.000                                                                                                                                    23579440.922 7 122784333.20307     -3177.890 7        47.074                                                                    23579438.770 7  99772321.60207     -2582.217 7        46.465
R22        40.000    21744628.872 7 116074337.74207      2931.819 7        47.925                                                                    21744627.214 7  90280054.78907      2280.284 7        44.378
S44        42.000    40785369.077 6 214328765.70606      -479.506 6        36.427
C09        43.000                                                                                                                                    38758294.560 7 201824630.48407       115.713 7        42.425    38758290.781 7 156063597.51107        89.590 7        45.998    38758288.758 7 163999025.25807        94.082 7        42.064
C05        44.000                                                                                                                                    39269408.534 6 204486150.97906      -414.612 6        38.177    39269403.984 7 158121686.68507      -320.677 7        42.622    39269405.870 6 166161850.60706      -336.749 6        39.934
R06        45.000    19724984.738 6 105256348.05406       565.327 6        40.725
C44        46.000                                                                                                                                    25744307.062 6 134057390.92706      2250.374 6        40.331                                                                    25744306.438 6 108932613.52006      1828.676 6        41.213
C39        47.000                                                                                                                                    39191404.748 7 204079939.32107      -929.903 7        43.096                                                                    39191400.663 7 165831656.64707      -755.569 7        42.637
C20        48.000                                                                                                                                    22280470.853 8 116020305.41508     -1519.998 8        51.534                                                                    22280465.062 8  94275993.75708     -1235.034 8        49.722
C06        49.000                                                                                                                                    38403798.934 6 199978681.15206      -394.514 6        41.015    38403793.357 7 154636184.76307      -305.024 7        44.734    38403792.953 6 162499038.45306      -320.312 6        41.783
C16        50.000                                                                                                                                    38878249.957 7 202449266.15907      -502.710 7        42.919    38878249.409 7 156546623.41807      -388.634 7        43.302    38878247.182 6 164506610.52706      -408.310 6        39.676
S48        51.000    77331511.277 6 406380838.47406      -398.536 6        37.433
C19        52.000                                                                                                                                    22767800.442 8 118557970.04108      1095.909 8        49.752                                                                    22767795.658 8  96338065.15908       890.658 8        49.463
C60        54.000                                                                                                                                    40785373.954 6 212380341.79706      -474.955 6        39.048                                                                    40785358.010 6 172576393.20706      -385.737 6        40.114
C37        56.000                                                                                                                                    25773308.781 7 134208383.49807      1655.328 7        42.375                                                                    25773312.048 7 109055321.14707      1345.176 7        42.870
C02        57.000                                                                                                                                    40737922.303 5 212133096.89905      -460.212 5        34.805    40737916.165 6 164034759.84306      -355.826 6        40.250    40737919.612 6 172375520.40206      -373.880 6        36.034
I03        58.000   132129738.623 6 442720229.07606       950.043 6        41.437
R07        59.000    22627800.881 7 121128402.09407      2888.172 7        47.238                                                                    22627800.252 6  94210977.75706      2246.302 6        41.039
> 2025 01 01 02 01 40.0000000  0 53
G28         1.000    23799740.422 6 125068494.55706     -2253.369 6        40.565                                    23799736.283 4  97455951.56104     -1755.874 4        26.240    23799736.526 6  97455957.56106     -1755.971 6        40.498
G31         2.000    22351680.407 7 117458886.74907      -543.850 7        44.752                                    22351675.662 7  91526393.24207      -423.778 7        42.290    22351675.943 6  91526392.24206      -423.723 6        41.318
G09         3.000    22211637.495 7 116722979.52307      2611.962 7        44.558                                    22211635.647 7  90952979.95007      2035.298 7        44.916    22211635.720 6  90952980.93906      2035.409 6        41.998
E34         4.000    26167011.612 7 137508582.31907      2116.461 7        42.724                                                                    26167011.791 7 102684987.58707      1580.517 7        45.339    26167011.595 7 105363725.78107      1621.646 7        46.136
S21         5.000    38581916.899 7 202749195.00907      -402.212 7        42.201
E05         6.000    24983195.066 6 131287606.06406      2350.929 6        41.762                                                                    24983196.134 7  98039471.35307      1755.549 7        44.656    24983195.631 7 100597015.34907      1801.364 7        45.434
G21         7.000    24448065.609 6 128475502.04206     -3623.291 6        37.894                                    24448061.087 3 100110782.12303     -2823.353 3        21.667
E04         8.000    24923058.787 7 130971580.44607     -2322.170 7        44.576                                                                    24923056.832 8  97803457.73408     -1734.041 8        48.366    24923056.502 8 100354844.23808     -1779.381 8        48.836
R14         9.000    23373286.931 7 124592767.77207      -937.818 7        44.724                                                                    23373287.796 6  96905473.01406      -729.396 6        39.459
G04        10.000    20638835.575 7 108457854.58807      1170.533 7        47.063                                    20638832.294 6  84512622.67506       912.102 6        39.003    20638832.499 7  84512617.67407       912.126 7        47.045
E09        11.000    23672521.350 8 124399987.08608       261.137 8        48.282                                                                    23672520.613 8  92896111.19208       195.064 8        50.533    23672520.243 8  95319487.25808       200.122 8        51.060
S27        12.000    39214994.241 6 206076172.49306      -391.730 6        36.132
G06        13.000    23639980.282 6 124228960.25206      2831.331 6        40.496                                    23639979.443 6  96801790.89606      2206.227 6        37.444    23639979.566 6  96801801.88106      2206.398 6        40.236
S36        14.000    38349346.334 7 201527674.27607      -402.012 7        43.496
E36        16.000    23539956.278 7 123703332.98407      -259.431 7        47.791                                                                    23539956.285 8  92375882.81608      -193.778 8        50.659    23539956.036 8  94785683.17508      -198.792 8        51.135
S45        17.000    63545043.856 6 333932447.65106      -442.087 6        37.698
G03        18.000    20195763.150 8 106129508.47508     -1140.340 8        49.701                                    20195761.007 8  82698337.80108      -888.579 8        51.991    20195761.679 7  82698346.79907      -888.602 7        45.899
R21        19.000    19587711.683 8 104817841.66208     -1258.127 8        52.575                                                                    19587710.279 7  81524997.67907      -978.543 7        46.411
R20        20.000    22043125.313 6 117874531.90706     -4582.403 6        36.363                                                                    22043127.838 7  91680187.97307     -3564.146 7        44.615
R05        21.000    21304403.679 8 113884286.22508     -3496.576 8        48.946                                                                    21304402.471 7  88576671.94807     -2719.577 7        45.065
I06        22.000    38251743.584 7 150108286.16807      -215.684 7        42.216
S28        23.000    41018037.709 5 215551231.85705      -395.629 5        33.868
E10        24.000    27572997.669 6 144897193.25606     -3381.677 6        38.775                                                                    27572997.958 7 108202513.52807     -2525.314 7        43.765    27572997.327 7 111025178.63907     -2591.175 7        44.123
S23        25.000    38296976.332 7 201251977.91207      -398.166 7        44.318
E06        26.000    23635101.299 8 124203357.14808     -1064.239 8        48.177                                                                    23635100.985 8  92749259.91908      -794.717 8        50.862    23635100.736 8  95168804.30308      -815.392 8        51.369
R15        27.000    23244957.482 7 124214003.18107      2165.593 7        45.418                                                                    23244957.464 6  96610902.06606      1684.391 6        40.501
C22        30.000                                                                                                                                    26581172.307 6 138415137.75206      2497.001 6        39.177                                                                    26581167.472 6 112473618.01606      2029.063 6        38.991
I01        31.000   333787193.731 7   6711833.69007     -2601.291 7        42.785
G02        32.000    22726935.273 7 119430885.51207     -3261.969 7        45.786                                    22726928.893 5  93063022.44805     -2541.792 5        34.414
G19        33.000    22427827.571 7 117859059.30907      -369.888 7        43.807                                    22427821.098 5  91838248.97505      -288.231 5        32.072
G17        34.000    22875405.306 7 120211114.00407     -2105.151 7        44.766                                    22875400.842 6  93671007.44106     -1640.377 6        41.514    22875400.977 6  93671007.44306     -1640.334 6        40.415
E11        35.000    25075848.451 7 131774535.80307     -2754.564 7        42.246                                                                    25075844.820 7  98403079.33007     -2056.986 7        44.546    25075844.581 7 100970108.85407     -2110.587 7        44.846
C32        36.000                                                                                                                                    26155784.094 6 136200049.10906     -3258.434 6        41.831                                                                    26155785.122 7 110673705.07707     -2647.793 7        42.836
C35        37.000                                                                                                                                    23131498.746 8 120451802.56708        42.267 8        48.405                                                                    23131497.407 7  97876955.77807        34.387 7        47.615
I09        38.000    37392013.263 7 146734286.47407      -479.813 7        43.278
C29        39.000                                                                                                                                    23582493.462 7 122800226.37807     -3179.297 7        47.384                                                                    23582490.890 7  99785236.09807     -2583.450 7        46.434
R22        40.000    21741884.157 8 116059684.92408      2929.494 8        48.587                                                                    21741882.209 7  90268658.17007      2278.502 7        44.922
S44        42.000    40785825.666 6 214331161.70206      -478.737 6        36.386
C09        43.000                                                                                                                                    38758183.499 7 201824053.43707       115.202 7        42.449    38758180.152 7 156063151.31507        88.998 7        45.704    38758177.912 7 163998556.34907        93.611 7        42.191
C05        44.000                                                                                                                                    39269806.772 6 204488223.77906      -414.465 6        38.547    39269802.025 7 158123289.49007      -320.341 7        42.463    39269803.983 6 166163534.91206      -336.700 6        39.799
R06        45.000    19724455.114 6 105253527.46206       562.908 6        40.591
C44        46.000                                                                                                                                    25742146.768 6 134046142.33106      2249.071 6        39.667                                                                    25742146.209 6 108923473.07706      1827.610 6        41.273
C39        47.000                                                                                                                                    39192297.891 7 204084589.89307      -930.391 7        42.682                                                                    39192293.724 7 165835435.60307      -755.939 7        42.753
C20        48.000                                                                                                                                    22281931.026 8 116027908.53508     -1521.142 8        51.333                                                                    22281925.103 8  94282171.90208     -1236.124 8        49.652
C06        49.000                                                                                                                                    38404178.426 6 199980654.96006      -395.012 6        40.770    38404172.256 7 154637711.03407      -305.502 7        44.715    38404172.023 6 162500642.31806      -321.021 6        41.659
C16        50.000                                                                                                                                    38878732.997 7 202451780.81707      -503.189 7        42.853    38878732.391 7 156548567.90507      -389.039 7        43.111    38878729.921 6 164508653.87106      -408.870 6        39.508
S48        51.000    77331886.048 6 406382831.67406      -398.372 6        37.319
C19        52.000                                                                                                                                    22766748.936 8 118552493.54908      1094.745 8        49.539                                                                    22766744.005 8  96333615.04708       889.557 8        49.371
C60        54.000                                                                                                                                    40785829.429 6 212382716.02206      -474.644 6        39.132                                                                    40785814.017 6 172578322.45406      -385.714 6        40.129
C37        56.000                                                                                                                                    25771720.089 7 134200110.53107      1653.960 7        42.411                                                                    25771723.456 7 109048598.67107      1343.916 7        42.842
C02        57.000                                                                                                                                    40738363.831 5 212135397.45705      -459.936 5        35.010    40738357.966 6 164036538.77406      -355.656 6        40.174    40738361.436 6 172377389.77406      -373.680 6        36.083
I03        58.000   132128528.508 6 442715478.60706       950.273 6        41.313
R07        59.000    22625103.537 7 121113964.11507      2887.117 7        47.014                                                                    22625103.067 6  94199748.21206      2245.646 6        41.335
> 2025 01 01 02 01 45.0000000  0 53
G28         1.000    23801886.051 6 125079769.69706     -2256.422 6        40.443                                    23801881.736 4  97464737.38704     -1758.243 4        26.048    23801881.786 6  97464743.38306     -1758.094 6        40.772
G31         2.000    22352199.416 7 117461615.13007      -547.389 7        44.677                                    22352194.894 7  91528519.25307      -426.540 7        42.273    22352195.429 6  91528518.25706      -426.417 6        41.566
G09         3.000    22209152.961 7 116709923.86407      2610.447 7        44.409                                    22209151.187 7  90942806.70907      2034.112 7        44.939    22209151.306 6  90942807.71306      2034.045 6        41.881
E34         4.000    26164998.161 7 137498002.58007      2115.617 7        42.682                                                                    26164998.518 7 102677087.13407      1579.936 7        45.467    26164998.375 7 105355619.22907      1621.149 7        46.128
S21         5.000    38582306.167 7 202751207.03407      -402.174 7        42.573
E05         6.000    24980958.866 6 131275854.14506      2350.184 6        40.858                                                                    24980959.933 7  98030695.58007      1755.032 7        44.664    24980959.276 7 100588010.64507      1800.767 7        45.549
G21         7.000    24451513.317 6 128493619.82406     -3623.717 6        37.459                                    24451508.762 3 100124899.86403     -2823.675 3        22.000
E04         8.000    24925269.036 7 130983194.85607     -2323.351 7        44.500                                                                    24925267.015 8  97812130.84208     -1734.979 8        48.410    24925266.667 8 100363743.59708     -1780.222 8        48.772
R14         9.000    23374168.706 7 124597467.91107      -941.941 7        43.989                                                                    23374170.560 6  96909128.65606      -732.673 6        39.595
G04        10.000    20637723.387 7 108452008.89007      1167.997 7        47.297                                    20637719.911 6  84508067.58606       910.125 6        39.018    20637720.173 7  84508062.58707       910.135 7        47.364
E09        11.000    23672273.990 8 124398686.47608       259.274 8        48.154                                                                    23672273.101 8  92895139.96108       193.662 8        50.633    23672272.728 8  95318490.69108       198.742 8        51.012
S27        12.000    39215372.411 6 206078131.83406      -391.925 6        36.174
G06        13.000    23637287.400 6 124214806.42906      2830.401 6        39.937                                    23637286.015 6  96790761.94706      2205.506 6        37.391    23637286.369 6  96790772.94306      2205.492 6        40.327
S36        14.000    38349728.591 7 201529685.56007      -402.150 7        44.134
E36        16.000    23540203.883 7 123704635.63207      -261.349 7        47.692                                                                    23540204.154 8  92376855.57008      -195.144 8        50.705    23540203.939 8  94786681.30508      -200.241 8        51.189
S45        17.000    63545421.439 6 333934658.62106      -442.125 6        37.319
G03        18.000    20196849.070 8 106135215.31008     -1142.187 8        49.848                                    20196846.981 8  82702784.68708      -890.016 8        52.023    20196847.607 7  82702793.68207      -890.045 7        45.556
R21        19.000    19588889.833 8 104824143.88508     -1262.511 8        52.755                                                                    19588888.207 7  81529899.40607      -981.984 7        46.310
R20        20.000    22047410.612 6 117897448.92106     -4584.289 6        36.181                                                                    22047413.192 7  91698012.30807     -3565.504 7        44.336
R05        21.000    21307674.852 8 113901772.12808     -3497.592 8        48.895                                                                    21307674.247 7  88590272.08807     -2720.338 7        45.219
I06        22.000    38252018.431 7 150109364.69307      -215.589 7        42.328
S28        23.000    41018413.097 5 215553211.29605      -395.664 5        33.976
E10        24.000    27576215.493 6 144914103.87806     -3382.296 6        38.387                                                                    27576216.032 7 108215141.57907     -2525.688 7        43.846    27576215.465 7 111038136.12607     -2591.569 7        44.108
S23        25.000    38297356.049 7 201253969.50007      -398.148 7        44.409
E06        26.000    23636114.770 7 124208683.09207     -1065.970 7        47.986                                                                    23636114.438 8  92753237.08508      -795.949 8        50.912    23636114.215 8  95172885.22608      -816.715 8        51.399
R15        27.000    23242932.233 7 124203182.73907      2162.779 7        46.045                                                                    23242932.432 6  96602486.17706      1682.206 6        40.937
C22        30.000                                                                                                                                    26578775.659 6 138402653.80006      2496.630 6        39.441                                                                    26578770.188 6 112463473.79706      2028.943 6        39.024
I01        31.000   333790508.271 7   6724840.75807     -2601.386 7        42.832
G02        32.000    22730039.710 7 119447199.36607     -3263.359 7        45.499                                    22730033.246 5  93075734.53705     -2542.878 5        34.586
G19        33.000    22428180.571 7 117860917.91507      -373.437 7        43.369                                    22428174.767 5  91839697.24205      -290.987 5        32.126
G17        34.000    22877409.156 7 120221645.91807     -2107.410 7        45.201                                    22877405.019 6  93679214.12606     -1642.138 6        41.516    22877404.854 6  93679214.12906     -1642.108 6        40.112
E11        35.000    25078470.126 7 131788312.64507     -2755.814 7        42.245                                                                    25078466.366 7  98413367.22307     -2057.837 7        44.454    25078466.189 7 100980665.13007     -2111.562 7        44.817
C32        36.000                                                                                                                                    26158913.199 6 136216341.66306     -3258.421 6        41.897                                                                    26158913.769 7 110686944.11307     -2647.642 7        42.849
C35        37.000                                                                                                                                    23131459.381 8 120451598.72608        39.551 8        48.292                                                                    23131458.266 7  97876790.15207        32.107 7        47.590
I09        38.000    37392624.842 7 146736686.36907      -479.911 7        43.245
C29        39.000                                                                                                                                    23585546.963 7 122816127.10507     -3180.763 7        47.362                                                                    23585544.541 7  99798156.74007     -2584.608 7        46.283
R22        40.000    21739141.400 7 116045044.38207      2927.011 7        47.583                                                                    21739139.806 7  90257271.09607      2276.511 7        45.094
S44        42.000    40786281.950 6 214333557.25606      -478.793 6        36.960
C09        43.000                                                                                                                                    38758073.685 7 201823480.07907       114.419 7        42.597    38758069.868 7 156062707.95507        88.524 7        45.684    38758067.775 6 163998090.45006        92.987 6        41.990
C05        44.000                                                                                                                                    39270204.764 6 204490296.20506      -414.256 6        38.144    39270200.353 7 158124892.03007      -320.402 7        42.631    39270202.119 6 166165218.93106      -336.642 6        40.072
R06        45.000    19723929.240 6 105250720.00906       560.368 6        40.770
C44        46.000                                                                                                                                    25739988.514 6 134034901.09306      2247.580 6        40.493                                                                    25739987.161 6 108914338.68706      1826.479 6        41.278
C39        47.000                                                                                                                                    39193191.554 7 204089243.75307      -930.943 7        42.751                                                                    39193187.576 7 165839217.24707      -756.378 7        42.766
C20        48.000                                                                                                                                    22283392.398 8 116035518.36708     -1522.534 8        51.562                                                                    22283386.496 8  94288355.51708     -1237.208 8        49.624
C06        49.000                                                                                                                                    38404557.335 6 199982632.61506      -395.809 6        40.999    38404551.899 7 154639240.28507      -306.046 7        44.552    38404551.790 6 162502249.32306      -321.516 6        41.609
C16        50.000                                                                                                                                    38879216.795 7 202454299.13707      -503.901 7        42.686    38879215.973 7 156550515.24807      -389.659 7        43.128    38879213.687 6 164510700.23806      -409.639 6        39.414
S48        51.000    77332259.379 6 406384824.37606      -398.532 6        37.293
C19        52.000                                                                                                                                    22765698.511 8 118547023.94408      1093.326 8        49.814                                                                    22765693.595 8  96329170.55508       888.500 8        49.307
C60        54.000                                                                                                                                    40786285.061 6 212385089.78306      -474.653 6        39.153                                                                    40786269.939 6 172580251.34406      -385.712 6        40.164
C37        56.000                                                                                                                                    25770132.161 7 134191845.53507      1652.412 7        42.074                                                                    25770136.093 7 109041882.70707      1342.651 7        42.813
C02        57.000                                                                                                                                    40738805.953 5 212137697.59605      -459.805 5        34.800    40738799.744 6 164038317.38506      -355.535 6        39.874    40738803.272 6 172379258.83406      -373.507 6        36.102
I03        58.000   132127318.027 6 442710727.94206       950.374 6        41.502
R07        59.000    22622407.858 7 121099532.37507      2885.894 7        46.363                                                                    22622406.956 7  94188523.56607      2244.526 7        42.252
> 2025 01 01 02 01 50.0000000  0 53
G28         1.000    23804034.368 6 125091058.54806     -2259.280 6        40.286                                    23804029.895 4  97473533.89104     -1760.478 4        25.895    23804030.167 6  97473539.88706     -1760.413 6        40.415
G31         2.000    22352722.094 7 117464361.16807      -551.058 7        45.050                                    22352717.452 7  91530659.02707      -429.395 7        42.165    22352717.690 6  91530658.02906      -429.455 6        41.836
G09         3.000    22206670.143 7 116696875.88007      2608.665 7        44.761                                    22206668.229 7  90932639.45507      2032.727 7        44.850    22206668.802 6  90932640.45706      2032.689 6        41.607
E34         4.000    26162985.901 7 137487426.52607      2114.698 7        42.466                                                                    26162986.020 7 102669189.42807      1579.193 7        45.314    26162985.777 7 105347515.49407      1620.372 7        46.079
S21         5.000    38582686.716 7 202753218.65007      -402.570 7        42.582
E05         6.000    24978723.465 6 131264106.12506      2349.227 6        40.973                                                                    24978724.244 7  98021922.70607      1754.238 7        44.536    24978723.789 7 100579008.91407      1799.976 7        45.508
G21         7.000    24454961.289 6 128511740.07106     -3624.386 6        37.270                                    24454956.901 3 100139019.53603     -2824.200 3        20.952
E04         8.000    24927480.267 7 130994815.04607     -2324.676 7        44.530                                                                    24927478.340 8  97820808.25308     -1735.993 8        48.421    24927478.006 8 100372647.37808     -1781.246 8        48.708
R14         9.000    23375054.425 7 124602188.29807      -946.272 7        43.736                                                                    23375055.804 6  96912800.08906      -735.988 6        39.988
G04        10.000    20636613.173 7 108446175.61807      1165.283 7        47.192                                    20636609.857 6  84503522.18306       908.014 6        38.955    20636609.964 7  84503517.17407       908.119 7        47.032
E09        11.000    23672028.185 8 124397395.11408       257.256 8        48.165                                                                    23672027.388 8  92894175.63908       192.060 8        50.591    23672026.970 8  95317501.21208       197.103 8        50.961
S27        12.000    39215745.747 6 206080090.71606      -391.998 6        36.355
G06        13.000    23634594.522 6 124200657.78806      2829.136 6        40.389                                    23634593.570 6  96779737.03206      2204.521 6        37.429    23634593.889 6  96779748.02906      2204.648 6        40.358
S36        14.000    38350111.997 7 201531696.85007      -402.317 7        43.803
E36        16.000    23540453.558 7 123705947.93507      -263.483 7        47.617                                                                    23540453.853 8  92377835.53808      -196.822 8        50.684    23540453.623 8  94787686.83608      -201.916 8        51.041
S45        17.000    63545799.153 6 333936869.10006      -442.360 6        37.573
G03        18.000    20197936.819 8 106140931.54108     -1144.257 8        50.017                                    20197934.748 8  82707238.89108      -891.629 8        51.941    20197935.267 7  82707247.88907      -891.651 7        45.497
R21        19.000    19590071.967 8 104830468.27908     -1267.194 8        52.874                                                                    19590069.865 7  81534818.37207      -985.641 7        45.971
R20        20.000    22051699.728 5 117920374.53705     -4585.926 5        35.967                                                                    22051699.243 7  91715843.33307     -3566.918 7        42.618
R05        21.000    21310946.311 8 113919262.86908     -3498.644 8        49.149                                                                    21310945.687 7  88603875.99507     -2721.190 7        45.454
I06        22.000    38252293.110 7 150110442.94807      -215.779 7        42.197
S28        23.000    41018786.603 5 215555190.04505      -395.788 5        34.086
E10        24.000    27579434.008 6 144931017.18506     -3383.098 6        38.303                                                                    27579434.423 7 108227771.63607     -2526.197 7        43.676    27579434.038 7 111051095.66807     -2592.204 7        44.011
S23        25.000    38297737.706 7 201255960.42107      -398.234 7        44.343
E06        26.000    23637129.830 7 124214017.71507     -1067.908 7        47.947                                                                    23637129.625 8  92757220.73108      -797.430 8        50.917    23637129.385 8  95176972.79308      -818.246 8        51.270
R15        27.000    23240910.291 7 124192376.30407      2159.761 7        45.147                                                                    23240910.349 6  96594081.17206      1679.847 6        41.495
C22        30.000                                                                                                                                    26576378.941 6 138390171.14706      2496.211 6        40.548                                                                    26576373.381 6 112453330.63506      2028.454 6        39.480
I01        31.000   333793823.146 7   6737848.00407     -2601.471 7        42.878
G02        32.000    22733145.467 7 119463520.65607     -3265.065 7        45.261                                    22733139.230 5  93088452.41805     -2544.203 5        34.495
G19        33.000    22428537.754 7 117862793.85407      -376.978 7        43.822                                    22428531.759 5  91841159.01205      -293.751 5        31.857
G17        34.000    22879415.519 7 120232189.42807     -2109.916 7        44.843                                    22879411.378 6  93687429.84306     -1644.090 6        41.428    22879411.485 6  93687429.85006     -1644.147 6        39.676
E11        35.000    25081093.013 7 131802095.96907     -2757.316 7        42.256                                                                    25081089.278 7  98423659.96107     -2059.030 7        44.485    25081089.131 7 100991226.38207     -2112.798 7        44.834
C32        36.000                                                                                                                                    26162042.003 6 136232634.14206     -3258.546 6        41.583                                                                    26162042.505 7 110700183.07707     -2647.729 7        42.753
C35        37.000                                                                                                                                    23131423.052 8 120451408.57108        36.579 8        48.295                                                                    23131421.740 7  97876635.63207        29.740 7        47.663
I09        38.000    37393236.369 7 146739086.58207      -480.099 7        43.026
C29        39.000                                                                                                                                    23588601.666 7 122832035.31907     -3182.460 7        47.353                                                                    23588599.539 7  99811083.46507     -2585.948 7        46.383
R22        40.000    21736400.212 8 116030416.13108      2924.329 8        48.175                                                                    21736399.167 7  90245893.55207      2274.547 7        44.661
S44        42.000    40786735.104 6 214335952.32306      -479.114 6        36.930
C09        43.000                                                                                                                                    38757963.818 7 201822910.42207       113.439 7        42.538    38757960.439 7 156062267.46907        87.731 7        45.639    38757958.366 6 163997627.56506        92.197 6        41.976
C05        44.000                                                                                                                                    39270603.391 6 204492368.25306      -414.447 6        38.447    39270598.121 7 158126494.25807      -320.460 7        42.853    39270599.990 6 166166902.63706      -336.761 6        39.985
R06        45.000    19723405.002 6 105247925.41906       557.448 6        40.827
C44        46.000                                                                                                                                    25737831.542 6 134023667.21806      2245.988 6        40.949                                                                    25737829.787 6 108905210.25606      1825.068 6        41.139
C39        47.000                                                                                                                                    39194085.825 7 204093900.86207      -931.796 7        42.705                                                                    39194081.834 7 165843001.54107      -757.156 7        42.698
C20        48.000                                                                                                                                    22284855.077 8 116043134.86808     -1524.037 8        51.673                                                                    22284849.150 8  94294544.54608     -1238.368 8        49.729
C06        49.000                                                                                                                                    38404937.904 6 199984614.11006      -396.861 6        41.082    38404932.491 7 154640772.50407      -306.861 7        44.549    38404932.367 6 162503859.44606      -322.219 6        41.626
C16        50.000                                                                                                                                    38879701.086 7 202456821.11407      -504.806 7        43.009    38879700.314 7 156552465.39107      -390.447 7        43.096    38879697.950 6 164512749.53906      -410.109 6        39.592
S48        51.000    77332634.293 6 406386816.54106      -398.380 6        37.512
C19        52.000                                                                                                                                    22764649.578 8 118541561.19008      1091.844 8        50.016                                                                    22764644.551 8  96324731.63408       887.193 8        49.428
C60        54.000                                                                                                                                    40786740.969 6 212387463.07706      -474.545 6        38.796                                                                    40786725.817 6 172582179.84806      -385.776 6        40.353
C37        56.000                                                                                                                                    25768546.650 7 134183588.52107      1650.574 7        42.123                                                                    25768550.423 7 109035173.20107      1341.342 7        42.863
C02        57.000                                                                                                                                    40739247.298 5 212139997.36605      -460.036 5        35.214    40739241.442 6 164040095.71906      -355.717 6        39.880    40739244.925 6 172381127.59206      -373.845 6        36.250
I03        58.000   132126107.600 6 442705977.07406       950.028 6        41.201
R07        59.000    22619712.311 7 121085107.00807      2884.435 7        46.495                                                                    22619712.195 6  94177303.83806      2243.365 6        40.996
> 2025 01 01 02 01 55.0000000  0 53
G28         1.000    23806184.843 6 125102361.09806     -2261.856 6        40.286                                    23806180.745 4  97482341.06404     -1762.487 4        26.443    23806181.301 6  97482347.07206     -1762.559 6        40.014
G31         2.000    22353248.120 7 117467124.84207      -554.424 7        45.302                                    22353243.337 7  91532812.54207      -432.018 7        42.273    22353243.483 6  91532811.55106      -432.193 6        41.762
G09         3.000    22204188.790 7 116683835.55407      2607.245 7        45.011                                    22204186.747 7  90922478.17107      2031.617 7        45.068    22204187.391 7  90922479.17807      2031.624 7        42.273
E34         4.000    26160974.082 7 137476854.16607      2113.979 7        42.442                                                                    26160974.209 7 102661294.50107      1578.639 7        45.360    26160973.921 7 105339414.60707      1619.844 7        45.974
S21         5.000    38583070.940 7 202755229.64407      -402.164 7        42.470
E05         6.000    24976488.701 6 131252361.98606      2348.315 6        40.913                                                                    24976489.318 7  98013152.74207      1753.674 7        44.536    24976489.044 7 100570010.16507      1799.420 7        45.460
G21         7.000    24458410.330 6 128529862.67806     -3624.832 6        36.703                                    24458405.229 3 100153141.05703     -2824.556 3        20.643
E04         8.000    24929692.636 7 131006441.00307     -2325.721 7        44.942                                                                    24929690.650 8  97829489.96708     -1736.692 8        48.405    24929690.329 8 100381555.57408     -1782.058 8        48.730
R14         9.000    23375943.527 7 124606929.25907      -950.319 7        43.953                                                                    23375944.973 6  96916487.54106      -739.065 6        40.279
G04        10.000    20635505.422 7 108440354.77107      1162.939 7        47.362                                    20635502.151 6  84498986.46306       906.185 6        39.102    20635502.107 7  84498981.46307       906.147 7        46.990
E09        11.000    23671784.211 8 124396113.01808       255.470 8        48.099                                                                    23671783.435 8  92893218.22708       190.814 8        50.610    23671783.039 8  95316518.82208       195.768 8        50.961
S27        12.000    39216119.002 6 206082049.22606      -391.778 6        36.242
G06        13.000    23631903.884 6 124186514.29306      2828.264 6        40.350                                    23631902.150 6  96768716.13606      2203.841 6        37.474    23631903.055 6  96768727.12606      2203.893 6        40.341
S36        14.000    38350494.249 7 201533707.65207      -402.039 7        44.116
E36        16.000    23540705.277 7 123707269.92207      -265.323 7        47.571                                                                    23540705.419 8  92378822.73008      -198.123 8        50.647    23540705.221 8  94788699.78408      -203.298 8        50.995
S45        17.000    63546179.558 6 333937379.06216      -441.962 6        38.186
G03        18.000    20199026.591 8 106146657.15308     -1145.964 8        49.967                                    20199024.295 8  82711700.40708      -892.959 8        52.096    20199024.930 7  82711709.40907      -892.955 7        45.502
R21        19.000    19591257.753 8 104836814.88908     -1271.538 8        52.823                                                                    19591256.233 7  81539754.63607      -988.977 7        46.361
R20        20.000    22055987.283 5 117943308.82205     -4587.566 5        35.871                                                                    22055988.683 7  91733681.11707     -3568.154 7        42.766
R05        21.000    21314219.349 8 113936758.58108     -3499.648 8        49.212                                                                    21314218.397 7  88617483.77307     -2721.923 7        45.222
I06        22.000    38252567.776 7 150111520.92707      -215.491 7        42.216
S28        23.000    41019162.523 5 215557168.47305      -395.732 5        34.281
E10        24.000    27582653.034 6 144947933.15506     -3383.229 6        38.721                                                                    27582653.272 7 108240403.69907     -2526.571 7        43.562    27582653.139 7 111064057.25907     -2592.553 7        44.083
S23        25.000    38298114.060 7 201257950.97207      -398.117 7        44.363
E06        26.000    23638146.702 7 124219360.99607     -1069.495 7        47.938                                                                    23638146.381 8  92761210.84808      -798.649 8        50.892    23638146.162 8  95181067.00008      -819.499 8        51.213
R15        27.000    23238889.748 7 124181583.79407      2157.214 7        44.874                                                                    23238890.775 6  96585687.01506      1677.728 6        40.729
C22        30.000                                                                                                                                    26573981.324 6 138377689.82506      2496.164 6        40.069                                                                    26573976.392 6 112443188.54906      2028.269 6        39.553
I01        31.000   333797137.861 7   6750855.45107     -2601.461 7        43.173
G02        32.000    22736252.718 7 119479849.33907     -3266.436 7        46.099                                    22736246.623 5  93101176.06405     -2545.274 5        34.786
G19        33.000    22428898.258 7 117864687.16307      -380.370 7        44.271                                    22428892.029 5  91842634.31705      -296.394 5        32.078
G17        34.000    22881424.315 7 120242744.45707     -2112.220 7        44.935                                    22881419.905 6  93695654.54306     -1645.886 6        41.623    22881420.393 6  93695654.54706     -1645.856 6        39.808
E11        35.000    25083717.107 7 131815885.78407     -2758.586 7        42.474                                                                    25083713.299 7  98433957.54807     -2059.949 7        44.417    25083713.190 7 101001792.60107     -2113.711 7        44.701
C32        36.000                                                                                                                                    26165170.787 6 136248926.53606     -3258.316 6        41.421                                                                    26165171.152 7 110713421.98207     -2647.833 7        42.421
C35        37.000                                                                                                                                    23131389.190 8 120451232.10708        33.989 8        48.349                                                                    23131387.885 7  97876492.23807        27.491 7        47.780
I09        38.000    37393848.305 7 146741487.09007      -480.121 7        43.071
C29        39.000                                                                                                                                    23591658.322 7 122847951.02607     -3183.812 7        47.133                                                                    23591655.976 7  99824016.28107     -2587.150 7        46.435
R22        40.000    21733663.150 8 116015800.19908      2921.946 8        48.805                                                                    21733661.199 7  90234525.61007      2272.565 7        44.903
S44        42.000    40787196.773 6 214338346.89606      -478.898 6        37.002
C09        43.000                                                                                                                                    38757854.950 7 201822344.47007       112.878 7        42.252    38757851.684 7 156061829.84107        87.217 7        45.624    38757849.688 7 163997167.67507        91.681 7        42.148
C05        44.000                                                                                                                                    39271000.749 6 204494439.90306      -414.283 6        38.231    39270996.024 7 158128096.18707      -320.329 7        42.904    39270997.893 6 166168586.03006      -336.873 6        40.153
R06        45.000    19722883.793 6 105245143.76906       555.018 6        40.813
C44        46.000                                                                                                                                    25735675.027 6 134012440.74406      2244.567 6        40.574                                                                    25735673.989 6 108896087.82806      1823.824 6        41.006
C39        47.000                                                                                                                                    39194981.044 7 204098561.23807      -932.269 7        42.663                                                                    39194976.846 7 165846788.47407      -757.694 7        42.845
C20        48.000                                                                                                                                    22286319.010 8 116050758.06008     -1525.247 8        51.491                                                                    22286313.104 8  94300739.01108     -1239.443 8        49.773
C06        49.000                                                                                                                                    38405319.141 6 199986599.44706      -397.431 6        40.963    38405313.841 7 154642307.69607      -307.404 7        44.664    38405313.587 6 162505472.70406      -322.943 6        41.645
C16        50.000                                                                                                                                    38880185.971 7 202459346.75107      -505.427 7        42.874    38880185.464 7 156554418.37007      -390.827 7        43.264    38880183.029 6 164514801.82706      -410.809 6        39.763
S48        51.000    77333014.940 6 406388808.01706      -398.350 6        37.312
C19        52.000                                                                                                                                    22763601.763 8 118536105.29708      1090.546 8        50.140                                                                    22763596.774 8  96320298.27308       886.057 8        49.451
C60        54.000                                                                                                                                    40787196.681 6 212389835.88806      -474.412 6        38.910                                                                    40787181.305 6 172584107.93306      -385.726 6        40.276
C37        56.000                                                                                                                                    25766963.061 7 134175339.45607      1649.139 7        42.436                                                                    25766966.127 7 109028470.17307      1339.851 7        42.883
C02        57.000                                                                                                                                    40739689.126 5 212142296.66005      -459.778 5        35.000    40739682.930 6 164041873.68106      -355.495 6        39.847    40739686.283 5 172382995.95805      -373.750 5        35.852
I03        58.000   132124896.707 6 442701225.98706       950.253 6        41.199
R07        59.000    22617019.441 7 121070687.74307      2883.151 7        46.381                                                                    22617017.946 6  94166088.85906      2242.468 6        41.323
