     3.04           OBSERVATION DATA    M                   RINEX VERSION / TYPE
ssrcrin-15.6.1x                         20250101 013000 UTC PGM / RUN BY / DATE 
(00000000023479385599111004) Septentrio proprietary         COMMENT             
rref                                                        MARKER NAME         
01                                                          MARKER NUMBER       
geodetic                                                    MARKER TYPE         
NFB                 CLIMERS@TUW                             OBSERVER / AGENCY   
3297213             SEPT ASTERX SB3 PROB4.14.4              REC # / TYPE / VERS 
Unknown             Unknown                                 ANT # / TYPE        
  4127831.6448  1207192.9616  4695247.5125                  APPROX POSITION XYZ 
        0.0000        0.0000        0.0000                  ANTENNA: DELTA H/E/N
G   23 X1  C1C L1C D1C S1C C1W S1W C2W L2W D2W S2W C2L L2L  SYS / # / OBS TYPES 
       D2L S2L C5Q L5Q D5Q S5Q C1L L1L D1L S1L              SYS / # / OBS TYPES 
E   21 X1  C1C L1C D1C S1C C6C L6C D6C S6C C5Q L5Q D5Q S5Q  SYS / # / OBS TYPES 
       C7Q L7Q D7Q S7Q C8Q L8Q D8Q S8Q                      SYS / # / OBS TYPES 
S    9 X1  C1C L1C D1C S1C C5I L5I D5I S5I                  SYS / # / OBS TYPES 
R   17 X1  C1C L1C D1C S1C C2P L2P D2P S2P C2C L2C D2C S2C  SYS / # / OBS TYPES 
       C3Q L3Q D3Q S3Q                                      SYS / # / OBS TYPES 
C   25 X1  C1P L1P D1P S1P C5P L5P D5P S5P C2I L2I D2I S2I  SYS / # / OBS TYPES 
       C7I L7I D7I S7I C6I L6I D6I S6I C7D L7D D7D S7D      SYS / # / OBS TYPES 
J   17 X1  C1C L1C D1C S1C C2L L2L D2L S2L C5Q L5Q D5Q S5Q  SYS / # / OBS TYPES 
       C1L L1L D1L S1L                                      SYS / # / OBS TYPES 
I    5 X1  C5A L5A D5A S5A                                  SYS / # / OBS TYPES 
SEPTENTRIO RECEIVERS OUTPUT ALIGNED CARRIER PHASES.         COMMENT             
NO FURTHER PHASE SHIFT APPLIED IN THE RINEX ENCODER.        COMMENT             
G L1C                                                       SYS / PHASE SHIFT   
G L2W                                                       SYS / PHASE SHIFT   
G L2L  0.00000                                              SYS / PHASE SHIFT   
G L5Q  0.00000                                              SYS / PHASE SHIFT   
G L1L  0.00000                                              SYS / PHASE SHIFT   
E L1C  0.00000                                              SYS / PHASE SHIFT   
E L6C  0.00000                                              SYS / PHASE SHIFT   
E L5Q  0.00000                                              SYS / PHASE SHIFT   
E L7Q  0.00000                                              SYS / PHASE SHIFT   
E L8Q  0.00000                                              SYS / PHASE SHIFT   
S L1C                                                       SYS / PHASE SHIFT   
S L5I                                                       SYS / PHASE SHIFT   
R L1C                                                       SYS / PHASE SHIFT   
R L2P  0.00000                                              SYS / PHASE SHIFT   
R L2C                                                       SYS / PHASE SHIFT   
R L3Q  0.00000                                              SYS / PHASE SHIFT   
C L1P  0.00000                                              SYS / PHASE SHIFT   
C L5P  0.00000                                              SYS / PHASE SHIFT   
C L2I                                                       SYS / PHASE SHIFT   
C L7I                                                       SYS / PHASE SHIFT   
C L6I                                                       SYS / PHASE SHIFT   
C L7D                                                       SYS / PHASE SHIFT   
J L1C                                                       SYS / PHASE SHIFT   
J L2L  0.00000                                              SYS / PHASE SHIFT   
J L5Q  0.00000                                              SYS / PHASE SHIFT   
J L1L  0.00000                                              SYS / PHASE SHIFT   
I L5A                                                       SYS / PHASE SHIFT   
  2025     1     1     1    30    0.0000000     GPS         TIME OF FIRST OBS   
 C1C    0.000 C2C    0.000 C2P    0.000                     GLONASS COD/PHS/BIS 
DBHZ                                                        SIGNAL STRENGTH UNIT
    18                                                      LEAP SECONDS        
 24 R01  1 R02 -4 R03  5 R04  6 R05  1 R06 -4 R07  5 R08  6 GLONASS SLOT / FRQ #
    R09 -2 R10 -7 R11  0 R12 -1 R13 -2 R14 -7 R15  0 R16 -1 GLONASS SLOT / FRQ #
    R17  4 R18 -3 R19  3 R20  2 R21  4 R22 -3 R23  3 R24  2 GLONASS SLOT / FRQ #
                                                            END OF HEADER       
> 2025 01 01 01 30  0.0000000  0 55
G28         1.000    23189758.148 7 121863016.53707     -1090.984 7        42.555                                    23189754.119 4  94958176.38904      -850.111 4        29.137    23189754.117 7  94958182.40107      -850.237 7        42.434
G31         2.000    22396634.827 7 117695119.47707       772.512 7        44.438                                    22396629.968 6  91710469.96506       601.953 6        41.347    22396630.151 6  91710468.98006       601.876 6        41.504
G09         3.000    23252391.679 6 122192169.13306      3110.376 6        41.302                                    23252390.346 6  95214683.56906      2423.673 6        38.114    23252390.729 6  95214684.57206      2423.626 6        39.733
E34         4.000    26974855.209 6 141753826.03906      2323.198 6        40.057                                                                    26974855.610 7 105855136.38207      1734.758 7        43.183    26974855.289 7 108616574.18607      1780.107 7        43.900
S21         5.000    38433191.265 7 201967618.10707      -418.959 7        42.497
E05         6.000    25882617.916 6 136014093.09106      2604.030 6        38.835                                                                    25882619.941 6 101568987.34106      1944.401 6        41.728    25882619.447 7 104218606.07507      1995.236 7        42.301
G21         7.000    23186862.613 6 121847841.05606     -3319.830 6        41.824                                    23186858.021 4  94946372.44404     -2586.879 4        27.485
E04         8.000    24177634.553 7 127054352.45607     -1769.059 7        46.062                                                                    24177632.766 8  94878255.49608     -1321.065 8        49.575    24177632.531 8  97353332.32308     -1355.534 8        50.331
R14         9.000    23317928.068 7 124297683.80107       612.615 7        44.388                                                                    23317928.513 6  96675965.74806       476.572 6        40.193
G04        10.000    21229613.511 7 111562411.21307      2075.533 7        46.612                                    21229610.443 6  86931757.12406      1617.300 6        36.178    21229610.681 7  86931752.12507      1617.325 7        45.312
E09        11.000    23898375.566 8 125586856.86608       988.385 8        48.278                                                                    23898374.939 8  93782409.41608       738.095 8        50.223    23898374.607 8  96228906.38208       757.313 8        50.810
S27        12.000    39070740.431 5 205318104.96605      -404.650 5        35.886
G06        13.000    24719567.243 6 129902221.30306      3093.469 6        38.369                                    24719566.389 5 101222512.58105      2410.491 5        31.192    24719566.282 6 101222523.57806      2410.528 6        38.054
S36        14.000    38200657.533 7 200746291.43407      -418.239 7        44.086
E27        15.000    28940547.529 5 152083597.19705      -335.634 5        35.729                                                                    28940548.605 6 113568926.19006      -250.748 6        39.228    28940548.142 6 116531591.58806      -257.285 6        40.455
E36        16.000    23575917.182 7 123892309.47707       439.344 7        47.982                                                                    23575917.271 8  92517001.71608       328.049 8        50.909    23575916.911 8  94930483.42708       336.632 8        51.052
S45        17.000    63398181.600 6 333160487.55606      -459.378 6        37.353
G03        18.000    19917800.998 8 104668808.52908      -391.904 8        50.376                                    19917798.900 8  81560130.18308      -305.380 8        52.025    19917799.317 7  81560139.17707      -305.288 7        46.230
R21        19.000    19443702.446 8 104047219.36508       431.632 8        52.634                                                                    19443700.877 7  80925625.24507       335.770 7        46.782
R20        20.000    20562470.712 6 109956806.53006     -3677.450 6        39.529                                                                    20562471.676 7  85521958.61507     -2860.164 7        46.219
R05        21.000    20151036.024 8 107718878.57308     -2934.729 8        50.482                                                                    20151035.512 7  83781355.40907     -2282.554 7        47.014
I06        22.000    38146041.350 7 149693488.17007      -219.873 7        43.371
S28        23.000    40871739.222 5 214782455.02305      -411.631 5        34.381
E10        24.000    26398651.485 6 138725966.58506     -3092.644 6        41.614                                                                    26398651.055 7 103594131.50707     -2309.498 7        45.610    26398650.587 7 106296577.78207     -2369.702 7        45.941
S23        25.000    38149673.228 7 200477872.31707      -414.915 7        44.646
E06        26.000    23380016.919 8 122862879.43408      -328.778 8        48.123                                                                    23380016.588 8  91748253.74308      -245.550 8        50.848    23380016.396 8  94141684.94308      -252.006 8        51.019
R15        27.000    24174170.249 7 129179428.73907      2967.521 7        43.272                                                                    24174171.685 6 100472897.89806      2308.108 6        38.198
E19        30.000    28389869.064 4 149189741.54204     -3367.948 4        24.857                                                                    28389871.224 4 111407910.05804     -2514.917 4        28.047    28389870.904 4 114314202.19804     -2580.593 4        29.261
G32        31.000    25798276.297 5 135570857.66505     -3873.417 5        33.731                                    25798275.350 3 105639622.07803     -3018.268 3        18.328    25798276.057 4 105639627.05704     -3017.962 4        29.735
G02        32.000    21665564.790 8 113853351.26908     -2577.467 8        48.474                                    21665558.569 6  88716893.02106     -2008.414 6        38.577
G19        33.000    22534489.898 7 118419575.24707       947.455 7        43.649                                    22534483.607 5  92275014.84905       738.280 5        31.019
G17        34.000    22291418.980 7 117142248.68607     -1089.144 7        45.541                                    22291414.277 7  91279684.63407      -848.685 7        42.984    22291414.662 7  91279684.62107      -848.535 7        42.569
E11        35.000    24178061.307 7 127056637.91107     -2197.293 7        44.239                                                                    24178057.525 7  94879974.99707     -1640.863 7        45.889    24178057.353 7  97355097.31307     -1683.631 7        46.318
C32        36.000                                                                                                                                    24975549.674 7 130054263.58907     -3190.225 7        43.302                                                                    24975549.835 7 105679752.08507     -2592.385 7        44.725
C35        37.000                                                                                                                                    23334041.611 7 121506496.31207      1046.915 7        46.903                                                                    23334040.203 7  98733980.84607       850.649 7        47.021
I09        38.000    37169679.170 7 145861802.09707      -436.141 7        42.988
C29        39.000                                                                                                                                    22546649.479 8 117406321.94308     -2454.838 8        49.054                                                                    22546647.255 8  95402247.81508     -1994.799 8        48.226
R22        40.000    22923116.310 7 122365183.62907      3623.539 7        45.238                                                                    22923115.865 7  95172933.68207      2818.414 7        43.376
S44        42.000    40609725.818 6 213405742.86106      -493.032 6        37.860
C09        43.000                                                                                                                                    38855434.016 6 202330457.77806       419.588 6        41.671    38855429.754 7 156454734.92407       324.582 7        45.797    38855427.949 6 164410051.07106       341.001 6        41.423
C05        44.000                                                                                                                                    39116799.470 6 203691478.80506      -422.663 6        37.599    39116795.371 7 157507196.10107      -326.757 7        43.297    39116796.940 6 165516114.63806      -343.310 6        39.907
R06        45.000    20104711.730 6 107282645.99606      1573.793 6        40.036
R13        46.000    24442246.738 6 130520247.69506     -2716.909 6        36.707
C39        47.000                                                                                                                                    38904802.009 7 202587525.52107      -635.650 7        42.762                                                                    38904798.396 7 164618948.18407      -516.535 7        43.268
C20        48.000                                                                                                                                    21830640.127 8 113677919.03808      -930.406 8        51.956                                                                    21830634.154 8  92372613.10008      -756.052 8        49.585
C06        49.000                                                                                                                                    38318727.997 6 199535695.99906       -67.616 6        40.427    38318722.441 7 154293640.48907       -52.336 7        44.394    38318722.282 6 162139076.65406       -54.908 6        41.628
C16        50.000                                                                                                                                    38751520.336 7 201789349.68707      -187.417 7        42.510    38751519.233 7 156036334.02807      -145.006 7        43.583    38751517.290 6 163970374.21506      -152.305 6        39.691
S48        51.000    77185043.548 6 405610466.24106      -417.779 6        37.353
C19        52.000                                                                                                                                    23263746.543 7 121140490.02307      1626.805 7        47.708                                                                    23263742.067 8  98436573.58008      1321.824 8        48.292
R04        53.000    24129527.255 7 129212547.89307     -4334.043 7        42.326                                                                    24129524.185 6 100498655.79606     -3370.823 6        37.047
C60        54.000                                                                                                                                    40609727.502 6 211465710.09206      -488.653 6        39.489                                                                    40609711.746 6 171833180.71006      -397.150 6        39.243
C30        55.000                                                                                                                                    26147915.294 6 136159031.48506     -3941.447 6        38.958                                                                    26147917.224 6 110640359.86406     -3202.848 6        39.327
C02        57.000                                                                                                                                    40568644.595 5 211251626.06905      -468.404 5        34.100    40568638.046 6 163353151.26706      -362.171 6        39.198    40568641.404 5 171659253.59205      -380.672 5        35.886
I03        58.000   132588521.321 6 444520594.28106       951.395 6        40.131
R07        59.000    23728496.721 7 127020503.73707      3304.641 7        43.162                                                                    23728498.472 6  98793720.03806      2570.254 6        39.694
> 2025 01 01 01 30  5.0000000  0 55
G28         1.000    23190797.822 7 121868479.43707     -1094.219 7        42.686                                    23190793.731 4  94962433.20104      -852.651 4        29.223    23190793.790 7  94962439.20007      -852.619 7        42.590
G31         2.000    22395900.769 7 117691264.44807       769.461 7        44.865                                    22395896.399 6  91707466.04706       599.579 6        41.168    22395896.516 6  91707465.05406       599.536 6        41.502
G09         3.000    23249431.829 6 122176618.97706      3109.560 6        40.877                                    23249431.245 6  95202566.57206      2423.032 6        38.006    23249431.534 6  95202567.58206      2423.030 6        39.670
E34         4.000    26972644.916 6 141742210.28406      2323.004 6        39.868                                                                    26972645.175 7 105846462.27807      1734.745 7        43.084    26972644.974 7 108607673.80407      1779.962 7        43.888
S21         5.000    38433589.566 7 201969711.35407      -418.663 7        42.476
E05         6.000    25880140.230 6 136001074.16806      2603.468 6        37.747                                                                    25880142.629 6 101559265.41706      1944.302 6        41.924    25880141.898 7 104208630.54507      1994.970 7        42.305
G21         7.000    23190021.946 6 121864442.25906     -3320.889 6        41.845                                    23190017.218 4  94959308.43904     -2587.708 4        27.461
E04         8.000    24179318.843 7 127063201.71307     -1770.751 7        46.142                                                                    24179316.737 8  94884863.71008     -1322.322 8        49.553    24179316.507 8  97360112.91908     -1356.774 8        50.321
R14         9.000    23317355.534 7 124294630.23607       608.754 7        45.165                                                                    23317355.807 6  96673590.76606       473.258 6        39.423
G04        10.000    21227639.526 7 111552038.15307      2073.581 7        46.455                                    21227636.468 6  86923674.22306      1615.774 6        36.095    21227636.755 7  86923669.22907      1615.695 7        45.097
E09        11.000    23897435.975 8 125581919.01908       986.636 8        48.282                                                                    23897435.262 8  93778722.07008       736.805 8        50.177    23897434.907 8  96225122.84308       755.998 8        50.800
S27        12.000    39071123.184 5 205320126.46605      -404.418 5        35.990
G06        13.000    24716623.458 6 129886753.93306      3093.343 6        38.267                                    24716622.898 5 101210460.08605      2410.399 5        31.374    24716623.092 6 101210471.08706      2410.415 6        38.144
S36        14.000    38201055.373 7 200748381.96907      -417.994 7        43.964
E27        15.000    28940868.001 5 152085280.87205      -337.715 5        35.395                                                                    28940868.741 6 113570183.52406      -252.300 6        39.306    28940868.036 6 116532881.71506      -258.943 6        40.136
E36        16.000    23575499.835 7 123890116.52007       437.853 7        47.935                                                                    23575499.955 8  92515364.12308       326.936 8        50.885    23575499.603 8  94928803.11808       335.427 8        51.021
S45        17.000    63398574.607 6 333162783.35806      -459.242 6        37.497
G03        18.000    19918174.690 8 104670772.59008      -393.760 8        50.459                                    19918172.647 8  81561660.62008      -306.827 8        51.943    19918173.094 7  81561669.62107      -306.800 7        46.067
R21        19.000    19443301.047 8 104045070.90908       427.613 8        52.610                                                                    19443299.465 7  80923954.22907       332.513 7        46.628
R20        20.000    20565910.176 6 109975200.17306     -3680.071 6        38.706                                                                    20565911.090 7  85536264.79007     -2862.394 7        46.311
R05        21.000    20153782.650 8 107733556.31308     -2936.419 8        50.935                                                                    20153781.292 7  83792771.42307     -2283.900 7        47.195
I06        22.000    38146321.311 7 149694587.27307      -219.807 7        43.390
S28        23.000    40872134.916 5 214784512.70005      -411.640 5        34.181
E10        24.000    26401594.208 7 138741431.33907     -3093.507 7        42.148                                                                    26401593.896 7 103605679.86307     -2309.978 7        45.610    26401593.011 7 106308427.39707     -2370.285 7        45.714
S23        25.000    38150066.127 7 200479945.96307      -414.506 7        44.524
E06        26.000    23380330.734 8 122864528.00108      -330.719 8        48.009                                                                    23380330.265 8  91749484.81908      -246.961 8        50.786    23380330.077 8  94142948.12408      -253.379 8        51.048
R15        27.000    24171394.846 7 129164594.30107      2966.294 7        43.585                                                                    24171395.387 6 100461360.00506      2307.179 6        38.483
E19        30.000                                                                                                                                    28393075.926 4 111420485.35004     -2514.920 4        28.142    28393075.866 4 114327105.51304     -2580.387 4        28.995
G32        31.000    25801961.802 5 135590223.77505     -3873.261 5        33.737                                    25801960.607 3 105654712.53903     -3018.123 3        18.358    25801960.666 4 105654717.51504     -3018.214 4        28.531
G02        32.000    21668018.208 8 113866243.16108     -2579.322 8        48.322                                    21668011.786 6  88726938.65006     -2009.859 6        38.504
G19        33.000    22533589.695 7 118414845.56907       944.318 7        43.092                                    22533583.626 5  92271329.38705       735.834 5        30.989
G17        34.000    22292456.156 7 117147700.43807     -1091.753 7        45.178                                    22292451.721 7  91283932.75007      -850.715 7        42.880    22292452.014 7  91283932.75607      -850.756 7        42.138
E11        35.000    24180152.852 7 127067628.11707     -2198.737 7        44.075                                                                    24180148.840 7  94888181.97307     -1641.896 7        45.842    24180148.631 7  97363518.37207     -1684.691 7        46.410
C32        36.000                                                                                                                                    24978612.692 7 130070215.19407     -3190.418 7        43.579                                                                    24978613.101 7 105692714.07007     -2592.519 7        44.602
C35        37.000                                                                                                                                    23333037.109 7 121501267.24707      1044.672 7        46.882                                                                    23333036.061 7  98729731.81007       848.739 7        47.103
I09        38.000    37170235.182 7 145863982.67807      -436.193 7        43.081
C29        39.000                                                                                                                                    22549007.582 8 117418600.96708     -2456.806 8        49.238                                                                    22549005.341 8  95412225.53608     -1996.439 8        48.141
R22        40.000    22919723.659 7 122347068.25807      3622.503 7        44.910                                                                    22919722.536 7  95158843.97007      2817.606 7        42.806
S44        42.000    40610194.091 6 213408207.62306      -493.073 6        37.887
C09        43.000                                                                                                                                    38855030.886 6 202328360.88606       419.009 6        41.685    38855027.174 7 156453113.50107       323.961 7        45.770    38855025.194 6 164408347.19606       340.306 6        41.387
C05        44.000                                                                                                                                    39117205.614 6 203693590.51506      -422.245 6        37.656    39117200.880 7 157508829.03407      -326.628 7        43.206    39117202.664 6 165517830.59406      -343.312 6        40.005
R06        45.000    20103238.324 6 107274783.41306      1571.457 6        40.212
R13        46.000    24444792.023 6 130533840.05706     -2720.090 6        36.514
C39        47.000                                                                                                                                    38905412.527 7 202590705.35807      -636.352 7        42.789                                                                    38905409.013 7 164621532.06407      -517.160 7        43.240
C20        48.000                                                                                                                                    21831534.320 8 113682574.86008      -931.965 8        52.165                                                                    21831528.266 8  92376396.33808      -757.398 8        49.551
C06        49.000                                                                                                                                    38318793.107 6 199536035.83106       -68.411 6        40.505    38318787.731 7 154293903.26407       -52.835 7        44.418    38318787.699 6 162139352.80006       -55.629 6        41.564
C16        50.000                                                                                                                                    38751700.628 7 201790288.61607      -188.170 7        42.754    38751699.866 7 156037060.06707      -145.594 7        43.437    38751697.748 6 163971137.16406      -152.874 6        39.769
S48        51.000    77185437.583 6 405612554.79106      -417.764 6        37.323
C19        52.000                                                                                                                                    23262185.267 7 121132358.85407      1625.616 7        47.793                                                                    23262180.554 8  98429966.35008      1320.793 8        48.256
R04        53.000    24133573.781 7 129234216.46507     -4333.455 7        42.453                                                                    24133571.444 6 100515509.17506     -3370.515 6        36.571
C60        54.000                                                                                                                                    40610196.642 6 211468152.43306      -488.468 6        39.649                                                                    40610180.756 6 171835165.29406      -396.814 6        39.366
C30        55.000                                                                                                                                    26151700.168 6 136178738.86606     -3941.535 6        39.159                                                                    26151701.881 6 110656373.71306     -3202.812 6        39.273
C02        57.000                                                                                                                                    40569094.749 5 211253967.40405      -468.318 5        33.748    40569087.520 6 163354961.71806      -362.039 6        39.390    40569091.209 6 171661156.09406      -380.590 6        36.015
I03        58.000   132587308.943 6 444515836.44006       951.628 6        40.210
R07        59.000    23725410.684 7 127003982.42307      3303.959 7        43.742                                                                    23725411.594 6  98780870.13706      2569.556 6        38.480
> 2025 01 01 01 30 10.0000000  0 55
G28         1.000    23191840.366 7 121873958.23907     -1097.284 7        42.415                                    23191836.111 4  94966702.40504      -855.032 4        29.014    23191836.401 7  94966708.40407      -854.997 7        42.186
G31         2.000    22395170.399 7 117687425.32107       766.376 7        45.506                                    22395165.843 6  91704474.52806       597.175 6        41.228    22395165.802 6  91704473.53806       597.052 6        41.712
G09         3.000    23246474.221 6 122161073.63006      3108.830 6        40.782                                    23246473.092 6  95190453.32406      2422.461 6        38.093    23246473.852 6  95190454.35106      2422.382 6        39.468
E34         4.000    26970434.874 6 141730595.80606      2322.828 6        40.091                                                                    26970434.894 7 105837789.13007      1734.637 7        43.185    26970434.828 7 108598774.39907      1779.912 7        44.108
S21         5.000    38433988.672 7 201971804.14207      -418.439 7        42.366
E05         6.000    25877663.139 6 135988057.40306      2603.296 6        37.013                                                                    25877665.610 6 101549545.12506      1943.833 6        41.840    25877664.918 7 104198656.66707      1994.711 7        42.205
G21         7.000    23193181.638 6 121881048.38806     -3321.568 6        40.760                                    23193177.256 4  94972248.27904     -2588.239 4        27.066
E04         8.000    24181004.329 7 127072059.13407     -1772.142 7        46.098                                                                    24181002.255 8  94891478.01108     -1323.348 8        49.500    24181002.004 8  97366899.77108     -1357.878 8        50.380
R14         9.000    23316786.400 7 124291595.88407       605.175 7        45.372                                                                    23316786.718 6  96671230.74106       470.586 6        39.174
G04        10.000    21225667.629 7 111541675.68507      2071.588 7        46.421                                    21225664.500 6  86915599.57506      1614.221 6        36.072    21225664.650 7  86915594.57307      1614.181 7        44.816
E09        11.000    23896498.146 8 125576990.32408       984.937 8        48.330                                                                    23896497.384 8  93775041.54808       735.504 8        50.126    23896497.081 8  96221346.31008       754.688 8        50.850
S27        12.000    39071510.185 5 205322147.46305      -404.189 5        35.852
G06        13.000    24713680.550 6 129871287.89506      3093.304 6        36.817                                    24713679.766 5 101198408.63205      2410.371 5        31.185    24713679.933 6 101198419.63206      2410.225 6        38.186
S36        14.000    38201453.866 7 200750471.58307      -417.636 7        44.051
E27        15.000    28941190.853 6 152086975.70506      -339.887 6        36.004                                                                    28941191.500 6 113571449.11106      -253.789 6        39.547    28941190.468 6 116534180.32606      -260.398 6        39.835
E36        16.000    23575083.771 7 123887931.62707       436.246 7        47.870                                                                    23575084.194 8  92513732.54208       325.815 8        50.839    23575083.852 8  94927128.97208       334.276 8        51.119
S45        17.000    63398970.229 6 333165078.80306      -458.997 6        37.629
G03        18.000    19918550.473 8 104672746.32308      -395.550 8        50.435                                    19918548.241 8  81563198.59608      -308.222 8        51.938    19918548.747 7  81563207.59607      -308.228 7        45.974
R21        19.000    19442903.157 8 104042943.36408       423.576 8        52.301                                                                    19442901.362 7  80922299.47307       329.374 7        46.267
R20        20.000    20569351.975 6 109993608.14506     -3682.962 6        38.685                                                                    20569353.203 7  85550582.09807     -2864.409 7        45.651
R05        21.000    20156529.832 8 107748243.38008     -2938.175 8        50.662                                                                    20156528.188 7  83804194.69707     -2285.239 7        46.959
I06        22.000    38146601.507 7 149695686.09007      -219.652 7        43.492
S28        23.000    40872523.867 5 214786569.84305      -410.982 5        34.238
E10        24.000    26404538.167 7 138756900.36707     -3094.131 7        42.072                                                                    26404537.567 7 103617231.40407     -2310.573 7        45.660    26404536.652 7 106320280.28607     -2370.869 7        45.469
S23        25.000    38150462.125 7 200482019.18107      -414.463 7        44.603
E06        26.000    23380646.224 8 122866186.51708      -332.537 8        48.109                                                                    23380645.905 8  91750723.32408      -248.386 8        50.737    23380645.696 8  94144218.94008      -254.843 8        51.101
R15        27.000    24168619.535 7 129149766.26707      2965.068 7        42.916                                                                    24168619.560 6 100449827.08006      2306.289 6        38.156
E19        30.000    28396277.635 4 149223421.39904     -3366.305 4        25.098                                                                    28396280.379 4 111433060.56104     -2515.095 4        27.772    28396280.156 4 114340008.79704     -2580.497 4        28.749
G32        31.000    25805647.407 5 135609589.96505     -3873.137 5        34.238                                    25805645.823 3 105669803.08203     -3018.021 3        18.896    25805646.001 4 105669808.03904     -3017.115 4        29.735
G02        32.000    21670473.381 8 113879144.88008     -2581.184 8        48.670                                    21670466.876 6  88736991.93506     -2011.313 6        38.571
G19        33.000    22532692.563 7 118410132.13107       941.190 7        43.431                                    22532686.748 5  92267656.58105       733.399 5        31.019
G17        34.000    22293496.201 7 117153166.45307     -1094.477 7        45.187                                    22293491.878 7  91288191.97907      -852.839 7        42.925    22293491.489 7  91288191.97607      -852.787 7        42.106
E11        35.000    24182245.711 7 127078625.79207     -2200.117 7        44.232                                                                    24182241.614 7  94896394.51707     -1642.969 7        45.755    24182241.428 7  97371945.17207     -1685.912 7        46.418
C32        36.000                                                                                                                                    24981676.259 7 130086168.21007     -3190.629 7        44.056                                                                    24981676.640 7 105705677.19307     -2592.549 7        44.552
C35        37.000                                                                                                                                    23332035.498 7 121496050.09407      1042.429 7        46.930                                                                    23332034.155 7  98725492.43307       847.110 7        47.144
I09        38.000    37170790.599 7 145866163.65207      -436.121 7        43.109
C29        39.000                                                                                                                                    22551367.818 8 117430890.81708     -2458.911 8        49.222                                                                    22551365.505 8  95422212.03808     -1997.946 8        48.307
R22        40.000    22916331.045 7 122328958.40307      3621.548 7        45.106                                                                    22916329.119 7  95144758.53207      2816.715 7        42.447
S44        42.000    40610664.277 6 213410671.91406      -492.832 6        37.743
C09        43.000                                                                                                                                    38854628.579 6 202326267.69406       418.537 6        41.518    38854625.303 7 156451494.90707       323.587 7        45.804    38854623.210 6 164406646.29806       340.052 6        41.704
C05        44.000                                                                                                                                    39117610.676 6 203695701.84706      -422.000 6        37.641    39117606.215 7 157510461.63207      -326.412 7        43.285    39117608.043 6 165519546.21106      -342.828 6        39.979
R06        45.000    20101767.230 6 107266933.65706      1568.855 6        40.076
R13        46.000    24447340.699 6 130547447.82406     -2722.878 6        37.134
C39        47.000                                                                                                                                    38906023.966 7 202593889.10807      -636.945 7        42.800                                                                    38906020.360 7 164624119.12207      -517.502 7        43.384
C20        48.000                                                                                                                                    21832429.984 8 113687238.98208      -933.559 8        52.167                                                                    21832423.974 8  92380186.30808      -758.455 8        49.653
C06        49.000                                                                                                                                    38318859.143 6 199536379.85706       -69.101 6        40.505    38318853.954 7 154294169.28507       -53.457 7        44.445    38318853.632 6 162139632.33406       -55.858 6        41.709
C16        50.000                                                                                                                                    38751881.794 7 201791231.58907      -188.816 7        42.806    38751881.096 7 156037789.23007      -146.052 7        43.532    38751878.635 6 163971903.39206      -153.313 6        39.889
S48        51.000    77185831.435 6 405614642.58006      -417.277 6        37.520
C19        52.000                                                                                                                                    23260624.885 7 121124234.21507      1624.392 7        47.946                                                                    23260620.313 8  98423364.40208      1320.050 8        48.300
R04        53.000    24137619.510 7 129255882.93707     -4332.976 7        42.066                                                                    24137617.795 6 100532360.90006     -3370.008 6        36.949
C60        54.000                                                                                                                                    40610665.461 6 211470594.32506      -488.135 6        39.796                                                                    40610649.780 6 171837149.52506      -396.550 6        39.465
C30        55.000                                                                                                                                    26155484.763 6 136198446.05706     -3941.291 6        39.144                                                                    26155486.368 6 110672387.41306     -3202.623 6        39.297
C02        57.000                                                                                                                                    40569543.834 5 211256308.35305      -467.772 5        33.778    40569537.070 6 163356771.91406      -361.970 6        39.198    40569540.719 6 171663058.30506      -380.159 6        36.072
I03        58.000   132586096.305 6 444511078.42906       951.552 6        40.303
R07        59.000    23722326.609 7 126987465.07507      3303.241 7        43.426                                                                    23722324.929 6  98768023.29606      2568.973 6        37.595
> 2025 01 01 01 30 15.0000000  0 55
G28         1.000    23192885.610 7 121879452.75907     -1100.631 7        42.842                                    23192881.581 4  94970983.85904      -857.636 4        29.090    23192882.098 7  94970989.85507      -857.469 7        42.030
G31         2.000    22394442.712 7 117683601.94307       763.037 7        44.847                                    22394438.238 6  91701495.28006       594.576 6        41.328    22394438.554 6  91701494.28806       594.573 6        41.750
G09         3.000    23243517.327 6 122145532.90806      3107.540 6        40.663                                    23243515.745 6  95178343.68306      2421.456 6        38.174    23243515.711 6  95178344.68506      2421.625 6        39.453
E34         4.000    26968225.009 6 141718982.40906      2322.529 6        40.155                                                                    26968224.972 7 105829116.78207      1734.368 7        43.058    26968224.810 7 108589875.82607      1779.561 7        44.044
S21         5.000    38434383.690 7 201973896.34707      -418.426 7        42.256
E05         6.000    25875187.270 6 135975042.57406      2602.675 6        37.206                                                                    25875189.011 6 101539826.25806      1943.639 6        41.979    25875188.068 7 104188684.27407      1994.252 7        42.157
G21         7.000    23196342.317 6 121897659.23206     -3322.669 6        41.170                                    23196338.035 4  94985191.78904     -2589.091 4        27.162
E04         8.000    24182691.164 7 127080924.49807     -1773.916 7        45.907                                                                    24182689.321 8  94898098.24908     -1324.728 8        49.461    24182688.995 8  97373692.71308     -1359.256 8        50.333
R14         9.000    23316220.419 7 124288580.42407       601.151 7        44.454                                                                    23316221.271 6  96668885.40806       467.529 6        40.062
G04        10.000    21223697.703 7 111531323.61007      2069.311 7        46.683                                    21223694.549 6  86907533.02506      1612.449 6        36.068    21223694.791 7  86907528.02307      1612.445 7        45.205
E09        11.000    23895561.857 8 125572070.56808       982.965 8        48.068                                                                    23895561.169 8  93771367.70608       734.100 8        50.159    23895560.899 8  96217576.62608       753.221 8        50.877
S27        12.000    39071894.042 6 205324168.00306      -404.204 6        36.068
G06        13.000    24710738.212 6 129855822.99506      3092.741 6        36.594                                    24710736.937 5 101186358.06205      2409.920 5        31.389    24710737.275 6 101186369.05906      2410.092 6        38.168
S36        14.000    38201851.970 7 200752561.17307      -418.083 7        44.060
E27        15.000    28941515.358 5 152088681.47805      -342.133 5        35.910                                                                    28941516.027 6 113572722.91306      -255.766 6        39.288    28941515.192 6 116535487.34906      -262.297 6        39.300
E36        16.000    23574669.605 7 123885754.57207       434.529 7        47.699                                                                    23574669.944 8  92512106.81808       324.514 8        50.825    23574669.514 8  94925460.83508       332.996 8        51.058
S45        17.000    63399362.162 6 333167373.48606      -458.779 6        37.728
G03        18.000    19918927.623 8 104674729.54908      -397.571 8        50.288                                    19918925.628 8  81564743.96708      -309.796 8        52.008    19918926.174 7  81564752.97007      -309.918 7        45.958
R21        19.000    19442509.368 8 104040836.62908       419.261 8        52.148                                                                    19442507.933 7  80920660.91007       326.056 7        46.515
R20        20.000    20572796.498 6 110012030.37206     -3685.906 6        38.775                                                                    20572798.275 7  85564910.49807     -2866.821 7        45.669
R05        21.000    20159278.274 8 107762939.55808     -2940.236 8        50.394                                                                    20159277.253 7  83815625.05707     -2286.920 7        46.545
I06        22.000    38146881.375 7 149696784.48007      -219.691 7        43.426
S28        23.000    40872917.781 5 214788626.08105      -411.176 5        34.029
E10        24.000    26407482.468 7 138772373.47107     -3095.231 7        42.267                                                                    26407482.063 7 103628785.97907     -2311.236 7        45.782    26407481.190 7 106332136.28607     -2371.488 7        45.418
S23        25.000    38150855.977 7 200484091.56707      -414.380 7        44.549
E06        26.000    23380963.697 7 122867854.79907      -334.663 7        47.987                                                                    23380963.388 8  91751969.12208      -249.937 8        50.751    23380963.172 8  94145497.23508      -256.453 8        51.074
R15        27.000    24165845.070 7 129134944.31207      2963.617 7        42.679                                                                    24165845.791 6 100438298.90206      2305.124 6        37.826
E19        30.000    28399482.484 4 149240261.09504     -3367.490 4        24.722                                                                    28399484.887 4 111445635.60604     -2515.262 4        28.265    28399484.399 4 114352911.91504     -2580.955 4        29.156
G32        31.000    25809332.543 5 135628955.96605     -3873.165 5        32.659                                    25809331.008 3 105684893.47103     -3018.056 3        18.657    25809331.795 4 105684898.48004     -3018.176 4        28.701
G02        32.000    21672930.213 8 113892056.18908     -2583.307 8        48.668                                    21672923.787 6  88747052.69206     -2012.967 6        38.610
G19        33.000    22531799.168 7 118405434.73907       937.810 7        43.124                                    22531792.822 5  92263996.28005       730.760 5        31.140
G17        34.000    22294538.975 7 117158646.54307     -1097.453 7        45.347                                    22294534.692 7  91292462.18007      -855.155 7        42.895    22294534.597 6  91292462.17706      -855.154 6        41.785
E11        35.000    24184340.015 7 127089630.74807     -2201.826 7        44.131                                                                    24184335.797 7  94904612.49507     -1644.156 7        45.869    24184335.588 7  97380377.52307     -1687.059 7        46.379
C32        36.000                                                                                                                                    24984740.279 7 130102122.41107     -3191.046 7        44.504                                                                    24984740.351 7 105718641.31107     -2592.986 7        44.301
C35        37.000                                                                                                                                    23331036.140 7 121490844.67407      1039.816 7        47.109                                                                    23331034.493 7  98721262.61507       844.912 7        47.003
I09        38.000    37171346.585 7 145868344.89307      -436.294 7        43.052
C29        39.000                                                                                                                                    22553729.993 8 117443191.27408     -2461.218 8        49.258                                                                    22553727.731 8  95432207.17808     -1999.962 8        48.093
R22        40.000    22912938.700 7 122310853.86607      3620.257 7        45.240                                                                    22912937.748 6  95130677.23706      2815.742 6        41.802
S44        42.000    40611134.531 6 213413135.53206      -492.662 6        37.599
C09        43.000                                                                                                                                    38854227.353 6 202324178.04406       417.541 6        41.683    38854223.743 7 156449879.04407       322.909 7        45.822    38854221.935 6 164404948.28606       339.303 6        41.576
C05        44.000                                                                                                                                    39118015.849 6 203697812.60606      -422.086 6        37.807    39118011.617 7 157512093.80807      -326.432 7        43.221    39118013.325 6 165521261.39006      -342.991 6        39.718
R06        45.000    20100298.753 6 107259096.50806      1566.169 6        40.174
R13        46.000    24449893.330 6 130561071.10406     -2726.161 6        36.650
C39        47.000                                                                                                                                    38906636.017 7 202597076.55907      -637.861 7        42.768                                                                    38906632.515 7 164626709.19707      -518.344 7        43.198
C20        48.000                                                                                                                                    21833327.352 8 113691911.16408      -935.308 8        52.258                                                                    21833321.229 8  92383982.85508      -759.983 8        49.545
C06        49.000                                                                                                                                    38318926.318 6 199536727.81306       -69.988 6        40.608    38318920.787 7 154294438.35307       -54.187 7        44.460    38318920.624 6 162139915.10306       -56.926 6        41.557
C16        50.000                                                                                                                                    38752063.239 7 201792178.40807      -189.717 7        42.938    38752062.650 7 156038521.36407      -146.746 7        43.352    38752060.574 6 163972672.78206      -154.089 6        39.742
S48        51.000    77186226.641 6 405616729.69506      -417.566 6        37.887
C19        52.000                                                                                                                                    23259065.916 8 121116115.87108      1623.012 8        48.072                                                                    23259061.308 8  98416767.59908      1318.761 8        48.168
R04        53.000    24141664.540 6 129277547.13106     -4332.678 6        41.845                                                                    24141664.113 6 100549210.86006     -3369.925 6        36.711
C60        54.000                                                                                                                                    40611134.105 6 211473035.56306      -488.315 6        39.733                                                                    40611118.545 6 171839133.24306      -396.666 6        39.087
C30        55.000                                                                                                                                    26159268.695 6 136218152.86306     -3941.463 6        39.030                                                                    26159270.935 6 110688400.79406     -3202.437 6        38.940
C02        57.000                                                                                                                                    40569993.048 5 211258648.74705      -467.923 5        34.067    40569986.540 6 163358581.61906      -362.005 6        39.264    40569989.799 5 171664960.07805      -380.437 5        35.429
I03        58.000   132584884.046 6 444506320.06706       951.622 6        40.319
R07        59.000    23719240.640 7 126970951.59707      3302.227 7        43.118                                                                    23719241.336 6  98755179.49906      2568.476 6        36.832
> 2025 01 01 01 30 20.0000000  0 55
G28         1.000    23193934.654 7 121884963.57207     -1103.703 7        43.050                                    23193930.270 4  94975278.00004      -860.021 4        28.882    23193931.079 7  94975284.00207      -859.956 7        42.089
G31         2.000    22393718.168 7 117679794.93107       759.869 7        44.692                                    22393713.728 6  91698528.77906       592.107 6        41.278    22393713.580 6  91698527.78006       592.204 6        41.645
G09         3.000    23240561.409 6 122129997.37406      3106.830 6        40.965                                    23240559.425 6  95166238.08006      2420.906 6        38.177    23240559.773 6  95166239.10506      2420.714 6        39.913
E34         4.000    26966014.712 6 141707370.70206      2322.217 6        39.742                                                                    26966015.324 7 105820445.70907      1734.148 7        43.316    26966015.138 7 108580978.54807      1779.361 7        44.057
S21         5.000    38434783.771 7 201975988.31807      -418.276 7        42.445
E05         6.000    25872711.716 6 135962030.33106      2602.059 6        38.207                                                                    25872712.876 7 101530109.32707      1943.218 7        42.209    25872711.898 7 104178713.84707      1993.974 7        42.002
G21         7.000    23199504.780 6 121914275.35706     -3323.604 6        41.533                                    23199500.000 4  94998139.41804     -2589.825 4        27.186
E04         8.000    24184379.777 7 127089798.43407     -1775.479 7        45.842                                                                    24184377.904 8  94904724.89608     -1325.853 8        49.508    24184377.690 8  97380492.22708     -1360.485 8        50.241
R14         9.000    23315658.078 7 124285584.53807       597.251 7        45.386                                                                    23315659.363 6  96666555.25006       464.575 6        40.307
G04        10.000    21221729.871 7 111520982.52107      2067.208 7        46.659                                    21221726.646 5  86899475.03705      1610.816 5        35.952    21221727.044 7  86899470.03307      1610.795 7        45.484
E09        11.000    23894627.397 8 125567160.36308       981.168 8        48.007                                                                    23894626.798 8  93767701.00408       732.648 8        50.209    23894626.536 8  96213814.26908       751.775 8        50.814
S27        12.000    39072277.238 6 205326188.25206      -403.841 6        36.015
G06        13.000    24707796.247 6 129840359.80806      3092.653 6        37.830                                    24707794.395 5 101174308.84405      2409.865 5        31.426    24707794.755 6 101174319.83306      2409.856 6        37.648
S36        14.000    38202246.573 7 200754651.57607      -418.149 7        43.920
E27        15.000    28941841.993 5 152090398.85405      -344.479 5        35.557                                                                    28941842.727 6 113574005.36106      -257.360 6        38.940    28941842.060 6 116536803.23106      -263.841 6        39.294
E36        16.000    23574257.030 7 123883585.97007       432.977 7        47.721                                                                    23574257.280 8  92510487.41408       323.314 8        50.871    23574256.870 8  94923799.18808       331.741 8        51.023
S45        17.000    63399757.579 6 333168068.05816      -459.033 6        37.440
G03        18.000    19919307.250 8 104676722.85408      -399.570 8        50.364                                    19919304.947 8  81566297.19208      -311.354 8        51.912    19919305.407 7  81566306.19307      -311.346 7        45.734
R21        19.000    19442120.204 8 104038751.17308       415.033 8        52.445                                                                    19442118.565 7  80919038.87907       322.799 7        46.296
R20        20.000    20576244.436 6 110030467.47906     -3688.647 6        38.207                                                                    20576246.890 7  85579250.47607     -2869.148 7        45.923
R05        21.000    20162029.422 8 107777645.71608     -2942.091 8        50.570                                                                    20162028.095 7  83827063.17207     -2288.210 7        46.328
I06        22.000    38147161.024 7 149697882.90407      -219.698 7        43.397
S28        23.000    40873310.877 5 214790682.37505      -411.058 5        34.238
E10        24.000    26410427.650 7 138787851.21507     -3096.007 7        42.290                                                                    26410427.460 7 103640344.05007     -2311.912 7        45.941    26410426.661 7 106343995.86707     -2372.195 7        45.383
S23        25.000    38151249.318 7 200486163.81307      -414.391 7        44.339
E06        26.000    23381283.266 7 122869533.43707      -336.660 7        47.829                                                                    23381282.794 8  91753222.65608      -251.453 8        50.763    23381282.601 8  94146783.47208      -257.998 8        51.076
R15        27.000    24163072.602 7 129120129.38907      2962.384 7        42.491                                                                    24163074.547 6 100426776.20006      2304.019 6        38.360
E19        30.000    28402687.117 4 149257101.17504     -3368.040 4        24.617                                                                    28402689.067 4 111458210.92404     -2515.073 4        27.509    28402689.384 4 114365815.27704     -2580.762 4        28.246
G32        31.000    25813017.305 5 135648322.46005     -3873.294 5        33.281                                    25813016.286 2 105699984.25602     -3018.161 2        17.698    25813018.298 4 105699989.18804     -3017.667 4        28.493
G02        32.000    21675389.187 8 113904977.69908     -2585.231 8        48.339                                    21675382.679 6  88757121.40006     -2014.467 6        38.477
G19        33.000    22530908.098 7 118400753.98007       934.599 7        42.864                                    22530902.124 5  92260348.93605       728.260 5        31.109
G17        34.000    22295584.432 7 117164141.30607     -1100.402 7        45.305                                    22295580.300 7  91296743.80707      -857.456 7        42.779    22295580.729 6  91296743.80606      -857.294 6        41.883
E11        35.000    24186435.697 7 127100643.59107     -2203.366 7        43.786                                                                    24186431.550 7  94912836.36807     -1645.336 7        45.887    24186431.418 7  97388815.94307     -1688.333 7        46.355
C32        36.000                                                                                                                                    24987804.610 7 130118078.41707     -3191.279 7        44.117                                                                    24987804.597 7 105731606.86807     -2593.118 7        44.224
C35        37.000                                                                                                                                    23330038.553 7 121485651.56807      1037.385 7        47.059                                                                    23330037.283 7  98717042.78507       842.884 7        46.903
I09        38.000    37171902.462 7 145870526.84807      -436.383 7        43.077
C29        39.000                                                                                                                                    22556094.453 8 117455502.92908     -2463.388 8        49.017                                                                    22556092.022 7  95442211.39407     -2001.693 7        47.978
R22        40.000    22909549.435 7 122292755.33607      3619.194 7        46.298                                                                    22909547.352 6  95116600.58206      2814.889 6        41.583
S44        42.000    40611601.096 6 213415599.11006      -492.664 6        37.641
C09        43.000                                                                                                                                    38853826.628 6 202322092.47106       416.686 6        41.039    38853823.173 7 156448266.35907       322.190 7        45.866    38853821.347 6 164403253.57406       338.702 6        41.220
C05        44.000                                                                                                                                    39118421.139 6 203699923.37706      -422.040 6        37.599    39118417.148 7 157513725.99107      -326.471 7        43.230    39118418.798 6 165522976.56306      -343.192 6        39.550
R06        45.000    20098831.996 6 107251272.65306      1563.629 6        40.417
R13        46.000    24452446.210 6 130574710.33606     -2729.481 6        36.276
C39        47.000                                                                                                                                    38907248.873 7 202600268.31207      -638.799 7        42.512                                                                    38907245.486 7 164629302.73107      -518.942 7        43.067
C20        48.000                                                                                                                                    21834226.151 8 113696592.03608      -936.969 8        52.164                                                                    21834220.147 8  92387786.43808      -761.380 8        49.449
C06        49.000                                                                                                                                    38318994.516 6 199537080.35106       -70.904 6        40.443    38318988.543 7 154294710.95607       -54.824 7        44.534    38318988.211 6 162140201.56006       -57.635 6        41.492
C16        50.000                                                                                                                                    38752245.895 7 201793129.67207      -190.633 7        42.859    38752245.390 7 156039256.95407      -147.417 7        43.409    38752243.067 6 163973445.76606      -154.849 6        39.604
S48        51.000    77186619.429 6 405618816.79006      -417.417 6        37.724
C19        52.000                                                                                                                                    23257508.092 7 121108004.45607      1621.666 7        47.698                                                                    23257503.606 8  98410176.40208      1317.724 8        48.085
R04        53.000    24145710.221 6 129299209.60106     -4332.294 6        41.983                                                                    24145709.071 6 100566059.45806     -3369.576 6        36.473
C60        54.000                                                                                                                                    40611602.945 6 211475476.73606      -488.080 6        39.174                                                                    40611587.381 6 171841116.90106      -396.692 6        39.000
C30        55.000                                                                                                                                    26163052.881 6 136237859.87806     -3941.282 6        38.775                                                                    26163055.500 6 110704414.34906     -3202.594 6        38.748
C02        57.000                                                                                                                                    40570442.348 5 211260989.13405      -468.004 5        34.090    40570436.170 6 163360391.38306      -361.976 6        39.348    40570439.662 5 171666861.84105      -380.507 5        35.538
I03        58.000   132583671.097 6 444501561.81506       951.715 6        40.398
R07        59.000    23716157.193 7 126954442.71007      3301.487 7        44.205                                                                    23716156.208 6  98742339.21306      2567.986 6        37.471
> 2025 01 01 01 30 25.0000000  0 55
G28         1.000    23194986.012 7 121890490.69407     -1107.078 7        43.287                                    23194981.951 4  94979584.84604      -862.649 4        29.052    23194982.492 7  94979590.85007      -862.586 7        42.210
G31         2.000    22392997.021 7 117676004.29307       756.444 7        44.904                                    22392992.339 6  91695575.03506       589.436 6        41.502    22392992.315 6  91695574.04106       589.388 6        41.478
G09         3.000    23237606.109 6 122114467.12606      3105.443 6        41.130                                    23237604.126 6  95154136.60106      2419.824 6        38.423    23237604.723 6  95154137.61506      2419.764 6        39.802
E34         4.000    26963805.758 6 141695760.68806      2321.862 6        40.315                                                                    26963805.954 7 105811775.89707      1733.775 7        43.264    26963805.848 7 108572082.56007      1779.013 7        43.886
S21         5.000    38435182.997 7 201978080.15207      -418.316 7        42.292
E05         6.000    25870236.176 6 135949020.63206      2601.543 6        38.880                                                                    25870237.152 7 101520394.31407      1942.765 7        42.127    25870236.130 7 104168745.40007      1993.357 7        42.203
G21         7.000    23202667.369 6 121930896.82006     -3324.857 6        40.853                                    23202662.815 4  95011091.21204     -2590.799 4        27.305
E04         8.000    24186070.033 7 127098680.94607     -1777.486 7        45.920                                                                    24186068.239 8  94911357.93708     -1327.326 8        49.625    24186067.960 8  97387298.30008     -1361.947 8        50.263
R14         9.000    23315100.544 7 124282608.17507       593.153 7        44.655                                                                    23315101.345 6  96664240.30006       461.315 6        40.825
G04        10.000    21219764.204 7 111510652.45907      2064.802 7        46.568                                    21219760.876 6  86891425.63906      1608.936 6        36.159    21219761.193 7  86891420.63807      1608.966 7        45.412
E09        11.000    23893694.992 8 125562259.73508       979.071 8        48.128                                                                    23893694.256 8  93764041.44008       731.128 8        50.266    23893694.040 8  96210059.23808       750.236 8        50.724
S27        12.000    39072659.700 5 205328208.52105      -404.092 5        35.900
G06        13.000    24704853.530 6 129824898.41406      3092.000 6        37.418                                    24704852.121 5 101162261.00105      2409.352 5        31.441    24704852.659 6 101162272.01306      2409.421 6        37.350
S36        14.000    38202645.388 7 200756742.14107      -418.186 7        43.793
E27        15.000    28942170.989 5 152092127.75505      -347.046 5        35.414                                                                    28942171.813 6 113575296.37806      -259.219 6        39.513    28942171.271 6 116538127.96406      -265.934 6        40.010
E36        16.000    23573846.093 7 123881425.85707       431.114 7        47.742                                                                    23573846.224 8  92508874.34208       321.955 8        50.978    23573845.818 8  94922144.03308       330.327 8        50.972
S45        17.000    63400150.773 6 333170362.36706      -458.944 6        37.270
G03        18.000    19919688.279 8 104678726.27508      -401.775 8        50.046                                    19919686.170 8  81567858.29808      -313.071 8        52.037    19919686.586 7  81567867.29907      -313.153 7        45.834
R21        19.000    19441734.392 8 104036686.99908       410.630 8        52.492                                                                    19441732.329 7  80917433.40707       319.315 7        46.148
R20        20.000    20579695.694 6 110048919.38906     -3691.896 6        38.622                                                                    20579696.830 7  85593601.95107     -2871.551 7        45.743
R05        21.000    20164782.726 8 107792361.39008     -2944.209 8        50.868                                                                    20164781.608 7  83838508.70507     -2289.974 7        46.601
I06        22.000    38147441.207 7 149698981.35407      -219.733 7        43.517
S28        23.000    40873700.221 5 214792738.71805      -411.334 5        34.105
E10        24.000    26413373.699 7 138803333.64807     -3097.074 7        42.070                                                                    26413373.757 7 103651905.59107     -2312.675 7        46.085    26413372.984 7 106355859.02107     -2373.030 7        45.383
S23        25.000    38151644.427 7 200488235.99207      -414.646 7        44.641
E06        26.000    23381604.573 7 122871222.46307      -338.921 7        47.904                                                                    23381604.253 8  91754483.93508      -253.083 8        50.907    23381604.015 8  94148077.65408      -259.683 8        50.966
R15        27.000    24160302.552 7 129105321.58507      2960.737 7        42.671                                                                    24160303.189 6 100415259.01806      2302.912 6        38.646
E19        30.000    28405891.685 4 149273941.64304     -3367.817 4        25.489                                                                    28405893.762 4 111470786.58104     -2515.274 4        28.000    28405893.893 4 114378718.96704     -2580.780 4        28.237
G32        31.000    25816702.883 5 135667689.43105     -3873.330 5        33.287                                    25816701.601 3 105715075.41403     -3018.172 3        18.060    25816703.390 4 105715080.42504     -3018.715 4        29.081
G02        32.000    21677849.985 7 113917909.44207     -2587.406 7        47.776                                    21677843.511 6  88767198.08106     -2016.162 6        38.595
G19        33.000    22530020.403 7 118396089.91707       931.193 7        43.164                                    22530014.609 5  92256714.59605       725.604 5        31.358
G17        34.000    22296632.968 7 117169650.72907     -1103.460 7        45.442                                    22296628.704 7  91301036.86407      -859.839 7        42.957    22296628.942 7  91301036.86707      -859.880 7        42.036
E11        35.000    24188532.760 7 127111664.29807     -2205.003 7        43.678                                                                    24188528.729 7  94921066.12307     -1646.656 7        45.995    24188528.640 7  97397260.37307     -1689.557 7        46.433
C32        36.000                                                                                                                                    24990869.488 7 130134036.25007     -3191.789 7        43.750                                                                    24990869.312 7 105744573.91307     -2593.616 7        44.555
C35        37.000                                                                                                                                    23329043.811 7 121480470.82307      1034.756 7        47.188                                                                    23329042.300 7  98712833.01007       840.831 7        47.146
I09        38.000    37172458.749 7 145872709.52707      -436.625 7        43.098
C29        39.000                                                                                                                                    22558460.633 8 117467825.79608     -2465.804 8        48.944                                                                    22558458.509 8  95452224.73108     -2003.675 8        48.201
R22        40.000    22906160.012 7 122274662.77807      3617.824 7        45.849                                                                    22906158.062 7  95102528.60207      2813.698 7        42.656
S44        42.000    40612068.371 6 213418062.67706      -492.962 6        37.977
C09        43.000                                                                                                                                    38853427.073 6 202320011.00406       415.850 6        41.364    38853423.406 7 156446656.83107       321.595 7        46.035    38853421.660 6 164401562.23706       337.801 6        41.504
C05        44.000                                                                                                                                    39118826.671 6 203702034.17706      -422.276 6        37.543    39118822.492 7 157515358.19007      -326.591 7        43.234    39118824.061 6 165524691.76706      -343.266 6        39.862
R06        45.000    20097368.616 6 107243461.99606      1560.710 6        39.865
R13        46.000    24455003.764 6 130588365.51406     -2732.558 6        36.522
C39        47.000                                                                                                                                    38907862.858 7 202603464.37907      -639.734 7        42.472                                                                    38907859.094 7 164631899.80707      -519.887 7        43.139
C20        48.000                                                                                                                                    21835126.602 8 113701281.59108      -938.878 8        52.257                                                                    21835120.748 8  92391597.09608      -762.927 8        49.635
C06        49.000                                                                                                                                    38319063.016 6 199537437.46206       -71.894 6        40.698    38319057.309 7 154294987.10107       -55.700 7        44.632    38319056.829 6 162140491.75806       -58.555 6        41.726
C16        50.000                                                                                                                                    38752429.295 7 201794085.41507      -191.670 7        42.864    38752429.003 7 156039995.98507      -148.193 7        43.407    38752426.715 6 163974222.39106      -155.913 6        39.835
S48        51.000    77187011.505 6 405620903.93706      -417.557 6        37.176
C19        52.000                                                                                                                                    23255951.751 7 121099899.97007      1620.164 7        47.920                                                                    23255947.170 8  98403590.85308      1316.426 8        48.323
R04        53.000    24149756.001 7 129320870.42307     -4332.084 7        42.311                                                                    24149753.591 5 100582906.77505     -3369.452 5        35.810
C60        54.000                                                                                                                                    40612071.835 6 211477917.89506      -488.362 6        39.396                                                                    40612056.079 6 171843100.53806      -396.794 6        39.568
C30        55.000                                                                                                                                    26166837.828 6 136257567.11806     -3941.604 6        38.526                                                                    26166840.162 6 110720428.09106     -3202.870 6        38.727
C02        57.000                                                                                                                                    40570892.480 5 211263329.55805      -468.125 5        34.100    40570885.783 6 163362201.13206      -361.922 6        39.495    40570888.877 5 171668763.62105      -380.548 5        35.652
I03        58.000   132582458.585 6 444496803.70206       951.588 6        40.412
R07        59.000    23713073.950 7 126937938.29507      3300.415 7        43.012                                                                    23713072.938 6  98729502.49606      2566.911 6        38.303
> 2025 01 01 01 30 30.0000000  0 55
G28         1.000    23196040.929 7 121896034.35507     -1110.234 7        43.219                                    23196036.959 4  94983904.58304      -865.107 4        29.185    23196037.483 7  94983910.57507      -865.086 7        42.110
G31         2.000    22392278.593 7 117672230.25907       753.258 7        44.802                                    22392274.197 6  91692634.23506       586.955 6        41.530    22392274.337 6  91692633.23506       586.957 6        41.740
G09         3.000    23234651.653 6 122098942.34306      3104.550 6        41.864                                    23234649.863 6  95142039.38106      2419.131 6        38.495    23234649.676 6  95142040.37706      2419.224 6        39.033
E34         4.000    26961597.078 6 141684152.60306      2321.672 6        40.224                                                                    26961597.141 7 105803107.52807      1733.607 7        43.314    26961596.962 7 108563188.05807      1778.822 7        43.854
S21         5.000    38435577.117 7 201980172.19307      -418.450 7        42.157
E05         6.000    25867760.523 6 135936013.74906      2601.118 6        39.426                                                                    25867761.965 7 101510681.38207      1942.500 7        42.311    25867761.196 7 104158779.09607      1993.000 7        42.273
G21         7.000    23205831.601 6 121947523.78906     -3325.911 6        40.920                                    23205826.845 4  95024047.29104     -2591.607 4        27.054
E04         8.000    24187762.183 7 127107572.22707     -1779.037 7        45.810                                                                    24187760.184 8  94917997.52308     -1328.471 8        49.663    24187759.913 8  97394111.09808     -1363.153 8        50.156
R14         9.000    23314544.863 7 124279651.68807       589.394 7        44.400                                                                    23314546.033 6  96661940.78306       458.520 6        40.384
G04        10.000    21217800.384 7 111500333.64007      2062.707 7        46.603                                    21217797.297 6  86883385.00106      1607.307 6        36.219    21217797.566 7  86883380.00807      1607.270 7        45.606
E09        11.000    23892764.347 8 125557368.88408       977.284 8        48.055                                                                    23892763.569 8  93760389.18108       729.815 8        50.395    23892763.359 8  96206311.70408       748.845 8        50.739
S27        12.000    39073046.415 5 205330228.68605      -404.114 5        35.595
G06        13.000    24701911.230 6 129809439.02306      3091.751 6        37.009                                    24701910.107 5 101150214.72805      2409.158 5        31.396    24701911.140 6 101150225.73906      2409.052 6        37.267
S36        14.000    38203045.334 7 200758833.69607      -418.494 7        43.689
E27        15.000    28942502.187 5 152093868.49205      -349.261 5        35.486                                                                    28942502.999 6 113576596.27006      -260.794 6        39.303    28942502.558 6 116539461.76306      -267.521 6        39.835
E36        16.000    23573436.591 7 123879274.44407       429.511 7        47.760                                                                    23573436.775 8  92507267.76408       320.751 8        50.998    23573436.381 8  94920495.54508       329.103 8        50.933
S45        17.000    63400541.955 6 333172656.95006      -458.795 6        37.369
G03        18.000    19920071.480 8 104680740.00708      -403.736 8        50.109                                    19920069.371 8  81569427.44008      -314.600 8        52.044    19920070.063 7  81569436.43707      -314.624 7        45.759
R21        19.000    19441352.347 8 104034644.49108       406.374 8        52.330                                                                    19441350.526 7  80915844.78607       316.074 7        46.334
R20        20.000    20583148.505 6 110067386.20706     -3694.795 6        39.045                                                                    20583150.293 7  85607965.03207     -2873.761 7        45.994
R05        21.000    20167537.328 8 107807087.27308     -2946.129 8        50.449                                                                    20167536.097 7  83849962.15507     -2291.370 7        46.258
I06        22.000    38147720.776 7 149700080.01107      -219.653 7        43.416
S28        23.000    40874093.040 5 214794795.28805      -410.898 5        33.976
E10        24.000    26416320.707 6 138818820.96306     -3097.875 6        41.471                                                                    26416320.791 7 103663470.79507     -2313.340 7        46.020    26416320.110 7 106367725.92007     -2373.700 7        45.266
S23        25.000    38152039.745 7 200490308.35707      -414.293 7        44.319
E06        26.000    23381927.881 8 122872922.07508      -340.907 8        48.027                                                                    23381927.661 8  91755753.12508      -254.568 8        50.923    23381927.408 8  94149379.95408      -261.197 8        50.917
R15        27.000    24157532.172 7 129090520.85107      2959.458 7        42.171                                                                    24157532.858 6 100403747.35606      2301.896 6        38.823
E19        30.000    28409096.243 4 149290782.58104     -3368.339 4        24.977                                                                    28409099.122 4 111483362.57504     -2515.032 4        27.844    28409098.549 4 114391623.01004     -2581.044 4        28.673
G32        31.000    25820387.703 5 135687057.08105     -3873.565 5        32.958                                    25820387.126 3 105730167.09203     -3018.378 3        18.687    25820388.881 4 105730172.06904     -3017.784 4        29.441
G02        32.000    21680312.620 8 113930851.61508     -2589.390 8        48.088                                    21680306.333 6  88777282.88306     -2017.703 6        38.562
G19        33.000    22529136.077 7 118391442.79007       927.791 7        42.895                                    22529130.346 5  92253093.45905       722.953 5        31.117
G17        34.000    22297684.482 7 117175175.04207     -1106.268 7        45.391                                    22297679.937 7  91305341.52607      -862.027 7        42.971    22297680.354 6  91305341.52806      -862.070 6        41.864
E11        35.000    24190631.685 7 127122693.12907     -2206.519 7        43.894                                                                    24190627.499 7  94929301.93207     -1647.719 7        45.962    24190627.234 7  97405711.02807     -1690.705 7        46.343
C32        36.000                                                                                                                                    24993934.072 7 130149996.11607     -3192.078 7        43.591                                                                    24993934.375 7 105757542.57707     -2593.821 7        44.770
C35        37.000                                                                                                                                    23328051.283 7 121475302.63607      1032.531 7        47.501                                                                    23328049.813 7  98708633.42507       838.993 7        47.168
I09        38.000    37173015.004 7 145874893.08207      -436.703 7        43.244
C29        39.000                                                                                                                                    22560829.166 8 117480160.06908     -2467.917 8        49.445                                                                    22560827.125 8  95462247.32508     -2005.339 8        48.268
R22        40.000    22902771.775 7 122256576.43607      3616.667 7        46.213                                                                    22902770.198 7  95088461.43807      2813.024 7        42.373
S44        42.000    40612538.947 6 213420526.39906      -492.699 6        37.546
C09        43.000                                                                                                                                    38853028.324 6 202317933.88906       414.969 6        41.750    38853024.723 7 156445050.67607       320.959 7        46.053    38853022.871 6 164399874.38406       337.295 6        41.726
C05        44.000                                                                                                                                    39119232.171 6 203704145.19306      -422.125 6        38.039    39119227.643 7 157516990.56107      -326.365 7        43.344    39119229.494 6 165526407.12606      -343.093 6        40.002
R06        45.000    20095906.917 6 107235664.86706      1558.322 6        40.141
R13        46.000    24457563.004 6 130602036.86506     -2735.954 6        36.416
C39        47.000                                                                                                                                    38908477.489 7 202606664.96807      -640.502 7        42.658                                                                    38908473.780 7 164634500.53307      -520.507 7        43.391
C20        48.000                                                                                                                                    21836029.125 8 113705980.04308      -940.462 8        52.449                                                                    21836023.023 8  92395414.95508      -764.208 8        49.632
C06        49.000                                                                                                                                    38319132.339 6 199537799.36706       -72.789 6        40.868    38319126.702 7 154295266.94607       -56.251 7        44.625    38319126.376 6 162140785.81906       -59.250 6        41.583
C16        50.000                                                                                                                                    38752613.945 7 201795045.81607      -192.543 7        43.079    38752613.510 7 156040738.62607      -148.803 7        43.488    38752611.129 6 163975002.77506      -156.331 6        39.868
S48        51.000    77187408.983 6 405622991.14106      -417.440 6        37.206
C19        52.000                                                                                                                                    23254396.965 8 121091802.63908      1618.798 8        48.174                                                                    23254392.188 8  98397011.09908      1315.379 8        48.227
R04        53.000    24153800.042 7 129342529.82507     -4331.672 7        42.523                                                                    24153798.239 5 100599752.99905     -3368.883 5        35.733
C60        54.000                                                                                                                                    40612540.752 6 211480359.21806      -488.185 6        39.697                                                                    40612524.987 6 171845084.30906      -396.664 6        39.492
C30        55.000                                                                                                                                    26170622.293 6 136277274.73706     -3941.357 6        38.760                                                                    26170624.819 6 110736442.14706     -3202.919 6        38.544
C02        57.000                                                                                                                                    40571341.650 5 211265670.22905      -467.793 5        34.105    40571334.774 6 163364011.09706      -361.946 6        39.273    40571338.570 5 171670665.59805      -380.365 5        35.833
I03        58.000   132581246.744 6 444492045.88106       951.611 6        40.341
R07        59.000    23709990.659 7 126921438.61507      3299.521 7        44.206                                                                    23709990.211 6  98716669.38606      2566.342 6        37.493
> 2025 01 01 01 30 35.0000000  0 55
G28         1.000    23197098.781 7 121901593.96807     -1113.535 7        43.179                                    23197095.043 4  94988236.74804      -867.696 4        29.384    23197095.651 7  94988242.74007      -867.706 7        42.425
G31         2.000    22391563.563 7 117668472.24207       750.028 7        44.459                                    22391559.131 6  91689705.91206       584.436 6        41.633    22391559.230 6  91689704.92606       584.300 6        41.428
G09         3.000    23231697.746 7 122083422.45307      3103.414 7        42.087                                    23231696.508 6  95129945.96406      2418.241 6        38.751    23231696.516 6  95129946.95506      2418.380 6        39.159
E34         4.000    26959388.238 6 141672545.91206      2321.134 6        40.496                                                                    26959388.417 7 105794440.19107      1733.282 7        43.560    26959388.159 7 108554294.61507      1778.493 7        43.939
S21         5.000    38435976.978 7 201982263.53607      -418.246 7        42.178
E05         6.000    25865285.555 6 135923009.08506      2600.801 6        39.261                                                                    25865287.154 7 101500970.12907      1941.996 7        42.227    25865286.661 7 104148814.49807      1992.680 7        42.690
G21         7.000    23208996.885 6 121964155.71306     -3326.989 6        41.020                                    23208991.784 4  95037007.22104     -2592.459 4        27.186
E04         8.000    24189455.708 7 127116471.71607     -1780.825 7        45.591                                                                    24189453.737 8  94924643.24608     -1329.813 8        49.697    24189453.458 8  97400930.18608     -1364.536 8        50.214
R14         9.000    23313994.151 7 124276714.37607       585.529 7        43.647                                                                    23313995.362 6  96659656.24806       455.309 6        40.415
G04        10.000    21215838.975 7 111490025.50007      2060.543 7        46.837                                    21215835.726 6  86875352.68906      1605.617 6        36.348    21215835.535 7  86875347.68607      1605.586 7        45.612
E09        11.000    23891835.385 8 125552487.25408       975.375 8        48.129                                                                    23891834.631 8  93756743.80808       728.368 8        50.405    23891834.387 8  96202571.23508       747.340 8        50.771
S27        12.000    39073429.942 5 205332248.86705      -404.084 5        35.881
G06        13.000    24698969.845 6 129793981.04206      3091.369 6        38.291                                    24698968.517 5 101138169.55505      2408.855 5        31.585    24698969.723 6 101138180.56906      2408.936 6        38.282
S36        14.000    38203440.478 7 200760925.29307      -418.223 7        43.801
E27        15.000    28942835.463 5 152095620.53105      -351.629 5        35.514                                                                    28942836.617 6 113577904.63706      -262.626 6        39.742    28942835.800 6 116540804.26706      -269.453 6        40.348
E36        16.000    23573028.864 7 123877131.16607       427.809 7        47.702                                                                    23573028.933 8  92505667.26208       319.451 8        51.071    23573028.517 8  94918853.29308       327.769 8        50.975
S45        17.000    63400934.322 6 333174951.15906      -458.984 6        37.369
G03        18.000    19920456.585 8 104682763.48908      -405.694 8        50.471                                    19920454.431 8  81571004.17808      -316.124 8        52.190    19920455.044 7  81571013.17407      -316.124 7        45.952
R21        19.000    19440974.710 8 104032623.10708       402.106 8        52.464                                                                    19440973.063 7  80914272.60407       312.703 7        46.629
R20        20.000    20586604.881 6 110085867.38406     -3697.764 6        39.015                                                                    20586606.711 7  85622339.25307     -2875.968 7        46.139
R05        21.000    20170293.569 8 107821822.56508     -2948.022 8        50.461                                                                    20170293.019 7  83861422.94007     -2292.917 7        46.506
I06        22.000    38148000.920 7 149701178.43607      -219.740 7        43.340
S28        23.000    40874477.045 5 214796851.18105      -410.938 5        34.186
E10        24.000    26419268.712 6 138834312.59306     -3098.731 6        41.290                                                                    26419268.650 7 103675039.21007     -2313.987 7        45.976    26419268.046 7 106379596.12907     -2374.415 7        45.314
S23        25.000    38152433.699 7 200492380.39407      -414.295 7        44.448
E06        26.000    23382253.272 7 122874631.69807      -342.944 7        47.799                                                                    23382252.963 8  91757029.79208      -256.105 8        50.994    23382252.752 8  94150689.92408      -262.772 8        50.981
R15        27.000    24154763.865 6 129075726.77106      2958.226 6        41.847                                                                    24154764.821 6 100392240.85906      2300.670 6        38.850
E19        30.000    28412300.700 4 149307623.56004     -3368.442 4        24.391                                                                    28412303.656 4 111495938.52304     -2515.093 4        27.713    28412302.572 4 114404527.10304     -2581.243 4        28.133
G32        31.000    25824073.876 5 135706424.77005     -3873.641 5        32.641                                    25824072.628 3 105745258.81003     -3018.422 3        18.567    25824073.779 4 105745263.83904     -3018.765 4        29.554
G02        32.000    21682777.693 8 113943803.59908     -2591.456 8        48.587                                    21682771.011 6  88787375.33906     -2019.319 6        38.673
G19        33.000    22528255.247 7 118386812.00307       924.509 7        42.787                                    22528249.191 5  92249485.05505       720.400 5        31.396
G17        34.000    22298738.023 7 117180713.67807     -1109.160 7        45.469                                    22298733.912 7  91309657.34607      -864.279 7        43.103    22298734.293 7  91309657.35207      -864.310 7        42.017
E11        35.000    24192731.576 7 127133729.48307     -2208.075 7        44.032                                                                    24192727.641 7  94937543.36007     -1648.851 7        46.067    24192727.396 7  97414167.46107     -1691.915 7        46.336
C32        36.000                                                                                                                                    24996999.156 7 130165957.41107     -3192.493 7        43.670                                                                    24996999.674 7 105770512.44907     -2593.983 7        44.895
C35        37.000                                                                                                                                    23327061.091 7 121470146.46707      1030.030 7        47.248                                                                    23327059.633 7  98704443.63707       836.977 7        47.340
I09        38.000    37173571.614 7 145877077.09707      -436.871 7        42.986
C29        39.000                                                                                                                                    22563200.264 8 117492505.18908     -2470.164 8        49.527                                                                    22563197.918 8  95472278.76808     -2007.228 8        48.405
R22        40.000    22899384.445 7 122238495.78507      3615.526 7        46.043                                                                    22899383.250 7  95074398.72207      2812.013 7        42.836
S44        42.000    40613003.897 6 213422989.72706      -492.771 6        37.614
C09        43.000                                                                                                                                    38852630.157 6 202315860.55806       414.264 6        41.683    38852626.555 7 156443447.44707       320.320 7        46.084    38852624.620 6 164398189.65806       336.608 6        41.812
C05        44.000                                                                                                                                    39119637.456 6 203706255.92306      -421.991 6        37.698    39119633.081 7 157518622.72007      -326.508 7        43.291    39119634.994 6 165528122.28206      -343.011 6        40.040
R06        45.000    20094448.236 6 107227880.64706      1555.456 6        39.829
R13        46.000    24460126.201 6 130615723.49306     -2739.160 6        36.616
C39        47.000                                                                                                                                    38909092.792 7 202609869.51607      -641.340 7        42.408                                                                    38909089.213 7 164637104.50107      -521.049 7        43.247
C20        48.000                                                                                                                                    21836933.011 8 113710686.82408      -942.184 8        52.202                                                                    21836926.928 8  92399239.61408      -765.599 8        49.850
C06        49.000                                                                                                                                    38319203.036 6 199538165.51106       -73.695 6        40.982    38319196.805 7 154295550.08007       -57.097 7        44.647    38319196.753 6 162141083.35306       -59.761 6        41.807
C16        50.000                                                                                                                                    38752798.941 7 201796010.32607      -193.229 7        42.739    38752798.808 7 156041484.44507      -149.514 7        43.443    38752796.519 6 163975786.52906      -157.060 6        40.060
S48        51.000    77187801.515 6 405625077.75406      -417.220 6        37.395
C19        52.000                                                                                                                                    23252843.265 8 121083711.89108      1617.416 8        48.130                                                                    23252838.414 8  98390436.71508      1314.372 8        48.426
R04        53.000    24157844.392 7 129364187.12907     -4331.292 7        42.436                                                                    24157842.853 5 100616597.59105     -3368.808 5        35.952
C60        54.000                                                                                                                                    40613009.557 6 211482800.16606      -488.148 6        39.565                                                                    40612993.724 6 171847067.78406      -396.663 6        39.715
C30        55.000                                                                                                                                    26174407.543 6 136296982.22606     -3941.472 6        38.372                                                                    26174409.365 6 110752456.08606     -3202.810 6        38.724
C02        57.000                                                                                                                                    40571791.289 5 211268010.64305      -468.256 5        33.958    40571784.441 6 163365820.82606      -361.963 6        39.523    40571787.986 6 171672567.36506      -380.276 6        36.106
I03        58.000   132580033.707 6 444487287.91006       951.655 6        40.224
R07        59.000    23706910.564 7 126904943.14707      3298.623 7        43.689                                                                    23706909.697 6  98703839.60906      2565.608 6        39.015
> 2025 01 01 01 30 40.0000000  0 55
G28         1.000    23198159.714 7 121907170.20407     -1116.807 7        43.003                                    23198156.226 4  94992581.86104      -870.248 4        29.545    23198156.417 7  94992587.86407      -870.263 7        42.643
G31         2.000    22390851.685 7 117664730.96007       746.605 7        44.524                                    22390847.172 6  91686790.63206       581.771 6        41.571    22390847.113 6  91686789.62006       581.837 6        41.006
G09         3.000    23228745.542 6 122067908.15506      3102.403 6        41.638                                    23228744.294 6  95117856.91206      2417.458 6        38.739    23228744.952 6  95117857.91806      2417.482 6        39.432
E34         4.000    26957179.815 6 141660941.22406      2320.735 6        40.246                                                                    26957180.209 7 105785774.36407      1733.030 7        43.460    26957179.900 7 108545402.72407      1778.268 7        43.936
S21         5.000    38436376.885 7 201984354.94007      -418.273 7        42.152
E05         6.000    25862811.127 6 135910007.35306      2600.120 6        38.919                                                                    25862812.806 7 101491261.05107      1941.464 7        42.203    25862812.724 7 104138852.13907      1992.247 7        42.747
G21         7.000    23212162.344 6 121980793.26606     -3328.161 6        40.701                                    23212157.755 4  95049971.54904     -2593.365 4        27.042
E04         8.000    24191150.913 7 127125380.07407     -1782.470 7        45.579                                                                    24191148.920 8  94931295.58908     -1331.044 8        49.644    24191148.584 8  97407756.07208     -1365.831 8        50.059
R14         9.000    23313446.627 7 124273796.97607       581.488 7        44.534                                                                    23313447.880 6  96657387.14206       452.340 6        40.946
G04        10.000    21213879.600 7 111479728.72107      2058.259 7        46.500                                    21213876.346 6  86867329.22406      1603.838 6        36.370    21213876.582 7  86867324.21907      1603.802 7        45.514
E09        11.000    23890908.356 8 125547615.51508       973.409 8        48.093                                                                    23890907.563 8  93753105.82508       726.864 8        50.363    23890907.313 8  96198838.34408       745.859 8        50.573
S27        12.000    39073815.235 5 205334269.69805      -404.116 5        35.929
G06        13.000    24696029.262 6 129778525.20506      3090.807 6        38.724                                    24696027.517 5 101126126.04905      2408.419 5        31.977    24696027.842 6 101126137.05406      2408.539 6        38.438
S36        14.000    38203839.727 7 200763016.55907      -418.243 7        43.628
E27        15.000    28943170.938 5 152097384.42905      -354.189 5        35.738                                                                    28943172.268 6 113579221.82206      -264.366 6        39.610    28943171.406 6 116542155.82306      -271.169 6        40.262
E36        16.000    23572622.561 7 123874996.68907       426.103 7        47.622                                                                    23572622.778 8  92504073.33708       318.160 8        50.988    23572622.352 8  94917217.78908       326.435 8        50.854
S45        17.000    63401326.407 6 333177245.69806      -458.937 6        37.308
G03        18.000    19920843.805 8 104684797.37908      -407.745 8        50.420                                    19920841.472 8  81572589.02708      -317.723 8        52.186    19920842.034 7  81572598.03007      -317.726 7        46.037
R21        19.000    19440601.017 8 104030623.45708       397.754 8        52.501                                                                    19440599.565 7  80912717.32107       309.449 7        46.363
R20        20.000    20590063.445 6 110104363.46206     -3700.627 6        38.766                                                                    20590064.921 7  85636725.10407     -2878.299 7        45.469
R05        21.000    20173052.408 8 107836567.84108     -2950.012 8        50.630                                                                    20173051.550 7  83872891.48807     -2294.469 7        46.678
I06        22.000    38148280.918 7 149702277.13407      -219.697 7        43.361
S28        23.000    40874872.488 5 214798907.63905      -411.321 5        34.310
E10        24.000    26422218.085 6 138849809.19006     -3099.747 6        41.838                                                                    26422217.401 7 103686611.35107     -2314.775 7        45.541    26422216.966 7 106391470.14707     -2375.166 7        45.157
S23        25.000    38152826.871 7 200494452.56607      -414.416 7        44.153
E06        26.000    23382580.653 7 122876352.00607      -345.090 7        47.944                                                                    23382580.369 8  91758314.44108      -257.708 8        50.935    23382580.111 8  94152008.08908      -264.439 8        50.843
R15        27.000    24151996.114 7 129060940.03907      2956.615 7        42.125                                                                    24151997.300 6 100380740.06006      2299.651 6        38.508
E19        30.000    28415506.335 4 149324465.16704     -3367.760 4        25.353                                                                    28415508.351 4 111508515.08304     -2515.878 4        27.880    28415508.287 4 114417431.67704     -2580.384 4        27.725
G32        31.000    25827759.424 5 135725793.22305     -3873.748 5        32.910                                    25827758.215 3 105760351.12403     -3018.500 3        18.090    25827759.915 4 105760356.11604     -3018.470 4        29.668
G02        32.000    21685244.416 8 113956766.08408     -2593.529 8        48.275                                    21685237.625 6  88797475.97306     -2020.933 6        38.658
G19        33.000    22527376.793 7 118382198.22807       921.152 7        42.599                                    22527371.286 5  92245889.90705       717.783 5        31.404
G17        34.000    22299795.016 7 117186267.28907     -1112.277 7        45.482                                    22299790.736 7  91313984.83307      -866.709 7        43.113    22299790.873 7  91313984.83007      -866.657 7        42.301
E11        35.000    24194833.264 7 127144774.03107     -2209.675 7        44.078                                                                    24194829.262 7  94945790.91207     -1650.060 7        45.935    24194829.132 7  97422630.16807     -1693.195 7        46.267
C32        36.000                                                                                                                                    25000064.762 7 130181920.80707     -3192.819 7        43.949                                                                    25000065.253 7 105783484.03007     -2594.583 7        44.876
C35        37.000                                                                                                                                    23326073.036 7 121465002.98607      1027.516 7        47.158                                                                    23326071.894 7  98700264.13607       834.829 7        47.270
I09        38.000    37174128.757 7 145879262.08107      -437.118 7        43.054
C29        39.000                                                                                                                                    22565573.263 8 117504861.80508     -2472.460 8        49.304                                                                    22565570.879 8  95482319.53208     -2009.148 8        48.370
R22        40.000    22895998.558 7 122220421.49607      3614.186 7        45.929                                                                    22895997.630 7  95060340.96207      2811.005 7        42.978
S44        42.000    40613475.765 6 213425453.32806      -492.574 6        37.508
C09        43.000                                                                                                                                    38852233.062 6 202313791.65406       413.282 6        41.688    38852229.358 7 156441847.64407       319.589 7        46.055    38852227.416 6 164396508.50606       335.716 6        41.676
C05        44.000                                                                                                                                    39120042.872 6 203708367.02006      -422.226 6        37.546    39120038.590 7 157520255.13507      -326.570 7        43.297    39120040.414 6 165529837.70806      -343.209 6        40.138
R06        45.000    20092992.232 6 107220110.11906      1552.797 6        40.398
R13        46.000    24462693.240 6 130629426.74106     -2742.289 6        37.713
C39        47.000                                                                                                                                    38909709.200 7 202613078.67907      -642.258 7        42.546                                                                    38909705.441 7 164639712.21707      -522.024 7        43.209
C20        48.000                                                                                                                                    21837838.441 8 113715402.59308      -943.988 8        51.992                                                                    21837832.574 8  92403071.56908      -767.218 8        49.785
C06        49.000                                                                                                                                    38319274.295 6 199538536.52806       -74.597 6        40.732    38319267.998 7 154295836.97307       -57.749 7        44.617    38319267.975 6 162141384.84306       -60.854 6        41.862
C16        50.000                                                                                                                                    38752984.871 7 201796979.62007      -194.368 7        42.540    38752984.871 7 156042233.96107      -150.192 7        43.477    38752982.467 6 163976574.17206      -158.021 6        39.910
S48        51.000    77188187.287 6 405627164.42406      -417.251 6        36.934
C19        52.000                                                                                                                                    23251290.794 8 121075628.38308      1615.979 8        48.080                                                                    23251286.039 8  98383868.20208      1313.110 8        48.480
R04        53.000    24161888.812 6 129385843.02106     -4331.042 6        41.881                                                                    24161886.870 6 100633441.08706     -3368.576 6        36.306
C60        54.000                                                                                                                                    40613478.196 6 211485241.37306      -488.188 6        39.649                                                                    40613462.529 6 171849051.47306      -396.893 6        39.556
C30        55.000                                                                                                                                    26178191.661 6 136316690.21606     -3941.601 6        38.069                                                                    26178194.129 6 110768470.42706     -3202.892 6        38.465
C02        57.000                                                                                                                                    40572240.316 5 211270351.35705      -468.385 5        34.024    40572234.214 6 163367630.83606      -362.071 6        39.357    40572237.451 5 171674469.40205      -380.533 5        35.514
I03        58.000   132578821.811 6 444482530.30806       951.601 6        40.155
R07        59.000    23703828.719 7 126888452.45807      3297.523 7        43.460                                                                    23703830.128 6  98691013.54306      2564.881 6        37.728
> 2025 01 01 01 30 45.0000000  0 55
G28         1.000    23199224.148 7 121912762.48407     -1119.841 7        43.062                                    23199220.432 4  94996939.48404      -872.596 4        29.554    23199220.716 7  94996945.49007      -872.675 7        42.965
G31         2.000    22390142.989 7 117661005.84707       743.562 7        44.144                                    22390138.179 6  91683887.95006       579.398 6        41.433    22390138.465 6  91683886.95006       579.384 6        40.958
G09         3.000    23225793.711 6 122052398.88506      3101.457 6        41.335                                    23225792.943 6  95105771.77406      2416.715 6        38.718    23225793.298 6  95105772.78706      2416.782 6        39.477
E34         4.000    26954971.486 6 141649338.01206      2320.739 6        40.155                                                                    26954972.207 7 105777109.61707      1732.937 7        43.196    26954971.953 7 108536511.94507      1778.210 7        43.765
S21         5.000    38436772.471 7 201986445.75807      -417.895 7        42.064
E05         6.000    25860337.461 6 135897007.94906      2599.860 6        38.874                                                                    25860338.904 6 101481553.71106      1941.432 6        41.871    25860338.995 7 104128891.56607      1992.043 7        42.845
G21         7.000    23215329.835 6 121997435.81106     -3328.863 6        40.567                                    23215324.786 4  95062939.76604     -2593.915 4        27.114
E04         8.000    24192847.756 7 127134296.70907     -1784.010 7        45.619                                                                    24192845.719 8  94937954.12008     -1332.187 8        49.535    24192845.379 8  97414588.29908     -1366.939 8        50.140
R14         9.000    23312903.021 7 124270899.00007       577.890 7        44.366                                                                    23312905.070 6  96655133.18806       449.378 6        41.197
G04        10.000    21211922.123 7 111469442.72907      2056.271 7        46.353                                    21211918.992 6  86859314.16806      1602.289 6        36.423    21211919.020 7  86859309.17107      1602.291 7        45.657
E09        11.000    23889983.115 8 125542753.09508       971.644 8        48.189                                                                    23889982.248 8  93749474.79208       725.663 8        50.210    23889981.986 8  96195112.59208       744.568 8        50.706
S27        12.000    39074198.475 5 205336289.65905      -403.931 5        35.652
G06        13.000    24693088.011 6 129763070.89106      3090.785 6        37.845                                    24693086.790 5 101114083.73405      2408.402 5        31.819    24693087.358 6 101114094.73806      2408.456 6        38.565
S36        14.000    38204235.971 7 200765107.61207      -417.921 7        43.475
E27        15.000    28943509.381 5 152099159.60805      -355.990 5        35.329                                                                    28943510.239 6 113580547.47006      -265.811 6        39.733    28943509.404 6 116543516.05206      -272.827 6        39.907
E36        16.000    23572217.918 7 123872870.45607       424.658 7        47.686                                                                    23572218.147 8  92502485.57108       317.031 8        50.849    23572217.754 8  94915588.59708       325.332 8        50.915
S45        17.000    63401720.532 6 333179539.87206      -458.449 6        37.059
G03        18.000    19921232.505 8 104686841.11008      -409.534 8        50.134                                    19921230.383 8  81574181.54608      -319.117 8        52.179    19921230.951 7  81574190.54907      -319.149 7        45.941
R21        19.000    19440231.248 8 104028644.96608       393.746 8        52.427                                                                    19440229.798 7  80911178.49207       306.224 7        46.432
R20        20.000    20593525.150 6 110122874.02406     -3703.511 6        38.691                                                                    20593526.777 7  85651122.17707     -2880.453 7        45.940
R05        21.000    20175812.409 8 107851322.66908     -2951.732 8        50.556                                                                    20175811.359 7  83884367.46407     -2295.837 7        46.663
I06        22.000    38148560.840 7 149703375.68707      -219.597 7        43.084
S28        23.000    40875264.350 5 214800963.55305      -410.853 5        33.527
E10        24.000    26425167.927 7 138865310.19007     -3100.473 7        42.191                                                                    26425167.136 7 103698186.77707     -2315.339 7        45.309    26425166.730 7 106403347.53407     -2375.636 7        45.237
S23        25.000    38153221.170 7 200496524.46407      -414.481 7        44.021
E06        26.000    23382910.029 7 122878082.41407      -346.952 7        47.888                                                                    23382909.649 8  91759606.63108      -259.114 8        50.803    23382909.377 8  94153333.98308      -265.873 8        50.912
R15        27.000    24149230.678 6 129046160.05906      2955.434 6        41.983                                                                    24149231.130 6 100369244.51606      2298.716 6        38.937
E19        30.000    28418711.833 4 149341306.87404     -3368.604 4        24.496                                                                    28418713.829 4 111521091.64004     -2515.123 4        27.593    28418712.636 4 114430336.38204     -2580.876 4        27.497
G32        31.000    25831444.935 5 135745161.82005     -3873.227 5        32.102                                    25831443.995 2 105775443.52002     -3018.096 2        17.924    25831445.108 4 105775448.54704     -3018.139 4        29.867
G02        32.000    21687712.672 8 113969738.50108     -2595.329 8        48.126                                    21687706.149 6  88807584.34806     -2022.332 6        38.565
G19        33.000    22526502.707 7 118377600.91207       917.948 7        42.427                                    22526496.489 5  92242307.58305       715.290 5        31.449
G17        34.000    22300854.718 7 117191835.28507     -1114.911 7        45.263                                    22300850.313 7  91318323.52907      -868.760 7        43.088    22300850.525 6  91318323.53406      -868.714 6        41.924
E11        35.000    24196936.308 7 127155826.19507     -2210.923 7        44.001                                                                    24196932.354 7  94954044.14807     -1651.001 7        45.734    24196932.264 7  97431098.70707     -1694.156 7        46.282
C32        36.000                                                                                                                                    25003131.041 7 130197885.73707     -3192.957 7        43.858                                                                    25003131.057 7 105796456.84607     -2594.668 7        44.871
C35        37.000                                                                                                                                    23325087.796 7 121459871.61407      1025.242 7        47.161                                                                    23325086.409 7  98696094.48407       832.863 7        47.258
I09        38.000    37174685.236 7 145881447.57807      -437.058 7        43.082
C29        39.000                                                                                                                                    22567948.191 8 117517229.34808     -2474.461 8        49.287                                                                    22567945.912 8  95492369.17408     -2010.881 8        48.339
R22        40.000    22892614.012 7 122202352.98507      3613.415 7        44.752                                                                    22892611.625 7  95046287.68707      2810.369 7        42.646
S44        42.000    40613943.519 6 213427916.63706      -492.398 6        37.554
C09        43.000                                                                                                                                    38851836.851 6 202311726.62206       412.852 6        41.781    38851832.808 7 156440250.83007       319.168 7        46.132    38851830.786 6 164394830.51006       335.247 6        41.645
C05        44.000                                                                                                                                    39120447.527 6 203710477.86606      -422.074 6        37.705    39120443.920 7 157521887.37907      -326.339 7        43.255    39120445.570 6 165531552.95306      -343.192 6        40.212
R06        45.000    20091540.106 6 107212352.55706      1550.401 6        40.374
R13        46.000    24465262.088 6 130643145.33306     -2744.971 6        37.490
C39        47.000                                                                                                                                    38910326.213 7 202616291.89107      -642.872 7        42.720                                                                    38910322.515 7 164642323.21407      -522.609 7        43.321
C20        48.000                                                                                                                                    21838745.688 8 113720126.77108      -945.490 8        52.007                                                                    21838739.798 8  92406910.35008      -768.457 8        49.810
C06        49.000                                                                                                                                    38319345.538 6 199538911.88406       -75.326 6        40.601    38319340.237 7 154296127.22607       -58.268 7        44.515    38319340.001 6 162141689.85106       -61.412 6        41.685
C16        50.000                                                                                                                                    38753171.713 7 201797953.09907      -194.956 7        42.339    38753171.582 7 156042986.72907      -150.805 7        43.627    38753169.391 6 163977365.19906      -158.535 6        40.010
S48        51.000    77188585.847 6 405629250.99606      -417.166 6        37.353
C19        52.000                                                                                                                                    23249739.418 7 121067551.55707      1614.877 7        47.713                                                                    23249734.996 8  98377305.13208      1312.036 8        48.467
R04        53.000    24165933.092 7 129407497.05507     -4330.423 7        42.129                                                                    24165931.790 6 100650283.16006     -3368.097 6        36.454
C60        54.000                                                                                                                                    40613946.804 6 211487682.29106      -488.061 6        39.619                                                                    40613931.245 6 171851034.90906      -396.699 6        39.432
C30        55.000                                                                                                                                    26181976.861 6 136336398.12506     -3941.483 6        37.709                                                                    26181978.790 6 110784484.70306     -3202.898 6        38.183
C02        57.000                                                                                                                                    40572689.897 5 211272691.82105      -467.844 5        33.832    40572683.662 6 163369440.62906      -361.803 6        39.468    40572686.711 5 171676371.24305      -380.797 5        35.967
I03        58.000   132577609.496 6 444477772.65806       951.566 6        40.205
R07        59.000    23700749.111 7 126871966.18307      3297.016 7        44.798                                                                    23700749.090 6  98678190.85006      2564.320 6        37.784
> 2025 01 01 01 30 50.0000000  0 55
G28         1.000    23200291.451 7 121918370.91107     -1123.197 7        42.762                                    23200287.661 4  95001309.68204      -875.219 4        29.536    23200288.046 7  95001315.67407      -875.138 7        42.372
G31         2.000    22389437.171 7 117657297.00407       740.278 7        43.625                                    22389432.293 6  91680997.94506       576.834 6        41.216    22389432.751 6  91680996.94206       576.867 6        40.746
G09         3.000    23222844.077 6 122036894.73306      3100.418 6        41.993                                    23222842.553 6  95093690.62906      2415.906 6        38.592    23222842.678 6  95093691.63306      2415.904 6        39.372
E34         4.000    26952763.756 6 141637736.38606      2320.262 6        40.007                                                                    26952764.568 7 105768446.05707      1732.700 7        43.371    26952764.267 7 108527622.37907      1777.910 7        43.712
S21         5.000    38437174.112 7 201988536.16607      -417.812 7        42.053
E05         6.000    25857864.483 6 135884010.99506      2599.322 6        39.204                                                                    25857865.607 6 101471848.20406      1941.007 6        41.707    25857865.682 7 104118932.86507      1991.696 7        42.605
G21         7.000    23218497.968 6 122014083.50306     -3329.910 6        40.324                                    23218492.649 4  95075911.98504     -2594.723 4        26.934
E04         8.000    24194545.787 7 127143221.71707     -1785.647 7        45.657                                                                    24194544.075 8  94944618.89508     -1333.445 8        49.491    24194543.778 8  97421426.94108     -1368.300 8        50.036
R14         9.000    23312362.763 7 124268020.37607       573.989 7        44.092                                                                    23312364.347 6  96652894.24706       446.326 6        40.539
G04        10.000    21209966.995 7 111459167.63407      2054.145 7        46.465                                    21209963.721 6  86851307.60406      1600.630 6        36.265    21209963.706 7  86851302.60107      1600.569 7        45.357
E09        11.000    23889059.598 8 125537900.08008       969.865 8        48.202                                                                    23889058.765 8  93745850.79308       724.184 8        50.322    23889058.487 8  96191394.04908       743.122 8        50.616
S27        12.000    39074585.785 5 205338309.49705      -403.795 5        35.505
G06        13.000    24690146.528 6 129747618.22406      3090.415 6        37.335                                    24690146.318 5 101102042.71005      2408.112 5        31.864    24690146.290 6 101102053.71506      2408.039 6        37.414
S36        14.000    38204633.261 7 200767199.32207      -418.406 7        43.632
E27        15.000    28943848.817 5 152100946.23305      -358.252 5        35.505                                                                    28943850.020 6 113581881.63606      -267.620 6        39.811    28943849.175 6 116544885.01006      -274.457 6        39.667
E36        16.000    23571815.020 7 123870752.57207       422.886 7        47.748                                                                    23571815.117 8  92500904.02608       315.820 8        50.949    23571814.713 8  94913965.80008       324.011 8        50.817
S45        17.000    63402110.216 6 333181833.74506      -458.598 6        37.115
G03        18.000    19921623.291 8 104688894.79408      -411.516 8        50.036                                    19921621.189 8  81575781.82008      -320.667 8        52.065    19921621.760 7  81575790.81707      -320.654 7        45.985
R21        19.000    19439865.835 8 104026687.63808       389.518 8        52.667                                                                    19439864.057 7  80909656.12507       302.948 7        46.665
R20        20.000    20596989.567 6 110141399.05006     -3706.209 6        38.676                                                                    20596991.611 7  85665530.55507     -2882.687 7        45.946
R05        21.000    20178574.196 8 107866087.00608     -2953.644 8        50.689                                                                    20178573.407 7  83895850.83207     -2297.250 7        46.828
I06        22.000    38148840.619 7 149704474.14307      -219.591 7        43.234
S28        23.000    40875654.732 5 214803019.24205      -410.689 5        33.832
E10        24.000    26428118.396 7 138880815.68507     -3101.389 7        42.178                                                                    26428117.766 7 103709765.55007     -2315.953 7        45.353    26428117.614 7 106415228.37707     -2376.419 7        45.166
S23        25.000    38153616.421 7 200498596.02807      -414.220 7        44.235
E06        26.000    23383241.191 7 122879823.03407      -348.909 7        47.814                                                                    23383240.823 8  91760906.44408      -260.605 8        50.865    23383240.654 8  94154667.71008      -267.444 8        50.809
R15        27.000    24146466.182 6 129031386.96306      2954.060 6        41.919                                                                    24146466.862 6 100357754.35606      2297.605 6        39.291
E19        30.000    28421916.668 4 149358148.82504     -3368.273 4        24.962                                                                    28421918.301 4 111533668.42604     -2515.298 4        28.152    28421917.376 4 114443241.15404     -2581.081 4        27.892
G32        31.000    25835130.400 5 135764530.66305     -3873.561 5        31.691                                    25835129.945 2 105790536.12302     -3018.372 2        17.132    25835131.093 4 105790541.12704     -3018.702 4        28.986
G02        32.000    21690182.971 8 113982720.94708     -2597.327 8        48.183                                    21690176.559 6  88817700.53606     -2023.894 6        38.438
G19        33.000    22525631.050 7 118373020.15407       914.747 7        42.567                                    22525624.737 5  92238738.15705       712.789 5        31.245
G17        34.000    22301916.956 7 117197417.75807     -1117.708 7        45.589                                    22301912.632 7  91322673.50007      -870.942 7        42.952    22301912.241 6  91322673.50006      -870.921 6        41.616
E11        35.000    24199041.075 7 127166886.10007     -2212.559 7        43.936                                                                    24199037.038 7  94962303.16707     -1652.338 7        45.857    24199036.900 7  97439573.16607     -1695.322 7        46.165
C32        36.000                                                                                                                                    25006197.267 7 130213852.30007     -3193.177 7        43.843                                                                    25006197.203 7 105809430.97307     -2594.832 7        44.840
C35        37.000                                                                                                                                    23324104.604 7 121454752.47707      1022.809 7        47.045                                                                    23324103.307 7  98691934.75607       831.048 7        47.271
I09        38.000    37175242.412 7 145883633.67107      -437.179 7        42.959
C29        39.000                                                                                                                                    22570325.434 8 117529607.88908     -2476.608 8        49.157                                                                    22570323.115 8  95502427.73708     -2012.503 8        48.268
R22        40.000    22889229.328 7 122184290.40207      3612.043 7        45.660                                                                    22889228.627 6  95032239.00706      2809.308 6        41.902
S44        42.000    40614411.707 6 213430379.74606      -492.259 6        37.505
C09        43.000                                                                                                                                    38851440.813 6 202309665.55406       412.100 6        41.866    38851437.069 7 156438657.07707       318.524 7        46.100    38851434.973 6 164393155.70006       334.822 6        41.702
C05        44.000                                                                                                                                    39120853.461 6 203712588.56206      -421.950 6        37.629    39120849.299 7 157523519.49807      -326.278 7        43.160    39120850.989 6 165533268.04806      -342.937 6        40.100
R06        45.000    20090086.822 6 107204608.19306      1547.745 6        40.102
R13        46.000    24467832.630 6 130656879.72306     -2748.241 6        37.017
C39        47.000                                                                                                                                    38910943.909 7 202619509.25807      -643.772 7        42.760                                                                    38910940.431 7 164644937.56707      -523.162 7        43.143
C20        48.000                                                                                                                                    21839654.496 8 113724859.44708      -947.198 8        52.020                                                                    21839648.558 8  92410756.02708      -769.685 8        49.768
C06        49.000                                                                                                                                    38319418.446 6 199539291.62606       -76.285 6        40.548    38319412.866 7 154296420.86307       -58.953 7        44.381    38319412.996 6 162141998.41106       -62.001 6        41.781
C16        50.000                                                                                                                                    38753359.121 7 201798930.89307      -195.797 7        42.256    38753359.656 7 156043742.81407      -151.486 7        43.659    38753357.256 6 163978159.71606      -159.166 6        39.784
S48        51.000    77188979.072 6 405631337.31906      -416.852 6        37.270
C19        52.000                                                                                                                                    23248189.791 7 121059481.50707      1613.466 7        47.987                                                                    23248185.266 8  98370747.54008      1311.113 8        48.379
R04        53.000    24169976.169 7 129429149.22207     -4330.285 7        42.360                                                                    24169974.372 6 100667123.75406     -3368.147 6        36.510
C60        54.000                                                                                                                                    40614415.811 6 211490123.01006      -488.000 6        39.556                                                                    40614400.014 6 171853018.19806      -396.579 6        39.405
C30        55.000                                                                                                                                    26185761.273 6 136356106.00206     -3941.122 6        37.561                                                                    26185763.548 6 110800498.96306     -3202.704 6        37.879
C02        57.000                                                                                                                                    40573140.132 5 211275032.19805      -468.106 5        33.898    40573132.970 6 163371250.34406      -361.965 6        39.544    40573136.283 5 171678272.93605      -380.277 5        35.781
I03        58.000   132576396.791 6 444473014.99206       951.725 6        40.174
R07        59.000    23697671.967 7 126855484.26607      3296.056 7        44.468                                                                    23697670.552 6  98665371.60206      2563.654 6        37.962
> 2025 01 01 01 30 55.0000000  0 55
G28         1.000    23201361.727 7 121923995.29507     -1126.408 7        42.571                                    23201357.912 4  95005692.31404      -877.717 4        29.431    23201358.022 6  95005698.31506      -877.807 6        41.938
G31         2.000    22388734.439 7 117653604.25307       736.887 7        44.152                                    22388729.546 6  91678120.47506       574.198 6        41.271    22388730.278 6  91678119.48606       574.161 6        41.342
G09         3.000    23219894.695 6 122021395.53006      3099.379 6        41.385                                    23219893.111 6  95081613.33906      2415.102 6        38.571    23219893.390 6  95081614.34506      2414.969 6        39.156
E34         4.000    26950557.031 6 141626136.14706      2319.754 6        40.365                                                                    26950557.044 7 105759783.54307      1732.384 7        43.325    26950556.706 7 108518733.88207      1777.615 7        43.814
S21         5.000    38437569.864 7 201990626.15007      -418.111 7        42.068
E05         6.000    25855391.785 6 135871016.30806      2598.723 6        39.471                                                                    25855392.740 6 101462144.38006      1940.530 6        41.578    25855392.676 7 104108975.90207      1991.197 7        42.368
G21         7.000    23221666.564 6 122030736.10506     -3331.011 6        40.548                                    23221661.527 4  95088888.03904     -2595.595 4        26.874
E04         8.000    24196245.801 7 127152154.92207     -1787.528 7        45.803                                                                    24196243.996 8  94951289.79408     -1334.841 8        49.538    24196243.665 8  97428271.86208     -1369.663 8        50.063
R14         9.000    23311826.595 7 124265161.08007       569.946 7        44.311                                                                    23311828.332 6  96650670.35506       443.191 6        40.198
G04        10.000    21208013.587 7 111448903.25807      2051.772 7        46.641                                    21208010.498 6  86843309.38906      1598.782 6        36.359    21208010.663 7  86843304.38307      1598.827 7        45.056
E09        11.000    23888137.617 8 125533056.29708       967.815 8        48.074                                                                    23888137.012 8  93742233.68508       722.687 8        50.263    23888136.716 8  96187682.58308       741.564 8        50.658
S27        12.000    39074969.530 5 205340329.03405      -403.875 5        35.729
G06        13.000    24687206.324 6 129732167.02606      3090.024 6        37.535                                    24687205.949 5 101090002.81405      2407.809 5        31.660    24687206.251 6 101090013.83006      2407.673 6        37.248
S36        14.000    38205033.789 7 200769290.97307      -418.257 7        43.412
E27        15.000    28944190.935 5 152102744.06205      -360.444 5        34.838                                                                    28944192.122 6 113583224.17006      -269.430 6        39.916    28944191.529 6 116546262.57506      -276.318 6        39.508
E36        16.000    23571413.648 7 123868642.84907       421.086 7        47.662                                                                    23571413.697 8  92499328.58808       314.452 8        50.942    23571413.268 8  94912349.26108       322.653 8        50.889
S45        17.000    63402507.806 6 333182527.19016      -458.799 6        36.934
G03        18.000    19922015.868 8 104690958.23008      -413.654 8        50.102                                    19922013.851 8  81577389.69208      -322.330 8        52.084    19922014.216 7  81577398.69007      -322.304 7        46.024
R21        19.000    19439504.118 8 104024751.39808       385.115 8        52.534                                                                    19439502.083 7  80908150.16507       299.467 7        46.514
R20        20.000    20600456.852 6 110159938.39306     -3709.337 6        38.823                                                                    20600457.836 7  85679950.03207     -2885.024 7        45.536
R05        21.000    20181337.970 8 107880860.77308     -2955.787 8        50.530                                                                    20181336.971 7  83907341.54007     -2298.929 7        46.105
I06        22.000    38149120.992 7 149705572.38507      -219.702 7        43.213
S28        23.000    40876046.128 5 214805074.41405      -411.251 5        34.033
E10        24.000    26431069.644 7 138896325.49907     -3102.482 7        42.193                                                                    26431069.232 7 103721347.55507     -2316.791 7        45.392    26431069.146 7 106427112.50807     -2377.158 7        45.500
S23        25.000    38154009.499 7 200500667.06607      -414.179 7        44.081
E06        26.000    23383574.311 7 122881573.66807      -351.132 7        47.735                                                                    23383573.968 8  91762213.73808      -262.216 8        50.846    23383573.758 8  94156009.10308      -269.071 8        50.905
R15        27.000    24143702.644 6 129016620.63706      2952.500 6        41.287                                                                    24143704.267 6 100346269.45606      2296.291 6        39.189
E19        30.000    28425120.745 4 149374990.75204     -3368.552 4        24.045                                                                    28425123.348 4 111546245.09704     -2515.346 4        27.078    28425121.971 4 114456145.94804     -2580.908 4        27.449
G32        31.000    25838817.182 5 135783899.57905     -3873.921 5        31.223                                    25838815.621 2 105805628.77902     -3018.631 2        17.132    25838817.367 4 105805633.73404     -3018.357 4        29.611
G02        32.000    21692655.550 7 113995713.26307     -2599.543 7        47.733                                    21692648.879 6  88827824.41806     -2025.620 6        38.444
G19        33.000    22524762.562 7 118368455.79007       911.165 7        43.263                                    22524756.183 5  92235181.51505       710.001 5        31.306
G17        34.000    22302981.677 7 117203014.54307     -1120.786 7        45.765                                    22302977.665 7  91327034.63807      -873.339 7        42.967    22302977.939 6  91327034.64206      -873.281 6        41.731
E11        35.000    24201147.274 7 127177953.53607     -2214.244 7        44.131                                                                    24201143.116 7  94970567.80907     -1653.613 7        45.827    24201142.969 7  97448053.41907     -1696.679 7        46.259
C32        36.000                                                                                                                                    25009263.514 7 130229820.32407     -3193.724 7        43.583                                                                    25009263.632 7 105822406.27507     -2595.209 7        44.927
C35        37.000                                                                                                                                    23323123.951 7 121449645.40207      1020.125 7        47.154                                                                    23323122.599 7  98687784.82307       828.911 7        47.310
I09        38.000    37175799.579 7 145885820.25707      -437.358 7        43.046
C29        39.000                                                                                                                                    22572704.473 8 117541997.25708     -2478.955 8        49.173                                                                    22572702.334 8  95512495.10008     -2014.413 8        48.299
R22        40.000    22885846.832 7 122166233.58107      3610.748 7        44.304                                                                    22885845.691 7  95018194.82107      2808.347 7        42.125
S44        42.000    40614879.712 6 213432842.48106      -492.463 6        37.524
C09        43.000                                                                                                                                    38851045.714 6 202307608.30006       410.992 6        41.933    38851041.807 7 156437066.27907       317.893 7        46.108    38851039.873 6 164391484.01006       333.807 6        41.976
C05        44.000                                                                                                                                    39121258.813 6 203714698.96906      -422.002 6        37.569    39121254.540 7 157525151.40407      -326.376 7        43.414    39121256.244 6 165534982.93606      -343.087 6        40.062
R06        45.000    20088637.886 6 107196876.67806      1544.837 6        40.038
R13        46.000    24470409.125 6 130670629.53006     -2751.446 6        36.423
C39        47.000                                                                                                                                    38911562.648 7 202622730.56507      -644.738 7        42.973                                                                    38911559.042 7 164647555.13907      -523.925 7        43.261
C20        48.000                                                                                                                                    21840565.075 8 113729600.46308      -949.025 8        52.130                                                                    21840559.084 8  92414608.48308      -771.234 8        49.851
C06        49.000                                                                                                                                    38319492.180 6 199539675.61806       -77.287 6        40.441    38319486.582 7 154296717.78507       -59.723 7        44.418    38319486.750 6 162142310.43006       -62.932 6        41.976
C16        50.000                                                                                                                                    38753548.464 7 201799912.79707      -196.880 7        42.239    38753548.324 7 156044502.07207      -152.167 7        43.742    38753545.794 6 163978957.58806      -160.005 6        39.883
S48        51.000    77189374.753 6 405633423.13006      -417.086 6        37.236
C19        52.000                                                                                                                                    23246641.276 7 121051418.05707      1611.998 7        47.880                                                                    23246636.755 8  98364195.32508      1309.777 8        48.455
R04        53.000    24174018.780 7 129450799.28107     -4329.841 7        42.072                                                                    24174015.649 6 100683962.70506     -3367.777 6        36.053
C60        54.000                                                                                                                                    40614884.200 6 211492563.35106      -488.018 6        39.655                                                                    40614868.591 6 171855001.14606      -396.413 6        39.613
C30        55.000                                                                                                                                    26189546.378 6 136375813.76806     -3941.780 6        37.225                                                                    26189548.328 6 110816513.09106     -3202.946 6        37.955
C02        57.000                                                                                                                                    40573589.248 5 211277372.24805      -467.757 5        33.784    40573582.136 6 163373059.82406      -361.790 6        39.351    40573585.690 5 171680174.44005      -380.488 5        35.976
I03        58.000   132575184.506 6 444468257.22106       951.445 6        40.224
R07        59.000    23694592.545 7 126839006.54007      3295.096 7        43.223                                                                    23694592.279 6  98652555.61506      2562.914 6        38.177
> 2025 01 01 01 31  0.0000000  0 55
G28         1.000    23202435.257 7 121929635.58707     -1129.778 7        42.392                                    23202431.120 4  95010087.33904      -880.338 4        29.498    23202431.759 7  95010093.33207      -880.293 7        42.493
G31         2.000    22388035.336 7 117649927.52507       733.563 7        44.628                                    22388029.929 6  91675255.50006       571.609 6        41.640    22388030.756 6  91675254.51006       571.509 6        41.952
G09         3.000    23216946.147 6 122005901.25606      3098.280 6        41.783                                    23216944.599 6  95069539.88406      2414.238 6        38.586    23216944.878 6  95069540.87606      2414.205 6        39.150
E34         4.000    26948349.560 6 141614537.24606      2319.589 6        39.868                                                                    26948349.757 7 105751122.03907      1732.082 7        43.331    26948349.507 7 108509846.42407      1777.275 7        43.835
S21         5.000    38437968.340 7 201992715.91407      -418.168 7        42.254
E05         6.000    25852919.085 6 135858023.82206      2598.209 6        39.015                                                                    25852920.603 6 101452442.20206      1940.194 6        41.681    25852920.079 7 104099020.62007      1990.831 7        42.089
G21         7.000    23224836.220 6 122047393.59806     -3332.076 6        41.135                                    23224831.514 4  95101867.90004     -2596.427 4        27.401
E04         8.000    24197947.514 7 127161096.23707     -1789.270 7        45.634                                                                    24197945.467 8  94957966.75408     -1336.192 8        49.566    24197945.126 8  97435123.00208     -1370.998 8        50.126
R14         9.000    23311294.549 7 124262320.99707       565.875 7        45.159                                                                    23311295.146 6  96648461.40206       440.098 6        40.574
G04        10.000    21206062.396 7 111438649.54307      2049.455 7        46.426                                    21206059.279 6  86835319.48406      1596.980 6        36.473    21206059.444 7  86835314.48107      1597.024 7        45.607
E09        11.000    23887217.649 7 125528221.70207       965.831 7        47.920                                                                    23887216.993 8  93738623.43108       721.211 8        50.316    23887216.728 8  96183978.15308       739.999 8        50.614
S27        12.000    39075350.168 5 205342348.24705      -403.915 5        35.833
G06        13.000    24684267.005 6 129716717.25806      3089.616 6        37.459                                    24684266.005 5 101077964.03205      2407.490 5        31.653    24684266.558 6 101077975.05006      2407.438 6        37.766
S36        14.000    38205429.899 7 200771381.51607      -418.215 7        43.477
E27        15.000    28944534.708 5 152104553.06305      -363.218 5        34.662                                                                    28944536.272 6 113584574.98606      -271.279 6        40.119    28944535.764 6 116547648.62906      -278.268 6        39.700
E36        16.000    23571013.632 7 123866541.24407       419.304 7        47.682                                                                    23571013.722 8  92497759.20608       313.175 8        51.001    23571013.370 8  94910738.94008       321.296 8        50.862
S45        17.000    63402899.793 6 333184820.22806      -458.628 6        37.149
G03        18.000    19922410.561 8 104693031.36008      -415.797 8        50.358                                    19922408.369 8  81579005.11908      -323.996 8        52.258    19922408.863 7  81579014.12007      -323.975 7        46.031
R21        19.000    19439145.986 8 104022836.17908       380.787 8        52.534                                                                    19439144.199 7  80906660.54307       296.163 7        46.738
R20        20.000    20603925.766 6 110178491.91706     -3712.414 6        39.111                                                                    20603927.717 7  85694380.55807     -2887.365 7        45.848
R05        21.000    20184102.908 8 107895643.88608     -2957.752 8        49.909                                                                    20184102.434 7  83918839.51607     -2300.420 7        46.239
I06        22.000    38149400.573 7 149706670.35707      -219.763 7        43.156
S28        23.000    40876441.871 5 214807129.19505      -411.252 5        33.922
E10        24.000    26434021.882 6 138911839.55806     -3103.563 6        41.600                                                                    26434021.507 7 103732932.72507     -2317.512 7        45.539    26434021.363 7 106438999.90507     -2377.971 7        45.571
S23        25.000    38154403.002 7 200502737.62007      -414.229 7        44.238
E06        26.000    23383909.213 7 122883334.26707      -353.280 7        47.693                                                                    23383909.003 8  91763528.47408      -263.829 8        50.935    23383908.798 8  94157358.13608      -270.694 8        50.805
R15        27.000    24140940.183 6 129001860.98806      2951.132 6        41.273                                                                    24140941.938 6 100334789.74606      2295.478 6        39.892
E19        30.000    28428327.327 4 149391832.51504     -3368.701 4        24.211                                                                    28428328.033 4 111558821.74404     -2515.296 4        27.988    28428327.270 4 114469050.70804     -2581.137 4        27.497
G32        31.000    25842502.560 5 135803268.53805     -3874.230 5        31.260                                    25842501.464 2 105820721.47402     -3018.879 2        16.943    25842501.288 5 105820726.45305     -3018.461 5        30.415
G02        32.000    21695129.654 8 114008715.36608     -2601.592 8        48.059                                    21695123.099 6  88837955.92106     -2027.213 6        38.592
G19        33.000    22523896.528 7 118363907.79207       907.772 7        43.240                                    22523890.731 5  92231637.62105       707.356 5        31.570
G17        34.000    22304049.648 7 117208625.56807     -1123.754 7        45.682                                    22304045.413 7  91331406.86107      -875.653 7        43.173    22304045.672 6  91331406.86006      -875.634 6        41.981
E11        35.000    24203254.645 7 127189028.45807     -2215.951 7        43.816                                                                    24203250.557 7  94978838.03907     -1654.752 7        45.865    24203250.364 7  97456539.39207     -1697.883 7        46.177
C32        36.000                                                                                                                                    25012330.428 7 130245789.70307     -3194.187 7        43.570                                                                    25012330.556 7 105835382.70707     -2595.411 7        44.965
C35        37.000                                                                                                                                    23322145.729 7 121444550.31707      1017.619 7        47.247                                                                    23322144.151 7  98683644.65307       827.062 7        47.278
I09        38.000    37176356.739 7 145888007.25207      -437.597 7        43.088
C29        39.000                                                                                                                                    22575085.887 8 117554397.38508     -2481.192 8        49.237                                                                    22575083.644 8  95522571.22908     -2016.075 8        48.317
R22        40.000    22882465.088 7 122148182.47607      3609.524 7        45.044                                                                    22882464.290 7  95004155.08107      2807.300 7        42.212
S44        42.000    40615349.769 6 213435304.75906      -492.373 6        37.384
C09        43.000                                                                                                                                    38850651.351 6 202305554.76706       410.218 6        41.931    38850647.355 7 156435478.36907       317.200 7        46.067    38850645.570 6 164389815.36406       333.441 6        41.907
C05        44.000                                                                                                                                    39121664.206 6 203716809.01506      -422.091 6        37.754    39121659.835 7 157526783.02507      -326.407 7        43.496    39121661.408 6 165536697.51806      -342.795 6        40.064
R06        45.000    20087192.210 6 107189158.06006      1542.412 6        40.091
R13        46.000    24472986.501 6 130684394.87906     -2754.764 6        36.129
C39        47.000                                                                                                                                    38912181.738 7 202625955.79207      -645.624 7        42.796                                                                    38912178.543 7 164650175.90707      -524.370 7        43.183
C20        48.000                                                                                                                                    21841477.204 8 113734349.73508      -950.857 8        52.249                                                                    21841471.138 8  92418467.66008      -772.495 8        49.966
C06        49.000                                                                                                                                    38319566.806 6 199540063.79706       -78.272 6        40.520    38319561.200 7 154297017.94607       -60.462 7        44.381    38319561.269 6 162142625.85906       -63.546 6        41.938
C16        50.000                                                                                                                                    38753738.345 7 201800898.74307      -197.775 7        42.425    38753737.672 7 156045264.47807      -152.999 7        43.771    38753735.189 6 163979758.76606      -160.560 6        39.841
S48        51.000    77189766.646 6 405635508.36306      -417.314 6        37.319
C19        52.000                                                                                                                                    23245093.987 8 121043361.15908      1610.541 8        48.196                                                                    23245089.494 8  98357648.43708      1308.905 8        48.488
R04        53.000    24178060.729 6 129472447.20106     -4329.575 6        41.769                                                                    24178058.598 6 100700799.99406     -3367.287 6        36.038
C60        54.000                                                                                                                                    40615352.826 6 211495003.25506      -488.199 6        39.532                                                                    40615337.181 6 171856983.78406      -396.497 6        39.456
C30        55.000                                                                                                                                    26193330.616 6 136395521.21306     -3941.682 6        37.225                                                                    26193332.804 6 110832527.03706     -3202.796 6        37.607
C02        57.000                                                                                                                                    40574037.779 5 211279711.92105      -468.090 5        33.856    40574031.494 6 163374868.99406      -361.858 6        39.366    40574035.057 5 171682075.59905      -380.188 5        35.867
I03        58.000   132573971.874 6 444463499.27006       951.481 6        40.267
R07        59.000    23691514.054 7 126822532.92807      3294.127 7        43.433                                                                    23691515.245 6  98639742.83606      2562.182 6        38.913
> 2025 01 01 01 31  5.0000000  0 55
G28         1.000    23203511.519 7 121935291.96207     -1132.900 7        42.626                                    23203507.457 4  95014494.90804      -882.780 4        29.318    23203508.002 7  95014500.90907      -882.792 7        42.165
G31         2.000    22387338.553 7 117646267.01607       730.402 7        44.777                                    22387333.443 6  91672403.16006       569.143 6        41.714    22387333.637 6  91672402.15506       569.195 6        41.714
G09         3.000    23213998.470 6 121990412.07106      3097.247 6        41.330                                    23213997.089 6  95057470.39906      2413.441 6        38.568    23213997.490 6  95057471.39406      2413.478 6        39.300
E34         4.000    26946142.701 6 141602939.91806      2319.126 6        39.874                                                                    26946142.874 7 105742461.69307      1731.958 7        43.649    26946142.585 7 108500960.15807      1777.171 7        43.949
S21         5.000    38438363.881 7 201994805.60407      -418.212 7        42.353
E05         6.000    25850446.529 6 135845033.75406      2597.645 6        37.913                                                                    25850448.919 7 101442741.82907      1939.858 7        42.006    25850448.151 7 104089067.19107      1990.561 7        42.222
G21         7.000    23228007.157 6 122064056.15806     -3333.023 6        40.958                                    23228002.453 4  95114851.70304     -2597.164 4        27.497
E04         8.000    24199650.758 7 127170045.89007     -1790.804 7        45.714                                                                    24199648.514 8  94964649.93308     -1337.299 8        49.748    24199648.236 8  97441980.52808     -1372.197 8        50.121
R14         9.000    23310765.343 7 124259500.28007       562.132 7        45.460                                                                    23310765.939 6  96646267.50106       437.229 6        40.379
G04        10.000    21204113.292 7 111428406.69607      2047.365 7        46.430                                    21204110.130 6  86827338.04406      1595.349 6        36.446    21204110.414 7  86827333.04307      1595.381 7        45.488
E09        11.000    23886299.718 8 125523396.47808       964.033 8        48.177                                                                    23886298.774 8  93735020.18308       719.905 8        50.422    23886298.546 8  96180280.90608       738.710 8        50.693
S27        12.000    39075737.286 5 205344367.30205      -403.847 5        35.714
G06        13.000    24681327.675 6 129701269.13806      3089.264 6        38.045                                    24681326.325 5 101065926.55105      2407.214 5        31.668    24681327.001 6 101065937.55306      2407.262 6        36.866
S36        14.000    38205826.397 7 200773471.54807      -418.006 7        43.735
E27        15.000    28944881.816 5 152106373.57105      -365.342 5        34.371                                                                    28944882.619 6 113585934.52506      -272.714 6        40.133    28944881.987 6 116549043.62906      -279.970 6        39.649
E36        16.000    23570615.191 7 123864447.94407       417.752 7        47.717                                                                    23570615.393 8  92496196.02908       312.006 8        51.167    23570615.002 8  94909134.98108       320.151 8        50.963
S45        17.000    63403291.771 6 333187112.92506      -458.333 6        37.376
G03        18.000    19922806.889 8 104695114.37908      -417.702 8        50.148                                    19922804.765 8  81580628.25008      -325.481 8        52.256    19922805.248 7  81580637.25007      -325.432 7        45.696
R21        19.000    19438791.895 8 104020942.20508       376.669 8        52.388                                                                    19438790.104 7  80905187.45507       292.951 7        46.347
R20        20.000    20607398.577 6 110197059.84606     -3714.970 6        39.303                                                                    20607400.136 7  85708822.28907     -2889.512 7        45.846
R05        21.000    20186870.515 8 107910436.51108     -2959.510 8        50.196                                                                    20186870.324 7  83930344.88907     -2301.875 7        46.551
I06        22.000    38149680.126 7 149707768.23007      -219.626 7        43.492
S28        23.000    40876831.506 5 214809183.91405      -411.039 5        33.988
E10        24.000    26436975.025 6 138927358.06206     -3104.271 6        40.858                                                                    26436974.530 7 103744521.21007     -2318.033 7        45.710    26436974.394 7 106450890.69907     -2378.584 7        45.806
S23        25.000    38154797.162 7 200504807.98307      -413.930 7        44.167
E06        26.000    23384246.229 7 122885105.00607      -355.220 7        47.700                                                                    23384245.994 8  91764850.78008      -265.274 8        51.095    23384245.785 8  94158714.93508      -272.156 8        50.950
R15        27.000    24138179.309 7 128987108.24107      2949.843 7        42.064                                                                    24138181.078 6 100323315.37806      2294.216 6        39.153
E19        30.000    28431531.223 4 149408674.27304     -3367.884 4        24.286                                                                    28431533.052 4 111571398.39904     -2515.806 4        27.269    28431531.751 4 114481955.39204     -2580.878 4        26.060
G32        31.000    25846187.816 5 135822637.61305     -3874.060 5        31.713                                    25846187.386 2 105835814.25202     -3018.735 2        17.472    25846187.967 4 105835819.23804     -3018.520 4        29.450
G02        32.000    21697605.954 8 114021727.41608     -2603.420 8        48.312                                    21697599.242 6  88848095.17906     -2028.638 6        38.583
G19        33.000    22523033.978 7 118359376.31807       904.578 7        43.372                                    22523028.375 5  92228106.60605       704.868 5        31.675
G17        34.000    22305120.075 7 117214251.01207     -1126.566 7        45.594                                    22305115.902 7  91335790.32107      -877.846 7        43.139    22305116.276 7  91335790.32407      -877.745 7        42.161
E11        35.000    24205363.457 7 127200111.06307     -2217.509 7        43.824                                                                    24205359.530 7  94987114.00707     -1655.878 7        46.057    24205359.328 7  97465031.25507     -1699.042 7        46.332
C32        36.000                                                                                                                                    25015397.341 7 130261760.64907     -3194.405 7        43.644                                                                    25015397.511 7 105848360.41407     -2595.770 7        44.876
C35        37.000                                                                                                                                    23321169.408 7 121439467.41307      1015.355 7        47.286                                                                    23321168.009 7  98679514.38607       825.074 7        47.308
I09        38.000    37176914.195 7 145890194.80207      -437.647 7        43.318
C29        39.000                                                                                                                                    22577469.241 8 117566808.45708     -2483.400 8        49.176                                                                    22577467.045 8  95532656.23808     -2018.019 8        48.231
R22        40.000    22879084.986 7 122130137.27207      3608.428 7        44.488                                                                    22879083.239 6  94990119.93506      2806.531 6        41.833
S44        42.000    40615817.509 6 213437766.81506      -492.433 6        37.766
C09        43.000                                                                                                                                    38850257.777 6 202303505.15606       409.468 6        41.967    38850253.821 7 156433893.47007       316.633 7        46.023    38850251.888 6 164388149.87706       332.741 6        41.795
C05        44.000                                                                                                                                    39122069.049 6 203718918.89806      -422.112 6        37.803    39122065.017 7 157528414.51707      -326.355 7        43.407    39122066.765 6 165538411.95306      -342.904 6        39.949
R06        45.000    20085747.793 6 107181452.46706      1539.796 6        40.033
R13        46.000    24475567.625 5 130698175.70505     -2757.581 5        35.814
C39        47.000                                                                                                                                    38912801.996 7 202629185.12107      -646.247 7        42.772                                                                    38912798.587 7 164652800.01107      -525.210 7        43.126
C20        48.000                                                                                                                                    21842390.920 8 113739107.44608      -952.435 8        52.213                                                                    21842384.763 8  92422333.69008      -773.914 8        49.819
C06        49.000                                                                                                                                    38319642.309 6 199540456.34606       -79.013 6        40.751    38319636.597 7 154297321.48907       -61.001 7        44.182    38319636.558 6 162142944.83406       -64.141 6        41.883
C16        50.000                                                                                                                                    38753928.269 7 201801888.96807      -198.516 7        42.417    38753927.773 7 156046030.16907      -153.489 7        43.782    38753925.395 6 163980563.39006      -161.246 6        39.823
S48        51.000    77190153.602 6 405637593.13606      -417.115 6        37.066
C19        52.000                                                                                                                                    23243548.190 8 121035310.99008      1609.341 8        48.067                                                                    23243543.568 8  98351107.03108      1307.666 8        48.410
R04        53.000    24182103.342 6 129494093.20406     -4328.856 6        41.845                                                                    24182101.097 5 100717635.81205     -3366.957 5        35.100
C60        54.000                                                                                                                                    40615821.447 6 211497442.91106      -488.051 6        39.661                                                                    40615805.910 6 171858966.21906      -396.564 6        39.592
C30        55.000                                                                                                                                    26197115.293 6 136415228.63906     -3941.600 6        37.002                                                                    26197117.396 6 110848540.90006     -3202.702 6        37.758
C02        57.000                                                                                                                                    40574486.524 5 211282051.45605      -468.231 5        34.076    40574481.012 6 163376678.08006      -361.806 6        39.429    40574484.299 5 171683976.67005      -380.245 5        35.829
I03        58.000   132572759.227 6 444458741.27706       951.679 6        40.281
R07        59.000    23688437.695 7 126806063.55007      3293.249 7        43.953                                                                    23688438.975 6  98626933.31706      2561.372 6        38.832
> 2025 01 01 01 31 10.0000000  0 55
G28         1.000    23204591.364 7 121940964.36007     -1136.219 7        42.760                                    23204586.840 4  95018914.96004      -885.362 4        29.393    23204587.295 6  95018920.97106      -885.486 6        41.690
G31         2.000    22386644.650 7 117642622.68807       727.140 7        44.457                                    22386640.019 6  91669563.42906       566.604 6        41.838    22386640.126 6  91669562.43206       566.556 6        41.530
G09         3.000    23211051.858 6 121974927.93406      3096.104 6        40.567                                    23211050.526 6  95045404.84706      2412.546 6        38.517    23211050.885 6  95045405.85406      2412.558 6        39.553
E34         4.000    26943936.061 6 141591344.05606      2318.896 6        39.865                                                                    26943936.249 7 105733802.45707      1731.597 7        43.456    26943936.007 7 108492075.02807      1776.879 7        44.128
S21         5.000    38438764.812 7 201996895.06907      -417.992 7        42.282
E05         6.000    25847975.143 6 135832046.02606      2597.216 6        37.448                                                                    25847977.592 7 101433043.23207      1939.293 7        42.093    25847976.666 7 104079115.57907      1990.057 7        42.500
G21         7.000    23231178.601 6 122080723.71906     -3334.189 6        41.304                                    23231174.354 4  95127839.40804     -2598.069 4        27.701
E04         8.000    24201355.028 7 127179003.77207     -1792.525 7        45.726                                                                    24201353.139 8  94971339.25508     -1338.551 8        49.594    24201352.958 8  97448844.35608     -1373.515 8        50.271
R14         9.000    23310239.748 7 124256699.00707       558.073 7        45.567                                                                    23310239.965 6  96644088.73906       434.015 6        39.342
G04        10.000    21202166.315 7 111418174.65207      2045.209 7        46.232                                    21202163.047 6  86819365.02506      1593.669 6        36.446    21202163.049 7  86819360.02607      1593.685 7        45.839
E09        11.000    23885383.086 8 125518580.55608       962.108 8        48.161                                                                    23885382.356 8  93731423.88008       718.479 8        50.344    23885382.101 8  96176590.78808       737.172 8        50.878
S27        12.000    39076122.006 5 205346385.80405      -403.724 5        35.952
G06        13.000    24678388.084 6 129685822.62606      3089.055 6        38.670                                    24678386.760 5 101053890.31905      2407.058 5        31.796    24678387.125 6 101053901.31406      2406.998 6        37.077
S36        14.000    38206221.989 7 200775560.69407      -417.890 7        43.674
E27        15.000    28945230.409 5 152108205.27905      -367.646 5        34.643                                                                    28945230.998 6 113587302.35706      -274.467 6        39.315    28945230.551 6 116550447.14206      -281.771 6        39.489
E36        16.000    23570218.308 7 123862362.90107       416.021 7        47.676                                                                    23570218.621 8  92494639.01408       310.682 8        50.951    23570218.233 8  94907537.35308       318.761 8        51.066
S45        17.000    63403686.552 6 333189405.38606      -458.610 6        37.282
G03        18.000    19923205.059 8 104697207.22308      -419.599 8        50.265                                    19923203.017 8  81582259.03708      -326.961 8        52.257    19923203.444 7  81582268.03307      -326.968 7        45.821
R21        19.000    19438441.586 8 104019069.40708       372.300 8        52.345                                                                    19438439.885 7  80903730.83107       289.590 7        46.337
R20        20.000    20610872.665 6 110215642.21106     -3718.020 6        39.105                                                                    20610875.159 7  85723275.22607     -2891.893 7        46.246
R05        21.000    20189640.058 8 107925238.41008     -2961.476 8        50.496                                                                    20189639.047 7  83941857.47807     -2303.428 7        46.550
I06        22.000    38149960.027 7 149708865.92807      -219.666 7        43.507
S28        23.000    40877219.907 5 214811238.12305      -410.988 5        34.086
E10        24.000    26439928.690 6 138942880.92806     -3105.250 6        40.579                                                                    26439928.536 7 103756112.95607     -2318.747 7        45.675    26439928.291 7 106462784.83807     -2379.238 7        45.964
S23        25.000    38155192.480 7 200506878.14407      -414.235 7        44.471
E06        26.000    23384585.214 7 122886885.82807      -357.264 7        47.603                                                                    23384584.862 8  91766180.61608      -266.812 8        50.926    23384584.615 8  94160079.46208      -273.750 8        51.039
R15        27.000    24135420.968 7 128972362.38207      2948.417 7        42.950                                                                    24135421.137 6 100311846.38706      2293.140 6        38.865
E19        30.000    28434736.972 4 149425516.23304     -3368.281 4        24.632                                                                    28434737.863 4 111583975.10304     -2515.330 4        27.629    28434737.468 4 114494860.28504     -2581.162 4        27.725
G32        31.000    25849874.423 5 135842006.83205     -3873.868 5        30.936                                    25849873.336 2 105850907.13802     -3018.583 2        16.453    25849872.972 5 105850912.15205     -3018.839 5        30.264
G02        32.000    21700084.096 8 114034749.38408     -2605.576 8        48.596                                    21700077.281 6  88858242.16306     -2030.323 6        38.577
G19        33.000    22522175.081 7 118354861.32007       901.202 7        43.994                                    22522169.206 5  92224588.42605       702.235 5        31.517
G17        34.000    22306193.198 7 117219890.78407     -1129.464 7        45.404                                    22306189.122 7  91340184.94907      -880.102 7        43.179    22306189.465 7  91340184.96107      -880.181 7        42.275
E11        35.000    24207474.019 7 127211201.25907     -2219.019 7        44.018                                                                    24207469.911 7  94995395.64007     -1656.993 7        45.943    24207469.704 7  97473528.92907     -1700.186 7        46.440
C32        36.000                                                                                                                                    25018464.574 7 130277733.10007     -3194.745 7        43.780                                                                    25018464.789 7 105861339.33507     -2596.012 7        44.725
C35        37.000                                                                                                                                    23320195.637 7 121434396.65107      1012.793 7        47.068                                                                    23320194.291 7  98675393.98207       822.951 7        47.150
I09        38.000    37177471.874 7 145892382.85307      -437.702 7        43.336
C29        39.000                                                                                                                                    22579854.849 8 117579230.38508     -2485.562 8        49.269                                                                    22579852.562 8  95542750.07508     -2019.831 8        48.199
R22        40.000    22875705.549 7 122112097.95307      3607.121 7        45.535                                                                    22875704.004 7  94976089.36707      2805.499 7        42.656
S44        42.000    40616287.320 6 213440228.53706      -492.468 6        37.728
C09        43.000                                                                                                                                    38849864.504 6 202301459.37806       408.770 6        41.585    38849860.918 7 156432311.55007       316.029 7        45.770    38849859.126 6 164386487.52606       331.968 6        41.828
C05        44.000                                                                                                                                    39122474.026 6 203721028.53606      -421.929 6        37.750    39122470.093 7 157530045.81507      -326.282 7        43.185    39122471.783 6 165540126.21406      -343.019 6        39.841
R06        45.000    20084306.806 6 107173759.99006      1537.039 6        39.997
R13        46.000    24478149.522 5 130711971.98105     -2760.777 5        35.948
C39        47.000                                                                                                                                    38913422.990 7 202632418.47407      -647.174 7        42.353                                                                    38913419.628 7 164655427.36307      -525.958 7        43.100
C20        48.000                                                                                                                                    21843306.145 8 113743873.54608      -954.141 8        52.070                                                                    21843300.049 8  92426206.54208      -775.373 8        49.759
C06        49.000                                                                                                                                    38319718.711 6 199540853.17906       -79.933 6        40.558    38319712.990 7 154297628.35907       -61.855 7        44.087    38319712.848 6 162143267.29006       -64.955 6        41.917
C16        50.000                                                                                                                                    38754119.294 7 201802883.35307      -199.557 7        42.343    38754118.592 7 156046799.09507      -154.314 7        43.623    38754116.224 6 163981371.42906      -162.154 6        39.658
S48        51.000    77190548.066 6 405639677.45306      -416.839 6        37.187
C19        52.000                                                                                                                                    23242003.438 7 121027267.50807      1607.882 7        47.916                                                                    23241998.927 8  98344571.04108      1306.503 8        48.399
R04        53.000    24186146.262 7 129515737.20207     -4328.698 7        42.195                                                                    24186143.415 5 100734470.06605     -3366.845 5        35.109
C60        54.000                                                                                                                                    40616289.850 6 211499882.27206      -488.117 6        39.339                                                                    40616274.062 6 171860948.38006      -396.560 6        39.613
C30        55.000                                                                                                                                    26200900.183 6 136434935.90706     -3941.769 6        36.972                                                                    26200901.875 6 110864554.67006     -3202.845 6        37.221
C02        57.000                                                                                                                                    40574937.022 5 211284390.69805      -468.152 5        33.689    40574930.173 6 163378486.93706      -361.724 6        39.183    40574933.406 5 171685877.50105      -380.153 5        35.781
I03        58.000   132571547.038 6 444453983.22606       951.585 6        40.448
R07        59.000    23685362.643 7 126789598.67207      3292.417 7        44.241                                                                    23685362.791 6  98614127.28506      2560.903 6        38.255
> 2025 01 01 01 31 15.0000000  0 55
G28         1.000    23205673.659 7 121946653.23807     -1139.540 7        43.027                                    23205669.397 4  95023347.85204      -887.954 4        29.393    23205670.323 6  95023353.84506      -887.857 6        41.986
G31         2.000    22385954.201 7 117638995.01007       723.888 7        44.928                                    22385949.699 6  91666736.67006       564.068 6        41.995    22385949.724 6  91666735.66606       564.044 6        41.111
G09         3.000    23208106.660 6 121959449.29806      3095.226 6        41.471                                    23208104.961 6  95033343.58806      2411.861 6        38.553    23208105.268 6  95033344.60406      2411.889 6        39.426
E34         4.000    26941729.901 6 141579750.14106      2318.552 6        39.925                                                                    26941730.059 7 105725144.66307      1731.435 7        43.498    26941729.694 7 108483191.38907      1776.525 7        44.074
S21         5.000    38439162.513 7 201998984.64707      -418.035 7        42.385
E05         6.000    25845504.832 6 135819061.12106      2596.647 6        38.297                                                                    25845506.465 7 101423346.70607      1939.084 7        42.055    25845505.948 7 104069166.11607      1989.675 7        42.722
G21         7.000    23234351.396 6 122097396.70806     -3335.122 6        41.442                                    23234347.095 4  95140831.34304     -2598.797 4        27.533
E04         8.000    24203061.135 7 127187970.33007     -1794.178 7        45.487                                                                    24203059.408 8  94978035.07408     -1339.843 8        49.551    24203059.143 8  97455714.84108     -1374.742 8        50.287
R14         9.000    23309718.121 7 124253917.66307       554.175 7        44.742                                                                    23309718.027 6  96641925.49106       431.144 6        38.171
G04        10.000    21200221.355 7 111407953.88707      2042.996 7        46.225                                    21200218.101 6  86811400.79606      1591.943 6        36.457    21200218.080 7  86811395.79307      1591.870 7        45.633
E09        11.000    23884468.455 8 125513774.40908       960.206 8        48.117                                                                    23884467.816 8  93727834.87608       717.056 8        50.275    23884467.528 8  96172908.15708       735.755 8        50.835
S27        12.000    39076504.603 5 205348404.52805      -403.775 5        35.995
G06        13.000    24675448.729 6 129670378.10906      3088.757 6        37.690                                    24675447.652 5 101041855.62805      2406.823 5        31.955    24675448.643 6 101041866.62306      2406.822 6        37.183
S36        14.000    38206619.373 7 200777649.49707      -417.772 7        43.776
E27        15.000    28945581.414 5 152110048.76205      -370.193 5        34.771                                                                    28945581.828 6 113588678.97506      -276.328 6        39.679    28945581.315 6 116551859.66206      -283.473 6        39.793
E36        16.000    23569823.231 7 123860286.56507       414.277 7        47.570                                                                    23569823.503 8  92493088.50408       309.413 8        50.915    23569823.106 8  94905946.39408       317.478 8        51.093
S45        17.000    63404078.879 6 333191697.88406      -458.482 6        37.285
G03        18.000    19923605.332 8 104699310.35308      -421.697 8        50.168                                    19923603.236 8  81583897.84008      -328.596 8        52.235    19923604.000 7  81583906.83407      -328.488 7        45.848
R21        19.000    19438095.997 8 104017218.24308       367.990 8        52.644                                                                    19438094.276 7  80902291.03507       286.211 7        46.406
R20        20.000    20614351.378 6 110234239.45606     -3721.027 6        38.967                                                                    20614352.904 7  85737739.73707     -2894.053 7        46.406
R05        21.000    20192410.849 8 107940050.32208     -2963.353 8        50.751                                                                    20192409.784 7  83953377.84607     -2304.790 7        46.791
I06        22.000    38150239.952 7 149709963.80607      -219.758 7        43.587
S28        23.000    40877610.834 5 214813292.29505      -410.739 5        34.524
E10        24.000    26442883.760 6 138958408.61106     -3106.090 6        40.365                                                                    26442883.373 7 103767708.30607     -2319.450 7        45.916    26442883.123 7 106474682.67007     -2379.962 7        45.988
S23        25.000    38155584.463 7 200508948.48407      -414.268 7        44.290
E06        26.000    23384925.923 7 122888677.19707      -359.450 7        47.677                                                                    23384925.733 8  91767518.32408      -268.390 8        50.877    23384925.521 8  94161452.07108      -275.356 8        51.025
R15        27.000    24132663.085 7 128957623.86107      2946.921 7        42.205                                                                    24132663.407 6 100300383.09906      2292.089 6        38.676
E19        30.000    28437941.052 4 149442358.64004     -3369.043 4        24.677                                                                    28437943.265 4 111596552.13304     -2515.032 4        27.066    28437942.006 4 114507765.42904     -2581.651 4        26.503
G32        31.000    25853558.905 5 135861376.62205     -3874.099 5        31.766                                    25853559.451 2 105866000.45602     -3018.782 2        16.943    25853559.453 4 105866005.46104     -3018.940 4        29.962
G02        32.000    21702563.791 8 114047781.70108     -2607.524 8        48.163                                    21702557.275 6  88868397.21306     -2031.837 6        38.586
G19        33.000    22521319.007 7 118350363.24907       897.920 7        43.268                                    22521313.199 5  92221083.43805       699.675 5        31.585
G17        34.000    22307269.367 7 117225545.40207     -1132.397 7        45.242                                    22307265.156 7  91344591.14507      -882.387 7        43.221    22307265.428 7  91344591.13807      -882.364 7        42.030
E11        35.000    24209586.052 7 127222299.50307     -2220.517 7        44.074                                                                    24209581.874 7  95003683.29107     -1658.157 7        45.853    24209581.750 7  97482032.78407     -1701.437 7        46.521
C32        36.000                                                                                                                                    25021532.408 7 130293707.47807     -3195.163 7        43.953                                                                    25021532.410 7 105874319.83507     -2596.302 7        44.652
C35        37.000                                                                                                                                    23319224.344 7 121429338.48707      1010.320 7        46.831                                                                    23319222.892 7  98671283.81607       820.993 7        47.176
I09        38.000    37178029.764 7 145894571.77407      -437.956 7        43.407
C29        39.000                                                                                                                                    22582242.725 8 117591663.63008     -2487.804 8        49.153                                                                    22582240.303 8  95552853.10308     -2021.598 8        48.211
R22        40.000    22872327.386 7 122094064.96907      3605.912 7        43.554                                                                    22872326.063 7  94962063.71507      2804.590 7        42.620
S44        42.000    40616756.747 6 213442690.42806      -492.555 6        37.694
C09        43.000                                                                                                                                    38849472.086 6 202299417.92206       407.675 6        41.518    38849468.971 7 156430732.95907       315.324 7        45.837    38849467.160 6 164384828.67006       331.371 6        41.776
C05        44.000                                                                                                                                    39122879.767 6 203723138.40006      -422.216 6        37.414    39122875.222 7 157531677.28407      -326.333 7        43.312    39122876.992 6 165541840.64106      -342.956 6        39.925
R06        45.000    20082867.865 6 107166080.97606      1534.494 6        40.355
R13        46.000    24480736.523 6 130725784.08306     -2764.345 6        36.231
C39        47.000                                                                                                                                    38914044.668 7 202635656.29707      -647.969 7        42.252                                                                    38914041.407 7 164658058.36407      -526.527 7        43.124
C20        48.000                                                                                                                                    21844223.036 8 113748648.48008      -955.904 8        51.867                                                                    21844217.060 8  92430086.56508      -776.766 8        49.795
C06        49.000                                                                                                                                    38319796.204 6 199541254.76106       -80.860 6        40.882    38319789.972 7 154297938.87707       -62.465 7        44.000    38319790.032 6 162143593.61406       -65.622 6        41.828
C16        50.000                                                                                                                                    38754311.247 7 201803882.39707      -200.424 7        42.288    38754310.514 7 156047571.61907      -154.841 7        43.820    38754308.134 6 163982183.21506      -162.718 6        39.949
S48        51.000    77190953.495 6 405641762.08506      -417.224 6        37.478
C19        52.000                                                                                                                                    23240459.881 7 121019231.15307      1606.505 7        47.775                                                                    23240455.582 8  98338040.84908      1305.418 8        48.375
R04        53.000    24190187.556 7 129537379.54507     -4328.453 7        42.518                                                                    24190184.826 5 100751303.00505     -3366.594 5        35.757
C60        54.000                                                                                                                                    40616758.055 6 211502321.75906      -487.986 6        39.156                                                                    40616742.764 6 171862930.67406      -396.494 6        39.652
C30        55.000                                                                                                                                    26204684.565 6 136454643.47306     -3941.667 6        36.866                                                                    26204686.659 6 110880568.66306     -3202.760 6        37.236
C02        57.000                                                                                                                                    40575385.454 5 211286730.18605      -467.888 5        33.677    40575379.227 6 163380295.96006      -361.908 6        39.267    40575382.907 5 171687778.54005      -380.399 5        35.629
I03        58.000   132570334.369 6 444449225.44206       951.534 6        40.513
R07        59.000    23682288.004 7 126773138.40407      3291.552 7        45.026                                                                    23682286.776 6  98601324.86306      2560.059 6        37.947
> 2025 01 01 01 31 20.0000000  0 55
G28         1.000    23206758.974 7 121952358.30907     -1142.824 7        42.790                                    23206754.978 4  95027793.36404      -890.516 4        29.450    23206756.127 7  95027799.36007      -890.659 7        42.123
G31         2.000    22385266.953 7 117635383.73007       720.393 7        45.616                                    22385262.465 6  91663922.68706       561.344 6        41.955    22385262.560 6  91663921.69406       561.444 6        41.335
G09         3.000    23205162.339 6 121943975.94406      3094.108 6        41.862                                    23205160.402 6  95021286.43306      2410.993 6        38.622    23205160.744 6  95021287.43906      2410.820 6        38.688
E34         4.000    26939523.968 6 141568157.91006      2318.112 6        40.060                                                                    26939524.046 7 105716488.13307      1731.123 7        43.259    26939523.824 7 108474309.03107      1776.182 7        44.131
S21         5.000    38439557.715 7 202001074.10607      -418.155 7        42.330
E05         6.000    25843034.930 6 135806078.76306      2595.990 6        39.087                                                                    25843035.990 6 101413652.10806      1938.518 6        41.995    25843035.563 7 104059218.60407      1989.193 7        42.935
G21         7.000    23237524.814 6 122114074.86206     -3336.316 6        40.365                                    23237520.695 4  95153827.30304     -2599.722 4        26.946
E04         8.000    24204769.167 7 127196945.33407     -1795.952 7        45.625                                                                    24204767.279 8  94984737.18708     -1341.159 8        49.536    24204767.063 8  97462591.79608     -1376.156 8        50.310
R14         9.000    23309199.365 7 124251155.81407       550.193 7        45.162                                                                    23309199.988 6  96639777.39706       427.859 6        37.879
G04        10.000    21198278.672 7 111397744.13407      2040.681 7        46.220                                    21198275.226 6  86803445.14506      1590.142 6        36.469    21198275.426 7  86803440.14307      1590.153 7        45.997
E09        11.000    23883555.710 8 125508977.76308       958.182 8        48.338                                                                    23883555.079 8  93724252.97008       715.444 8        50.321    23883554.789 8  96169232.80708       734.150 8        50.910
S27        12.000    39076890.280 5 205350423.13305      -403.744 5        35.943
G06        13.000    24672510.054 6 129654935.41006      3087.974 6        37.618                                    24672508.996 5 101029822.35505      2406.214 5        31.623    24672509.232 6 101029833.34206      2406.491 6        36.991
S36        14.000    38207018.022 7 200779737.97807      -417.612 7        43.716
E27        15.000    28945934.195 5 152111903.73405      -372.381 5        34.357                                                                    28945935.263 6 113590064.13306      -277.962 6        40.091    28945934.442 6 116553280.97306      -285.164 6        40.029
E36        16.000    23569429.816 7 123858218.68907       412.532 7        47.882                                                                    23569430.009 8  92491544.31808       308.014 8        51.012    23569429.593 8  94904361.91808       316.080 8        51.166
S45        17.000    63404467.548 6 333193990.19106      -458.648 6        37.357
G03        18.000    19924007.418 8 104701423.48508      -423.836 8        50.282                                    19924005.338 8  81585544.43808      -330.262 8        52.233    19924005.999 7  81585553.43607      -330.238 7        45.845
R21        19.000    19437754.283 8 104015388.51408       363.597 8        52.584                                                                    19437752.501 7  80900867.91407       282.859 7        46.489
R20        20.000    20617830.854 6 110252851.11906     -3723.837 6        39.021                                                                    20617833.506 7  85752215.48007     -2896.352 7        46.532
R05        21.000    20195182.960 8 107954871.64608     -2965.422 8        50.193                                                                    20195182.642 7  83964905.54307     -2306.372 7        46.876
I06        22.000    38150519.569 7 149711061.62907      -219.672 7        43.645
S28        23.000    40877998.801 5 214815346.42805      -410.799 5        34.276
E10        24.000    26445839.496 6 138973940.84706     -3107.116 6        40.980                                                                    26445839.172 7 103779307.04207     -2320.245 7        46.059    26445838.730 7 106486583.99207     -2380.754 7        46.097
S23        25.000    38155977.764 7 200511018.43707      -414.153 7        44.334
E06        26.000    23385268.811 7 122890478.81607      -361.512 7        47.609                                                                    23385268.517 8  91768863.69708      -269.999 8        50.905    23385268.315 8  94162832.53508      -277.012 8        51.088
R15        27.000    24129905.488 7 128942892.45007      2945.415 7        42.277                                                                    24129906.475 6 100288925.33206      2290.830 6        38.571
E19        30.000    28441146.680 4                     -3368.359 4        24.406                                                                    28441148.413 4 111609129.34304     -2515.760 4        25.293    28441146.689 4 114520670.68604     -2581.649 4        25.895
G32        31.000    25857245.940 5 135880746.69605     -3874.366 5        31.230                                    25857245.396 2 105881093.96202     -3018.999 2        16.868    25857246.797 5 105881098.95405     -3019.219 5        30.838
G02        32.000    21705045.435 8 114060824.08708     -2609.679 8        48.163                                    21705039.155 6  88878560.10706     -2033.514 6        38.580
G19        33.000    22520465.963 7 118345881.85107       894.433 7        42.942                                    22520460.384 5  92217591.43605       696.963 5        31.525
G17        34.000    22308348.262 7 117231214.58207     -1135.535 7        45.118                                    22308343.966 7  91349008.68407      -884.832 7        43.181    22308343.868 6  91349008.68806      -884.810 6        41.878
E11        35.000    24211699.333 7 127233405.54607     -2222.084 7        44.075                                                                    24211695.256 7  95011976.76107     -1659.396 7        45.928    24211695.185 7  97490542.60107     -1702.648 7        46.524
C32        36.000                                                                                                                                    25024600.392 7 130309683.55107     -3195.633 7        43.873                                                                    25024600.451 7 105887301.69007     -2596.610 7        44.485
C35        37.000                                                                                                                                    23318255.440 7 121424292.68107      1007.789 7        47.172                                                                    23318253.904 7  98667183.67507       818.931 7        47.085
I09        38.000    37178587.907 7 145896761.36107      -438.181 7        43.403
C29        39.000                                                                                                                                    22584632.447 8 117604107.93808     -2490.155 8        48.938                                                                    22584630.119 8  95562965.10908     -2023.348 8        48.170
R22        40.000    22868949.176 7 122076038.07907      3604.565 7        45.105                                                                    22868948.710 7  94948042.81307      2803.529 7        42.586
S44        42.000    40617223.718 6 213445152.17406      -492.575 6        37.732
C09        43.000                                                                                                                                    38849080.703 6 202297380.48406       406.863 6        41.697    38849077.778 7 156429157.49007       314.605 7        45.645    38849075.721 6 164383173.07206       330.694 6        41.790
C05        44.000                                                                                                                                    39123284.726 6 203725248.18506      -422.250 6        37.679    39123280.324 7 157533308.71507      -326.408 7        43.302    39123282.108 6 165543555.00806      -342.904 6        39.964
R06        45.000    20081430.886 6 107158415.21306      1531.713 6        40.281
R13        46.000    24483327.371 5 130739612.16505     -2767.386 5        34.876
C39        47.000                                                                                                                                    38914667.452 7 202638898.36207      -649.005 7        42.478                                                                    38914663.933 7 164660692.78707      -527.281 7        43.056
C20        48.000                                                                                                                                    21845141.662 8 113753431.97108      -957.787 8        52.005                                                                    21845135.722 8  92433973.53408      -778.178 8        49.749
C06        49.000                                                                                                                                    38319874.203 6 199541660.86206       -81.824 6        40.834    38319868.018 7 154298252.90907       -63.310 7        43.972    38319867.956 6 162143923.60406       -66.396 6        41.752
C16        50.000                                                                                                                                    38754503.681 7 201804885.80707      -201.311 7        42.360    38754503.029 7 156048347.51807      -155.695 7        43.913    38754500.839 6 163982998.56806      -163.592 6        39.718
S48        51.000    77191338.081 6 405643846.44206      -417.083 6        37.410
C19        52.000                                                                                                                                    23238917.993 7 121011201.66507      1605.030 7        47.797                                                                    23238913.651 8  98331516.22908      1304.222 8        48.336
R04        53.000    24194227.972 7 129559020.07807     -4328.108 7        42.512                                                                    24194227.199 6 100768134.56906     -3366.109 6        36.299
C60        54.000                                                                                                                                    40617226.994 6 211504761.13406      -488.123 6        39.453                                                                    40617211.189 6 171864912.86606      -396.554 6        39.504
C30        55.000                                                                                                                                    26208469.783 6 136474351.09206     -3941.708 6        36.329                                                                    26208471.167 6 110896582.72006     -3202.909 6        37.168
C02        57.000                                                                                                                                    40575834.655 5 211289069.61605      -468.157 5        33.742    40575828.540 6 163382104.97106      -361.985 6        39.264    40575832.256 5 171689679.49205      -380.178 5        35.690
I03        58.000   132569122.097 6 444444467.71906       951.300 6        40.527
R07        59.000    23679214.227 7 126756682.76707      3290.614 7        45.118                                                                    23679213.529 6  98588526.03806      2559.344 6        38.523
> 2025 01 01 01 31 25.0000000  0 55
G28         1.000    23207847.730 7 121958079.38607     -1145.699 7        43.183                                    23207843.715 4  95032251.34204      -892.754 4        29.697    23207844.381 7  95032257.34807      -892.881 7        42.155
G31         2.000    22384582.881 7 117631788.65107       717.461 7        45.409                                    22384578.311 7  91661121.33407       559.060 7        42.025    22384578.547 6  91661120.32806       559.068 6        40.944
G09         3.000    23202218.594 6 121928507.65006      3093.081 6        41.128                                    23202216.796 6  95009233.22406      2410.193 6        38.769    23202217.065 6  95009234.22306      2410.226 6        38.300
E34         4.000    26937318.431 6 141556567.20006      2318.077 6        40.374                                                                    26937318.431 7 105707832.72807      1730.932 7        43.299    26937318.148 7 108465427.83207      1776.163 7        44.232
S21         5.000    38439954.187 7 202003163.03807      -417.674 7        42.212
E05         6.000    25840564.606 6 135793098.76006      2595.859 6        38.916                                                                    25840565.773 6 101403959.25706      1938.475 6        41.976    25840565.495 7 104049272.89907      1989.034 7        42.804
G21         7.000    23240699.753 6 122130757.97706     -3337.009 6        41.020                                    23240695.060 4  95166827.13604     -2600.264 4        26.898
E04         8.000    24206478.797 7 127205928.55307     -1797.481 7        45.973                                                                    24206476.770 8  94991445.43008     -1342.270 8        49.515    24206476.541 8  97469475.03108     -1377.247 8        50.478
R14         9.000    23308685.627 7 124248413.39107       546.658 7        45.017                                                                    23308684.983 6  96637644.39106       425.126 6        37.917
G04        10.000    21196337.788 7 111387545.20407      2038.752 7        46.453                                    21196334.417 6  86795497.93006      1588.636 6        36.620    21196334.481 7  86795492.92207      1588.634 7        45.338
E09        11.000    23882644.697 8 125504190.42608       956.516 8        48.278                                                                    23882644.032 8  93720678.00508       714.344 8        50.313    23882643.756 8  96165564.58108       732.970 8        51.057
S27        12.000    39077275.542 6 205352441.50506      -403.807 6        36.095
G06        13.000    24669572.382 6 129639494.29706      3088.070 6        38.102                                    24669570.594 5 101017790.33405      2406.288 5        32.186    24669571.624 6 101017801.32406      2406.287 6        37.516
S36        14.000    38207417.843 7 200781826.33307      -417.896 7        43.642
E27        15.000    28946288.934 5 152113769.91205      -374.409 5        33.880                                                                    28946290.767 6 113591457.63306      -279.347 6        39.745    28946289.503 6 116554710.83006      -286.673 6        39.841
E36        16.000    23569037.892 7 123856159.06907       411.149 7        47.841                                                                    23569038.097 8  92490006.28508       307.043 8        50.887    23569037.684 8  94902783.76708       315.067 8        51.261
S45        17.000    63404861.136 6 333196282.05706      -458.451 6        37.308
G03        18.000    19924411.500 8 104703546.44108      -425.460 8        50.234                                    19924409.331 8  81587198.69108      -331.528 8        52.391    19924409.885 7  81587207.69407      -331.533 7        45.646
R21        19.000    19437415.837 8 104013580.00108       359.671 8        52.732                                                                    19437414.534 7  80899461.29707       279.731 7        46.139
R20        20.000    20621314.654 6 110271477.12206     -3726.596 6        38.883                                                                    20621316.225 7  85766702.36307     -2898.459 7        46.259
R05        21.000    20197957.714 8 107969702.52908     -2967.071 8        50.798                                                                    20197956.643 7  83976440.67807     -2307.708 7        46.368
I06        22.000    38150799.220 7 149712159.30807      -219.541 7        43.526
S28        23.000    40878390.452 5 214817400.01705      -410.645 5        34.043
E10        24.000    26448796.064 6 138989477.44506     -3107.818 6        41.240                                                                    26448795.639 7 103790909.04107     -2320.708 7        46.030    26448795.243 7 106498488.65707     -2381.244 7        46.267
S23        25.000    38156372.993 7 200513087.94007      -413.890 7        44.354
E06        26.000    23385613.674 7 122892290.52207      -363.370 7        47.762                                                                    23385613.272 8  91770216.58808      -271.296 8        50.817    23385613.109 8  94164220.72508      -278.369 8        51.295
R15        27.000    24127149.736 7 128928167.89907      2944.289 7        42.176                                                                    24127151.154 6 100277472.91406      2290.072 6        38.468
E19        30.000    28444352.149 3                     -3367.740 3        23.790                                                                    28444352.730 4 111621706.39404     -2514.990 4        26.599    28444352.056 4 114533575.91104     -2581.816 4        26.659
G32        31.000    25860933.231 5 135900116.83005     -3873.833 5        31.291                                    25860931.453 2 105896187.55402     -3018.567 2        17.057    25860932.397 5 105896192.52705     -3018.448 5        30.325
G02        32.000    21707529.657 8 114073876.34208     -2611.415 8        48.196                                    21707522.949 6  88888730.69306     -2034.868 6        38.754
G19        33.000    22519616.677 7 118341416.94307       891.389 7        43.039                                    22519610.772 5  92214112.28605       694.588 5        31.887
G17        34.000    22309429.728 7 117236898.10207     -1138.081 7        45.395                                    22309425.490 7  91353437.39607      -886.817 7        43.302    22309425.515 7  91353437.39507      -886.843 7        42.047
E11        35.000    24213814.156 7 127244519.17807     -2223.478 7        43.975                                                                    24213810.043 7  95020275.89607     -1660.305 7        45.848    24213810.067 7  97499058.23707     -1703.632 7        46.667
C32        36.000                                                                                                                                    25027668.849 7 130325661.09507     -3195.583 7        43.592                                                                    25027668.896 7 105900284.74407     -2596.750 7        44.447
C35        37.000                                                                                                                                    23317288.952 7 121419259.01107      1005.610 7        47.206                                                                    23317287.216 7  98663093.40307       817.038 7        47.143
I09        38.000    37179145.844 7 145898951.44307      -438.118 7        43.378
C29        39.000                                                                                                                                    22587024.219 8 117616563.08008     -2492.071 8        49.026                                                                    22587021.959 8  95573085.93108     -2025.170 8        48.169
R22        40.000    22865573.715 7 122058017.13707      3603.584 7        44.078                                                                    22865572.755 7  94934026.53307      2802.798 7        42.235
S44        42.000    40617691.544 6 213447613.61206      -492.267 6        37.603
C09        43.000                                                                                                                                    38848691.190 6 202295346.92206       406.332 6        41.838    38848687.291 7 156427585.01107       314.169 7        45.630    38848685.238 6 164381520.62806       330.232 6        41.647
C05        44.000                                                                                                                                    39123689.560 6 203727357.74906      -421.842 6        37.614    39123685.690 7 157534939.97107      -326.248 7        43.448    39123687.246 6 165545269.20806      -342.827 6        39.901
R06        45.000    20079996.516 6 107150762.45506      1529.351 6        40.367
R13        46.000    24485917.772 5 130753455.74905     -2770.106 5        34.676
C39        47.000                                                                                                                                    38915291.111 7 202642144.43107      -649.601 7        42.624                                                                    38915287.412 7 164663330.49207      -527.915 7        43.064
C20        48.000                                                                                                                                    21846062.049 8 113758223.82908      -959.180 8        52.028                                                                    21846055.907 8  92437867.31108      -779.490 8        49.756
C06        49.000                                                                                                                                    38319953.250 6 199542071.23506       -82.431 6        40.999    38319946.703 7 154298570.23807       -63.780 7        43.854    38319946.693 6 162144257.06806       -67.130 6        41.604
C16        50.000                                                                                                                                    38754696.917 7 201805893.37607      -201.817 7        42.464    38754696.581 7 156049126.64407      -156.106 7        44.041    38754694.269 6 163983817.30206      -164.220 6        39.766
S48        51.000    77191729.500 6 405645930.30106      -416.414 6        37.342
C19        52.000                                                                                                                                    23237377.418 7 121003178.85207      1603.896 7        47.822                                                                    23237372.875 8  98324997.02808      1303.307 8        48.397
R04        53.000    24198269.056 7 129580658.60007     -4327.529 7        42.021                                                                    24198266.827 6 100784964.53306     -3365.638 6        36.597
C60        54.000                                                                                                                                    40617695.106 6 211507200.20606      -487.818 6        39.456                                                                    40617679.493 6 171866894.80006      -396.468 6        39.219
C30        55.000                                                                                                                                    26212254.402 6 136494058.52706     -3941.609 6        36.386                                                                    26212256.106 6 110912596.62906     -3203.061 6        37.089
C02        57.000                                                                                                                                    40576284.639 5 211291408.87805      -467.824 5        34.086    40576277.818 6 163383913.82006      -361.785 6        39.267    40576281.310 5 171691580.32105      -379.955 5        35.810
I03        58.000   132567909.698 6 444439709.92406       951.585 6        40.410
R07        59.000    23676141.095 7 126740231.32507      3289.976 7        44.834                                                                    23676139.941 6  98575730.47106      2558.864 6        37.637
> 2025 01 01 01 31 30.0000000  0 55
G28         1.000    23208939.728 7 121963816.78007     -1149.193 7        43.094                                    23208935.564 4  95036722.04804      -895.477 4        29.820    23208936.242 7  95036728.03907      -895.474 7        42.607
G31         2.000    22383901.440 7 117628210.08307       714.014 7        44.724                                    22383897.296 6  91658332.83906       556.375 6        41.785    22383897.817 6  91658331.85006       556.308 6        41.128
G09         3.000    23199275.915 6 121913044.71706      3092.093 6        41.383                                    23199274.213 6  94997184.19206      2409.424 6        38.616    23199275.279 6  94997185.19806      2409.395 6        38.739
E34         4.000    26935113.186 6 141544978.26606      2317.594 6        40.393                                                                    26935113.135 7 105699178.65507      1730.612 7        43.426    26935112.883 7 108456547.99007      1775.936 7        44.212
S21         5.000    38440349.054 7 202005251.58607      -417.840 7        42.028
E05         6.000    25838094.704 6 135780121.43006      2595.190 6        38.459                                                                    25838096.168 6 101394268.39406      1937.816 6        41.995    25838095.874 7 104039329.22807      1988.438 7        42.576
G21         7.000    23243875.904 6 122147446.35706     -3338.229 6        41.642                                    23243870.556 4  95179831.06204     -2601.225 4        26.982
E04         8.000    24208189.818 7 127214920.27707     -1799.341 7        45.878                                                                    24208187.744 8  94998160.01908     -1343.605 8        49.571    24208187.615 8  97476364.79108     -1378.681 8        50.298
R14         9.000    23308174.820 7 124245690.60707       542.532 7        45.169                                                                    23308174.838 6  96635526.71806       421.905 6        38.877
G04        10.000    21194399.001 7 111377357.39007      2036.441 7        46.680                                    21194395.714 6  86787559.37506      1586.836 6        36.544    21194395.728 7  86787554.36807      1586.802 7        45.351
E09        11.000    23881735.534 8 125499412.68208       954.466 8        48.331                                                                    23881734.860 8  93717110.21108       712.827 8        50.297    23881734.596 8  96161903.71708       731.384 8        50.967
S27        12.000    39077656.090 5 205354459.84505      -403.513 5        35.681
G06        13.000    24666633.901 6 129624055.10006      3087.619 6        37.807                                    24666632.694 5 101005759.78705      2405.928 5        32.072    24666633.475 6 101005770.78406      2406.077 6        37.890
S36        14.000    38207816.511 7 200783915.05807      -417.636 7        43.549
E27        15.000    28946646.400 5 152115647.81305      -376.797 5        33.898                                                                    28946648.106 6 113592859.99006      -281.287 6        40.026    28946646.895 6 116556149.76606      -288.670 6        40.215
E36        16.000    23568647.748 7 123854108.00507       409.323 7        47.902                                                                    23568647.786 8  92488474.64708       305.642 8        50.909    23568647.387 8  94901212.17208       313.659 8        51.167
S45        17.000    63405254.178 6 333196973.80616      -458.374 6        37.338
G03        18.000    19924817.273 8 104705679.51008      -427.699 8        50.257                                    19924815.242 8  81588860.82208      -333.272 8        52.296    19924815.981 7  81588869.82207      -333.255 7        45.782
R21        19.000    19437081.870 8 104011792.89808       355.205 8        52.356                                                                    19437080.347 7  80898071.32607       276.321 7        46.409
R20        20.000    20624800.225 6 110290117.70106     -3729.510 6        38.571                                                                    20624802.055 7  85781200.61107     -2900.874 7        45.946
R05        21.000    20200734.212 8 107984542.88708     -2969.094 8        50.480                                                                    20200733.246 7  83987983.17907     -2309.371 7        47.015
I06        22.000    38151079.191 7 149713257.03207      -219.511 7        43.462
S28        23.000    40878787.063 5 214819453.72905      -410.956 5        34.167
E10        24.000    26451753.610 6 139005018.66206     -3108.639 6        41.630                                                                    26451752.984 7 103802514.50207     -2321.523 7        45.828    26451752.493 7 106510396.86407     -2382.047 7        46.025
S23        25.000    38156766.071 7 200515157.22407      -413.901 7        44.185
E06        26.000    23385960.412 7 122894112.57907      -365.532 7        47.910                                                                    23385960.049 8  91771577.21208      -272.940 8        50.880    23385959.849 8  94165616.84308      -280.044 8        51.135
R15        27.000    24124395.947 7 128913450.61007      2942.560 7        42.406                                                                    24124396.231 6 100266026.13006      2288.828 6        38.459
E19        30.000    28447556.911 4                     -3367.880 4        24.015                                                                    28447558.141 4 111634283.76304     -2515.106 4        25.985    28447557.344 4 114546481.41804     -2581.635 4        25.263
G32        31.000    25864619.115 5 135919487.32505     -3873.750 5        32.012                                    25864617.514 2 105911281.43202     -3018.518 2        16.906    25864617.835 5 105911286.52705     -3019.266 5        30.128
G02        32.000    21710015.352 8 114086938.75508     -2613.556 8        48.138                                    21710008.630 6  88898909.19706     -2036.538 6        38.619
G19        33.000    22518770.792 7 118336968.85807       887.906 7        43.118                                    22518764.289 5  92210646.24205       691.872 5        31.774
G17        34.000    22310514.372 7 117242596.24107     -1141.076 7        45.181                                    22310509.792 7  91357877.50507      -889.150 7        43.211    22310509.955 6  91357877.50706      -889.128 6        41.499
E11        35.000    24215930.533 7 127255640.68207     -2225.130 7        43.989                                                                    24215926.398 7  95028580.91607     -1661.603 7        45.884    24215926.465 7  97507579.91107     -1704.976 7        46.537
C32        36.000                                                                                                                                    25030737.469 7 130341640.40607     -3196.068 7        43.757                                                                    25030737.503 7 105913269.24107     -2597.050 7        44.254
C35        37.000                                                                                                                                    23316324.483 7 121414237.79707      1002.917 7        47.362                                                                    23316322.935 7  98659013.25707       815.028 7        47.108
I09        38.000    37179703.956 7 145901142.27307      -438.372 7        43.340
C29        39.000                                                                                                                                    22589418.238 8 117629029.34008     -2494.368 8        49.518                                                                    22589415.935 8  95583215.78808     -2026.866 8        48.106
R22        40.000    22862198.701 7 122040002.39707      3602.196 7        44.662                                                                    22862198.310 6  94920015.08706      2801.805 6        41.843
S44        42.000    40618161.172 6 213450075.02406      -492.249 6        37.543
C09        43.000                                                                                                                                    38848301.302 7 202293317.50507       405.335 7        42.146    38848297.649 7 156426015.72907       313.532 7        45.521    38848295.543 6 164379871.57706       329.328 6        41.678
C05        44.000                                                                                                                                    39124094.747 6 203729467.34806      -422.014 6        37.652    39124090.797 7 157536571.24707      -326.363 7        43.209    39124092.348 6 165546983.43206      -342.835 6        39.808
R06        45.000    20078564.862 6 107143122.97606      1526.517 6        39.646
R13        46.000    24488513.582 5 130767315.01905     -2773.528 5        35.643
C39        47.000                                                                                                                                    38915915.218 7 202645394.81107      -650.507 7        43.009                                                                    38915911.610 7 164665971.69507      -528.577 7        42.868
C20        48.000                                                                                                                                    21846983.970 8 113763024.31908      -961.006 8        52.059                                                                    21846977.768 8  92441768.10108      -780.884 8        49.660
C06        49.000                                                                                                                                    38320032.367 6 199542486.19506       -83.469 6        41.056    38320026.435 7 154298891.10207       -64.501 7        43.962    38320026.509 6 162144594.24606       -67.696 6        41.635
C16        50.000                                                                                                                                    38754891.448 7 201806905.42507      -202.904 7        42.561    38754891.091 7 156049909.22007      -156.801 7        44.110    38754888.619 6 163984639.66806      -164.913 6        39.787
S48        51.000    77192121.943 6 405648013.98506      -416.625 6        37.229
C19        52.000                                                                                                                                    23235838.255 7 120995162.99707      1602.407 7        47.926                                                                    23235833.504 8  98318483.48908      1302.103 8        48.234
R04        53.000    24202308.935 7 129602295.41507     -4327.207 7        42.171                                                                    24202307.071 6 100801793.23206     -3365.670 6        37.474
C60        54.000                                                                                                                                    40618163.227 6 211509639.22806      -487.756 6        39.526                                                                    40618147.927 6 171868876.70806      -396.330 6        39.336
C30        55.000                                                                                                                                    26216038.859 6 136513766.06406     -3941.423 6        36.480                                                                    26216040.488 6 110928610.59706     -3202.681 6        36.843
C02        57.000                                                                                                                                    40576734.359 5 211293748.10105      -468.148 5        33.874    40576727.175 6 163385722.65706      -361.757 6        39.237    40576730.413 5 171693481.13905      -380.133 5        35.538
I03        58.000   132566697.295 6 444434952.25506       951.456 6        40.358
R07        59.000    23673068.481 7 126723784.52907      3288.844 7        43.975                                                                    23673067.159 6  98562938.52306      2558.138 6        37.781
> 2025 01 01 01 31 35.0000000  0 55
G28         1.000    23210034.271 7 121969570.03807     -1152.328 7        43.342                                    23210030.419 4  95041205.10104      -897.924 4        29.735    23210030.982 7  95041211.09407      -897.868 7        42.527
G31         2.000    22383223.826 7 117624647.60707       710.853 7        45.050                                    22383219.340 6  91655556.89306       553.911 6        41.657    22383219.907 6  91655555.88606       554.031 6        41.733
G09         3.000    23196334.677 6 121897586.73706      3091.166 6        41.111                                    23196332.628 6  94985139.02706      2408.698 6        38.715    23196333.319 6  94985140.03206      2408.740 6        38.901
E34         4.000    26932908.207 6 141533390.71706      2317.413 6        40.119                                                                    26932908.069 7 105690525.62807      1730.360 7        43.365    26932907.832 7 108447669.23207      1775.715 7        44.242
S21         5.000    38440749.783 7 202007339.30907      -417.436 7        42.000
E05         6.000    25835625.443 6 135767146.33806      2594.763 6        38.273                                                                    25835627.108 6 101384579.22506      1937.520 6        41.962    25835626.696 7 104029387.28707      1988.192 7        42.453
G21         7.000    23247052.259 6 122164139.54306     -3339.110 6        41.919                                    23247047.152 4  95192838.73604     -2601.905 4        27.377
E04         8.000    24209902.461 7 127223920.08707     -1800.822 7        45.661                                                                    24209900.376 8  95004880.66608     -1344.755 8        49.511    24209900.196 8  97483260.75308     -1379.839 8        50.312
R14         9.000    23307667.311 7 124242986.98507       538.789 7        44.537                                                                    23307667.541 6  96633423.90206       419.021 6        39.489
G04        10.000    21192462.133 7 111367180.29007      2034.317 7        46.717                                    21192459.116 6  86779629.16706      1585.181 6        36.454    21192459.281 7  86779624.17007      1585.155 7        45.612
E09        11.000    23880828.208 8 125494644.13908       952.741 8        48.127                                                                    23880827.454 8  93713549.28708       711.510 8        50.257    23880827.125 8  96158249.90008       730.054 8        50.956
S27        12.000    39078039.809 5 205356477.76905      -403.518 5        35.505
G06        13.000    24663695.680 6 129608617.39406      3087.376 6        38.033                                    24663695.124 5 100993730.42005      2405.745 5        32.186    24663696.354 6 100993741.42206      2405.752 6        38.135
S36        14.000    38208211.360 7 200786002.63007      -417.556 7        43.445
E27        15.000    28947005.923 5 152117536.81805      -379.168 5        33.904                                                                    28947007.298 6 113594270.54006      -282.814 6        40.069    28947006.778 6 116557597.13106      -290.370 6        40.770
E36        16.000    23568259.042 7 123852065.09407       407.752 7        47.759                                                                    23568258.993 8  92486949.09608       304.503 8        50.906    23568258.609 8  94899646.82908       312.387 8        51.248
S45        17.000    63405651.253 6 333199265.14106      -458.414 6        37.183
G03        18.000    19925225.040 8 104707822.27708      -429.548 8        50.279                                    19925222.992 8  81590530.51308      -334.711 8        52.229    19925223.732 7  81590539.51607      -334.737 7        45.964
R21        19.000    19436752.232 8 104010026.89208       351.070 8        52.398                                                                    19436750.621 7  80896697.76207       273.058 7        46.438
R20        20.000    20628288.373 6 110308772.53506     -3732.483 6        38.646                                                                    20628290.279 7  85795709.90807     -2902.978 7        45.451
R05        21.000    20203511.624 8 107999392.58308     -2970.849 8        50.303                                                                    20203511.223 7  83999532.94607     -2310.728 7        46.864
I06        22.000    38151358.664 7 149714354.48407      -219.530 7        43.289
S28        23.000    40879173.671 5 214821507.00305      -410.620 5        33.641
E10        24.000    26454712.081 6 139020564.11106     -3109.460 6        41.647                                                                    26454710.965 7 103814123.13107     -2322.119 7        45.500    26454710.490 7 106522308.32007     -2382.652 7        45.872
S23        25.000    38157160.871 7 200517226.15207      -413.792 7        44.149
E06        26.000    23386309.010 7 122895944.56707      -367.430 7        47.725                                                                    23386308.614 8  91772945.26908      -274.405 8        50.860    23386308.471 8  94167020.58508      -281.529 8        51.132
R15        27.000    24121643.455 7 128898740.05107      2941.352 7        42.626                                                                    24121643.228 6 100254584.58406      2287.940 6        38.838
E19        30.000    28450762.010 3                     -3369.646 3        22.895                                                                    28450763.745 4 111646861.05704     -2515.690 4        26.048    28450762.157 4 114559386.68204     -2580.461 4        26.216
G32        31.000    25868304.649 5 135938857.87605     -3874.377 5        31.268                                    25868303.692 2 105926375.36402     -3019.002 2        16.755    25868304.180 4 105926380.36504     -3018.952 4        29.839
G02        32.000    21712502.506 7 114100010.93507     -2615.428 7        47.883                                    21712496.198 6  88909095.30606     -2037.992 6        38.520
G19        33.000    22517926.631 7 118332537.13907       884.667 7        42.798                                    22517920.878 5  92207192.95605       689.352 5        31.653
G17        34.000    22311601.396 7 117248308.61407     -1143.905 7        45.061                                    22311596.825 7  91362328.70407      -891.352 7        43.109    22311597.537 7  91362328.70107      -891.396 7        42.045
E11        35.000    24218048.446 7 127266769.66807     -2226.572 7        43.754                                                                    24218044.168 7  95036891.52107     -1662.725 7        45.866    24218044.193 7  97516107.31207     -1706.112 7        46.565
C32        36.000                                                                                                                                    25033806.263 7 130357621.07407     -3196.369 7        43.725                                                                    25033806.407 7 105926254.84207     -2597.196 7        44.277
C35        37.000                                                                                                                                    23315362.366 7 121409228.62807      1000.605 7        47.435                                                                    23315360.939 7  98654942.90507       813.107 7        47.235
I09        38.000    37180262.585 7 145903333.49907      -438.337 7        43.101
C29        39.000                                                                                                                                    22591814.259 8 117641506.30208     -2496.489 8        49.617                                                                    22591812.049 8  95593354.35108     -2028.571 8        48.208
R22        40.000    22858825.850 7 122021993.51107      3601.127 7        45.439                                                                    22858824.368 6  94906008.16906      2800.825 6        41.826
S44        42.000    40618627.732 6 213452536.00606      -492.139 6        37.127
C09        43.000                                                                                                                                    38847912.142 7 202291291.79707       404.822 7        42.023    38847908.646 7 156424449.35407       312.946 7        45.425    38847906.536 6 164378225.54106       328.879 6        41.909
C05        44.000                                                                                                                                    39124499.572 6 203731576.57606      -421.716 6        37.864    39124495.747 7 157538202.22907      -326.210 7        43.170    39124497.329 6 165548697.36006      -342.707 6        40.021
R06        45.000    20077136.474 6 107135496.41906      1523.905 6        40.086
R13        46.000    24491113.734 5 130781189.72705     -2776.659 5        35.962
C39        47.000                                                                                                                                    38916540.224 7 202648649.09707      -651.302 7        43.010                                                                    38916536.468 7 164668616.07107      -529.111 7        43.189
C20        48.000                                                                                                                                    21847907.322 8 113767833.04308      -962.590 8        52.020                                                                    21847901.253 8  92445675.59108      -782.100 8        49.796
C06        49.000                                                                                                                                    38320112.711 6 199542905.33006       -84.316 6        40.937    38320107.050 7 154299215.21407       -65.179 7        43.721    38320106.881 6 162144934.84906       -68.487 6        41.840
C16        50.000                                                                                                                                    38755086.647 7 201807921.51707      -203.723 7        42.482    38755086.325 7 156050694.93207      -157.475 7        44.083    38755083.767 6 163985465.33006      -165.265 6        39.949
S48        51.000    77192518.934 6 405650097.14306      -416.733 6        37.025
C19        52.000                                                                                                                                    23234300.082 7 120987153.69707      1601.154 7        47.895                                                                    23234295.487 8  98311975.29108      1301.148 8        48.427
R04        53.000    24206350.168 7 129623929.96507     -4326.731 7        42.336                                                                    24206348.256 6 100818620.10306     -3365.096 6        37.297
C60        54.000                                                                                                                                    40618631.522 6 211512077.83706      -487.753 6        39.474                                                                    40618616.325 6 171870858.28206      -396.353 6        39.510
C30        55.000                                                                                                                                    26219823.440 6 136533473.30506     -3941.298 6        36.231                                                                    26219825.069 6 110944624.34806     -3202.573 6        36.665
C02        57.000                                                                                                                                    40577183.476 5 211296086.95405      -467.764 5        34.114    40577176.310 6 163387531.18906      -361.581 6        39.291    40577179.493 5 171695381.65505      -380.013 5        35.881
I03        58.000   132565484.947 6 444430194.41706       951.597 6        40.124
R07        59.000    23669995.970 7 126707341.88807      3288.111 7        43.170                                                                    23669996.188 6  98550149.84906      2557.342 6        38.165
> 2025 01 01 01 31 40.0000000  0 55
G28         1.000    23211132.015 7 121975339.17107     -1155.611 7        43.422                                    23211128.301 4  95045700.53104      -900.484 4        29.754    23211128.635 7  95045706.52007      -900.440 7        42.237
G31         2.000    22382548.963 7 117621101.20507       707.518 7        45.418                                    22382544.443 6  91652793.46506       551.312 6        41.797    22382544.723 6  91652792.46606       551.211 6        41.928
G09         3.000    23193394.050 6 121882133.73506      3090.108 6        41.170                                    23193392.066 6  94973097.73306      2407.869 6        39.030    23193392.912 6  94973098.75306      2407.662 6        39.153
E34         4.000    26930703.067 6 141521804.55906      2316.840 6        40.179                                                                    26930703.246 7 105681873.61607      1730.207 7        43.247    26930702.970 7 108438791.52707      1775.320 7        44.411
S21         5.000    38441143.697 7 202009426.16707      -417.371 7        42.009
E05         6.000    25833157.153 6 135754173.51306      2594.100 6        38.619                                                                    25833158.506 6 101374891.71306      1937.160 6        41.740    25833158.049 7 104019447.06307      1987.815 7        42.385
G21         7.000    23250229.313 6 122180837.55906     -3340.140 6        41.085                                    23250224.611 4  95205850.18204     -2602.706 4        27.533
E04         8.000    24211616.505 7 127232927.95107     -1802.494 7        45.485                                                                    24211614.532 8  95011607.31708     -1346.058 8        49.260    24211614.297 8  97490162.88308     -1381.186 8        50.368
R14         9.000    23307162.752 7 124240302.78907       534.775 7        44.212                                                                    23307163.852 6  96631336.21706       415.984 6        39.453
G04        10.000    21190527.599 7 111357013.90507      2032.058 7        46.910                                    21190524.500 6  86771707.31106      1583.426 6        36.658    21190524.525 7  86771702.30907      1583.410 7        45.514
E09        11.000    23879922.515 8 125489884.76808       950.783 8        48.020                                                                    23879921.767 8  93709995.21608       710.030 8        50.098    23879921.387 8  96154603.11508       728.508 8        51.003
S27        12.000    39078428.505 5 205358495.27705      -403.778 5        35.629
G06        13.000    24660758.197 6 129593181.19706      3086.863 6        37.210                                    24660757.854 5 100981702.22805      2405.355 5        32.413    24660758.040 6 100981713.23606      2405.367 6        38.105
S36        14.000    38208608.239 7 200788089.84907      -417.523 7        43.439
E27        15.000    28947367.894 5 152119436.98305      -381.584 5        34.390                                                                    28947368.859 6 113595689.45206      -284.753 6        39.826    28947368.581 6 116559053.06506      -292.244 6        40.903
E36        16.000    23567871.649 7 123850030.33207       405.927 7        47.754                                                                    23567871.811 8  92485429.63108       303.178 8        50.678    23567871.460 8  94898087.72308       311.030 8        51.212
S45        17.000    63406039.516 6 333201555.84706      -458.168 6        37.153
G03        18.000    19925634.519 8 104709974.72208      -431.602 8        50.308                                    19925632.588 8  81592207.74408      -336.314 8        52.370    19925633.276 7  81592216.74507      -336.348 7        45.821
R21        19.000    19436425.947 8 104008282.02008       346.665 8        52.176                                                                    19436424.339 7  80895340.64107       269.629 7        46.206
R20        20.000    20631780.489 6 110327441.52906     -3735.402 6        39.456                                                                    20631781.761 7  85810230.24207     -2905.362 7        45.115
R05        21.000    20206291.384 8 108014251.38908     -2972.877 8        50.525                                                                    20206290.539 7  84011089.79007     -2312.185 7        46.252
I06        22.000    38151638.450 7 149715451.68807      -219.531 7        43.380
S28        23.000    40879564.566 5 214823559.81905      -410.736 5        33.856
E10        24.000    26457670.757 6 139036113.79306     -3110.654 6        41.666                                                                    26457669.807 7 103825734.88907     -2322.803 7        45.156    26457669.390 7 106534222.99407     -2383.314 7        45.758
S23        25.000    38157553.729 7 200519294.66207      -413.908 7        44.108
E06        26.000    23386659.431 7 122897786.49207      -369.503 7        47.592                                                                    23386659.180 8  91774320.72808      -275.922 8        50.676    23386658.944 8  94168431.93308      -283.175 8        51.166
R15        27.000    24118891.514 6 128884036.49606      2939.784 6        41.988                                                                    24118891.772 6 100243148.49406      2286.450 6        38.489
E19        30.000    28453966.571 4                     -3368.820 4        24.286                                                                    28453968.957 4 111659438.33504     -2515.439 4        26.635    28453967.506 4 114572292.06004     -2581.191 4        26.323
G32        31.000    25871989.859 5 135958228.26805     -3874.079 5        30.966                                    25871990.026 2 105941469.19002     -3018.821 2        16.189    25871990.161 4 105941474.13104     -3018.322 4        28.701
G02        32.000    21714992.115 8 114113092.85108     -2617.510 8        48.160                                    21714985.622 6  88919289.00306     -2039.618 6        38.646
G19        33.000    22517086.542 7 118328121.86207       881.232 7        42.946                                    22517080.687 5  92203752.48405       686.668 5        31.841
G17        34.000    22312690.873 7 117254035.16107     -1146.864 7        45.538                                    22312686.560 7  91366790.94307      -893.658 7        43.234    22312687.432 7  91366790.95507      -893.744 7        42.277
E11        35.000    24220167.568 7 127277906.11307     -2228.269 7        43.869                                                                    24220163.410 7  95045207.70307     -1663.949 7        45.536    24220163.352 7  97524640.43507     -1707.395 7        46.648
C32        36.000                                                                                                                                    25036875.201 7 130373603.05907     -3196.662 7        43.348                                                                    25036875.618 7 105939241.50807     -2597.523 7        44.286
C35        37.000                                                                                                                                    23314402.751 7 121404231.50607       998.096 7        47.288                                                                    23314401.322 7  98650882.33107       811.101 7        47.250
I09        38.000    37180820.938 7 145905525.14907      -438.524 7        43.118
C29        39.000                                                                                                                                    22594212.329 8 117653993.95708     -2498.752 8        49.610                                                                    22594210.136 8  95603501.59008     -2030.406 8        48.173
R22        40.000    22855453.567 7 122003990.42407      3599.755 7        44.865                                                                    22855452.366 7  94892005.78707      2799.884 7        42.582
S44        42.000    40619095.616 6 213454996.51506      -492.050 6        37.051
C09        43.000                                                                                                                                    38847524.048 6 202289269.82506       403.891 6        41.850    38847520.176 7 156422885.83107       312.244 7        45.428    38847518.193 6 164376582.51306       328.288 6        41.878
C05        44.000                                                                                                                                    39124904.692 6 203733685.43706      -421.847 6        37.671    39124900.522 7 157539832.92807      -326.217 7        43.245    39124902.369 6 165550410.97806      -342.663 6        39.844
R06        45.000    20075709.559 6 107127882.77006      1521.261 6        40.112
R13        46.000    24493714.166 5 130795079.52305     -2779.620 5        35.300
C39        47.000                                                                                                                                    38917165.889 7 202651907.24607      -652.002 7        42.910                                                                    38917162.213 7 164671263.59207      -529.926 7        43.156
C20        48.000                                                                                                                                    21848832.422 8 113772649.99608      -964.389 8        52.018                                                                    21848826.311 8  92449589.75908      -783.591 8        49.839
C06        49.000                                                                                                                                    38320194.128 6 199543328.64706       -85.208 6        40.853    38320188.543 7 154299542.54507       -65.933 7        43.958    38320188.246 6 162145278.81606       -69.199 6        41.826
C16        50.000                                                                                                                                    38755282.496 7 201808941.65007      -204.532 7        42.561    38755281.955 7 156051483.77007      -158.248 7        44.056    38755279.634 6 163986294.28106      -166.232 6        39.862
S48        51.000    77192910.894 6 405652179.80706      -416.473 6        37.172
C19        52.000                                                                                                                                    23232763.294 7 120979150.95207      1599.694 7        47.988                                                                    23232758.550 8  98305472.40408      1300.037 8        48.454
R04        53.000    24210389.382 6 129645562.44006     -4326.473 6        41.802                                                                    24210387.702 6 100835445.39206     -3365.058 6        37.021
C60        54.000                                                                                                                                    40619099.884 6 211514515.99506      -487.815 6        39.414                                                                    40619084.548 6 171872839.47906      -396.227 6        39.498
C30        55.000                                                                                                                                    26223607.957 6 136553180.21406     -3941.408 6        36.163                                                                    26223609.585 6 110960637.80806     -3202.575 6        36.824
C02        57.000                                                                                                                                    40577631.640 5 211298425.45705      -468.035 5        34.176    40577625.050 6 163389339.49206      -361.742 6        39.138    40577628.802 5 171697281.89405      -380.286 5        35.638
I03        58.000   132564272.431 6 444425436.39206       951.596 6        40.262
R07        59.000    23666925.160 7 126690903.51407      3287.026 7        43.372                                                                    23666925.909 6  98537364.44706      2556.680 6        37.962
> 2025 01 01 01 31 45.0000000  0 55
G28         1.000    23212233.003 7 121981124.58407     -1158.654 7        42.428                                    23212229.317 4  95050208.64704      -902.846 4        29.687    23212229.525 7  95050214.65207      -902.922 7        42.828
G31         2.000    22381877.542 7 117617571.33907       704.190 7        45.564                                    22381872.626 6  91650042.92206       548.720 6        41.805    22381873.237 6  91650041.91706       548.869 6        41.983
G09         3.000    23190454.541 6 121866686.11806      3088.997 6        41.311                                    23190452.628 6  94961060.63806      2407.007 6        39.090    23190453.581 6  94961061.65006      2406.915 6        39.880
E34         4.000    26928498.552 6 141510220.21006      2316.544 6        40.286                                                                    26928498.935 7 105673222.97607      1729.958 7        43.365    26928498.637 7 108429915.21707      1775.058 7        44.056
S21         5.000    38441550.100 6 202011513.06306      -417.634 6        41.814
E05         6.000    25830689.376 6 135741203.35506      2593.723 6        39.489                                                                    25830690.431 6 101365206.22506      1936.833 6        41.938    25830690.006 7 104009508.91107      1987.369 7        42.512
G21         7.000    23253407.436 6 122197540.89706     -3341.375 6        40.980                                    23253403.183 4  95218865.77404     -2603.671 4        27.222
E04         8.000    24213332.170 7 127241944.33307     -1804.201 7        45.750                                                                    24213330.274 8  95018340.32708     -1347.329 8        49.371    24213330.098 8  97497071.53908     -1382.471 8        50.183
R14         9.000    23306663.493 7 124237638.29907       530.877 7        44.415                                                                    23306664.001 6  96629263.83406       412.839 6        39.727
G04        10.000    21188595.153 7 111346858.66307      2029.869 7        46.435                                    21188591.981 6  86763794.13906      1581.715 6        36.620    21188592.070 7  86763789.13807      1581.769 7        45.642
E09        11.000    23879018.501 8 125485135.02008       948.897 8        48.344                                                                    23879017.878 8  93706448.32708       708.599 8        50.194    23879017.547 8  96150963.69708       727.084 8        50.862
S27        12.000    39078805.731 5 205360512.73705      -403.574 5        35.419
G06        13.000    24657821.397 6 129577746.89806      3086.530 6        36.832                                    24657820.847 5 100969675.51605      2405.090 5        31.924    24657820.623 6 100969686.53106      2404.997 6        36.699
S36        14.000    38209001.504 7 200790177.17407      -417.792 7        43.321
E27        15.000    28947731.392 5 152121348.78005      -383.600 5        34.024                                                                    28947732.639 6 113597117.04006      -286.268 6        39.474    28947732.100 6 116560517.91406      -293.856 6        40.286
E36        16.000    23567485.969 8 123848004.14008       404.356 8        48.035                                                                    23567486.246 8  92483916.57208       301.933 8        50.816    23567485.886 8  94896535.19108       309.802 8        51.016
S45        17.000    63406432.795 6 333203846.48106      -458.185 6        37.183
G03        18.000    19926046.306 8 104712137.29808      -433.552 8        50.234                                    19926044.102 8  81593892.86908      -337.834 8        52.327    19926044.813 7  81593901.86707      -337.819 7        46.120
R21        19.000    19436104.069 8 104006558.60208       342.429 8        52.372                                                                    19436102.652 7  80894000.21307       266.315 7        46.402
R20        20.000    20635274.564 6 110346125.14406     -3738.211 6        39.135                                                                    20635276.440 7  85824761.92507     -2907.467 7        45.761
R05        21.000    20209073.028 8 108029119.86808     -2974.718 8        50.475                                                                    20209071.816 7  84022654.15407     -2313.617 7        46.252
I06        22.000    38151917.812 7 149716548.93207      -219.525 7        43.403
S28        23.000    40879954.523 5 214825612.78005      -410.511 5        33.964
E10        24.000    26460630.348 6 139051668.09906     -3111.410 6        41.836                                                                    26460629.869 7 103837350.11607     -2323.455 7        45.196    26460629.288 7 106546141.23607     -2384.053 7        45.264
S23        25.000    38157946.159 7 200521363.18307      -413.863 7        44.068
E06        26.000    23387012.084 7 122899638.78907      -371.543 7        47.955                                                                    23387011.612 8  91775703.94008      -277.471 8        50.776    23387011.442 8  94169851.22008      -284.661 8        51.006
R15        27.000    24116141.348 6 128869340.17006      2938.466 6        41.928                                                                    24116141.875 6 100231718.04606      2285.428 6        38.838
E19        30.000    28457171.960 3                     -3368.699 3        23.200                                                                    28457173.706 4 111672015.80004     -2515.239 4        26.251    28457172.750 4 114585197.73904     -2581.027 4        25.489
G32        31.000    25875677.852 5 135977599.05005     -3874.329 5        30.823                                    25875676.239 2 105956563.31002     -3018.960 2        15.524    25875677.295 4 105956568.35804     -3019.303 4        28.919
G02        32.000    21717483.824 8 114126184.94308     -2619.483 8        48.027                                    21717476.955 6  88929490.63306     -2041.156 6        38.571
G19        33.000    22516250.018 7 118323723.37407       877.845 7        43.058                                    22516243.711 5  92200325.09105       684.038 5        31.721
G17        34.000    22313783.429 7 117259776.35407     -1149.793 7        45.758                                    22313779.076 7  91371264.59807      -895.943 7        43.211    22313779.439 7  91371264.59807      -895.918 7        42.178
E11        35.000    24222288.417 7 127289050.43707     -2229.709 7        44.086                                                                    24222284.165 7  95053529.75507     -1665.083 7        45.693    24222283.983 7  97533179.59307     -1708.518 7        46.422
C32        36.000                                                                                                                                    25039944.733 7 130389586.80707     -3197.022 7        43.647                                                                    25039945.122 7 105952229.60907     -2597.793 7        44.409
C35        37.000                                                                                                                                    23313445.495 7 121399246.84707       995.720 7        47.408                                                                    23313444.035 7  98646831.88207       809.025 7        47.285
I09        38.000    37181379.544 7 145907717.54107      -438.587 7        43.189
C29        39.000                                                                                                                                    22596612.628 8 117666492.73908     -2500.921 8        49.425                                                                    22596610.462 8  95613657.86308     -2032.233 8        48.217
R22        40.000    22852081.798 7 121985993.65107      3598.699 7        46.197                                                                    22852080.743 7  94878008.28807      2799.107 7        42.409
S44        42.000    40619563.437 6 213457457.03706      -492.245 6        37.236
C09        43.000                                                                                                                                    38847136.497 6 202287252.02806       403.194 6        41.723    38847132.780 7 156421325.55007       311.652 7        45.387    38847130.634 6 164374942.89706       327.491 6        41.959
C05        44.000                                                                                                                                    39125310.090 6 203735794.38206      -422.067 6        37.478    39125305.866 7 157541463.69007      -326.228 7        43.149    39125307.484 6 165552124.65606      -342.751 6        40.076
R06        45.000    20074284.028 6 107120282.47206      1518.715 6        39.970
R13        46.000    24496318.312 5 130808985.06105     -2782.577 5        35.614
C39        47.000                                                                                                                                    38917792.423 7 202655169.73207      -652.960 7        42.933                                                                    38917788.810 7 164673914.61207      -530.539 7        43.308
C20        48.000                                                                                                                                    21849759.117 8 113777475.59708      -966.036 8        51.971                                                                    21849753.015 8  92453510.94708      -784.997 8        49.907
C06        49.000                                                                                                                                    38320276.525 6 199543756.56406       -86.118 6        40.787    38320270.609 7 154299873.43507       -66.592 7        43.884    38320270.435 6 162145626.52806       -69.836 6        41.955
C16        50.000                                                                                                                                    38755479.404 7 201809966.27207      -205.443 7        42.624    38755478.861 7 156052276.06907      -158.815 7        43.824    38755476.540 6 163987126.86306      -166.983 6        40.060
S48        51.000    77193304.683 6 405654262.25606      -416.658 6        37.210
C19        52.000                                                                                                                                    23231227.647 8 120971155.17908      1598.387 8        48.104                                                                    23231223.059 8  98298975.18808      1298.801 8        48.468
R04        53.000    24214428.006 6 129667192.94706     -4325.875 6        41.497                                                                    24214426.544 6 100852269.15506     -3364.804 6        36.669
C60        54.000                                                                                                                                    40619568.305 6 211516954.13306      -487.602 6        39.360                                                                    40619552.589 6 171874820.67206      -396.454 6        39.694
C30        55.000                                                                                                                                    26227393.041 6 136572887.22906     -3941.329 6        36.170                                                                    26227394.343 6 110976651.37306     -3202.662 6        36.291
C02        57.000                                                                                                                                    40578081.069 5 211300764.03305      -467.845 5        33.509    40578074.113 6 163391147.83106      -361.870 6        39.042    40578077.855 5 171699182.15105      -380.250 5        35.790
I03        58.000   132563060.235 6 444420678.53606       951.554 6        40.479
R07        59.000    23663855.631 7 126674469.74007      3286.227 7        44.880                                                                    23663855.389 6  98524582.61106      2555.769 6        39.144
> 2025 01 01 01 31 50.0000000  0 55
G28         1.000    23213336.912 7 121986926.23907     -1162.180 7        42.751                                    23213333.401 4  95054729.41904      -905.589 4        29.754    23213333.603 7  95054735.41007      -905.471 7        42.229
G31         2.000    22381208.710 7 117614057.91407       700.960 7        44.841                                    22381203.922 6  91647305.19106       546.201 6        41.828    22381204.460 6  91647304.20606       546.212 6        41.159
G09         3.000    23187515.828 6 121851243.87106      3087.771 6        41.833                                    23187514.213 6  94949027.72906      2406.050 6        39.264    23187514.403 6  94949028.74306      2405.993 6        39.868
E34         4.000    26926294.618 6 141498637.62506      2316.237 6        40.191                                                                    26926294.810 7 105664573.65107      1729.548 7        43.372    26926294.490 7 108421040.24907      1774.773 7        44.001
S21         5.000    38441942.673 7 202013599.96807      -417.564 7        42.009
E05         6.000    25828221.471 6 135728235.82206      2593.117 6        39.102                                                                    25828222.668 6 101355522.68306      1936.280 6        41.983    25828222.583 7 103999572.75007      1986.971 7        42.432
G21         7.000    23256587.978 6 122214249.37606     -3342.346 6        40.820                                    23256582.757 4  95231885.36404     -2604.431 4        27.210
E04         8.000    24215049.557 7 127250969.13107     -1805.944 7        45.544                                                                    24215047.666 8  95025079.62008     -1348.590 8        49.360    24215047.427 8  97503986.64408     -1383.806 8        50.201
R14         9.000    23306166.945 7 124234993.34007       526.802 7        44.254                                                                    23306168.265 6  96627206.62806       409.816 6        39.526
G04        10.000    21186664.740 7 111336714.52407      2027.556 7        46.374                                    21186661.568 6  86755889.61506      1579.910 6        36.624    21186661.821 7  86755884.61207      1579.935 7        45.691
E09        11.000    23878116.580 8 125480394.82308       946.900 8        48.404                                                                    23878115.911 8  93702908.56908       707.091 8        50.264    23878115.544 8  96147331.59908       725.523 8        50.804
S27        12.000    39079190.353 5 205362530.15705      -403.912 5        35.500
G06        13.000    24654885.117 6 129562314.51406      3086.130 6        38.057                                    24654883.979 5 100957650.28905      2404.777 5        31.668    24654884.399 6 100957661.27106      2405.006 6        36.975
S36        14.000    38209403.266 7 200792265.07107      -417.513 7        43.503
E27        15.000    28948097.722 5 152123272.16905      -386.178 5        33.940                                                                    28948098.545 6 113598553.31706      -288.145 6        39.177    28948098.219 6 116561991.65106      -295.661 6        39.817
E36        16.000    23567102.177 8 123845986.48608       402.521 8        48.010                                                                    23567102.317 8  92482409.87908       300.588 8        50.830    23567101.893 8  94894989.19308       308.467 8        51.002
S45        17.000    63406825.788 6 333206137.08606      -458.253 6        37.077
G03        18.000    19926459.603 8 104714309.92408      -435.654 8        50.306                                    19926457.540 8  81595585.82308      -339.473 8        52.349    19926458.184 7  81595594.82507      -339.406 7        46.202
R21        19.000    19435785.810 8 104004856.77708       338.069 8        52.336                                                                    19435784.436 7  80892676.56207       262.952 7        46.316
R20        20.000    20638771.692 6 110364823.22006     -3741.089 6        38.874                                                                    20638772.864 7  85839304.87907     -2909.793 7        45.994
R05        21.000    20211856.169 8 108043997.69308     -2976.692 8        50.545                                                                    20211855.783 7  84034225.79207     -2315.209 7        46.656
I06        22.000    38152197.310 7 149717646.19607      -219.487 7        43.522
S28        23.000    40880346.698 5 214827665.34605      -410.904 5        34.010
E10        24.000    26463591.174 6 139067226.98006     -3112.307 6        41.116                                                                    26463590.843 7 103848968.77107     -2324.269 7        45.360    26463590.139 7 106558062.97607     -2384.833 7        45.175
S23        25.000    38158340.498 7 200523431.56507      -413.852 7        44.129
E06        26.000    23387366.485 8 122901501.37008      -373.698 8        48.016                                                                    23387366.090 8  91777094.82908      -279.077 8        50.739    23387365.877 8  94171278.39608      -286.348 8        50.958
R15        27.000    24113391.899 6 128854651.09606      2936.963 6        41.828                                                                    24113393.951 6 100220293.21706      2284.272 6        39.081
E19        30.000    28460377.662 4                     -3368.744 4        24.286                                                                    28460379.242 4 111684593.46404     -2515.797 4        26.575    28460378.045 4 114598103.50604     -2581.555 4        26.395
G32        31.000    25879362.236 5 135996970.12405     -3874.501 5        30.725                                    25879362.537 2 105971657.61202     -3019.109 2        15.095    25879362.492 4 105971662.58604     -3018.823 4        28.834
G02        32.000    21719976.919 7 114139287.11907     -2621.622 7        47.982                                    21719970.225 6  88939700.11806     -2042.822 6        38.498
G19        33.000    22515415.971 7 118319341.70507       874.409 7        43.319                                    22515410.000 5  92196910.79805       681.357 5        31.902
G17        34.000    22314878.839 7 117265532.08007     -1152.697 7        46.017                                    22314874.373 7  91375749.58307      -898.205 7        43.191    22314874.558 7  91375749.58507      -898.240 7        42.248
E11        35.000    24224410.451 7 127300202.60307     -2231.462 7        44.078                                                                    24224406.331 7  95061857.67007     -1666.353 7        45.667    24224406.194 7  97541724.75607     -1709.826 7        46.379
C32        36.000                                                                                                                                    25043014.681 7 130405572.24107     -3197.450 7        43.989                                                                    25043015.023 7 105965219.08707     -2598.176 7        44.489
C35        37.000                                                                                                                                    23312490.763 7 121394274.62707       993.061 7        47.684                                                                    23312489.218 7  98642791.55107       806.932 7        47.189
I09        38.000    37181938.675 7 145909910.59907      -438.841 7        43.181
C29        39.000                                                                                                                                    22599014.984 8 117679002.56208     -2503.263 8        49.562                                                                    22599012.838 8  95623823.11908     -2034.067 8        48.171
R22        40.000    22848712.322 7 121968003.11707      3597.354 7        45.768                                                                    22848710.609 7  94864015.65007      2797.942 7        42.673
S44        42.000    40620032.810 6 213459917.47906      -492.292 6        37.274
C09        43.000                                                                                                                                    38846748.947 6 202285238.32106       402.124 6        41.483    38846746.007 7 156419768.40307       311.092 7        45.455    38846744.005 6 164373306.59606       326.661 6        41.797
C05        44.000                                                                                                                                    39125714.387 6 203737903.30806      -422.095 6        37.750    39125710.897 7 157543094.44207      -326.341 7        43.310    39125712.484 6 165553838.34306      -342.967 6        39.991
R06        45.000    20072862.885 6 107112695.36106      1516.004 6        40.207
R13        46.000    24498925.862 6 130822906.26906     -2785.959 6        36.113
C39        47.000                                                                                                                                    38918419.728 7 202658436.45607      -653.885 7        43.026                                                                    38918416.180 7 164676569.10007      -531.394 7        43.196
C20        48.000                                                                                                                                    21850687.322 8 113782309.76808      -967.843 8        52.000                                                                    21850681.368 8  92457439.11608      -786.472 8        49.848
C06        49.000                                                                                                                                    38320359.938 6 199544188.98506       -87.018 6        41.120    38320353.990 7 154300207.82607       -67.389 7        44.110    38320353.503 6 162145977.92406       -70.785 6        41.836
C16        50.000                                                                                                                                    38755677.117 7 201810995.29507      -206.392 7        42.849    38755676.577 7 156053071.78007      -159.585 7        43.780    38755674.110 6 163987963.04606      -167.708 6        39.838
S48        51.000    77193694.237 6 405656344.86506      -416.544 6        37.251
C19        52.000                                                                                                                                    23229693.435 8 120963166.33808      1596.875 8        48.111                                                                    23229688.890 8  98292483.60208      1297.597 8        48.426
R04        53.000    24218467.276 6 129688821.78706     -4325.910 6        41.037                                                                    24218465.891 6 100869091.60706     -3364.492 6        36.174
C60        54.000                                                                                                                                    40620036.443 6 211519392.18506      -487.706 6        39.721                                                                    40620020.839 6 171876801.80206      -396.407 6        39.498
C30        55.000                                                                                                                                    26231177.327 5 136592594.25905     -3941.583 5        35.938                                                                    26231178.969 6 110992664.93606     -3202.896 6        36.336
C02        57.000                                                                                                                                    40578530.588 5 211303102.54605      -467.631 5        34.005    40578523.498 6 163392956.10606      -361.775 6        39.369    40578526.829 5 171701082.40405      -380.294 5        35.571
I03        58.000   132561847.602 6 444415920.77906       951.488 6        40.236
R07        59.000    23660787.217 7 126658040.58007      3285.250 7        44.369                                                                    23660786.899 6  98511804.38406      2555.307 6        39.084
