     3.04           OBSERVATION DATA    M                   RINEX VERSION / TYPE
ssrcrin-15.6.1x                         20250101 003000 UTC PGM / RUN BY / DATE 
(00000000023479385599111004) Septentrio proprietary         COMMENT             
rref                                                        MARKER NAME         
01                                                          MARKER NUMBER       
geodetic                                                    MARKER TYPE         
NFB                 CLIMERS@TUW                             OBSERVER / AGENCY   
3297213             SEPT ASTERX SB3 PROB4.14.4              REC # / TYPE / VERS 
Unknown             Unknown                                 ANT # / TYPE        
  4127831.8597  1207193.2696  4695247.4038                  APPROX POSITION XYZ 
        0.0000        0.0000        0.0000                  ANTENNA: DELTA H/E/N
G   23 X1  C1C L1C D1C S1C C1W S1W C2W L2W D2W S2W C2L L2L  SYS / # / OBS TYPES 
       D2L S2L C5Q L5Q D5Q S5Q C1L L1L D1L S1L              SYS / # / OBS TYPES 
E   21 X1  C1C L1C D1C S1C C6C L6C D6C S6C C5Q L5Q D5Q S5Q  SYS / # / OBS TYPES 
       C7Q L7Q D7Q S7Q C8Q L8Q D8Q S8Q                      SYS / # / OBS TYPES 
S    9 X1  C1C L1C D1C S1C C5I L5I D5I S5I                  SYS / # / OBS TYPES 
R   17 X1  C1C L1C D1C S1C C2P L2P D2P S2P C2C L2C D2C S2C  SYS / # / OBS TYPES 
       C3Q L3Q D3Q S3Q                                      SYS / # / OBS TYPES 
C   25 X1  C1P L1P D1P S1P C5P L5P D5P S5P C2I L2I D2I S2I  SYS / # / OBS TYPES 
       C7I L7I D7I S7I C6I L6I D6I S6I C7D L7D D7D S7D      SYS / # / OBS TYPES 
J   17 X1  C1C L1C D1C S1C C2L L2L D2L S2L C5Q L5Q D5Q S5Q  SYS / # / OBS TYPES 
       C1L L1L D1L S1L                                      SYS / # / OBS TYPES 
I    5 X1  C5A L5A D5A S5A                                  SYS / # / OBS TYPES 
SEPTENTRIO RECEIVERS OUTPUT ALIGNED CARRIER PHASES.         COMMENT             
NO FURTHER PHASE SHIFT APPLIED IN THE RINEX ENCODER.        COMMENT             
G L1C                                                       SYS / PHASE SHIFT   
G L2W                                                       SYS / PHASE SHIFT   
G L2L  0.00000                                              SYS / PHASE SHIFT   
G L5Q  0.00000                                              SYS / PHASE SHIFT   
G L1L  0.00000                                              SYS / PHASE SHIFT   
E L1C  0.00000                                              SYS / PHASE SHIFT   
E L6C  0.00000                                              SYS / PHASE SHIFT   
E L5Q  0.00000                                              SYS / PHASE SHIFT   
E L7Q  0.00000                                              SYS / PHASE SHIFT   
E L8Q  0.00000                                              SYS / PHASE SHIFT   
S L1C                                                       SYS / PHASE SHIFT   
S L5I                                                       SYS / PHASE SHIFT   
R L1C                                                       SYS / PHASE SHIFT   
R L2P  0.00000                                              SYS / PHASE SHIFT   
R L2C                                                       SYS / PHASE SHIFT   
R L3Q  0.00000                                              SYS / PHASE SHIFT   
C L1P  0.00000                                              SYS / PHASE SHIFT   
C L5P  0.00000                                              SYS / PHASE SHIFT   
C L2I                                                       SYS / PHASE SHIFT   
C L7I                                                       SYS / PHASE SHIFT   
C L6I                                                       SYS / PHASE SHIFT   
C L7D                                                       SYS / PHASE SHIFT   
J L1C                                                       SYS / PHASE SHIFT   
J L2L  0.00000                                              SYS / PHASE SHIFT   
J L5Q  0.00000                                              SYS / PHASE SHIFT   
J L1L  0.00000                                              SYS / PHASE SHIFT   
I L5A                                                       SYS / PHASE SHIFT   
  2025     1     1     0    30    0.0000000     GPS         TIME OF FIRST OBS   
 C1C    0.000 C2C    0.000 C2P    0.000                     GLONASS COD/PHS/BIS 
DBHZ                                                        SIGNAL STRENGTH UNIT
    18                                                      LEAP SECONDS        
 24 R01  1 R02 -4 R03  5 R04  6 R05  1 R06 -4 R07  5 R08  6 GLONASS SLOT / FRQ #
    R09 -2 R10 -7 R11  0 R12 -1 R13 -2 R14 -7 R15  0 R16 -1 GLONASS SLOT / FRQ #
    R17  4 R18 -3 R19  3 R20  2 R21  4 R22 -3 R23  3 R24  2 GLONASS SLOT / FRQ #
                                                            END OF HEADER       
> 2025 01 01 00 30  0.0000000  0 54
G28         1.000    23535076.243 6 123677667.35806      1154.347 6        40.996                                    23535071.989 4  96372188.55004       899.493 4        26.934    23535072.279 6  96372194.55806       899.521 6        41.781
G31         2.000    23899159.155 7 125590933.46107      2515.523 7        42.222                                    23899154.979 5  97863050.56205      1960.151 5        35.714    23899155.626 6  97863049.56206      1960.129 6        38.634
G14         3.000    25424582.605 3                     -2954.453 3        18.627
S21         5.000    38442051.128 6 202014200.22306      -423.902 6        41.542
R12         6.000    24289495.817 7 129750142.69507     -2417.086 7        43.788                                                                    24289497.330 6 100916792.57906     -1879.976 6        40.429
G21         7.000    21536232.484 7 113173728.48307     -2293.598 7        45.127                                    21536227.728 6  88187325.20706     -1787.216 6        36.098
E04         8.000    23749598.199 7 124805004.75907      -278.820 7        47.326                                                                    23749596.295 8  93198547.63908      -208.129 8        50.484    23749596.048 8  95629806.02908      -213.589 8        50.890
G04        10.000    23397952.706 6 122957095.63306      3228.851 6        41.039                                    23397950.719 4  95810728.00104      2515.986 4        26.958    23397950.826 7  95810723.01707      2515.875 7        42.222
E09        11.000    25312255.805 7 133016841.93207      2200.534 7        45.263                                                                    25312255.447 7  99330773.33107      1643.280 7        47.562    25312255.194 8 101922010.40808      1686.110 8        48.351
S27        12.000    39091663.247 5 205428066.76605      -403.056 5        35.443
S36        14.000    38209712.224 7 200793893.98407      -423.660 7        43.323
E02        15.000    28086035.614 6 147593139.26406     -2637.939 6        36.484                                                                    28086035.475 6 110215673.35706     -1969.734 6        38.823    28086034.814 6 113090860.54306     -2020.963 6        39.402
E36        16.000    24530190.936 7 128907050.63907      1383.911 7        45.934                                                                    24530191.193 8  96261775.40908      1033.469 8        48.872    24530191.005 8  98772946.92908      1060.436 8        49.778
S45        17.000    63410601.197 6 333225607.72106      -465.774 6        36.858
G03        18.000    20447080.829 8 107450190.23108      1060.754 8        49.144                                    20447078.776 8  83727440.13508       826.565 8        50.143    20447079.487 7  83727449.12907       826.514 7        45.365
R21        19.000    20918927.672 8 111941447.81108      2806.223 8        49.443                                                                    20918926.962 7  87065579.91207      2182.522 7        44.266
R20        20.000    19220024.232 6 102778152.00906     -1085.659 6        40.431                                                                    19220025.236 7  79938562.25107      -844.418 7        46.953
R05        21.000    19100007.759 8 102100532.03408      -864.187 8        51.660                                                                    19100006.888 7  79411530.86807      -672.078 7        47.438
I06        22.000    38245392.402 7 150083364.11807      -213.056 7        43.420
S28        23.000    40885730.639 5 214855959.31605      -415.958 5        34.033
E10        24.000    24843970.471 7 130556069.83807     -2278.338 7        46.032                                                                    24843969.851 8  97493236.35608     -1701.408 8        49.041    24843969.641 8 100036528.63408     -1745.740 8        49.379
S23        25.000    38161036.122 7 200537564.90407      -420.553 7        44.521
E06        26.000    23976054.408 7 125995073.75307      1189.367 7        47.978                                                                    23976054.191 8  94087228.97908       888.135 8        49.654    23976054.112 8  96541677.03908       911.319 8        50.408
E30        27.000    28484742.711 6 149688331.04106      -759.191 6        37.569                                                                    28484743.871 6 111780247.83606      -566.836 6        40.269    28484743.381 6 114696252.13406      -581.595 6        41.566
E12        28.000    26975560.890 6 141757674.59906     -2928.439 6        37.025                                                                    26975558.476 6 105858076.74506     -2186.699 6        40.553    26975558.546 6 108619579.56106     -2243.932 6        41.838
E19        30.000    26475997.349 5 139132314.71605     -2968.011 5        35.348                                                                    26475995.898 6 103897505.71006     -2216.061 6        38.021    26475995.138 6 106607872.83506     -2273.874 6        38.405
G32        31.000    23574138.685 7 123882950.40807     -3318.394 7        43.321                                    23574137.292 6  96532165.26706     -2585.762 6        39.258    23574137.641 6  96532170.26406     -2585.819 6        40.246
G02        32.000    20740463.339 8 108991914.06808      -967.142 8        49.687                                    20740456.411 7  84928761.37107      -753.618 7        42.802
G19        33.000    24193938.342 6 127140025.47306      2832.095 6        39.889                                    24193932.689 4  99070168.10804      2206.836 4        24.135
G17        34.000    22584501.195 7 118682409.22607      1046.744 7        44.995                                    22584496.760 7  92479810.13007       815.645 7        42.248    22584497.241 6  92479810.13306       815.631 6        41.521
E11        35.000    23369137.988 7 122805718.79907     -1037.352 7        44.305                                                                    23369133.480 7  91705588.49507      -774.667 7        47.151    23369133.191 7  94097900.59007      -794.888 7        47.501
C32        36.000                                                                                                                                    23226671.770 8 120947403.77308     -2621.375 8        48.356                                                                    23226671.820 8  98279683.55508     -2130.133 8        48.957
C35        37.000                                                                                                                                    24875511.154 7 129533327.77307      2399.790 7        43.865                                                                    24875510.083 7 105256437.82107      1949.989 7        43.642
I09        38.000    37121045.045 7 145670952.65007      -313.742 7        42.971
C29        39.000                                                                                                                                    21771457.512 8 113369698.28308      -593.553 8        50.763                                                                    21771455.087 8  92122161.36908      -482.325 8        49.033
G08        40.000    24826419.815 6 130463745.49906     -4120.234 6        37.388                                    24826419.951 5 101660080.16205     -3210.563 5        30.226    24826419.884 6 101660087.15606     -3210.675 6        36.873
S44        42.000    40570174.750 6 213197910.33506      -490.017 6        37.361
C09        43.000                                                                                                                                    39642546.767 6 206429159.44506       980.262 6        40.610    39642543.779 7 159624109.89807       757.849 7        43.697    39642541.649 6 167740581.00206       796.355 6        40.615
C05        44.000                                                                                                                                    39125947.765 6 203739114.87506      -411.593 6        37.845    39125943.475 7 157544031.44907      -318.344 7        43.731    39125945.397 6 165554822.98406      -334.548 6        40.503
R06        45.000    22060083.757 6 117716869.85606      3233.557 6        38.568
R13        46.000    23811661.472 6 127152945.54006        71.230 6        37.815
C39        47.000                                                                                                                                    38993398.334 7 203048863.72907        45.517 7        42.758                                                                    38993393.724 7 164993823.04707        36.946 7        43.276
C20        48.000                                                                                                                                    21961666.277 8 114360205.60408       495.714 8        52.041                                                                    21961660.459 8  92927026.48308       402.812 8        49.307
C06        49.000                                                                                                                                    38801251.579 6 202048313.45406       599.498 6        40.493    38801245.309 7 156236554.94407       463.577 7        44.063    38801244.861 6 164180783.56406       487.075 6        40.801
C16        50.000                                                                                                                                    39148068.643 7 203854279.18607       474.434 7        42.229    39148068.049 7 157633067.96907       366.917 7        43.467    39148066.002 6 165648298.15906       385.425 6        39.084
S48        51.000    77196435.982 6 405671545.73606      -429.324 6        36.696
C19        52.000                                                                                                                                    25006740.297 7 130216701.04707      2505.502 7        44.420                                                                    25006736.111 7 105811735.73707      2036.040 7        44.543
R04        53.000    21547886.086 7 115387981.46807     -4031.770 7        47.425                                                                    21547885.095 7  89746215.47007     -3135.788 7        44.144
C60        54.000                                                                                                                                    40570178.209 6 211259766.94806      -485.585 6        40.305                                                                    40570162.024 6 171665835.38606      -394.499 6        39.354
C30        55.000                                                                                                                                    23839688.374 7 124139506.06307     -3447.141 7        45.995                                                                    23839688.846 7 100873514.94607     -2801.132 7        45.619
R19        56.000    23141748.480 5 123792778.50905     -4544.066 5        35.467                                                                    23141748.163 6  96283309.15306     -3534.135 6        38.441
C02        57.000                                                                                                                                    40546408.794 5 211135840.91805      -456.164 5        34.124    40546402.509 6 163263619.07506      -352.637 6        40.496    40546405.456 5 171565168.85505      -370.547 5        35.290
I03        58.000   133770175.911 6 449157657.83306       976.812 6        40.625
C13        59.000                                                                                                                                    41112977.889 5 214086127.31105     -1109.032 5        35.781    41112980.678 6 165545014.53006      -857.410 6        38.396    41112978.473 6 173962544.26406      -901.018 6        36.771
> 2025 01 01 00 30  5.0000000  0 53
G28         1.000    23533979.169 6 123671902.60406      1151.699 6        41.220                                    23533974.966 4  96367696.54304       897.426 4        26.826    23533975.215 6  96367702.53006       897.463 6        41.032
G31         2.000    23896766.357 6 125578359.67506      2514.099 6        41.471                                    23896762.308 5  97853252.80405      1959.036 5        35.476    23896762.275 6  97853251.81206      1959.002 6        38.273
S21         5.000    38442455.358 6 202016320.25106      -423.925 6        41.425
R12         6.000    24291760.821 7 129762236.62307     -2420.589 7        43.395                                                                    24291761.344 6 100926198.87706     -1882.549 6        38.291
G21         7.000    21538416.026 7 113185201.10307     -2295.363 7        45.019                                    21538410.913 6  88196264.90706     -1788.595 6        36.011
E04         8.000    23749864.589 7 124806404.68707      -281.098 7        47.247                                                                    23749862.691 8  93199593.05108      -209.912 8        50.340    23749862.445 8  95630878.70808      -215.409 8        50.903
G04        10.000    23394880.812 6 122940953.95706      3227.887 6        40.920                                    23394879.148 4  95798150.08304      2515.230 4        26.563    23394878.676 6  95798145.07006      2515.348 6        40.923
E09        11.000    25310162.709 7 133005842.87207      2199.268 7        45.023                                                                    25310162.244 7  99322559.74907      1642.276 7        47.393    25310162.106 8 101913582.56408      1685.096 8        48.405
S27        12.000    39092050.234 5 205430082.89405      -403.296 5        35.605
S36        14.000    38210114.625 7 200796012.33307      -423.605 7        43.198
E02        15.000    28088546.197 6 147606331.09106     -2639.074 6        36.586                                                                    28088545.923 6 110225524.40206     -1970.578 6        38.811    28088544.954 6 113100968.56906     -2021.964 6        39.655
E36        16.000    24528874.774 7 128900133.43007      1383.110 7        45.756                                                                    24528874.859 8  96256609.96008      1032.766 8        48.736    24528874.730 8  98767646.72808      1059.728 8        49.874
S45        17.000    63410998.326 6 333227936.84506      -465.795 6        36.953
G03        18.000    20446072.304 8 107444891.71108      1058.754 8        49.030                                    20446070.492 8  83723311.41608       825.002 8        50.053    20446071.251 7  83723320.41807       824.977 7        45.225
R21        19.000    20916307.000 8 111927422.49908      2804.036 8        49.627                                                                    20916305.858 7  87054671.34007      2180.896 7        44.187
R20        20.000    19221041.344 6 102783590.54906     -1089.518 6        40.627                                                                    19221042.257 7  79942792.20707      -847.452 7        47.108
R05        21.000    19100817.933 8 102104862.15208      -867.842 8        51.804                                                                    19100816.737 7  79414898.74707      -674.971 7        47.511
I06        22.000    38245664.208 7 150084429.90507      -213.182 7        43.511
S28        23.000    40886128.913 5 214858040.27105      -416.047 5        33.976
E10        24.000    24846138.955 7 130567465.14607     -2279.729 7        46.154                                                                    24846138.267 8  97501745.83808     -1702.327 8        48.942    24846138.074 8 100045260.10208     -1746.742 8        49.407
S23        25.000    38161437.262 7 200539668.08107      -420.604 7        44.426
E06        26.000    23974923.680 7 125989132.49707      1187.274 7        47.476                                                                    23974923.649 8  94082792.32608       886.653 8        49.492    23974923.556 8  96537124.64808       909.741 8        50.410
E30        27.000    28485465.460 6 149692133.18006      -761.460 6        37.025                                                                    28485467.363 6 111783087.06506      -568.680 6        40.210    28485466.962 6 114699165.41906      -583.468 6        41.821
E12        28.000    26978347.847 6 141772319.35906     -2929.218 6        36.975                                                                    26978345.283 6 105869012.77306     -2187.524 6        40.267    26978345.481 6 108630800.85806     -2244.415 6        41.988
E19        30.000    26478821.351 5 139147156.38305     -2968.628 5        35.148                                                                    26478820.082 6 103908588.80206     -2216.953 6        38.126    26478819.556 6 106619245.07206     -2274.994 6        38.393
G32        31.000    23577296.573 7 123899546.79307     -3320.041 7        43.503                                    23577295.456 6  96545097.51706     -2587.043 6        39.054    23577295.705 6  96545102.52706     -2587.171 6        39.862
G02        32.000    20741384.229 8 108996755.43208      -969.375 8        49.407                                    20741377.677 7  84932533.86007      -755.358 7        42.679
G19        33.000    24191244.204 6 127125869.74306      2830.241 6        38.958                                    24191239.020 4  99059137.66604      2205.380 4        24.150
G17        34.000    22583506.577 7 118677182.70507      1043.971 7        45.198                                    22583502.190 7  92475737.51907       813.485 7        42.150    22583502.221 6  92475737.51206       813.476 6        41.135
E11        35.000    23370125.649 7 122810909.65707     -1038.988 7        44.086                                                                    23370121.245 7  91709464.78207      -775.848 7        47.102    23370121.049 7  94101877.99607      -796.118 7        47.543
C32        36.000                                                                                                                                    23229189.606 8 120960514.40808     -2622.694 8        48.588                                                                    23229189.633 8  98290337.04908     -2131.188 8        48.762
C35        37.000                                                                                                                                    24873207.203 7 129521332.14007      2398.511 7        43.663                                                                    24873206.310 7 105246690.41107      1949.125 7        43.511
I09        38.000    37121445.006 7 145672521.92407      -313.969 7        42.936
C29        39.000                                                                                                                                    21772028.817 8 113372673.26208      -596.277 8        50.939                                                                    21772026.389 8  92124578.80308      -484.488 8        48.914
G08        40.000    24830339.780 6 130484346.93306     -4120.208 6        37.588                                    24830340.384 5 101676133.20705     -3210.552 5        30.415    24830340.651 6 101676140.19306     -3210.456 6        36.635
S44        42.000    40570641.860 6 213200361.46906      -490.050 6        36.972
C09        43.000                                                                                                                                    39641606.309 6 206424260.71106       979.287 6        40.696    39641602.986 7 159620321.86607       757.327 7        43.524    39641600.980 6 167736600.39106       795.867 6        40.405
C05        44.000                                                                                                                                    39126343.079 6 203741173.70906      -411.746 6        38.087    39126338.780 7 157545623.46007      -318.374 7        43.562    39126340.774 6 165556495.96806      -334.546 6        40.377
R06        45.000    22057054.729 6 117700706.59606      3231.796 6        37.611
R13        46.000    23811596.011 6 127152600.41206        67.046 6        36.975
C39        47.000                                                                                                                                    38993355.155 7 203048639.43507        44.340 7        42.912                                                                    38993350.701 7 164993640.80907        36.150 7        43.153
C20        48.000                                                                                                                                    21961191.391 8 114357732.89108       493.527 8        52.152                                                                    21961185.637 8  92925017.22708       401.115 8        49.141
C06        49.000                                                                                                                                    38800675.903 6 202045318.68106       598.523 6        40.539    38800670.025 7 156234239.20307       462.895 7        44.086    38800669.860 6 164178350.09406       486.392 6        40.710
C16        50.000                                                                                                                                    39147613.907 7 203851909.53507       473.527 7        42.480    39147612.934 7 157631235.62107       366.187 7        43.314    39147610.924 6 165646372.65106       384.802 6        38.943
S48        51.000    77196838.624 6 405673692.74306      -429.443 6        36.775
C19        52.000                                                                                                                                    25004335.193 7 130204176.03807      2504.532 7        44.477                                                                    25004330.821 7 105801558.17107      2035.219 7        44.451
R04        53.000    21551651.683 7 115408143.76707     -4033.058 7        47.749                                                                    21551650.113 7  89761897.24907     -3136.729 7        43.913
C60        54.000                                                                                                                                    40570644.707 6 211262195.78206      -485.628 6        40.303                                                                    40570628.405 6 171667809.05706      -394.750 6        39.327
C30        55.000                                                                                                                                    23842998.956 7 124156745.82307     -3448.547 7        46.359                                                                    23842999.874 7 100887523.67607     -2802.159 7        45.637
R19        56.000    23145996.921 5 123815501.62805     -4544.959 5        35.338                                                                    23145995.913 6  96300982.68106     -3535.008 6        38.375
C02        57.000                                                                                                                                    40546847.317 5 211138121.47005      -455.960 5        34.081    40546840.554 6 163265382.54606      -352.689 6        40.317    40546843.482 5 171567022.02705      -370.356 5        35.529
I03        58.000   133768931.217 6 449152774.49406       976.797 6        40.627
C13        59.000                                                                                                                                    41114042.944 6 214091671.53606     -1108.785 6        36.174    41114045.568 6 165549301.72206      -857.451 6        38.586    41114043.029 6 173967049.45406      -900.955 6        36.612
> 2025 01 01 00 30 10.0000000  0 53
G28         1.000    23532884.377 6 123666151.23006      1148.816 6        40.784                                    23532880.380 4  96363214.94804       895.181 4        26.970    23532880.873 6  96363220.95206       895.317 6        40.517
G31         2.000    23894374.430 6 125565792.99306      2512.606 6        41.328                                    23894370.996 5  97843460.58405      1957.879 5        35.252    23894370.913 6  97843459.58306      1957.737 6        37.686
S21         5.000    38442857.446 6 202018440.44806      -424.159 6        41.628
R12         6.000    24294027.764 7 129774347.39007     -2423.784 7        44.301                                                                    24294028.646 6 100935618.42106     -1885.046 6        39.261
G21         7.000    21540600.924 7 113196682.32607     -2297.198 7        45.162                                    21540595.770 6  88205211.31106     -1790.025 6        36.038
E04         8.000    23750133.219 7 124807816.25507      -283.580 7        47.258                                                                    23750131.341 8  93200647.13408      -211.743 8        50.291    23750131.044 8  95631960.28808      -217.293 8        50.995
G04        10.000    23391810.509 6 122924816.95606      3226.843 6        41.368                                    23391807.962 4  95785575.80404      2514.431 4        26.180    23391807.293 6  95785570.81306      2514.378 6        39.937
E09        11.000    25308071.022 7 132994850.66807      2197.708 7        44.883                                                                    25308070.518 7  99314351.28407      1641.107 7        47.320    25308070.335 8 101905159.95908      1683.926 8        48.594
S27        12.000    39092436.609 5 205432099.59305      -403.377 5        35.609
S36        14.000    38210518.721 7 200798130.74107      -423.738 7        43.462
E02        15.000    28091057.537 6 147619528.76006     -2640.135 6        36.431                                                                    28091057.286 6 110235379.78206     -1971.540 6        38.598    28091056.671 6 113111081.05306     -2023.092 6        39.712
E36        16.000    24527559.240 7 128893220.97007      1382.023 7        45.837                                                                    24527559.482 8  96251448.06908      1031.955 8        48.682    24527559.350 8  98762350.17808      1058.875 8        49.918
S45        17.000    63411399.748 6 333230266.04906      -465.834 6        37.236
G03        18.000    20445065.779 8 107439603.11808      1056.661 8        48.686                                    20445064.109 8  83719190.43808       823.369 8        50.044    20445064.596 7  83719199.43207       823.338 7        45.040
R21        19.000    20913688.352 8 111913408.04208      2801.771 8        49.632                                                                    20913687.166 7  87043771.19307      2179.149 7        44.739
R20        20.000    19222061.924 6 102789048.47206     -1093.691 6        40.846                                                                    19222063.071 7  79947037.27107      -850.612 7        47.286
R05        21.000    19101631.217 8 102109210.74708      -871.594 8        51.762                                                                    19101630.198 7  79418280.98907      -677.954 7        47.173
I06        22.000    38245935.945 7 150085495.82107      -213.251 7        43.611
S28        23.000    40886521.986 5 214860120.95305      -416.067 5        33.940
E10        24.000    24848308.713 7 130578866.83207     -2281.063 7        46.071                                                                    24848307.988 8  97510260.07908     -1703.360 8        48.904    24848307.653 8 100053996.45708     -1747.845 8        49.557
S23        25.000    38161837.226 7 200541771.50207      -420.758 7        44.658
E06        26.000    23973795.112 7 125983201.33007      1185.185 7        47.307                                                                    23973794.980 8  94078363.21108       885.036 8        49.364    23973794.927 8  96532579.99208       908.110 8        50.479
E30        27.000    28486190.667 6 149695947.14806      -764.141 6        37.535                                                                    28486193.136 6 111785935.15606      -570.661 6        40.949    28486192.812 7 114702087.80507      -585.384 7        42.345
E12        28.000    26981135.632 6 141786968.12406     -2930.184 6        37.172                                                                    26981132.745 6 105879951.77206     -2188.007 6        40.377    26981133.141 7 108642025.23707     -2245.352 7        42.241
E19        30.000    26481646.674 5 139162003.64005     -2970.042 5        34.619                                                                    26481645.365 6 103919676.01806     -2217.779 6        37.989    26481644.986 6 106630621.51306     -2275.781 6        38.432
G32        31.000    23580456.500 7 123916150.85607     -3321.633 7        43.302                                    23580455.068 6  96558035.74406     -2588.287 6        38.805    23580455.860 6  96558040.73606     -2588.186 6        40.017
G02        32.000    20742307.829 8 109001608.22808      -971.772 8        49.526                                    20742301.143 7  84936315.25807      -757.226 7        42.561
G19        33.000    24188552.422 6 127111722.84206      2828.324 6        38.892                                    24188547.018 4  99048114.11904      2203.901 4        24.075
G17        34.000    22582514.878 7 118671969.85907      1041.117 7        44.742                                    22582510.228 6  92471675.56306       811.256 6        41.952    22582510.364 6  92471675.55806       811.333 6        41.175
E11        35.000    23371114.845 7 122816108.39707     -1040.587 7        43.845                                                                    23371110.559 7  91713346.96407      -777.151 7        47.038    23371110.348 7  94105861.44907      -797.425 7        47.522
C32        36.000                                                                                                                                    23231708.717 8 120973631.53908     -2624.139 8        48.694                                                                    23231708.680 8  98300995.76908     -2132.190 8        48.907
C35        37.000                                                                                                                                    24870905.168 7 129509342.75607      2397.211 7        44.101                                                                    24870903.912 7 105236948.03107      1948.093 7        43.801
I09        38.000    37121845.255 7 145674092.24507      -314.239 7        43.132
C29        39.000                                                                                                                                    21772602.593 8 113375661.91508      -599.131 8        50.906                                                                    21772600.289 8  92127007.31408      -486.775 8        49.017
G08        40.000    24834260.012 6 130504947.58606     -4120.267 6        37.951                                    24834260.611 5 101692185.65505     -3210.598 5        30.475    24834260.824 6 101692192.63106     -3210.422 6        36.779
S44        42.000    40571107.003 6 213202812.76706      -490.244 6        37.444
C09        43.000                                                                                                                                    39640666.451 6 206419365.59206       978.532 6        40.818    39640662.652 7 159616536.64707       756.657 7        43.562    39640660.994 6 167732622.68406       795.309 6        40.734
C05        44.000                                                                                                                                    39126738.134 6 203743232.71406      -411.700 6        38.015    39126734.165 7 157547215.61307      -318.448 7        43.534    39126736.239 6 165558169.06906      -334.561 6        40.615
R06        45.000    22054026.267 6 117684552.45006      3229.691 6        38.204
R13        46.000    23811534.811 6 127152276.04606        62.856 6        37.108
C39        47.000                                                                                                                                    38993312.970 7 203048420.23707        43.100 7        42.876                                                                    38993308.649 7 164993462.66007        35.285 7        43.367
C20        48.000                                                                                                                                    21960718.711 8 114355270.97508       491.201 8        52.213                                                                    21960712.847 8  92923016.70508       399.251 8        49.303
C06        49.000                                                                                                                                    38800101.400 6 202042328.50906       597.575 6        40.379    38800095.892 7 156231927.02107       462.017 7        44.009    38800095.765 6 164175920.32506       485.564 6        41.092
C16        50.000                                                                                                                                    39147159.747 7 203849544.54707       472.393 7        42.457    39147158.807 7 157629406.85007       365.344 7        43.206    39147156.628 6 165644450.88606       384.082 6        39.021
S48        51.000    77197238.437 6 405674239.86516      -429.541 6        36.987
C19        52.000                                                                                                                                    25001930.678 7 130191656.08807      2503.435 7        44.283                                                                    25001926.590 7 105791384.67307      2034.302 7        44.641
R04        53.000    21555418.154 8 115428312.90308     -4034.558 8        48.008                                                                    21555416.311 7  89777584.34707     -3138.054 7        44.072
C60        54.000                                                                                                                                    40571111.102 6 211264624.80606      -485.816 6        40.429                                                                    40571094.617 6 171669782.80906      -394.610 6        39.631
C30        55.000                                                                                                                                    23846311.312 7 124173992.16307     -3449.867 7        46.536                                                                    23846312.035 7 100901537.72807     -2803.244 7        45.989
R19        56.000    23150245.448 5 123838230.97005     -4546.583 5        35.257                                                                    23150245.005 6  96318661.01706     -3536.135 6        38.420
C02        57.000                                                                                                                                    40547285.975 5 211140402.29905      -456.626 5        34.119    40547278.621 6 163267146.21906      -352.914 6        40.369    40547281.496 5 171568875.35105      -370.489 5        35.657
I03        58.000   133767686.640 6 449147891.43706       976.569 6        40.751
C13        59.000                                                                                                                                    41115108.829 6 214097215.49906     -1108.747 6        36.250    41115109.810 6 165553588.65306      -857.490 6        38.423    41115107.630 6 173971554.36006      -900.972 6        36.809
> 2025 01 01 00 30 15.0000000  0 54
G28         1.000    23531792.305 6 123660413.23006      1146.375 6        41.235                                    23531788.414 4  96358743.78304       893.276 4        27.245    23531789.309 6  96358749.79006       893.165 6        41.094
G31         2.000    23891984.896 6 125553233.43906      2511.331 6        41.321                                    23891980.958 5  97833673.91905      1956.874 5        34.871    23891981.302 6  97833672.92106      1956.696 6        37.819
E34         4.000    28883321.975 5 151782880.58115      2327.398 5        35.057                                                                    28883323.072 6 113344363.23216      1737.979 6        36.575    28883322.997 6 116301172.45016      1783.199 6        37.410
S21         5.000    38443263.425 7 202020560.82707      -424.099 7        42.051
R12         6.000    24296296.996 7 129786474.52907     -2426.915 7        44.134                                                                    24296299.200 6 100945050.56006     -1887.813 6        39.255
G21         7.000    21542787.111 7 113208172.10007     -2298.780 7        45.515                                    21542782.192 6  88214164.38106     -1791.257 6        36.030
E04         8.000    23750403.926 7 124809239.44307      -285.845 7        47.107                                                                    23750402.199 8  93201709.91008      -213.456 8        50.126    23750401.876 8  95633050.78708      -218.981 8        50.985
G04        10.000    23388740.750 6 122908684.65206      3225.978 6        41.602                                    23388737.947 4  95773005.18604      2513.747 4        26.168    23388738.233 6  95773000.18106      2513.869 6        39.880
E09        11.000    25305980.815 7 132983865.28007      2196.375 7        44.786                                                                    25305980.238 7  99306147.91507      1640.190 7        47.133    25305979.881 8 101896742.58908      1682.964 8        48.544
S27        12.000    39092816.384 5 205434116.21905      -403.415 5        35.348
S36        14.000    38210920.805 7 200800249.42907      -423.749 7        43.780
E02        15.000    28093570.323 6 147632732.25306     -2641.352 6        36.019                                                                    28093569.816 6 110245239.52106     -1972.243 6        38.363    28093569.056 6 113121198.00206     -2023.800 6        39.562
E36        16.000    24526244.545 7 128886313.27707      1381.079 7        45.768                                                                    24526245.003 8  96246289.72508      1031.352 8        48.501    24526244.840 8  98757057.27008      1058.257 8        49.896
S45        17.000    63411798.657 6 333232595.43606      -465.886 6        37.195
G03        18.000    20444061.371 8 107434324.46408      1054.765 8        48.726                                    20444059.608 8  83715077.19808       821.894 8        49.901    20444060.088 7  83715086.19907       821.941 7        44.658
R21        19.000    20911071.189 8 111899404.34408      2799.666 8        49.659                                                                    20911070.291 7  87032879.44407      2177.540 7        44.837
R20        20.000    19223086.158 6 102794525.77906     -1097.274 6        40.625                                                                    19223087.455 7  79951297.40007      -853.483 7        46.777
R05        21.000    19102448.449 8 102113577.54108      -875.203 8        51.857                                                                    19102447.012 7  79421677.37107      -680.582 7        47.017
I06        22.000    38246207.434 7 150086561.84807      -213.188 7        43.549
S28        23.000    40886917.729 5 214862202.22105      -416.227 5        34.319
E10        24.000    24850479.537 7 130590274.86907     -2282.147 7        45.475                                                                    24850478.794 8  97518779.07208     -1704.238 8        48.623    24850478.511 8 100062737.68408     -1748.684 8        49.493
S23        25.000    38162237.016 7 200543874.83707      -420.706 7        44.913
E06        26.000    23972668.407 7 125977280.25507      1183.233 7        47.230                                                                    23972668.237 8  94073941.63008       883.604 8        49.231    23972668.094 8  96528043.06308       906.643 8        50.451
E30        27.000    28486919.094 6 149699772.75006      -766.342 6        37.202                                                                    28486921.173 6 111788791.89706      -572.091 6        40.312    28486920.787 6 114705019.09206      -587.015 6        41.807
E12        28.000    26983924.168 6 141801620.84506     -2930.816 6        36.930                                                                    26983921.170 6 105890893.75706     -2188.681 6        40.522    26983921.619 7 108653252.65807     -2245.816 7        42.097
E19        30.000    26484473.245 5 139176856.42205     -2971.203 5        34.829                                                                    26484471.933 6 103930767.37606     -2218.736 6        37.834    26484471.297 6 106642002.19406     -2276.501 6        38.081
G32        31.000    23583617.867 7 123932762.56707     -3323.099 7        43.077                                    23583616.130 6  96570979.93806     -2589.427 6        38.763    23583616.918 6  96570984.94306     -2589.500 6        39.712
G02        32.000    20743233.378 8 109006472.47408      -973.950 8        49.661                                    20743226.760 7  84940105.58007      -758.923 7        42.552
G19        33.000    24185862.130 6 127097584.80606      2826.812 6        40.191                                    24185856.590 4  99037097.48504      2202.707 4        24.286
G17        34.000    22581525.477 7 118666770.82107      1038.408 7        45.205                                    22581520.899 6  92467624.36706       809.146 6        41.986    22581520.954 6  92467624.36406       809.133 6        41.404
E11        35.000    23372105.569 7 122821315.04307     -1042.186 7        43.568                                                                    23372101.312 7  91717235.04307      -778.252 7        46.855    23372101.107 7  94109850.95507      -798.452 7        47.590
C32        36.000                                                                                                                                    23234229.087 8 120986755.11908     -2625.357 8        48.842                                                                    23234228.965 8  98311659.75408     -2133.262 8        48.805
C35        37.000                                                                                                                                    24868604.229 7 129497359.63707      2396.095 7        44.327                                                                    24868602.866 7 105227210.77407      1947.050 7        43.619
I09        38.000    37122245.791 7 145675663.59007      -314.367 7        42.933
C29        39.000                                                                                                                                    21773179.390 8 113378664.22208      -601.808 8        51.015                                                                    21773176.935 8  92129446.93408      -489.023 8        48.908
G08        40.000    24838179.892 6 130525547.41006     -4119.660 6        38.156                                    24838180.641 5 101708237.44805     -3210.123 5        30.574    24838181.038 6 101708244.44006     -3210.253 6        36.465
S44        42.000    40571572.910 6 213205264.21606      -490.165 6        37.758
C09        43.000                                                                                                                                    39639726.900 6 206414474.03906       977.970 6        40.682    39639723.333 7 159612754.18607       756.269 7        43.609    39639721.670 6 167728647.90306       794.662 6        40.508
C05        44.000                                                                                                                                    39127134.534 6 203745291.92706      -411.847 6        38.138    39127129.599 7 157548807.92307      -318.413 7        43.471    39127131.634 6 165559842.35006      -334.825 6        40.336
R06        45.000    22051001.693 6 117668407.21406      3228.126 6        38.102
R13        46.000    23811477.800 6 127151971.81306        58.855 6        37.493
C39        47.000                                                                                                                                    38993271.682 7 203048206.08407        42.279 7        42.904                                                                    38993267.598 7 164993288.64907        34.441 7        43.124
C20        48.000                                                                                                                                    21960247.979 8 114352819.82308       489.173 8        52.213                                                                    21960242.091 8  92921024.94008       397.584 8        49.082
C06        49.000                                                                                                                                    38799527.731 6 202039342.95406       596.730 6        39.850    38799522.354 7 156229618.39907       461.461 7        43.932    38799522.381 6 164173494.31406       484.797 6        40.861
C16        50.000                                                                                                                                    39146705.923 7 203847184.19107       471.580 7        42.275    39146705.493 7 157627581.68507       364.766 7        43.016    39146703.463 6 165642532.91506       383.355 6        38.835
S48        51.000    77197642.001 6 405676387.00506      -429.517 6        37.240
C19        52.000                                                                                                                                    24999527.639 7 130179141.16007      2502.450 7        44.432                                                                    24999523.247 7 105781215.28907      2033.464 7        44.482
R04        53.000    21559185.381 8 115448488.88308     -4035.898 8        48.111                                                                    21559184.029 7  89793276.77007     -3139.046 7        43.797
C60        54.000                                                                                                                                    40571577.505 6 211267053.98706      -485.855 6        40.446                                                                    40571561.204 6 171671756.71706      -394.711 6        39.348
C30        55.000                                                                                                                                    23849624.337 7 124191245.10407     -3451.240 7        46.149                                                                    23849625.321 7 100915557.14107     -2804.377 7        45.756
R19        56.000    23154495.029 5 123860966.50705     -4547.832 5        35.457                                                                    23154495.092 6  96336344.24306     -3537.052 6        38.138
C02        57.000                                                                                                                                    40547722.485 5 211142683.29205      -456.273 5        34.119    40547716.308 6 163268910.03706      -352.793 6        40.355    40547719.603 5 171570728.88805      -370.613 5        35.424
I03        58.000   133766442.660 6 449143008.64706       976.587 6        40.703
C13        59.000                                                                                                                                    41116171.686 6 214102759.11106     -1108.716 6        36.155    41116174.170 6 165557875.29206      -857.311 6        38.273    41116172.285 6 173976058.96206      -900.756 6        36.412
> 2025 01 01 00 30 20.0000000  0 54
G28         1.000    23530703.133 6 123654688.82206      1143.386 6        41.781                                    23530699.274 4  96354283.20604       890.955 4        27.413    23530700.273 7  96354289.20607       891.012 7        42.095
G31         2.000    23889596.096 6 125540681.21406      2509.580 6        41.182                                    23889592.293 5  97823892.96005      1955.518 5        34.538    23889592.730 6  97823891.95006      1955.589 6        37.728
E34         4.000    28881107.893 5 151771244.14805      2327.351 5        34.576                                                                    28881108.954 6 113335673.69706      1737.790 6        37.085    28881108.274 6 116292256.21706      1783.138 6        37.323
S21         5.000    38443666.636 6 202022681.28106      -424.301 6        41.852
R12         6.000    24298570.250 7 129798618.72507     -2430.557 7        42.927                                                                    24298572.226 6 100954496.10706     -1890.477 6        38.892
G21         7.000    21544975.452 7 113219670.58907     -2300.662 7        45.415                                    21544970.283 5  88223124.24305     -1792.729 5        35.771
E04         8.000    23750677.154 7 124810674.43307      -288.309 7        47.222                                                                    23750675.243 8  93202781.49108      -215.291 8        50.216    23750674.944 8  95634150.32808      -220.876 8        50.940
G04        10.000    23385671.970 6 122892557.21206      3224.945 6        41.833                                    23385668.987 4  95760438.35904      2512.944 4        26.407    23385669.848 6  95760433.36206      2512.894 6        41.199
E09        11.000    25303891.561 7 132972886.91107      2194.797 7        44.930                                                                    25303891.210 7  99297949.78507      1639.046 7        47.253    25303890.774 8 101888330.59908      1681.732 8        48.520
S27        12.000    39093200.769 5 205436133.11305      -403.583 5        35.900
S36        14.000    38211324.029 7 200802368.37407      -424.002 7        43.530
E02        15.000    28096083.494 5 147645941.70105     -2642.533 5        35.490                                                                    28096083.526 6 110255103.72006     -1973.452 6        38.462    28096083.042 6 113131319.53906     -2024.881 6        39.408
E36        16.000    24524931.335 7 128879410.52107      1379.969 7        45.950                                                                    24524931.441 8  96241135.07108      1030.473 8        48.638    24524931.342 8  98751768.15508      1057.353 8        49.862
S45        17.000    63412197.248 6 333234925.20406      -466.031 6        37.089
G03        18.000    20443058.862 8 107429055.92208      1052.553 8        48.721                                    20443057.039 8  83710971.84708       820.168 8        49.807    20443057.680 7  83710980.84507       820.250 7        44.984
R21        19.000    20908456.543 8 111885411.67408      2797.253 8        49.590                                                                    20908455.475 7  87021996.24807      2175.705 7        44.588
R20        20.000    19224113.786 6 102800022.71306     -1101.488 6        40.338                                                                    19224115.130 7  79955572.77407      -856.628 7        47.130
R05        21.000    19103268.778 8 102117963.03608      -879.060 8        51.743                                                                    19103267.552 7  79425088.32607      -683.780 7        46.686
I06        22.000    38246479.197 7 150087628.13507      -213.391 7        43.606
S28        23.000    40887315.990 5 214864283.61405      -416.335 5        33.683
E10        24.000    24852651.707 7 130601689.47007     -2283.760 7        45.127                                                                    24852650.852 8  97527302.95708     -1705.370 8        48.761    24852650.659 8 100071483.93108     -1749.873 8        49.381
S23        25.000    38162638.192 7 200545978.35007      -420.865 7        44.698
E06        26.000    23971543.781 7 125971369.44907      1181.028 7        47.415                                                                    23971543.469 8  94069527.72008       881.934 8        49.271    23971543.339 8  96523514.00708       904.973 8        50.434
E30        27.000    28487649.562 6 149703610.30706      -768.912 6        36.896                                                                    28487651.529 6 111791657.60406      -574.085 6        40.243    28487650.975 6 114707959.54806      -588.990 6        41.282
E12        28.000    26986713.069 6 141816277.73506     -2931.694 6        37.236                                                                    26986710.444 6 105901838.82906     -2189.364 6        40.777    26986710.848 7 108664483.25307     -2246.517 7        42.307
E19        30.000    26487300.502 5 139191714.76805     -2972.293 5        34.976                                                                    26487299.441 6 103941862.88906     -2219.764 6        38.132    26487298.941 6 106653387.17306     -2277.608 6        38.180
G32        31.000    23586780.357 7 123949382.09507     -3324.792 7        42.408                                    23586778.694 6  96583930.21306     -2590.751 6        38.664    23586779.735 6  96583935.21106     -2590.808 6        39.733
G02        32.000    20744161.329 8 109011348.34208      -976.393 8        49.804                                    20744154.618 7  84943904.95607      -760.825 7        42.533
G19        33.000    24183173.975 6 127083455.79106      2824.817 6        39.991                                    24183167.862 4  99026087.87204      2201.167 4        24.045
G17        34.000    22580538.534 7 118661585.62507      1035.511 7        44.662                                    22580534.173 6  92463583.95906       806.890 6        41.974    22580534.505 6  92463583.97406       806.915 6        41.630
E11        35.000    23373098.142 7 122826529.78107     -1043.821 7        43.977                                                                    23373093.661 7  91721129.15907      -779.473 7        46.895    23373093.457 7  94113846.66107      -799.773 7        47.512
C32        36.000                                                                                                                                    23236750.530 8 120999885.34508     -2626.799 8        48.654                                                                    23236750.487 8  98322329.15008     -2134.499 8        48.862
C35        37.000                                                                                                                                    24866304.220 7 129485382.97307      2394.511 7        44.161                                                                    24866302.826 7 105217478.76007      1945.814 7        43.736
I09        38.000    37122646.684 7 145677236.12007      -314.639 7        43.082
C29        39.000                                                                                                                                    21773758.673 8 113381680.35908      -604.718 8        50.877                                                                    21773756.115 8  92131897.79808      -491.379 8        48.933
G08        40.000    24842100.229 6 130546146.62106     -4119.885 6        38.393                                    24842100.492 5 101724288.77005     -3210.301 5        30.838    24842100.691 6 101724295.77706     -3210.495 6        36.416
S44        42.000    40572041.876 6 213207716.02406      -490.563 6        37.512
C09        43.000                                                                                                                                    39638788.557 6 206409586.24206       977.142 6        40.577    39638784.660 7 159608974.65507       755.604 7        43.456    39638783.024 6 167724676.17006       794.074 6        40.706
C05        44.000                                                                                                                                    39127529.535 6 203747351.50206      -412.107 6        38.018    39127525.208 7 157550400.52507      -318.675 7        43.613    39127527.162 6 165561515.92306      -334.716 6        40.489
R06        45.000    22047977.266 6 117652271.19006      3226.167 6        37.966
R13        46.000    23811425.973 6 127151688.75006        54.399 6        38.063
C39        47.000                                                                                                                                    38993231.714 7 203047997.16007        41.094 7        42.652                                                                    38993227.394 7 164993118.89107        33.607 7        43.348
C20        48.000                                                                                                                                    21959779.338 8 114350379.62508       486.822 8        52.105                                                                    21959773.518 8  92919042.08908       395.603 8        49.189
C06        49.000                                                                                                                                    38798955.007 6 202036362.18206       595.577 6        39.459    38798949.695 7 156227313.47907       460.483 7        43.788    38798950.014 6 164171072.20106       483.889 6        40.875
C16        50.000                                                                                                                                    39146253.392 7 203844828.66607       470.524 7        42.172    39146253.222 7 157625760.25307       363.791 7        42.779    39146251.109 6 165640618.87706       382.330 6        39.060
S48        51.000    77198043.436 6 405678534.40606      -429.500 6        36.843
C19        52.000                                                                                                                                    24997125.354 7 130166631.45307      2501.323 7        44.625                                                                    24997120.791 7 105771050.13607      2032.592 7        44.497
R04        53.000    21562954.998 8 115468671.80108     -4037.380 8        48.266                                                                    21562953.140 7  89808974.60207     -3140.129 7        43.496
C60        54.000                                                                                                                                    40572044.235 6 211269483.47806      -486.000 6        40.327                                                                    40572027.831 6 171673730.89106      -394.965 6        39.441
C30        55.000                                                                                                                                    23852938.611 7 124208504.75807     -3452.707 7        46.289                                                                    23852939.551 7 100929582.03807     -2805.677 7        45.637
R19        56.000    23158746.213 5 123883708.46205     -4549.200 5        34.862                                                                    23158746.565 6  96354032.40606     -3538.150 6        38.168
C02        57.000                                                                                                                                    40548160.821 5 211144964.70905      -456.459 5        33.940    40548154.513 6 163270674.15906      -352.954 6        40.393    40548157.522 5 171572582.70405      -371.096 5        35.514
I03        58.000   133765198.608 6 449138126.28806       976.339 6        40.872
C13        59.000                                                                                                                                    41117235.806 6 214108302.55806     -1108.989 6        36.015    41117238.687 6 165562161.82806      -857.359 6        37.909    41117236.920 6 173980563.48306      -901.056 6        36.091
> 2025 01 01 00 30 25.0000000  0 54
G28         1.000    23529616.618 6 123648978.15006      1140.883 6        41.454                                    23529612.764 4  96349833.34004       888.992 4        27.569    23529613.490 6  96349839.33906       889.115 6        41.959
G31         2.000    23887209.099 6 125528136.47106      2508.520 6        40.968                                    23887205.073 5  97814117.83505      1954.691 5        34.510    23887205.582 6  97814116.83706      1954.514 6        37.924
E34         4.000    28878893.431 5 151759606.92405      2327.568 5        35.362                                                                    28878894.591 6 113326983.55906      1738.248 6        37.584    28878893.701 6 116283339.36906      1783.723 6        38.180
S21         5.000    38444070.298 6 202024802.13806      -424.048 6        41.754
R12         6.000    24300847.149 7 129810779.59807     -2433.657 7        43.342                                                                    24300848.470 6 100963954.49506     -1893.004 6        38.817
G21         7.000    21547164.960 7 113231177.99907     -2302.158 7        45.401                                    21547160.054 5  88232091.05305     -1793.888 5        35.943
E04         8.000    23750952.461 7 124812121.38607      -290.327 7        47.280                                                                    23750950.587 8  93203862.01308      -216.805 8        50.238    23750950.312 8  95635259.03308      -222.449 8        51.064
G04        10.000    23382603.531 6 122876434.80806      3224.140 6        41.788                                    23382601.168 4  95747875.46604      2512.312 4        27.018    23382601.869 6  95747870.46406      2512.473 6        41.099
E09        11.000    25301803.667 7 132961915.70807      2193.712 7        44.981                                                                    25301803.525 7  99289757.01507      1638.190 7        47.304    25301802.975 8 101879924.09808      1680.928 8        48.558
S27        12.000    39093586.974 5 205438150.09805      -403.000 5        35.648
S36        14.000    38211726.306 7 200804488.49207      -423.932 7        43.547
E02        15.000    28098598.444 5 147659157.27005     -2643.646 5        35.900                                                                    28098598.446 6 110264972.47506     -1974.045 6        38.571    28098597.875 6 113141445.75106     -2025.568 6        39.366
E36        16.000    24523618.584 7 128872512.84907      1379.284 7        45.958                                                                    24523618.834 8  96235984.22408      1029.927 8        48.652    24523618.714 8  98746482.93008      1056.848 8        49.934
S45        17.000    63412595.008 6 333235655.21116      -465.646 6        37.096
G03        18.000    20442058.361 8 107423797.63308      1050.827 8        48.839                                    20442056.402 8  83706874.48008       818.825 8        50.020    20442057.097 7  83706883.48207       818.864 7        44.659
R21        19.000    20905843.549 8 111871430.24608      2795.382 8        49.245                                                                    20905842.463 7  87011121.82307      2174.175 7        44.412
R20        20.000    19225144.796 6 102805539.46906     -1105.094 6        40.057                                                                    19225147.116 7  79959863.60507      -859.552 7        47.342
R05        21.000    19104092.476 8 102122367.31208      -882.486 8        51.775                                                                    19104091.631 7  79428513.86407      -686.389 7        47.009
I06        22.000    38246750.844 7 150088694.75907      -213.086 7        43.613
S28        23.000    40887711.782 5 214866365.47005      -416.330 5        33.808
E10        24.000    24854825.288 7 130613110.75307     -2284.723 7        45.314                                                                    24854824.201 8  97535831.84008     -1706.140 8        48.742    24854823.978 8 100080235.30808     -1750.699 8        49.507
S23        25.000    38163038.568 7 200548082.24707      -420.576 7        44.664
E06        26.000    23970421.108 7 125965469.06207      1179.274 7        47.662                                                                    23970420.596 8  94065121.58908       880.618 8        49.316    23970420.539 8  96518992.93408       903.592 8        50.502
E30        27.000    28488381.739 6 149707459.88306      -771.001 6        37.459                                                                    28488383.879 6 111794532.27706      -575.565 6        40.548    28488383.434 6 114710909.21506      -590.648 6        41.886
E12        28.000    26989503.152 6 141830938.95806     -2932.749 6        36.975                                                                    26989500.525 6 105912787.12306     -2189.819 6        40.911    26989500.745 7 108675717.16307     -2246.888 7        42.364
E19        30.000    26490129.000 5 139206578.97805     -2973.082 5        35.024                                                                    26490128.145 6 103952962.77906     -2220.227 6        38.231    26490127.618 6 106664776.63906     -2278.172 6        38.423
G32        31.000    23589944.562 7 123966009.59807     -3326.137 7        42.184                                    23589942.801 6  96596886.71006     -2591.795 6        38.910    23589943.357 6  96596891.71306     -2591.985 6        39.402
G02        32.000    20745091.469 8 109016235.95608      -978.489 8        49.940                                    20745084.702 7  84947713.48707      -762.459 7        42.616
G19        33.000    24180486.794 6 127069335.94706      2823.348 6        39.186                                    24180481.047 4  99015085.40904      2200.007 4        24.391
G17        34.000    22579554.456 7 118656414.45207      1033.037 7        44.692                                    22579550.126 7  92459554.48007       804.962 7        42.066    22579550.176 6  92459554.48606       804.906 6        41.216
E11        35.000    23374091.959 7 122831752.71407     -1045.077 7        43.962                                                                    23374087.599 7  91725029.40207      -780.403 7        46.924    23374087.303 7  94117848.65107      -800.763 7        47.631
C32        36.000                                                                                                                                    23239273.244 8 121013022.35508     -2627.911 8        48.339                                                                    23239273.322 8  98333004.02708     -2135.338 8        48.896
C35        37.000                                                                                                                                    24864005.335 7 129473412.90507      2393.535 7        43.956                                                                    24864004.097 7 105207752.09107      1945.025 7        43.661
I09        38.000    37123047.455 7 145678809.94107      -314.831 7        43.151
C29        39.000                                                                                                                                    21774340.673 8 113384710.48308      -607.271 8        50.756                                                                    21774338.024 8  92134360.00308      -493.357 8        49.013
G08        40.000    24846020.101 6 130566745.31906     -4119.453 6        38.444                                    24846020.236 5 101740339.69505     -3209.965 5        31.102    24846020.816 6 101740346.70906     -3209.978 6        36.234
S44        42.000    40572507.233 6 213210168.29806      -490.369 6        37.410
C09        43.000                                                                                                                                    39637850.649 6 206404702.40606       976.587 6        40.596    39637846.647 7 159605198.14607       755.296 7        43.649    39637844.983 6 167720707.63606       793.820 6        40.818
C05        44.000                                                                                                                                    39127925.001 6 203749411.60706      -411.841 6        37.743    39127920.536 7 157551993.53507      -318.584 7        43.596    39127922.892 6 165563189.91206      -334.623 6        40.553
R06        45.000    22044955.073 6 117636144.56206      3224.570 6        38.520
R13        46.000    23811376.797 6 127151427.18306        50.388 6        37.251
C39        47.000                                                                                                                                    38993193.006 7 203047793.63307        40.296 7        42.597                                                                    38993188.397 7 164992953.49707        32.816 7        43.340
C20        48.000                                                                                                                                    21959312.604 8 114347950.50708       484.934 8        52.014                                                                    21959307.039 8  92917068.21908       394.118 8        49.217
C06        49.000                                                                                                                                    38798383.571 6 202033386.32506       594.909 6        39.580    38798378.251 7 156225012.36207       459.974 7        43.750    38798378.579 6 164168654.05106       483.484 6        40.946
C16        50.000                                                                                                                                    39145802.088 6 203842478.11706       469.861 6        41.936    39145801.555 7 157623942.65107       363.326 7        42.772    39145799.769 6 165638708.84706       381.714 6        39.069
S48        51.000    77198442.019 6 405680682.18806      -429.367 6        37.036
C19        52.000                                                                                                                                    24994723.520 7 130154127.12007      2500.484 7        44.283                                                                    24994719.466 7 105760889.33907      2031.972 7        44.501
R04        53.000    21566725.080 8 115488861.70608     -4038.465 8        48.136                                                                    21566723.469 7  89824677.85507     -3141.105 7        43.293
C60        54.000                                                                                                                                    40572510.943 6 211271913.46506      -485.822 6        40.153                                                                    40572494.360 6 171675705.44406      -394.950 6        39.501
C30        55.000                                                                                                                                    23856254.601 7 124225771.30207     -3453.795 7        46.477                                                                    23856255.274 7 100943612.49907     -2806.341 7        45.588
R19        56.000    23162998.690 5 123906456.99705     -4550.305 5        34.052                                                                    23162998.798 6  96371725.70906     -3539.165 6        38.249
C02        57.000                                                                                                                                    40548599.241 5 211147246.65205      -456.157 5        33.982    40548592.951 6 163272438.71406      -352.851 6        40.484    40548595.938 5 171574436.97305      -370.786 5        35.614
I03        58.000   133763954.337 6 449133244.45506       976.450 6        40.734
C13        59.000                                                                                                                                    41118300.651 5 214113846.00905     -1108.376 5        35.729    41118302.946 6 165566448.38706      -857.133 6        37.871    41118301.691 6 173985067.98306      -900.833 6        36.457
> 2025 01 01 00 30 30.0000000  0 54
G28         1.000    23528532.665 6 123643280.95806      1138.001 6        40.918                                    23528528.655 4  96345393.97404       886.760 4        27.820    23528528.750 6  96345399.97406       886.828 6        41.325
G31         2.000    23884823.573 6 125515598.99906      2506.673 6        40.791                                    23884819.230 5  97804348.37405      1953.251 5        34.552    23884820.137 6  97804347.37006      1953.370 6        38.432
E34         4.000    28876678.491 5 151747968.56905      2327.799 5        34.862                                                                    28876679.723 6 113318292.58406      1738.337 6        37.452    28876678.846 6 116274421.67206      1783.567 6        37.497
S21         5.000    38444472.708 6 202026923.02606      -424.171 6        41.776
R12         6.000    24303126.630 7 129822957.05207     -2437.169 7        42.362                                                                    24303129.207 6 100973425.77006     -1895.607 6        39.898
G21         7.000    21549356.281 7 113242694.02707     -2304.111 7        45.351                                    21549351.431 5  88241064.58005     -1795.411 5        35.938
E04         8.000    23751229.872 7 124813580.04007      -292.944 7        47.215                                                                    23751228.224 8  93204951.26708      -218.735 8        50.098    23751227.822 8  95636376.70408      -224.435 8        51.129
G04        10.000    23379536.452 6 122860317.20106      3222.992 6        41.509                                    23379534.167 4  95735316.29904      2511.422 4        27.066    23379534.173 6  95735311.29606      2511.454 6        40.603
E09        11.000    25299717.210 7 132950951.44607      2192.178 7        45.074                                                                    25299716.995 7  99281569.41907      1637.012 7        47.151    25299716.585 8 101871522.91508      1679.672 8        48.613
S27        12.000    39093968.229 5 205440167.78605      -403.524 5        35.781
S36        14.000    38212131.855 7 200806608.58007      -423.897 7        43.562
E02        15.000    28101113.790 5 147672378.69705     -2644.795 5        35.014                                                                    28101114.458 6 110274845.62606     -1975.103 6        38.378    28101113.482 6 113151576.45406     -2026.637 6        39.393
E36        16.000    24522306.894 7 128865620.03207      1378.052 7        45.806                                                                    24522307.168 8  96230836.98908      1029.112 8        48.537    24522307.050 8  98741201.42308      1055.925 8        50.073
S45        17.000    63412991.350 6 333237985.37506      -466.226 6        36.957
G03        18.000    20441059.772 8 107418549.36408      1048.630 8        48.683                                    20441057.674 8  83702784.92208       817.115 8        50.027    20441058.343 7  83702793.92607       817.045 7        44.722
R21        19.000    20903232.979 8 111857459.79008      2793.000 8        49.736                                                                    20903231.778 7  87000255.91307      2172.267 7        44.528
R20        20.000    19226180.671 6 102811075.71206     -1109.292 6        40.038                                                                    19226181.850 7  79964169.56007      -862.730 7        46.887
R05        21.000    19104919.954 8 102126789.86308      -886.412 8        51.743                                                                    19104918.840 7  79431953.63807      -689.446 7        46.842
I06        22.000    38247022.694 7 150089761.57407      -213.447 7        43.549
S28        23.000    40888106.474 5 214868447.20905      -416.349 5        34.000
E10        24.000    24856999.827 7 130624538.48407     -2286.248 7        45.645                                                                    24856998.867 8  97544365.53908     -1707.307 8        48.612    24856998.579 8 100088991.61608     -1751.769 8        49.583
S23        25.000    38163437.991 7 200550186.20207      -420.881 7        44.727
E06        26.000    23969300.018 7 125959578.85507      1176.998 7        47.638                                                                    23969299.679 8  94060723.06108       878.935 8        49.160    23969299.639 8  96514479.66008       901.832 8        50.563
E30        27.000    28489116.927 6 149711321.20506      -773.360 6        37.051                                                                    28489118.469 6 111797415.73106      -577.579 6        39.529    28489118.242 6 114713867.87506      -592.652 6        41.042
E12        28.000    26992293.741 6 141845604.19206     -2933.302 6        37.191                                                                    26992291.298 6 105923738.45506     -2190.571 6        40.965    26992291.267 7 108686954.17707     -2247.774 7        42.455
E19        30.000    26492958.466 5 139221448.73305     -2974.651 5        35.462                                                                    26492957.767 6 103964066.83306     -2221.344 6        38.012    26492957.351 6 106676170.34806     -2279.196 6        38.501
G32        31.000    23593110.392 7 123982644.79707     -3327.773 7        42.184                                    23593108.414 6  96609849.19906     -2593.068 6        38.859    23593109.253 6  96609854.19606     -2593.057 6        39.658
G02        32.000    20746023.627 8 109021135.09708      -980.995 8        49.622                                    20746016.959 7  84951530.99607      -764.413 7        42.563
G19        33.000    24177800.811 6 127055225.08906      2821.200 6        39.447                                    24177795.945 4  99004089.95304      2198.334 4        24.752
G17        34.000    22578573.188 7 118651257.03607      1030.085 7        44.473                                    22578568.694 6  92455535.71406       802.664 6        41.993    22578568.827 6  92455535.72306       802.725 6        41.163
E11        35.000    23375087.488 7 122836983.63907     -1046.972 7        44.033                                                                    23375083.041 7  91728935.61307      -781.825 7        46.894    23375082.723 7  94121856.75807      -802.175 7        47.692
C32        36.000                                                                                                                                    23241797.316 8 121026165.89708     -2629.409 8        48.032                                                                    23241797.386 8  98343684.21908     -2136.628 8        48.965
C35        37.000                                                                                                                                    24861707.562 7 129461449.20107      2391.990 7        43.173                                                                    24861706.629 7 105198030.58807      1943.817 7        43.746
I09        38.000    37123448.838 7 145680384.84607      -315.090 7        43.098
C29        39.000                                                                                                                                    21774925.208 8 113387754.35408      -610.200 8        50.530                                                                    21774922.578 8  92136833.39208      -495.807 8        49.049
G08        40.000    24849939.673 6 130587343.29006     -4119.654 6        38.339                                    24849939.868 5 101756390.05605     -3210.121 5        30.958    24849940.197 6 101756397.05406     -3210.050 6        36.514
S44        42.000    40572974.943 6 213212620.81806      -490.483 6        37.308
C09        43.000                                                                                                                                    39636913.714 6 206399822.25306       975.489 6        40.174    39636909.401 7 159601424.52707       754.349 7        43.729    39636907.840 6 167716742.11306       792.783 6        40.717
C05        44.000                                                                                                                                    39128321.146 6 203751472.00306      -412.060 6        37.724    39128316.279 7 157553586.75207      -318.681 7        43.634    39128318.469 6 165564864.13806      -334.791 6        40.467
R06        45.000    22041934.416 6 117620027.00806      3222.641 6        37.682
R13        46.000    23811329.805 6 127151185.91106        46.324 6        37.565
C39        47.000                                                                                                                                    38993154.855 7 203047595.23607        39.128 7        42.728                                                                    38993150.282 7 164992792.28907        31.885 7        43.401
C20        48.000                                                                                                                                    21958848.082 8 114345532.24408       482.524 8        51.783                                                                    21958842.587 8  92915103.17708       392.117 8        49.263
C06        49.000                                                                                                                                    38797813.436 6 202030415.18806       593.663 6        39.513    38797807.680 7 156222714.87407       459.143 7        43.765    38797807.862 6 164166239.74306       482.477 6        41.082
C16        50.000                                                                                                                                    39145351.225 6 203840132.29106       468.616 6        41.733    39145350.978 7 157622128.70307       362.481 7        42.514    39145349.211 6 165636802.65206       380.775 6        39.180
S48        51.000    77198847.130 6 405682830.03906      -429.453 6        37.112
C19        52.000                                                                                                                                    24992323.118 7 130141627.92007      2499.298 7        44.366                                                                    24992319.079 7 105750732.71507      2030.918 7        44.579
R04        53.000    21570496.657 8 115509058.54208     -4040.099 8        48.202                                                                    21570494.895 7  89840386.51007     -3142.286 7        43.103
C60        54.000                                                                                                                                    40572977.731 6 211274343.69206      -486.166 6        40.024                                                                    40572961.233 6 171677680.18106      -394.921 6        39.438
C30        55.000                                                                                                                                    23859571.743 7 124243044.47807     -3455.422 7        46.542                                                                    23859572.577 7 100957648.36507     -2807.752 7        45.898
R19        56.000    23167251.585 5 123929211.87605     -4551.628 5        34.395                                                                    23167253.406 6  96389423.92906     -3539.988 6        38.568
C02        57.000                                                                                                                                    40549038.023 5 211149528.89905      -456.471 5        33.599    40549031.077 6 163274203.48406      -353.023 6        40.293    40549034.045 5 171576291.47705      -370.690 5        35.690
I03        58.000   133762710.070 6 449128362.93906       976.246 6        40.934
C13        59.000                                                                                                                                    41119365.381 5 214119389.21905     -1108.732 5        35.757    41119367.913 6 165570734.74906      -857.152 6        37.917    41119366.167 6 173989572.27606      -900.882 6        36.355
> 2025 01 01 00 30 35.0000000  0 54
G28         1.000    23527450.871 6 123637597.83506      1135.217 6        41.959                                    23527447.229 4  96340965.57504       884.587 4        27.892    23527447.452 6  96340971.56906       884.672 6        41.182
G31         2.000    23882438.718 6 125503069.32006      2505.271 6        40.634                                    23882434.934 5  97794584.99005      1952.156 5        34.638    23882435.217 6  97794583.99106      1952.217 6        38.574
E34         4.000    28874463.837 5 151736329.68005      2328.158 5        33.623                                                                    28874464.900 6 113309601.20006      1738.473 6        37.036    28874464.404 6 116265503.56306      1783.869 6        37.512
S21         5.000    38444876.518 6 202029044.60206      -424.261 6        41.688
R12         6.000    24305408.304 7 129835151.88207     -2440.517 7        42.535                                                                    24305411.887 6 100982910.56806     -1898.195 6        39.535
G21         7.000    21551549.661 7 113254219.19807     -2305.916 7        45.252                                    21551544.569 6  88250045.23206     -1796.817 6        36.057
E04         8.000    23751509.928 7 124815050.95007      -295.362 7        47.180                                                                    23751508.119 8  93206049.67408      -220.524 8        50.120    23751507.750 8  95637503.76308      -226.299 8        51.043
G04        10.000    23376470.269 6 122844204.94706      3221.946 6        41.611                                    23376468.065 4  95722761.30104      2510.604 4        27.066    23376468.189 6  95722756.30106      2510.516 6        40.322
E09        11.000    25297632.285 7 132939994.66907      2190.652 7        45.091                                                                    25297631.973 7  99273387.40907      1635.916 7        47.233    25297631.638 8 101863127.45408      1678.631 8        48.550
S27        12.000    39094354.104 5 205442186.09805      -403.712 5        35.419
S36        14.000    38212535.951 7 200808728.58507      -424.151 7        43.427
E02        15.000    28103631.479 5 147685606.52605     -2646.230 5        34.910                                                                    28103631.550 6 110284723.54906     -1976.076 6        38.315    28103630.710 6 113161712.06406     -2027.638 6        39.255
E36        16.000    24520996.334 7 128858732.61807      1377.005 7        45.758                                                                    24520996.567 8  96225693.79508      1028.301 8        48.609    24520996.393 8  98735924.05408      1055.115 8        49.976
S45        17.000    63413391.113 6 333240316.27206      -466.348 6        36.858
G03        18.000    20440062.959 8 107413311.64108      1046.612 8        48.558                                    20440060.958 8  83698703.58108       815.543 8        50.091    20440061.639 7  83698712.58107       815.511 7        44.796
R21        19.000    20900624.725 8 111843500.94708      2790.697 8        49.846                                                                    20900623.519 7  86989399.02407      2170.592 7        45.052
R20        20.000    19227219.467 6 102816631.85306     -1113.104 6        40.315                                                                    19227221.152 7  79968491.01607      -865.842 7        47.124
R05        21.000    19105751.060 8 102131231.47408      -890.125 8        51.846                                                                    19105749.903 7  79435408.21307      -692.313 7        47.209
I06        22.000    38247294.835 7 150090828.96807      -213.574 7        43.699
S28        23.000    40888502.276 5 214870529.94705      -416.425 5        33.976
E10        24.000    24859175.681 7 130635973.20507     -2287.620 7        45.788                                                                    24859174.876 8  97552904.44408     -1708.244 8        48.682    24859174.525 8 100097753.27908     -1752.782 8        49.482
S23        25.000    38163839.395 7 200552290.85407      -421.000 7        44.700
E06        26.000    23968181.224 7 125953699.37607      1174.892 7        47.637                                                                    23968180.847 8  94056332.54108       877.340 8        49.157    23968180.836 8  96509974.60308       900.223 8        50.530
E30        27.000    28489854.424 6 149715194.93706      -776.007 6        37.274                                                                    28489855.412 6 111800308.42606      -579.310 6        39.039    28489855.399 6 114716836.05206      -594.553 6        40.670
E12        28.000    26995085.198 6 141860274.08206     -2934.371 6        37.380                                                                    26995082.897 6 105934693.20506     -2191.188 6        40.977    26995082.776 7 108698194.70607     -2248.415 7        42.279
E19        30.000    26495789.397 5 139236324.59505     -2975.555 5        34.914                                                                    26495788.285 6 103975175.43806     -2222.243 6        38.252    26495787.980 6 106687568.73206     -2280.012 6        38.508
G32        31.000    23596277.494 7 123999288.24607     -3329.551 7        42.580                                    23596275.620 6  96622818.11606     -2594.454 6        39.018    23596276.481 6  96622823.11006     -2594.419 6        39.820
G02        32.000    20746958.099 8 109026046.30308      -983.398 8        49.647                                    20746951.524 7  84955357.91107      -766.282 7        42.711
G19        33.000    24175117.900 6 127041123.66806      2819.498 6        40.310                                    24175112.525 4  98993101.85604      2197.012 4        24.722
G17        34.000    22577594.163 7 118646113.94207      1027.253 7        44.718                                    22577589.981 7  92451528.11407       800.456 7        42.087    22577590.113 6  92451528.11606       800.387 6        40.949
E11        35.000    23376084.386 7 122842223.07707     -1048.692 7        43.879                                                                    23376080.038 7  91732848.17207      -783.062 7        46.797    23376079.817 7  94125871.39107      -803.472 7        47.668
C32        36.000                                                                                                                                    23244322.709 7 121039316.49007     -2630.795 7        47.970                                                                    23244322.761 8  98354370.16608     -2137.766 8        49.056
C35        37.000                                                                                                                                    24859411.420 7 129449492.43307      2390.584 7        43.752                                                                    24859410.293 7 105188314.74607      1942.544 7        43.812
I09        38.000    37123850.718 7 145681961.27607      -315.287 7        43.238
C29        39.000                                                                                                                                    21775512.296 8 113390812.49608      -613.011 8        50.535                                                                    21775509.877 8  92139318.39808      -498.190 8        49.095
G08        40.000    24853859.591 6 130607941.02706     -4119.365 6        38.366                                    24853859.446 5 101772440.23305     -3209.898 5        30.989    24853860.304 6 101772447.23606     -3210.094 6        36.159
S44        42.000    40573439.696 6 213215074.12606      -490.692 6        37.592
C09        43.000                                                                                                                                    39635976.546 6 206394946.30306       974.825 6        40.138    39635973.301 7 159597654.12707       753.853 7        43.900    39635971.527 6 167712780.02506       792.036 6        40.884
C05        44.000                                                                                                                                    39128716.679 6 203753533.18706      -412.193 6        37.531    39128712.165 7 157555180.59507      -318.719 7        43.623    39128714.253 6 165566539.04206      -334.999 6        40.462
R06        45.000    22038915.918 6 117603919.21306      3220.695 6        38.342
R13        46.000    23811290.766 6 127150965.56806        41.792 6        36.968
C39        47.000                                                                                                                                    38993117.713 7 203047402.52307        38.069 7        42.730                                                                    38993113.201 7 164992635.70907        30.806 7        43.454
C20        48.000                                                                                                                                    21958385.928 8 114343125.35308       480.275 8        51.840                                                                    21958380.394 8  92913147.39408       390.208 8        49.379
C06        49.000                                                                                                                                    38797244.039 6 202027449.23806       592.781 6        39.724    38797238.212 7 156220421.42407       458.351 7        43.892    38797238.387 6 164163829.69406       481.659 6        41.251
C16        50.000                                                                                                                                    39144902.072 6 203837791.72306       467.623 6        41.645    39144901.957 7 157620318.81607       361.685 7        42.487    39144899.615 6 165634900.76706       379.954 6        39.195
S48        51.000    77199246.092 6 405684978.46506      -429.655 6        36.964
C19        52.000                                                                                                                                    24989923.861 7 130129134.39407      2498.178 7        44.287                                                                    24989919.855 7 105740580.73207      2029.892 7        44.754
R04        53.000    21574269.389 7 115529262.79607     -4041.540 7        47.726                                                                    21574268.575 7  89856100.92107     -3143.410 7        43.234
C60        54.000                                                                                                                                    40573444.403 6 211276774.69906      -486.269 6        39.880                                                                    40573427.963 6 171679655.58206      -395.090 6        39.694
C30        55.000                                                                                                                                    23862890.435 7 124260324.81307     -3456.769 7        46.111                                                                    23862891.449 7 100971690.05907     -2808.903 7        46.215
R19        56.000    23171508.552 5 123951973.49405     -4552.653 5        34.824                                                                    23171507.571 6  96407127.42906     -3541.109 6        38.826
C02        57.000                                                                                                                                    40549476.448 5 211151812.00205      -456.720 5        33.629    40549469.305 6 163275968.91006      -353.105 6        40.398    40549472.533 5 171578146.68805      -371.075 5        35.667
I03        58.000   133761466.742 6 449123482.17606       975.986 6        40.946
C13        59.000                                                                                                                                    41120430.334 6 214124932.71306     -1108.618 6        36.015    41120432.681 6 165575021.35506      -857.319 6        37.864    41120430.910 6 173994076.83106      -900.877 6        36.575
> 2025 01 01 00 30 40.0000000  0 54
G28         1.000    23526372.145 6 123631927.98006      1132.604 6        41.669                                    23526368.289 4  96336547.50504       882.545 4        27.928    23526368.487 6  96336553.50006       882.674 6        41.585
G31         2.000    23880056.043 6 125490546.67206      2503.895 6        40.691                                    23880052.051 5  97784827.08505      1951.088 5        34.405    23880052.153 6  97784826.09706      1951.078 6        38.354
E34         4.000    28872248.531 5 151724689.48505      2328.198 5        33.096                                                                    28872249.855 6 113300908.84706      1738.456 6        37.353    28872249.333 6 116256584.44806      1784.011 6        37.357
S21         5.000    38445281.598 6 202031166.06006      -424.292 6        41.933
R12         6.000    24307696.560 7 129847363.10907     -2443.875 7        42.859                                                                    24307697.213 6 100992408.16106     -1900.815 6        38.994
G21         7.000    21553744.382 7 113265752.80407     -2307.587 7        44.928                                    21553739.327 5  88259032.45305     -1798.117 5        35.881
E04         8.000    23751791.789 7 124816533.31407      -297.662 7        47.408                                                                    23751790.184 8  93207156.63108      -222.296 8        50.170    23751789.875 8  95638639.59808      -228.067 8        50.966
G04        10.000    23373405.024 6 122828097.25006      3221.122 6        41.821                                    23373402.799 4  95710209.85604      2509.974 4        26.922    23373403.257 6  95710204.86606      2510.006 6        40.403
E09        11.000    25295548.544 7 132929044.58707      2189.311 7        45.076                                                                    25295548.210 7  99265210.40307      1634.877 7        47.266    25295547.878 8 101854737.13908      1677.550 8        48.430
S27        12.000    39094738.274 5 205444204.29605      -403.601 5        35.371
S36        14.000    38212937.400 7 200810848.35407      -423.871 7        43.657
E02        15.000    28106149.857 5 147698839.95705     -2647.059 5        35.057                                                                    28106149.484 6 110294605.65306     -1976.822 6        38.213    28106148.976 6 113171851.94706     -2028.277 6        39.324
E36        16.000    24519686.577 7 128851849.82907      1376.108 7        45.964                                                                    24519686.808 8  96220554.04508      1027.608 8        48.599    24519686.712 8  98730650.22908      1054.391 8        49.900
S45        17.000    63413788.958 6 333242647.05606      -466.247 6        36.900
G03        18.000    20439067.944 8 107408083.71408      1044.616 8        48.612                                    20439066.116 8  83694629.87108       813.986 8        50.014    20439066.716 7  83694638.86107       813.993 7        44.688
R21        19.000    20898018.271 8 111829552.76408      2788.547 8        50.155                                                                    20898016.403 7  86978550.42907      2168.926 7        44.891
R20        20.000    19228263.097 6 102822207.31706     -1116.980 6        40.338                                                                    19228263.963 7  79972827.45807      -868.797 7        46.931
R05        21.000    19106585.287 8 102135691.29708      -893.786 8        51.709                                                                    19106584.428 7  79438876.97107      -695.135 7        47.198
I06        22.000    38247566.755 7 150091896.33807      -213.404 7        43.757
S28        23.000    40888898.417 5 214872612.74205      -416.458 5        33.928
E10        24.000    24861352.838 7 130647414.12507     -2288.797 7        45.926                                                                    24861352.076 8  97561447.98408     -1709.167 8        48.740    24861351.723 8 100106519.70008     -1753.722 8        49.375
S23        25.000    38164239.615 7 200554395.39807      -420.930 7        44.755
E06        26.000    23967064.314 7 125947829.83007      1172.947 7        47.726                                                                    23967063.927 8  94051949.43908       875.917 8        49.215    23967063.924 8  96505477.16008       898.715 8        50.416
E30        27.000    28490593.520 6 149719080.28806      -778.228 6        37.021                                                                    28490594.831 6 111803209.93006      -581.209 6        39.796    28490594.830 6 114719813.22806      -596.368 6        41.309
E12        28.000    26997877.790 6 141874947.71806     -2935.019 6        37.051                                                                    26997875.063 6 105945650.80806     -2191.913 6        40.729    26997874.865 7 108709438.15107     -2248.988 7        42.104
E19        30.000    26498621.670 5 139251205.74305     -2976.909 5        34.595                                                                    26498620.137 6 103986287.94806     -2222.969 6        37.754    26498620.012 6 106698971.12506     -2280.685 6        37.989
G32        31.000    23599446.061 7 124015939.11907     -3330.838 7        42.883                                    23599444.216 6  96635792.82006     -2595.459 6        39.018    23599444.647 6  96635797.82906     -2595.640 6        39.883
G02        32.000    20747895.076 8 109030968.76808      -985.590 8        49.494                                    20747888.253 7  84959193.59307      -767.993 7        42.616
G19        33.000    24172436.586 6 127027030.93006      2817.747 6        40.048                                    24172430.825 4  98982120.51204      2195.652 4        24.692
G17        34.000    22576618.350 7 118640984.36807      1024.665 7        44.464                                    22576613.848 7  92447531.04307       798.440 7        42.049    22576613.947 6  92447531.06006       798.336 6        41.008
E11        35.000    23377082.738 7 122847470.28607     -1050.270 7        44.101                                                                    23377078.639 7  91736766.54107      -784.289 7        46.907    23377078.261 7  94129891.97307      -804.742 7        47.609
C32        36.000                                                                                                                                    23246849.483 7 121052473.35407     -2632.002 7        47.868                                                                    23246849.418 8  98365061.19008     -2138.668 8        48.950
C35        37.000                                                                                                                                    24857117.101 7 129437541.76707      2389.636 7        44.190                                                                    24857115.326 7 105178603.86207      1941.790 7        43.676
I09        38.000    37124252.589 7 145683538.61607      -315.598 7        43.283
C29        39.000                                                                                                                                    21776102.144 8 113393884.14508      -615.685 8        50.545                                                                    21776099.703 8  92141814.35908      -500.263 8        49.039
G08        40.000    24857778.879 6 130628537.74606     -4119.230 6        38.213                                    24857778.841 5 101788489.61205     -3209.778 5        30.815    24857779.191 6 101788496.61906     -3209.816 6        36.034
S44        42.000    40573906.467 6 213217527.41106      -490.603 6        37.319
C09        43.000                                                                                                                                    39635041.272 6 206390073.81406       974.136 6        39.925    39635037.453 7 159593886.40907       753.279 7        43.918    39635035.775 6 167708820.73006       791.644 6        40.861
C05        44.000                                                                                                                                    39129112.476 6 203755594.41806      -412.139 6        37.531    39129108.167 7 157556774.46207      -318.741 7        43.488    39129110.103 6 165568213.95406      -334.884 6        40.431
R06        45.000    22035899.650 6 117587820.23206      3218.949 6        37.939
R13        46.000    23811251.379 6 127150765.43806        38.173 6        37.278
C39        47.000                                                                                                                                    38993081.434 7 203047214.70407        37.077 7        42.751                                                                    38993076.975 7 164992483.09107        30.143 7        43.378
C20        48.000                                                                                                                                    21957925.908 8 114340729.07108       478.176 8        51.768                                                                    21957920.232 8  92911200.21408       388.595 8        49.315
C06        49.000                                                                                                                                    38796675.756 6 202024487.73706       591.929 6        39.817    38796669.706 7 156218131.40707       457.652 7        43.757    38796669.626 6 164161423.22906       480.950 6        41.023
C16        50.000                                                                                                                                    39144453.181 6 203835455.64006       466.828 6        41.638    39144453.405 7 157618512.42107       360.982 7        42.324    39144451.052 6 165633002.50906       379.305 6        39.078
S48        51.000    77199647.997 6 405687126.77706      -429.602 6        37.096
C19        52.000                                                                                                                                    24987525.241 7 130116645.75807      2497.325 7        44.113                                                                    24987521.559 7 105730432.69507      2029.328 7        44.755
R04        53.000    21578043.637 7 115549473.46307     -4042.782 7        47.564                                                                    21578043.253 7  89871820.32107     -3144.380 7        43.835
C60        54.000                                                                                                                                    40573911.035 6 211279205.68806      -486.187 6        39.910                                                                    40573894.912 6 171681630.95806      -394.929 6        39.595
C30        55.000                                                                                                                                    23866209.623 7 124277611.51807     -3457.880 7        46.215                                                                    23866211.281 7 100985736.92307     -2809.882 7        46.122
R19        56.000    23175764.959 5 123974741.15105     -4554.215 5        34.914                                                                    23175764.119 6  96424835.57906     -3542.031 6        39.198
C02        57.000                                                                                                                                    40549914.546 5 211154095.18605      -456.366 5        33.611    40549908.118 6 163277734.41606      -353.088 6        40.236    40549911.083 5 171580001.96105      -371.067 5        35.381
I03        58.000   133760223.007 6 449118601.57106       976.120 6        40.849
C13        59.000                                                                                                                                    41121495.149 6 214130475.68806     -1108.422 6        36.227    41121497.595 6 165579307.51806      -857.303 6        37.909    41121495.408 6 173998580.94306      -900.568 6        36.295
> 2025 01 01 00 30 45.0000000  0 54
G28         1.000    23525295.065 7 123626271.44107      1129.907 7        42.199                                    23525291.826 4  96332139.81704       880.440 4        27.976    23525291.979 6  96332145.81506       880.491 6        41.986
G31         2.000    23877674.637 6 125478031.12006      2502.313 6        40.515                                    23877670.407 5  97775074.71105      1949.849 5        34.338    23877670.297 6  97775073.71706      1949.872 6        38.492
E34         4.000    28870033.064 5 151713048.01005      2328.343 5        35.386                                                                    28870034.277 6 113292215.52606      1738.724 6        36.594    28870033.968 6 116247664.35006      1784.116 6        36.624
S21         5.000    38445683.874 6 202033287.56706      -424.324 6        41.914
R12         6.000    24309984.963 7 129859590.70607     -2447.104 7        42.673                                                                    24309986.509 6 101001918.49006     -1903.333 6        39.562
G21         7.000    21555940.534 7 113277294.84707     -2309.232 7        45.002                                    21555935.716 5  88268026.25305     -1799.403 5        35.824
E04         8.000    23752076.290 7 124818027.14907      -300.026 7        47.114                                                                    23752074.415 8  93208272.16608      -223.991 8        50.206    23752074.128 8  95639784.23408      -229.837 8        51.052
G04        10.000    23370340.783 6 122811994.17206      3220.152 6        41.292                                    23370338.445 4  95697662.01504      2509.206 4        26.647    23370338.943 6  95697657.01406      2509.287 6        40.644
E09        11.000    25293465.914 7 132918101.24207      2187.909 7        44.951                                                                    25293465.685 7  99257038.42807      1633.880 7        47.261    25293465.428 8 101846351.98308      1676.505 8        48.535
S27        12.000    39095118.899 5 205446222.76805      -403.557 5        35.495
S36        14.000    38213342.274 7 200812968.05807      -424.123 7        43.623
E02        15.000    28108668.978 5 147712079.02405     -2648.519 5        35.019                                                                    28108668.751 6 110304491.96006     -1977.628 6        38.078    28108668.367 6 113181996.14906     -2029.230 6        39.219
E36        16.000    24518377.619 7 128844971.68807      1375.106 7        45.848                                                                    24518377.934 8  96215417.78008      1026.860 8        48.602    24518377.847 8  98725379.96608      1053.684 8        49.944
S45        17.000    63414188.793 6 333244977.73906      -466.371 6        37.062
G03        18.000    20438075.064 8 107402865.57708      1042.639 8        48.522                                    20438073.134 8  83690563.79308       812.447 8        49.972    20438074.134 7  83690572.79507       812.483 7        44.868
R21        19.000    20895413.694 8 111815615.38108      2786.320 8        49.513                                                                    20895411.704 7  86967710.26107      2167.120 7        44.518
R20        20.000    19229308.625 6 102827802.07606     -1120.965 6        40.667                                                                    19229309.887 7  79977178.94207      -871.861 7        46.895
R05        21.000    19107422.999 8 102140169.26208      -897.459 8        51.544                                                                    19107421.283 7  79442359.83407      -697.992 7        47.200
I06        22.000    38247838.908 7 150092963.74807      -213.502 7        43.634
S28        23.000    40889298.153 5 214874695.25405      -416.656 5        34.038
E10        24.000    24863531.076 7 130658861.28207     -2290.066 7        45.917                                                                    24863530.388 8  97569996.18308     -1710.120 8        48.789    24863530.137 8 100115290.89908     -1754.766 8        49.478
S23        25.000    38164639.901 7 200556500.03307      -420.948 7        44.664
E06        26.000    23965949.058 7 125941970.26707      1170.889 7        47.623                                                                    23965948.912 8  94047573.79908       874.315 8        49.285    23965948.868 8  96500987.37208       897.158 8        50.491
E30        27.000    28491334.806 6 149722977.17206      -780.476 6        37.074                                                                    28491336.485 6 111806120.00206      -582.989 6        40.153    28491336.183 6 114722799.21106      -598.138 6        41.754
E12        28.000    27000670.572 6 141889625.19106     -2935.755 6        36.938                                                                    27000668.024 6 105956611.26706     -2192.392 6        40.520    27000667.718 6 108720684.53006     -2249.556 6        41.871
E19        30.000    26501453.897 5 139266092.21905     -2978.022 5        35.095                                                                    26501452.713 6 103997404.46506     -2223.544 6        37.951    26501452.610 6 106710377.67006     -2281.752 6        38.420
G32        31.000    23602616.371 7 124032597.43807     -3332.426 7        43.103                                    23602614.230 6  96648773.32706     -2596.696 6        38.928    23602614.503 6  96648778.33306     -2596.736 6        39.766
G02        32.000    20748833.833 8 109035902.55008      -987.944 8        49.481                                    20748827.119 7  84963038.10007      -769.825 7        42.554
G19        33.000    24169756.115 6 127012946.97706      2815.914 6        40.131                                    24169750.723 4  98971146.00404      2194.216 4        24.331
G17        34.000    22575644.427 7 118635868.41207      1021.794 7        44.594                                    22575640.296 6  92443544.58806       796.203 6        41.990    22575640.726 6  92443544.60006       796.201 6        41.302
E11        35.000    23378082.975 7 122852725.24507     -1051.894 7        44.021                                                                    23378078.616 7  91740690.70007      -785.465 7        46.910    23378078.248 7  94133918.50507      -806.012 7        47.687
C32        36.000                                                                                                                                    23249377.266 7 121065636.50907     -2633.294 7        47.825                                                                    23249377.252 8  98375757.34308     -2139.867 8        49.022
C35        37.000                                                                                                                                    24854822.520 7 129425597.32907      2388.212 7        43.335                                                                    24854821.516 7 105168898.02607      1940.626 7        43.818
I09        38.000    37124654.789 7 145685116.89907      -315.740 7        43.139
C29        39.000                                                                                                                                    21776694.658 8 113396969.31508      -618.403 8        50.613                                                                    21776692.183 8  92144321.32108      -502.595 8        49.070
G08        40.000    24861698.056 6 130649133.47706     -4119.066 6        38.066                                    24861697.950 5 101804538.21805     -3209.661 5        30.543    24861699.189 6 101804545.24606     -3209.900 6        36.045
S44        42.000    40574374.368 6 213219980.73906      -490.665 6        37.573
C09        43.000                                                                                                                                    39634106.117 6 206385204.78406       973.369 6        39.991    39634102.441 7 159590121.38007       752.765 7        44.226    39634100.665 6 167704864.26606       790.875 6        40.758
C05        44.000                                                                                                                                    39129508.456 6 203757655.72206      -412.339 6        37.788    39129503.933 7 157558368.39907      -318.897 7        43.718    39129506.061 6 165569888.93106      -335.141 6        40.591
R06        45.000    22032883.540 6 117571730.23106      3217.185 6        38.309
R13        46.000    23811217.907 6 127150585.50506        33.752 6        38.102
C39        47.000                                                                                                                                    38993045.995 7 203047031.81207        36.043 7        42.910                                                                    38993042.025 7 164992334.48207        29.168 7        43.462
C20        48.000                                                                                                                                    21957467.789 8 114338343.41508       476.073 8        51.870                                                                    21957462.061 8  92909261.68308       386.788 8        49.358
C06        49.000                                                                                                                                    38796108.072 6 202021530.70606       590.911 6        39.820    38796102.014 7 156215844.84407       457.025 7        43.898    38796101.742 6 164159020.41006       480.047 6        41.025
C16        50.000                                                                                                                                    39144005.422 6 203833124.09006       465.700 6        41.645    39144005.521 7 157616709.51707       360.188 7        42.447    39144003.235 6 165631107.92606       378.504 6        39.117
S48        51.000    77200050.636 6 405689274.88406      -429.700 6        36.991
C19        52.000                                                                                                                                    24985127.781 7 130104162.07107      2496.247 7        44.044                                                                    24985124.238 7 105720288.68507      2028.331 7        44.792
R04        53.000    21581819.586 7 115569690.82107     -4044.135 7        47.739                                                                    21581818.227 7  89887544.93707     -3145.436 7        44.370
C60        54.000                                                                                                                                    40574378.020 6 211281636.71006      -486.304 6        39.940                                                                    40574361.615 6 171683606.37406      -395.148 6        39.610
C30        55.000                                                                                                                                    23869531.201 7 124294904.61207     -3459.272 7        46.105                                                                    23869532.007 7 100999788.98307     -2811.083 7        45.988
R19        56.000    23180021.550 5 123997514.87305     -4555.284 5        35.495                                                                    23180020.990 6  96442548.51006     -3543.092 6        38.904
C02        57.000                                                                                                                                    40550353.356 5 211156378.40905      -457.100 5        33.796    40550346.409 6 163279499.93606      -353.046 6        40.501    40550349.463 5 171581857.25305      -371.107 5        35.743
I03        58.000   133758979.269 6 449113721.12506       976.152 6        40.713
C13        59.000                                                                                                                                    41122559.246 6 214136018.23706     -1108.623 6        36.053    41122561.702 6 165583593.36206      -857.055 6        38.162    41122559.380 6 174003084.71606      -900.765 6        36.144
> 2025 01 01 00 30 50.0000000  0 54
G28         1.000    23524221.602 7 123620628.54907      1127.239 7        42.146                                    23524218.015 4  96327742.75904       878.370 4        27.557    23524218.051 6  96327748.75606       878.503 6        41.607
G31         2.000    23875294.058 6 125465522.94106      2501.043 6        40.224                                    23875290.140 5  97765328.07805      1948.870 5        34.248    23875290.165 6  97765327.08406      1948.745 6        38.015
E34         4.000    28867817.145 6 151701405.53006      2328.664 6        36.219                                                                    28867818.679 6 113283521.44006      1739.070 6        36.193    28867818.618 6 116238743.47706      1784.307 6        36.643
S21         5.000    38446087.000 6 202035409.51806      -424.397 6        41.852
R12         6.000    24312276.712 7 129871834.95907     -2450.565 7        42.876                                                                    24312278.889 6 101011441.75106     -1906.036 6        39.213
G21         7.000    21558138.638 7 113288845.65507     -2310.940 7        45.348                                    21558133.751 5  88277026.87705     -1800.729 5        35.929
E04         8.000    23752362.823 7 124819532.80607      -302.135 7        47.233                                                                    23752360.961 8  93209396.52008      -225.696 8        50.243    23752360.632 8  95640937.92208      -231.586 8        50.845
G04        10.000    23367277.276 6 122795896.05806      3219.240 6        40.729                                    23367275.058 4  95685118.03504      2508.487 4        26.539    23367275.261 6  95685113.04406      2508.527 6        40.760
E09        11.000    25291384.935 7 132907164.95807      2186.635 7        45.430                                                                    25291384.508 7  99248871.72407      1632.877 7        47.331    25291384.328 8 101837972.23508      1675.439 8        48.296
S27        12.000    39095506.262 5 205448241.15705      -403.429 5        35.490
S36        14.000    38213744.452 7 200815087.91307      -423.822 7        43.594
E02        15.000    28111189.761 5 147725324.01705     -2649.620 5        35.929                                                                    28111189.105 6 110314382.70506     -1978.556 6        37.864    28111188.716 6 113192144.92006     -2030.103 6        38.994
E36        16.000    24517069.608 7 128838098.52707      1374.210 7        45.950                                                                    24517069.996 8  96210285.22208      1026.192 8        48.653    24517069.848 8  98720113.52008      1052.965 8        49.740
S45        17.000    63414587.854 6 333247308.70206      -465.978 6        37.089
G03        18.000    20437083.979 8 107397657.56608      1040.680 8        48.583                                    20437082.075 8  83686505.60108       810.921 8        49.999    20437082.829 7  83686514.60407       810.881 7        44.965
R21        19.000    20892811.256 8 111801689.19108      2784.180 8        50.307                                                                    20892809.574 7  86956878.78207      2165.484 7        44.486
R20        20.000    19230358.603 6 102833416.51506     -1124.763 6        40.672                                                                    19230359.987 7  79981545.72007      -874.791 7        46.636
R05        21.000    19108264.382 8 102144665.76608      -901.074 8        51.968                                                                    19108262.990 7  79445857.11007      -700.785 7        47.129
I06        22.000    38248110.656 7 150094031.41007      -213.467 7        43.689
S28        23.000    40889694.983 5 214876777.95005      -416.540 5        33.874
E10        24.000    24865710.493 7 130670314.98807     -2291.381 7        45.630                                                                    24865709.928 8  97578549.27008     -1711.051 8        48.789    24865709.798 8 100124067.10608     -1755.715 8        49.270
S23        25.000    38165040.420 7 200558605.11007      -420.950 7        44.761
E06        26.000    23964835.930 7 125936121.01907      1168.931 7        47.625                                                                    23964835.823 8  94043205.84808       872.865 8        49.317    23964835.781 8  96496505.47308       895.674 8        50.322
E30        27.000    28492078.367 6 149726885.87506      -782.825 6        36.771                                                                    28492080.543 6 111809038.84406      -584.718 6        39.450    28492079.940 6 114725794.19406      -599.900 6        41.118
E12        28.000    27003464.459 6 141904306.86606     -2936.758 6        36.586                                                                    27003461.648 6 105967574.83606     -2192.981 6        40.431    27003461.513 6 108731934.11706     -2250.194 6        41.511
E19        30.000    26504287.800 5 139280984.34805     -2978.933 5        34.667                                                                    26504286.748 6 104008525.20906     -2224.643 6        37.894    26504286.454 6 106721788.50506     -2282.288 6        38.048
G32        31.000    23605787.393 7 124049263.56007     -3333.839 7        42.781                                    23605785.670 6  96661759.91306     -2597.798 6        38.811    23605786.466 6  96661764.92206     -2597.956 6        39.477
G02        32.000    20749774.978 8 109040847.99908      -990.211 8        49.503                                    20749768.212 7  84966891.69407      -771.594 7        42.635
G19        33.000    24167077.377 6 126998872.13506      2814.312 6        40.412                                    24167072.234 4  98960178.60304      2192.975 4        24.481
G17        34.000    22574674.129 7 118630766.37407      1019.147 7        45.001                                    22574669.403 7  92439568.98107       794.140 7        42.070    22574669.941 6  92439568.99006       794.011 6        40.775
E11        35.000    23379084.447 7 122857988.34207     -1053.411 7        44.020                                                                    23379080.027 7  91744620.93807      -786.639 7        46.947    23379079.795 7  94137951.27307      -807.147 7        47.540
C32        36.000                                                                                                                                    23251906.258 8 121078806.26608     -2634.573 8        48.363                                                                    23251906.322 8  98386458.84408     -2140.740 8        48.912
C35        37.000                                                                                                                                    24852530.123 7 129413659.40807      2386.974 7        43.761                                                                    24852528.978 7 105159197.48207      1939.667 7        43.736
I09        38.000    37125057.123 7 145686696.36907      -315.948 7        43.236
C29        39.000                                                                                                                                    21777290.187 8 113400068.36308      -621.102 8        50.840                                                                    21777287.331 8  92146839.54708      -504.695 8        49.079
G08        40.000    24865617.087 6 130669728.51306     -4118.907 6        38.012                                    24865616.920 5 101820586.29005     -3209.530 5        30.294    24865617.367 5 101820593.32205     -3209.523 5        35.695
S44        42.000    40574841.349 6 213222434.40406      -490.519 6        37.629
C09        43.000                                                                                                                                    39633171.487 6 206380339.58106       972.774 6        40.291    39633168.112 7 159586359.30307       752.112 7        44.311    39633166.370 6 167700910.87306       790.553 6        40.744
C05        44.000                                                                                                                                    39129904.293 6 203759717.39106      -412.419 6        37.595    39129899.680 7 157559962.60507      -318.840 7        43.644    39129901.933 6 165571564.19606      -334.933 6        40.446
R06        45.000    22029870.083 6 117555649.51806      3215.214 6        38.126
R13        46.000    23811188.860 6 127150426.34106        29.933 6        38.030
C39        47.000                                                                                                                                    38993012.093 7 203046854.18907        35.131 7        43.054                                                                    38993007.833 7 164992190.13007        28.619 7        43.371
C20        48.000                                                                                                                                    21957011.645 8 114335968.71808       473.945 8        51.837                                                                    21957006.016 8  92907332.04408       385.164 8        49.275
C06        49.000                                                                                                                                    38795540.799 6 202018578.48306       590.034 6        39.877    38795535.284 7 156213562.00407       456.234 7        44.001    38795534.564 6 164156621.47106       479.543 6        40.965
C16        50.000                                                                                                                                    39143558.632 6 203830797.36606       464.928 6        41.678    39143558.544 7 157614910.35507       359.542 7        42.349    39143556.089 6 165629217.28406       377.760 6        38.967
S48        51.000    77200453.462 6 405691423.36506      -429.595 6        37.157
C19        52.000                                                                                                                                    24982731.906 7 130091683.64107      2495.231 7        44.250                                                                    24982727.849 7 105710148.93507      2027.625 7        44.853
R04        53.000    21585596.500 8 115589915.03908     -4045.414 8        48.079                                                                    21585594.616 7  89903274.88007     -3146.521 7        44.239
C60        54.000                                                                                                                                    40574844.911 6 211284068.07006      -486.232 6        39.976                                                                    40574828.573 6 171685582.04206      -395.110 6        39.571
C30        55.000                                                                                                                                    23872853.621 7 124312204.44107     -3460.644 7        45.658                                                                    23872853.823 7 101013846.49307     -2812.005 7        45.589
R19        56.000    23184281.004 5 124020294.98405     -4556.735 5        35.524                                                                    23184280.123 6  96460266.32206     -3544.073 6        38.652
C02        57.000                                                                                                                                    40550792.160 5 211158662.04705      -456.629 5        33.832    40550785.115 6 163281265.78706      -353.140 6        40.348    40550788.218 5 171583712.89505      -370.978 5        35.400
I03        58.000   133757735.572 6 449108841.10206       976.118 6        40.899
C13        59.000                                                                                                                                    41123622.947 6 214141560.63706     -1108.398 6        36.049    41123625.559 6 165587879.10306      -857.161 6        38.195    41123623.641 5 174007588.39605      -900.583 5        35.986
> 2025 01 01 00 30 55.0000000  0 54
G28         1.000    23523149.880 6 123614998.62106      1124.775 6        41.352                                    23523146.619 4  96323355.80504       876.443 4        27.701    23523146.765 6  96323361.81006       876.382 6        41.635
G31         2.000    23872915.313 6 125453021.51006      2499.656 6        40.286                                    23872911.111 5  97755586.70305      1947.785 5        34.043    23872911.070 6  97755585.69506      1947.917 6        38.207
E34         4.000    28865600.957 5 151689761.45905      2329.025 5        34.462                                                                    28865603.152 6 113274826.19306      1739.147 6        36.329    28865603.052 6 116229821.37406      1784.667 6        37.372
S21         5.000    38446492.200 7 202037531.38207      -424.280 7        42.174
R12         6.000    24314572.863 7 129884095.36207     -2453.600 7        43.376                                                                    24314574.055 6 101020977.64606     -1908.275 6        39.111
G21         7.000    21560338.596 7 113300404.51607     -2312.462 7        45.195                                    21560333.347 5  88286033.78105     -1801.921 5        35.900
E04         8.000    23752651.365 7 124821049.58707      -304.452 7        47.238                                                                    23752649.573 8  93210529.18208      -227.387 8        50.148    23752649.294 8  95642100.12908      -233.317 8        50.920
G04        10.000    23364214.802 6 122779802.20406      3218.396 6        41.466                                    23364212.729 4  95672577.38204      2507.836 4        26.647    23364212.806 6  95672572.40006      2507.825 6        41.008
E09        11.000    25289304.820 7 132896235.05807      2185.422 7        45.219                                                                    25289304.635 7  99240709.78807      1631.974 7        47.209    25289304.412 8 101829597.37408      1674.505 8        48.334
S27        12.000    39095888.724 5 205450259.25305      -403.851 5        35.538
S36        14.000    38214147.108 7 200817206.75007      -423.703 7        43.939
E02        15.000    28113711.020 5 147738574.26505     -2650.841 5        35.829                                                                    28113710.633 6 110324277.35106     -1979.276 6        37.913    28113710.380 6 113202297.67906     -2030.727 6        39.096
E36        16.000    24515762.243 7 128831229.66007      1373.379 7        46.029                                                                    24515762.952 8  96205155.87308      1025.599 8        48.642    24515762.784 8  98714850.35908      1052.357 8        49.872
S45        17.000    63414988.431 6 333248039.32116      -465.848 6        37.138
G03        18.000    20436094.934 8 107392459.01208      1038.904 8        48.629                                    20436092.809 8  83682454.78308       809.535 8        49.998    20436093.614 7  83682463.78207       809.490 7        44.975
R21        19.000    20890211.290 8 111787773.50308      2782.262 8        50.553                                                                    20890209.267 7  86946055.46507      2163.941 7        44.951
R20        20.000    19231412.373 6 102839049.92306     -1128.503 6        40.484                                                                    19231413.832 7  79985927.27307      -877.665 7        47.011
R05        21.000    19109108.669 8 102149180.14108      -904.579 8        51.688                                                                    19109106.982 7  79449368.30007      -703.614 7        46.789
I06        22.000    38248382.943 7 150095098.82507      -213.438 7        43.511
S28        23.000    40890087.394 5 214878860.12305      -416.342 5        34.157
E10        24.000    24867891.372 7 130681774.55207     -2292.463 7        45.561                                                                    24867890.626 8  97587106.73808     -1711.861 8        48.700    24867890.464 8 100132847.81208     -1756.558 8        49.386
S23        25.000    38165441.976 7 200560709.76607      -420.750 7        44.983
E06        26.000    23963724.681 7 125930281.38107      1167.108 7        47.392                                                                    23963724.554 8  94038845.08108       871.482 8        49.181    23963724.530 8  96492030.94808       894.233 8        50.390
E30        27.000    28492824.138 6 149730805.78806      -784.920 6        36.212                                                                    28492826.509 6 111811966.07106      -586.219 6        40.291    28492825.908 6 114728797.77506      -601.554 6        41.955
E12        28.000    27006259.057 6 141918991.98306     -2937.377 6        36.703                                                                    27006256.220 6 105978540.98906     -2193.433 6        40.563    27006256.320 6 108743186.33706     -2250.650 6        41.735
E19        30.000    26507122.879 5 139295881.38205     -2979.783 5        34.833                                                                    26507121.647 6 104019649.63306     -2225.247 6        37.709    26507121.403 6 106733203.13606     -2283.224 6        38.147
G32        31.000    23608959.983 7 124065936.74507     -3335.218 7        42.671                                    23608958.358 6  96674752.00906     -2598.869 6        38.694    23608958.706 6  96674756.99706     -2598.882 6        39.420
G02        32.000    20750718.117 8 109045804.38708      -992.289 8        49.500                                    20750711.376 7  84970753.81307      -773.214 7        42.544
G19        33.000    24164401.031 6 126984805.63706      2812.540 6        39.652                                    24164395.360 4  98949217.69204      2191.592 4        24.827
G17        34.000    22573705.414 7 118625677.52407      1016.550 7        45.026                                    22573701.029 7  92435603.64507       792.116 7        42.011    22573701.405 6  92435603.65206       792.093 6        41.054
E11        35.000    23380087.365 7 122863258.80907     -1054.792 7        43.930                                                                    23380083.034 7  91748556.66607      -787.676 7        46.892    23380082.661 7  94141989.66607      -808.203 7        47.602
C32        36.000                                                                                                                                    23254436.756 8 121091981.93108     -2635.666 8        48.548                                                                    23254436.695 8  98397165.15108     -2141.757 8        48.819
C35        37.000                                                                                                                                    24850239.230 7 129401727.31107      2385.825 7        43.841                                                                    24850237.601 7 105149501.68507      1938.737 7        43.716
I09        38.000    37125460.019 7 145688276.49507      -316.025 7        43.331
C29        39.000                                                                                                                                    21777887.726 8 113403180.57708      -623.671 8        50.800                                                                    21777884.937 8  92149368.47808      -506.942 8        48.962
G08        40.000    24869536.118 6 130690322.17406     -4118.442 6        37.539                                    24869535.667 4 101836633.28904     -3209.175 4        29.934    24869536.706 5 101836640.28505     -3209.226 5        35.695
S44        42.000    40575307.127 6 213224887.74906      -490.735 6        37.652
C09        43.000                                                                                                                                    39632238.148 6 206375477.50306       972.161 6        40.331    39632234.605 7 159582599.64307       751.706 7        44.327    39632232.621 6 167696960.05206       789.886 6        40.667
C05        44.000                                                                                                                                    39130300.130 6 203761778.77506      -412.397 6        37.618    39130295.799 7 157561556.59907      -318.773 7        43.399    39130297.757 6 165573239.25106      -335.113 6        40.372
R06        45.000    22026859.524 6 117539577.39006      3213.702 6        38.535
R13        46.000    23811163.970 6 127150287.01706        25.918 6        38.009
C39        47.000                                                                                                                                    38992978.748 7 203046681.12907        34.204 7        42.948                                                                    38992974.537 7 164992049.50807        27.620 7        43.117
C20        48.000                                                                                                                                    21956557.576 8 114333604.29408       471.905 8        51.875                                                                    21956551.987 8  92905410.75908       383.368 8        49.133
C06        49.000                                                                                                                                    38794973.608 6 202015630.36806       589.228 6        39.895    38794968.578 7 156211282.32107       455.693 7        43.843    38794968.390 6 164154225.89406       478.671 6        40.772
C16        50.000                                                                                                                                    39143112.934 6 203828474.80606       464.065 6        41.831    39143112.483 7 157613114.39907       358.945 7        42.245    39143110.122 6 165627330.00606       377.099 6        38.757
S48        51.000    77200850.390 6 405693571.42706      -429.458 6        37.021
C19        52.000                                                                                                                                    24980336.572 7 130079209.78007      2494.409 7        44.313                                                                    24980332.325 7 105700012.91707      2026.731 7        44.631
R04        53.000    21589374.037 8 115610145.38808     -4046.635 8        48.379                                                                    21589372.690 7  89919009.59207     -3147.358 7        44.343
C60        54.000                                                                                                                                    40575311.744 6 211286499.10306      -486.145 6        40.048                                                                    40575295.375 6 171687557.45606      -395.112 6        39.396
C30        55.000                                                                                                                                    23876176.523 7 124329510.25207     -3461.662 7        46.104                                                                    23876176.976 7 101027908.88907     -2812.992 7        45.398
R19        56.000    23188539.344 5 124043080.63405     -4557.694 5        35.019                                                                    23188539.241 6  96477988.50806     -3544.888 6        38.832
C02        57.000                                                                                                                                    40551230.402 5 211160945.42505      -456.507 5        33.689    40551223.468 6 163283031.44806      -353.119 6        40.260    40551226.616 5 171585568.33305      -370.974 5        35.414
I03        58.000   133756491.780 6 449103961.01206       976.137 6        40.810
C13        59.000                                                                                                                                    41124687.255 6 214147102.23306     -1107.961 6        36.000    41124690.114 6 165592164.21606      -856.826 6        38.252    41124687.916 5 174012091.35805      -900.495 5        35.524
> 2025 01 01 00 31  0.0000000  0 54
G28         1.000    23522081.265 6 123609381.98306      1121.823 6        41.669                                    23522077.740 4  96318979.20504       874.143 4        27.509    23522078.166 6  96318985.20806       874.269 6        41.652
G31         2.000    23870537.770 6 125440527.17906      2497.977 6        40.510                                    23870533.447 5  97745850.85605      1946.480 5        33.868    23870533.969 6  97745849.84906      1946.423 6        38.078
E34         4.000    28863386.606 5 151678116.07305      2329.088 5        33.868                                                                    28863387.012 6 113266129.95706      1739.248 6        36.911    28863386.896 6 116220898.28706      1784.681 6        37.860
S21         5.000    38446894.163 6 202039653.38906      -424.686 6        41.723
R12         6.000    24316869.414 6 129896372.01006     -2457.024 6        41.504                                                                    24316872.738 6 101030526.18106     -1911.119 6        38.871
G21         7.000    21562539.588 7 113311971.76307     -2314.432 7        44.971                                    21562534.543 5  88295047.22205     -1803.451 5        35.938
E04         8.000    23752942.104 7 124822577.78307      -306.871 7        47.332                                                                    23752940.347 8  93211670.36408      -229.188 8        50.394    23752940.057 8  95643271.08108      -235.116 8        50.892
G04        10.000    23361153.152 7 122763712.94607      3217.349 7        42.258                                    23361151.238 4  95660040.30904      2507.011 4        27.066    23361150.863 6  95660035.32206      2506.956 6        41.130
E09        11.000    25287226.231 7 132885311.85707      2183.841 7        45.192                                                                    25287226.085 7  99232552.85407      1630.751 7        47.553    25287225.791 8 101821227.65408      1673.346 8        48.332
S27        12.000    39096277.568 5 205452277.70005      -403.732 5        35.500
S36        14.000    38214551.253 7 200819325.39707      -423.801 7        43.602
E02        15.000    28116233.391 5 147751830.02005     -2652.011 5        35.295                                                                    28116233.390 6 110334176.12606     -1980.378 6        38.547    28116232.835 6 113212454.69806     -2031.954 6        39.159
E36        16.000    24514456.116 7 128824365.39507      1372.358 7        45.956                                                                    24514456.710 8  96200029.96808      1024.712 8        48.791    24514456.540 8  98709590.73908      1051.432 8        49.833
S45        17.000    63415385.426 6 333250369.71806      -466.119 6        37.263
G03        18.000    20435107.293 8 107387270.20808      1036.646 8        48.832                                    20435105.412 8  83678411.56208       807.775 8        49.988    20435106.060 7  83678420.55907       807.753 7        45.068
R21        19.000    20887612.625 8 111773868.60708      2779.789 8        50.678                                                                    20887610.542 7  86935240.55207      2161.998 7        45.138
R20        20.000    19232469.420 6 102844702.53206     -1132.508 6        40.474                                                                    19232470.631 7  79990323.75007      -880.886 7        46.905
R05        21.000    19109956.488 8 102153712.60708      -908.485 8        51.949                                                                    19109955.691 7  79452893.54507      -706.613 7        47.063
I06        22.000    38248654.933 7 150096166.21807      -213.597 7        43.520
S28        23.000    40890486.294 5 214880942.85205      -416.497 5        34.286
E10        24.000    24870073.382 7 130693240.28607     -2293.908 7        45.666                                                                    24870072.427 8  97595668.81008     -1712.981 8        48.880    24870072.228 8 100141633.24208     -1757.696 8        49.269
S23        25.000    38165842.740 7 200562814.31007      -420.975 7        44.822
E06        26.000    23962615.614 7 125924451.66407      1164.859 7        47.463                                                                    23962615.171 8  94034491.72208       869.793 8        49.495    23962615.173 8  96487564.02608       892.479 8        50.324
E30        27.000    28493573.024 6 149734737.15406      -787.536 6        36.314                                                                    28493574.801 6 111814901.79106      -588.210 6        40.353    28493573.851 6 114731810.09006      -603.636 6        41.383
E12        28.000    27009054.112 6 141933680.85806     -2938.366 6        36.412                                                                    27009051.386 6 105989509.95406     -2194.170 6        40.813    27009051.646 6 108754441.45406     -2251.385 6        41.681
E19        30.000    26509958.820 5 139310783.66005     -2981.049 5        34.633                                                                    26509957.389 6 104030777.97006     -2226.387 6        37.819    26509957.289 6 106744621.76806     -2284.188 6        38.330
G32        31.000    23612134.190 7 124082617.28507     -3336.973 7        43.198                                    23612132.400 6  96687749.83606     -2600.239 6        38.598    23612133.397 6  96687754.84306     -2600.306 6        39.396
G02        32.000    20751663.533 8 109050772.03008      -994.793 8        49.928                                    20751656.690 7  84974624.70307      -775.164 7        42.552
G19        33.000    24161725.799 6 126970747.92206      2810.513 6        39.324                                    24161720.154 4  98938263.63204      2190.008 4        24.075
G17        34.000    22572739.954 7 118620602.24207      1013.636 7        44.889                                    22572735.230 6  92431648.88406       789.847 6        41.993    22572735.641 6  92431648.89306       789.781 6        40.927
E11        35.000    23381091.743 7 122868536.98207     -1056.432 7        44.029                                                                    23381087.416 7  91752498.15707      -788.983 7        47.036    23381087.090 7  94146033.98107      -809.539 7        47.505
C32        36.000                                                                                                                                    23256967.999 8 121105163.81708     -2637.103 8        48.527                                                                    23256968.167 8  98407876.51608     -2143.002 8        48.611
C35        37.000                                                                                                                                    24847948.597 7 129389801.38607      2384.382 7        43.894                                                                    24847947.365 7 105139810.89307      1937.451 7        43.391
I09        38.000    37125862.728 7 145689857.51507      -316.447 7        43.329
C29        39.000                                                                                                                                    21778487.860 8 113406306.26008      -626.622 8        50.811                                                                    21778485.240 8  92151908.34508      -509.257 8        48.725
G08        40.000    24873454.192 6 130710914.75306     -4118.542 6        37.501                                    24873454.199 4 101852679.44204     -3209.253 4        29.488    24873455.158 5 101852686.44905     -3208.990 5        35.762
S44        42.000    40575771.643 6 213227341.03106      -490.933 6        37.675
C09        43.000                                                                                                                                    39631305.468 6 206370618.84706       971.282 6        40.400    39631301.462 7 159578842.61207       751.021 7        44.430    39631299.608 6 167693011.98806       789.106 6        40.284
C05        44.000                                                                                                                                    39130696.083 6 203763840.14906      -412.509 6        37.834    39130691.604 7 157563150.57007      -318.890 7        43.579    39130693.603 6 165574914.28106      -335.219 6        40.329
R06        45.000    22023848.661 6 117523514.10706      3211.709 6        38.183
R13        46.000    23811139.358 6 127150168.43806        21.538 6        37.070
C39        47.000                                                                                                                                    38992946.143 7 203046512.93207        33.072 7        42.747                                                                    38992942.297 7 164991912.83007        26.762 7        42.927
C20        48.000                                                                                                                                    21956105.697 8 114331250.42208       469.608 8        52.015                                                                    21956099.904 8  92903498.04908       381.449 8        49.058
C06        49.000                                                                                                                                    38794408.388 6 202012686.66806       588.106 6        39.724    38794403.522 7 156209006.07307       454.837 7        44.069    38794403.097 6 164151833.89606       477.854 6        40.646
C16        50.000                                                                                                                                    39142667.972 6 203826156.70506       463.012 6        41.881    39142667.412 7 157611321.89407       357.978 7        42.267    39142665.081 6 165625446.35906       376.110 6        38.628
S48        51.000    77201254.602 6 405695719.29306      -429.637 6        37.032
C19        52.000                                                                                                                                    24977941.394 7 130066740.80707      2493.198 7        44.185                                                                    24977937.804 7 105689880.86307      2025.768 7        44.453
R04        53.000    21593152.180 7 115630382.28207     -4048.190 7        47.189                                                                    21593151.386 7  89934749.40107     -3148.575 7        43.833
C60        54.000                                                                                                                                    40575778.626 6 211288930.08106      -486.250 6        40.205                                                                    40575762.262 6 171689532.82506      -395.258 6        39.183
C30        55.000                                                                                                                                    23879501.460 7 124346822.39007     -3463.212 7        45.902                                                                    23879501.887 7 101041976.41307     -2814.204 7        45.145
R19        56.000    23192799.280 5 124065872.28805     -4558.971 5        35.195                                                                    23192799.937 6  96495715.35506     -3545.973 6        38.781
C02        57.000                                                                                                                                    40551668.241 5 211163228.82305      -456.723 5        33.916    40551662.255 6 163284797.10006      -353.221 6        40.369    40551665.059 5 171587423.77405      -371.200 5        35.290
I03        58.000   133755248.382 6 449099081.06106       975.848 6        40.789
C13        59.000                                                                                                                                    41125751.184 5 214152643.31105     -1108.474 5        35.881    41125754.444 6 165596448.92506      -856.978 6        38.453    41125751.929 5 174016593.95705      -900.637 5        35.152
> 2025 01 01 00 31  5.0000000  0 54
G28         1.000    23521015.399 6 123603779.04906      1119.359 6        41.914                                    23521011.728 4  96314613.28604       872.223 4        27.665    23521011.994 6  96314619.28506       872.279 6        41.847
G31         2.000    23868161.593 6 125428040.26506      2496.742 6        40.305                                    23868157.289 5  97736120.79505      1945.513 5        33.844    23868157.632 6  97736119.80806      1945.512 6        37.989
E34         4.000    28861170.505 5 151666469.72705      2329.563 5        34.819                                                                    28861171.089 6 113257433.05006      1739.427 6        36.930    28861170.741 6 116211974.50106      1784.968 6        37.535
S21         5.000    38447299.341 7 202041775.85007      -424.236 7        42.227
R12         6.000    24319170.850 7 129908665.31207     -2460.251 7        42.188                                                                    24319173.877 6 101040087.66706     -1913.510 6        39.180
G21         7.000    21564742.268 7 113323547.75107     -2315.986 7        45.061                                    21564737.394 5  88304067.47105     -1804.667 5        35.914
E04         8.000    23753235.259 7 124824117.81807      -309.138 7        47.467                                                                    23753233.379 8  93212820.38608      -230.799 8        50.311    23753233.120 8  95644451.10308      -236.833 8        51.025
G04        10.000    23358092.576 7 122747628.69207      3216.466 7        42.360                                    23358090.662 4  95647507.13304      2506.336 4        27.329    23358090.261 6  95647502.14506      2506.295 6        40.810
E09        11.000    25285149.040 7 132874395.74807      2182.636 7        44.965                                                                    25285148.930 7  99224401.22807      1629.866 7        47.509    25285148.603 8 101812863.36708      1672.483 8        48.410
S27        12.000    39096656.184 5 205454296.12005      -403.686 5        35.738
S36        14.000    38214953.721 7 200821444.37107      -423.768 7        43.926
E02        15.000    28118757.096 5 147765091.71005     -2652.922 5        35.605                                                                    28118756.946 6 110344079.32606     -1980.976 6        38.426    28118756.400 6 113222616.25806     -2032.757 6        39.174
E36        16.000    24513151.140 7 128817506.14807      1371.497 7        46.109                                                                    24513151.448 8  96194907.80608      1024.165 8        48.731    24513151.272 8  98704334.95208      1050.891 8        49.915
S45        17.000    63415785.801 6 333252700.40206      -465.929 6        37.440
G03        18.000    20434121.956 8 107382091.54708      1034.780 8        48.818                                    20434119.947 8  83674376.24308       806.323 8        49.968    20434120.555 7  83674385.24007       806.322 7        44.948
R21        19.000    20885015.350 8 111759974.79308      2777.777 8        50.231                                                                    20885014.171 7  86924434.26307      2160.462 7        45.068
R20        20.000    19233529.850 6 102850374.68406     -1136.463 6        40.601                                                                    19233531.458 7  79994735.40907      -883.771 7        47.070
R05        21.000    19110807.561 8 102158263.63808      -911.956 8        51.547                                                                    19110806.859 7  79456433.23507      -709.304 7        46.894
I06        22.000    38248927.034 7 150097233.87407      -213.476 7        43.217
S28        23.000    40890880.222 5 214883025.53105      -416.735 5        34.343
E10        24.000    24872256.238 7 130704712.59607     -2295.023 7        46.043                                                                    24872255.488 8  97604235.78808     -1713.761 8        48.886    24872255.316 8 100150423.71008     -1758.531 8        49.299
S23        25.000    38166242.727 7 200564919.04007      -420.899 7        45.090
E06        26.000    23961508.210 7 125918632.28907      1163.001 7        47.764                                                                    23961507.779 8  94030146.07908       868.487 8        49.415    23961507.765 8  96483105.01808       891.136 8        50.450
E30        27.000    28494323.606 6 149738680.52206      -789.686 6        36.628                                                                    28494325.117 6 111817846.52106      -589.702 6        40.362    28494324.349 6 114734831.64306      -605.240 6        41.352
E12        28.000    27011850.427 6 141948373.91306     -2938.854 6        36.953                                                                    27011847.524 6 106000482.04006     -2194.595 6        40.884    27011847.777 7 108765699.77407     -2251.927 7        42.028
E19        30.000    26512795.730 5 139325691.60605     -2982.090 5        34.405                                                                    26512794.317 6 104041910.51306     -2226.646 6        38.081    26512794.314 6 106756044.75606     -2284.784 6        38.541
G32        31.000    23615310.270 7 124099305.59407     -3338.438 7        43.422                                    23615308.017 6  96700753.71306     -2601.383 6        38.703    23615309.360 6  96700758.71606     -2601.333 6        39.652
G02        32.000    20752611.116 8 109055751.34808      -996.944 8        49.700                                    20752604.205 7  84978504.69307      -776.839 7        42.514
G19        33.000    24159052.269 6 126956699.42806      2808.907 6        40.107                                    24159046.714 4  98927316.79004      2188.757 4        24.361
G17        34.000    22571776.465 7 118615540.95107      1010.993 7        44.609                                    22571772.105 6  92427705.02106       787.787 6        41.943    22571772.478 6  92427705.03806       787.657 6        41.144
E11        35.000    23382097.582 7 122873823.29307     -1057.993 7        44.006                                                                    23382093.352 7  91756445.72507      -789.997 7        47.041    23382093.079 7  94150084.53207      -810.604 7        47.499
C32        36.000                                                                                                                                    23259500.747 8 121118352.30108     -2638.207 8        48.525                                                                    23259500.883 8  98418593.24308     -2143.792 8        48.574
C35        37.000                                                                                                                                    24845659.596 7 129377882.02507      2383.323 7        43.915                                                                    24845658.359 7 105130125.44207      1936.667 7        43.589
I09        38.000    37126266.082 7 145691439.72707      -316.422 7        43.293
C29        39.000                                                                                                                                    21779090.849 8 113409445.81708      -629.160 8        50.762                                                                    21779088.190 8  92154459.49808      -511.271 8        48.664
G08        40.000    24877373.052 6 130731506.60706     -4118.065 6        37.380                                    24877372.584 4 101868725.03804     -3208.883 4        29.213    24877373.875 5 101868732.05105     -3209.144 5        35.681
S44        42.000    40576241.512 6 213229794.68906      -490.739 6        37.966
C09        43.000                                                                                                                                    39630373.108 6 206365763.99706       970.727 6        40.353    39630369.183 7 159575088.53607       750.642 7        44.394    39630367.148 6 167689067.02906       788.617 6        40.260
C05        44.000                                                                                                                                    39131091.907 6 203765901.94406      -412.541 6        37.777    39131087.585 7 157564744.88607      -318.772 7        43.503    39131089.672 6 165576589.64806      -334.964 6        40.272
R06        45.000    22020840.046 6 117507460.28406      3209.948 6        38.504
R13        46.000    23811120.314 6 127150070.42106        17.426 6        36.703
C39        47.000                                                                                                                                    38992915.016 7 203046350.01107        32.202 7        42.626                                                                    38992911.057 7 164991780.45207        26.043 7        42.952
C20        48.000                                                                                                                                    21955655.711 8 114328907.54308       467.598 8        52.037                                                                    21955649.983 8  92901594.26708       379.960 8        48.933
C06        49.000                                                                                                                                    38793844.188 6 202009747.76106       587.641 6        39.829    38793839.205 7 156206733.53607       454.234 7        44.009    38793838.856 6 164149445.81306       477.235 6        40.479
C16        50.000                                                                                                                                    39142223.515 6 203823843.45506       462.299 6        41.917    39142223.286 7 157609533.14307       357.470 7        42.290    39142220.796 6 165623566.66506       375.646 6        38.504
S48        51.000    77201654.159 6 405697867.30806      -429.384 6        37.323
C19        52.000                                                                                                                                    24975548.329 7 130054277.12607      2492.342 7        44.379                                                                    24975544.273 7 105679753.10907      2025.103 7        44.330
R04        53.000    21596933.192 7 115650625.92207     -4049.350 7        47.574                                                                    21596931.436 7  89950494.45307     -3149.428 7        43.388
C60        54.000                                                                                                                                    40576245.352 6 211291361.43006      -486.115 6        40.186                                                                    40576229.193 6 171691508.51106      -395.114 6        38.943
C30        55.000                                                                                                                                    23882827.402 7 124364141.22607     -3464.364 7        45.889                                                                    23882828.104 7 101056049.38807     -2815.121 7        45.341
R19        56.000    23197061.391 5 124088670.34905     -4560.326 5        35.319                                                                    23197061.650 6  96513447.15106     -3546.778 6        38.402
C02        57.000                                                                                                                                    40552108.087 5 211165512.60705      -456.573 5        34.067    40552100.783 6 163286563.07306      -353.082 6        40.429    40552103.667 5 171589279.54605      -371.182 5        35.295
I03        58.000   133754005.315 6 449094201.53306       975.934 6        40.698
C13        59.000                                                                                                                                    41126815.688 5 214158184.29305     -1107.935 5        35.962    41126818.398 6 165600733.57506      -856.767 6        38.285    41126815.872 5 174021096.47705      -900.401 5        35.024
> 2025 01 01 00 31 10.0000000  0 54
G28         1.000    23519951.602 6 123598189.73706      1116.466 6        41.788                                    23519948.228 4  96310257.98604       869.970 4        27.988    23519948.559 7  96310264.00007       869.890 7        42.339
G31         2.000    23865787.166 6 125415560.81906      2495.166 6        40.415                                    23865782.598 5  97726396.55405      1944.284 5        34.109    23865782.452 6  97726395.56806      1944.238 6        37.864
E34         4.000    28858953.664 5 151654822.37605      2329.393 5        35.357                                                                    28858954.454 5 113248735.36205      1739.558 5        35.781    28858954.180 6 116203049.91206      1784.969 6        36.541
S21         5.000    38447703.209 6 202043898.73206      -424.713 6        41.988
R12         6.000    24321475.467 7 129920975.39707     -2463.595 7        42.442                                                                    24321477.624 6 101049662.22206     -1916.168 6        39.730
G21         7.000    21566947.012 7 113335132.41507     -2317.772 7        45.403                                    21566941.868 5  88313094.48305     -1806.055 5        35.914
E04         8.000    23753530.680 7 124825669.58407      -311.522 7        47.464                                                                    23753528.660 8  93213979.18208      -232.688 8        50.381    23753528.474 8  95645640.12808      -238.720 8        51.165
G04        10.000    23355032.143 6 122731549.35906      3215.327 6        41.983                                    23355030.870 4  95634977.79904      2505.443 4        27.245    23355030.439 6  95634972.80006      2505.425 6        40.477
E09        11.000    25283072.918 7 132863486.68207      2181.064 7        44.862                                                                    25283072.952 7  99216254.85107      1628.735 7        47.603    25283072.681 8 101804504.48208      1671.253 8        48.683
S27        12.000    39097043.655 5 205456314.71505      -403.884 5        35.781
S36        14.000    38215358.215 7 200823563.58907      -423.960 7        43.767
E02        15.000    28121281.946 5 147778359.26705     -2654.352 5        34.767                                                                    28121281.636 6 110353986.90306     -1981.860 6        38.517    28121280.887 6 113232782.29706     -2033.768 6        39.432
E36        16.000    24511846.602 7 128810651.85707      1370.349 7        45.934                                                                    24511847.137 8  96189789.34308      1023.263 8        48.804    24511846.972 8  98699082.96208      1050.006 8        50.029
S45        17.000    63416183.002 6 333255031.33306      -466.271 6        37.353
G03        18.000    20433138.404 8 107376922.97008      1032.700 8        48.903                                    20433136.391 8  83670348.78008       804.701 8        50.034    20433136.993 7  83670357.79007       804.637 7        44.795
R21        19.000    20882420.601 8 111746092.29708      2775.379 8        50.356                                                                    20882420.031 7  86913636.76907      2158.646 7        45.211
R20        20.000    19234594.526 6 102856066.37906     -1140.227 6        40.727                                                                    19234595.937 7  79999162.29307      -886.882 7        47.099
R05        21.000    19111662.534 8 102162833.09008      -915.691 8        51.737                                                                    19111661.551 7  79459987.26007      -712.191 7        46.799
I06        22.000    38249199.032 7 150098301.76907      -213.727 7        43.365
S28        23.000    40891282.020 5 214885108.24005      -416.648 5        34.176
E10        24.000    24874440.706 7 130716191.39207     -2296.441 7        46.124                                                                    24874439.910 8  97612807.62308     -1714.890 8        48.929    24874439.622 8 100159219.15408     -1759.601 8        49.490
S23        25.000    38166642.848 7 200567023.95807      -420.958 7        45.124
E06        26.000    23960402.677 7 125912823.16107      1160.796 7        47.766                                                                    23960402.349 8  94025808.10608       866.795 8        49.521    23960402.354 8  96478653.87508       889.487 8        50.592
E30        27.000    28495076.087 6 149742635.67706      -792.096 6        36.836                                                                    28495077.638 6 111820800.10806      -591.563 6        40.992    28495076.672 6 114737862.26106      -606.925 6        41.590
E12        28.000    27014646.899 6 141963071.05406     -2939.883 6        36.862                                                                    27014644.367 6 106011457.18006     -2195.286 6        41.249    27014644.636 7 108776961.21707     -2252.524 7        42.377
E19        30.000    26515634.033 5 139340605.05105     -2983.325 5        33.868                                                                    26515632.270 6 104053047.19606     -2227.754 6        37.758    26515632.240 6 106767471.93606     -2285.994 6        38.592
G32        31.000    23618486.719 7 124116001.56607     -3340.050 7        43.077                                    23618485.221 6  96713763.56006     -2602.638 6        38.922    23618486.491 6  96713768.55506     -2602.513 6        40.145
G02        32.000    20753560.704 8 109060742.26208      -999.385 8        49.805                                    20753553.955 7  84982393.71307      -778.745 7        42.514
G19        33.000    24156380.941 6 126942660.05206      2807.045 6        39.282                                    24156375.152 4  98916377.03804      2187.312 4        24.571
G17        34.000    22570815.897 7 118610493.57007      1008.074 7        44.612                                    22570811.618 6  92423772.00106       785.513 6        41.938    22570812.175 6  92423772.00806       785.555 6        41.523
E11        35.000    23383105.189 7 122879117.63707     -1059.702 7        44.065                                                                    23383100.866 7  91760399.30207      -791.285 7        47.088    23383100.558 7  94154141.24307      -811.919 7        47.819
C32        36.000                                                                                                                                    23262034.858 8 121131547.31208     -2639.660 8        48.261                                                                    23262034.826 8  98429315.25808     -2144.941 8        48.835
C35        37.000                                                                                                                                    24843372.097 7 129365969.16207      2381.886 7        44.095                                                                    24843370.575 7 105120445.27507      1935.374 7        43.736
I09        38.000    37126669.668 7 145693023.09107      -316.855 7        43.327
C29        39.000                                                                                                                                    21779696.338 8 113412599.19908      -632.034 8        50.753                                                                    21779693.716 8  92157021.88208      -513.620 8        49.042
G08        40.000    24881291.192 6 130752097.70106     -4118.091 6        37.762                                    24881290.888 4 101884770.03704     -3208.901 4        29.090    24881291.799 5 101884777.04905     -3209.063 5        35.752
S44        42.000    40576707.201 6 213232248.63906      -490.773 6        37.943
C09        43.000                                                                                                                                    39629440.531 6 206360912.85606       969.962 6        40.195    39629437.453 7 159571337.34207       749.934 7        44.328    39629435.518 6 167685125.09406       788.042 6        40.465
C05        44.000                                                                                                                                    39131487.869 6 203767964.05406      -412.483 6        37.675    39131483.591 7 157566339.45507      -319.008 7        43.500    39131485.576 6 165578265.28306      -335.094 6        40.360
R06        45.000    22017832.629 6 117491415.59306      3207.856 6        37.928
R13        46.000    23811107.364 6 127149993.44206        13.160 6        37.664
C39        47.000                                                                                                                                    38992884.672 7 203046192.28907        31.066 7        42.495                                                                    38992880.726 7 164991652.29007        25.179 7        43.162
C20        48.000                                                                                                                                    21955207.807 8 114326575.55108       465.285 8        51.987                                                                    21955202.140 8  92899699.33808       378.035 8        49.111
C06        49.000                                                                                                                                    38793280.847 6 202006813.62706       586.407 6        39.886    38793275.790 7 156204464.69207       453.405 7        44.036    38793275.414 6 164147061.59606       476.446 6        40.677
C16        50.000                                                                                                                                    39141779.894 6 203821534.98406       461.251 6        41.797    39141779.838 7 157607748.10107       356.637 7        42.394    39141777.387 6 165621690.85106       374.754 6        38.949
S48        51.000    77202055.832 6 405700015.62706      -429.836 6        37.335
C19        52.000                                                                                                                                    24973155.870 7 130041818.67707      2491.137 7        43.926                                                                    24973151.764 7 105669629.59907      2024.317 7        44.600
R04        53.000    21600716.130 8 115670876.33308     -4050.753 8        48.225                                                                    21600713.731 7  89966244.75607     -3150.572 7        43.693
C60        54.000                                                                                                                                    40576712.565 6 211293793.09406      -486.430 6        40.112                                                                    40576696.245 6 171693484.42506      -395.192 6        39.417
C30        55.000                                                                                                                                    23886154.680 7 124381466.69207     -3465.791 7        45.484                                                                    23886155.281 7 101070127.73407     -2816.235 7        45.768
R19        56.000    23201326.117 5 124111474.54705     -4561.229 5        35.043                                                                    23201325.184 6  96531183.74806     -3547.748 6        38.550
C02        57.000                                                                                                                                    40552546.736 5 211167796.78905      -456.721 5        33.856    40552539.203 6 163288329.35106      -353.378 6        40.391    40552542.445 5 171591135.62105      -371.222 5        35.457
I03        58.000   133752761.790 6 449089322.39206       975.831 6        40.658
C13        59.000                                                                                                                                    41127879.329 5 214163725.10505     -1108.246 5        35.948    41127881.774 6 165605018.08006      -857.027 6        37.807    41127879.920 5 174025598.83805      -900.580 5        35.052
> 2025 01 01 00 31 15.0000000  0 54
G28         1.000    23518890.451 6 123592614.00406      1113.783 6        41.654                                    23518887.282 4  96305913.25904       867.884 4        27.856    23518886.989 7  96305919.25107       867.968 7        42.119
G31         2.000    23863413.412 6 125403088.73406      2493.687 6        40.405                                    23863409.298 5  97716678.04805      1943.132 5        34.367    23863409.227 6  97716677.06006      1943.207 6        37.970
E34         4.000    28856737.086 5 151643173.95105      2329.449 5        33.359                                                                    28856738.014 5 113240036.85705      1739.711 5        35.219    28856737.285 5 116194124.47405      1785.026 5        35.590
S21         5.000    38448107.489 7 202046021.67107      -424.417 7        42.341
R12         6.000    24323784.056 7 129933302.05207     -2466.824 7        43.405                                                                    24323785.102 6 101059249.77706     -1918.755 6        39.580
G21         7.000    21569153.486 7 113346725.67307     -2319.470 7        45.496                                    21569148.006 5  88322128.18705     -1807.380 5        35.929
E04         8.000    23753828.050 7 124827233.01507      -313.821 7        47.352                                                                    23753826.199 8  93215146.67208      -234.335 8        50.355    23753825.987 8  95646838.07908      -240.468 8        51.112
G04        10.000    23351973.334 6 122715474.88706      3214.448 6        41.495                                    23351972.016 4  95622452.24104      2504.765 4        27.054    23351972.180 6  95622447.24206      2504.719 6        40.453
E09        11.000    25280998.748 7 132852584.57607      2179.713 7        45.192                                                                    25280998.306 7  99208113.66607      1627.660 7        47.534    25280998.049 8 101796150.91608      1670.245 8        48.677
S27        12.000    39097429.122 5 205458333.30005      -403.735 5        35.538
S36        14.000    38215759.951 7 200825683.12307      -424.075 7        44.027
E02        15.000    28123808.007 5 147791632.53505     -2654.982 5        35.405                                                                    28123807.330 6 110363898.77906     -1982.725 6        38.577    28123806.683 6 113242952.72606     -2034.437 6        39.201
E36        16.000    24510543.394 7 128803802.42607      1369.398 7        45.664                                                                    24510543.667 8  96184674.50808      1022.559 8        48.810    24510543.574 8  98693834.69908      1049.266 8        50.009
S45        17.000    63416582.788 6 333257362.28406      -466.104 6        37.017
G03        18.000    20432156.795 8 107371764.41008      1030.730 8        48.937                                    20432154.749 8  83666329.12308       803.166 8        49.997    20432155.286 7  83666338.11807       803.167 7        44.858
R21        19.000    20879828.862 8 111732220.77108      2773.114 8        50.101                                                                    20879827.512 7  86902847.79807      2156.860 7        44.646
R20        20.000    19235661.992 6 102861777.58406     -1144.133 6        40.477                                                                    19235663.815 7  80003604.35707      -889.901 7        47.125
R05        21.000    19112521.093 8 102167420.80308      -919.380 8        51.566                                                                    19112519.972 7  79463555.47507      -715.043 7        46.968
I06        22.000    38249471.136 7 150099369.79307      -213.631 7        43.228
S28        23.000    40891672.902 5 214887191.11005      -416.298 5        34.124
E10        24.000    24876626.244 7 130727676.59907     -2297.691 7        45.422                                                                    24876625.526 8  97621384.23008     -1715.820 8        48.897    24876625.208 8 100168019.50208     -1760.564 8        49.390
S23        25.000    38167043.532 7 200569128.98207      -420.953 7        44.963
E06        26.000    23959299.143 7 125907024.22207      1158.866 7        47.611                                                                    23959298.878 8  94021477.72408       865.349 8        49.527    23959298.865 8  96474210.53708       887.908 8        50.532
E30        27.000    28495830.656 6 149746602.65606      -794.505 6        36.560                                                                    28495832.434 6 111823762.49006      -593.415 6        40.770    28495831.673 6 114740901.92906      -608.964 6        41.375
E12        28.000    27017444.895 6 141977772.21806     -2940.759 6        37.074                                                                    27017442.239 6 106022435.30906     -2195.824 6        41.554    27017442.054 7 108788225.74107     -2253.278 7        42.387
E19        30.000    26518473.134 5 139355523.98105     -2984.484 5        33.347                                                                    26518471.310 6 104064187.95206     -2228.668 6        37.905    26518470.891 6 106778903.32406     -2286.677 6        38.703
G32        31.000    23621665.223 7 124132705.10207     -3341.473 7        43.109                                    23621664.008 6  96726779.30106     -2603.745 6        39.042    23621665.045 6  96726784.30106     -2603.693 6        40.660
G02        32.000    20754512.752 8 109065744.71908     -1001.646 8        49.793                                    20754505.896 7  84986291.73207      -780.501 7        42.555
G19        33.000    24153710.859 6 126928629.69706      2805.179 6        39.640                                    24153705.352 4  98905444.30104      2185.850 4        24.872
G17        34.000    22569858.369 7 118605460.03507      1005.486 7        44.755                                    22569853.779 6  92419849.76606       783.497 6        41.957    22569854.005 6  92419849.77806       783.371 6        41.409
E11        35.000    23384114.256 7 122884419.95407     -1061.183 7        43.972                                                                    23384109.843 7  91764358.82607      -792.472 7        47.123    23384109.603 7  94158204.06107      -813.165 7        47.710
C32        36.000                                                                                                                                    23264569.995 8 121144748.74408     -2640.897 8        48.203                                                                    23264570.065 8  98440042.50508     -2145.965 8        48.756
C35        37.000                                                                                                                                    24841085.321 7 129354062.71107      2380.710 7        43.962                                                                    24841084.055 7 105110770.30507      1934.514 7        43.672
I09        38.000    37127073.287 7 145694607.52607      -316.997 7        43.088
C29        39.000                                                                                                                                    21780304.656 8 113415766.29108      -634.731 8        50.929                                                                    21780301.927 8  92159595.40408      -515.811 8        48.864
G08        40.000    24885209.470 6 130772687.90906     -4117.839 6        37.429                                    24885209.062 4 101900814.33804     -3208.705 4        29.071    24885210.101 5 101900821.37405     -3209.108 5        35.681
S44        42.000    40577175.348 6 213234702.81406      -490.824 6        37.671
C09        43.000                                                                                                                                    39628509.770 6 206356065.41606       969.229 6        40.358    39628506.770 7 159567588.99007       749.323 7        44.299    39628504.588 6 167681186.14406       787.452 6        40.338
C05        44.000                                                                                                                                    39131883.706 6 203770026.38806      -412.475 6        37.902    39131879.621 7 157567934.17207      -318.988 7        43.454    39131881.633 6 165579941.10406      -335.101 6        40.338
R06        45.000    22014827.804 6 117475380.07506      3206.146 6        37.788
R13        46.000    23811096.933 6 127149937.00306         9.448 6        36.544
C39        47.000                                                                                                                                    38992855.607 7 203046039.69507        29.938 7        42.631                                                                    38992851.433 7 164991528.28607        24.300 7        43.012
C20        48.000                                                                                                                                    21954762.117 8 114324254.36508       463.152 8        51.892                                                                    21954756.420 8  92897813.18208       376.361 8        49.080
C06        49.000                                                                                                                                    38792718.534 6 202003884.17306       585.320 6        40.198    38792712.926 7 156202199.43207       452.675 7        43.945    38792712.646 6 164144681.15506       475.711 6        40.598
C16        50.000                                                                                                                                    39141337.464 7 203819231.24607       460.299 7        42.030    39141337.446 7 157605966.70107       355.953 7        42.324    39141335.036 6 165619818.86106       374.074 6        38.640
S48        51.000    77202456.543 6 405702163.96706      -429.502 6        37.119
C19        52.000                                                                                                                                    24970764.365 7 130029365.35007      2490.249 7        44.286                                                                    24970760.133 7 105659510.26507      2023.462 7        44.479
R04        53.000    21604498.288 7 115691133.53307     -4052.003 7        47.454                                                                    21604496.931 7  89982000.35707     -3151.649 7        44.167
C60        54.000                                                                                                                                    40577179.317 6 211296224.93006      -486.388 6        40.174                                                                    40577163.351 6 171695460.49806      -395.261 6        39.225
C30        55.000                                                                                                                                    23889482.651 7 124398798.67507     -3466.974 7        45.351                                                                    23889483.677 7 101084211.39107     -2817.208 7        45.637
R19        56.000    23205589.153 5 124134284.82105     -4562.710 5        34.933                                                                    23205589.023 6  96548925.05506     -3548.726 6        38.249
C02        57.000                                                                                                                                    40552984.660 5 211170081.17305      -456.550 5        34.133    40552978.070 6 163290095.77506      -353.165 6        40.276    40552981.156 5 171592991.87705      -371.001 5        35.233
I03        58.000   133751518.558 6 449084443.57606       975.738 6        40.632
C13        59.000                                                                                                                                    41128943.477 6 214169265.59106     -1107.929 6        36.299    41128945.706 6 165609302.32806      -856.791 6        37.849    41128944.010 5 174030100.96005      -900.448 5        34.867
> 2025 01 01 00 31 20.0000000  0 54
G28         1.000    23517832.424 6 123587051.75606      1111.001 6        41.719                                    23517828.809 4  96301579.04404       865.719 4        27.808    23517828.815 7  96301585.04607       865.597 7        42.119
G31         2.000    23861041.277 6 125390623.94006      2492.025 6        41.108                                    23861037.348 5  97706965.22405      1941.838 5        34.714    23861037.963 6  97706964.24306      1941.820 6        38.571
E34         4.000    28854520.183 5 151631524.38605      2329.953 5        34.543                                                                    28854521.189 6 113231337.49806      1739.911 6        37.214    28854520.419 6 116185198.21106      1785.111 6        37.414
S21         5.000    38448510.270 7 202048144.80607      -424.789 7        42.063
R12         6.000    24326094.264 7 129945644.96207     -2470.582 7        42.260                                                                    24326095.411 6 101068849.84906     -1921.287 6        38.649
G21         7.000    21571360.626 7 113358327.45607     -2321.521 7        45.210                                    21571355.776 5  88331168.53505     -1808.976 5        35.929
E04         8.000    23754127.696 7 124828808.05807      -316.430 7        47.317                                                                    23754125.917 8  93216322.84208      -236.288 8        50.446    23754125.689 8  95648044.93008      -242.478 8        50.995
G04        10.000    23348915.496 6 122699405.22706      3213.257 6        41.628                                    23348914.039 4  95609930.43904      2503.840 4        27.162    23348914.094 6  95609925.44106      2503.783 6        41.104
E09        11.000    25278925.259 7 132841689.36307      2178.131 7        45.068                                                                    25278924.964 7  99199977.64207      1626.474 7        47.602    25278924.727 8 101787802.65108      1668.946 8        48.611
S27        12.000    39097809.407 5 205460352.21405      -404.142 5        35.605
S36        14.000    38216163.425 7 200827803.51107      -424.449 7        43.681
E02        15.000    28126334.716 6 147804911.50106     -2656.475 6        36.079                                                                    28126334.323 6 110373814.90006     -1983.856 6        38.282    28126333.580 6 113253127.51706     -2035.449 6        39.027
E36        16.000    24509240.853 7 128796957.81607      1368.227 7        45.720                                                                    24509241.198 8  96179563.28008      1021.669 8        48.899    24509240.991 8  98688590.12908      1048.365 8        49.877
S45        17.000    63416981.021 6 333259693.39606      -466.371 6        37.384
G03        18.000    20431176.912 8 107366615.78708      1028.456 8        48.860                                    20431174.999 8  83662317.21008       801.395 8        50.066    20431175.846 7  83662326.20807       801.393 7        45.314
R21        19.000    20877238.572 8 111718360.25308      2770.725 8        49.942                                                                    20877237.629 7  86892067.39607      2155.044 7        44.638
R20        20.000    19236733.935 6 102867508.34806     -1148.275 6        40.336                                                                    19236735.493 7  80008061.60907      -893.161 7        47.311
R05        21.000    19113382.515 8 102172026.85508      -923.229 8        51.693                                                                    19113381.551 7  79467137.97007      -718.083 7        47.426
I06        22.000    38249743.147 7 150100437.95407      -213.862 7        43.223
S28        23.000    40892068.712 5 214889274.34905      -416.989 5        34.467
E10        24.000    24878812.964 7 130739168.15907     -2299.126 7        45.407                                                                    24878812.309 8  97629965.58908     -1716.920 8        48.965    24878811.953 8 100176824.72508     -1761.743 8        49.236
S23        25.000    38167444.310 7 200571234.06507      -421.219 7        44.996
E06        26.000    23958197.555 7 125901235.41807      1156.489 7        47.493                                                                    23958197.365 8  94017154.91808       863.591 8        49.572    23958197.278 8  96469774.95708       886.187 8        50.517
E30        27.000    28496587.917 6 149750581.34606      -797.103 6        36.998                                                                    28496589.231 6 111826733.70106      -595.243 6        40.701    28496588.710 6 114743950.62506      -610.785 6        41.254
E12        28.000    27020242.660 6 141992477.32606     -2941.635 6        37.040                                                                    27020240.637 6 106033416.40506     -2196.773 6        41.764    27020240.225 7 108799493.29507     -2254.129 7        42.210
E19        30.000    26521313.221 5 139370448.34605     -2985.541 5        33.772                                                                    26521311.325 6 104075332.76106     -2229.503 6        38.138    26521310.894 6 106790338.86706     -2287.644 6        38.610
G32        31.000    23624845.878 7 124149416.15707     -3343.168 7        43.211                                    23624844.257 6  96739800.89606     -2605.063 6        39.120    23624844.284 6  96739805.89206     -2605.006 6        40.832
G02        32.000    20755466.859 8 109070758.62508     -1004.140 8        49.745                                    20755459.993 7  84990198.66907      -782.448 7        42.650
G19        33.000    24151043.049 6 126914608.40306      2803.127 6        39.075                                    24151037.322 4  98894518.63804      2184.262 4        24.707
G17        34.000    22568903.236 7 118600440.30907      1002.289 7        44.916                                    22568898.551 7  92415938.29407       781.004 7        42.051    22568898.909 6  92415938.29806       780.921 6        41.709
E11        35.000    23385124.779 7 122889730.19807     -1063.133 7        44.011                                                                    23385120.367 7  91768324.26807      -793.865 7        47.229    23385120.117 7  94162272.94707      -814.551 7        47.594
C32        36.000                                                                                                                                    23267106.131 8 121157956.54508     -2642.376 8        48.291                                                                    23267106.376 8  98450774.91008     -2147.134 8        48.868
C35        37.000                                                                                                                                    24838800.051 7 129342162.64207      2379.177 7        43.968                                                                    24838798.703 7 105101100.51907      1933.271 7        43.833
I09        38.000    37127477.608 7 145696193.00507      -317.355 7        43.242
C29        39.000                                                                                                                                    21780915.399 8 113418947.05008      -637.708 8        50.865                                                                    21780912.818 8  92162180.01508      -518.196 8        49.030
G08        40.000    24889127.892 6 130793277.17206     -4117.932 6        37.418                                    24889127.183 4 101916857.91204     -3208.772 4        29.014    24889129.013 5 101916864.92705     -3208.927 5        35.738
S44        42.000    40577640.643 6 213237157.10906      -490.998 6        37.584
C09        43.000                                                                                                                                    39627579.941 6 206351221.60006       968.223 6        40.403    39627576.392 7 159563843.44707       748.622 7        44.251    39627574.328 6 167677250.13206       786.750 6        40.453
C05        44.000                                                                                                                                    39132280.526 6 203772088.95006      -412.712 6        37.871    39132275.605 7 157569529.08007      -319.226 7        43.551    39132277.724 6 165581617.09506      -335.401 6        40.246
R06        45.000    22011824.430 6 117459353.78206      3204.004 6        38.186
R13        46.000    23811089.412 6 127149900.79306         4.731 6        36.514
C39        47.000                                                                                                                                    38992827.689 7 203045892.12807        28.740 7        42.688                                                                    38992823.152 7 164991408.35507        23.466 7        43.175
C20        48.000                                                                                                                                    21954318.337 8 114321943.94808       460.764 8        51.952                                                                    21954312.687 8  92895935.76008       374.465 8        49.158
C06        49.000                                                                                                                                    38792156.855 6 202000959.28506       584.277 6        39.982    38792151.352 7 156199937.73807       451.742 7        44.054    38792151.022 6 164142304.44306       474.787 6        40.863
C16        50.000                                                                                                                                    39140895.969 6 203816932.13806       459.160 6        41.759    39140895.854 7 157604188.88707       355.046 7        42.506    39140893.736 6 165617950.63706       373.261 6        38.919
S48        51.000    77202856.816 6 405704312.38906      -429.998 6        37.248
C19        52.000                                                                                                                                    24968373.908 7 130016917.12307      2488.895 7        44.420                                                                    24968369.623 7 105649395.04707      2022.564 7        44.631
R04        53.000    21608282.267 7 115711397.30707     -4053.630 7        47.531                                                                    21608280.948 7  89997761.07807     -3152.809 7        44.158
C60        54.000                                                                                                                                    40577646.226 6 211298656.94406      -486.484 6        40.265                                                                    40577630.206 6 171697436.67906      -395.426 6        39.369
C30        55.000                                                                                                                                    23892812.205 7 124416137.11607     -3468.567 7        46.429                                                                    23892813.254 7 101098300.27607     -2818.402 7        45.794
R19        56.000    23209854.646 5 124157101.32305     -4564.271 5        34.843                                                                    23209854.052 6  96566671.23206     -3549.938 6        38.453
C02        57.000                                                                                                                                    40553423.254 5 211172365.84605      -457.124 5        34.157    40553416.848 6 163291862.43906      -353.609 6        40.033    40553419.822 5 171594848.33205      -371.274 5        35.405
I03        58.000   133750275.329 6 449079565.03206       975.531 6        40.548
C13        59.000                                                                                                                                    41130007.594 6 214174805.79006     -1108.061 6        36.563    41130010.630 6 165613586.39406      -857.410 6        37.981    41130007.915 5 174034602.79705      -900.456 5        35.290
> 2025 01 01 00 31 25.0000000  0 54
G28         1.000    23516776.462 6 123581503.41506      1108.184 6        41.132                                    23516772.920 4  96297255.65804       863.525 4        27.868    23516772.795 7  96297261.65507       863.560 7        42.068
G31         2.000    23858671.439 6 125378166.87706      2490.638 6        41.371                                    23858666.834 5  97697258.42205      1940.760 5        35.086    23858666.785 6  97697257.42506      1940.868 6        38.541
E34         4.000    28852303.386 5 151619874.06905      2329.827 5        35.614                                                                    28852304.038 6 113222637.58406      1740.158 6        37.754    28852303.387 6 116176271.33206      1785.525 6        38.000
S21         5.000    38448914.563 6 202050268.39306      -424.718 6        41.924
R12         6.000    24328407.948 7 129958004.50107     -2473.546 7        43.482                                                                    24328409.569 6 101078462.84906     -1923.986 6        40.253
G21         7.000    21573570.357 7 113369938.15007     -2323.051 7        45.464                                    21573565.236 6  88340215.82806     -1810.167 6        36.045
E04         8.000    23754429.707 7 124830395.05307      -318.563 7        47.441                                                                    23754427.901 8  93217507.93908      -237.934 8        50.410    23754427.664 8  95649260.94408      -244.118 8        51.061
G04        10.000    23345858.805 6 122683340.75806      3212.289 6        41.125                                    23345857.014 4  95597412.68604      2503.084 4        27.078    23345856.949 6  95597407.67806      2503.107 6        41.123
E09        11.000    25276853.306 7 132830801.43007      2176.824 7        45.050                                                                    25276852.989 7  99191847.04207      1625.533 7        47.633    25276852.760 8 101779459.94808      1667.992 8        48.576
S27        12.000    39098194.584 5 205462371.80605      -403.913 5        35.752
S36        14.000    38216567.892 7 200829925.14407      -424.528 7        43.589
E02        15.000    28128862.709 6 147818196.51406     -2657.641 6        36.578                                                                    28128862.531 6 110383735.51206     -1984.698 6        38.420    28128861.616 6 113263306.93306     -2036.365 6        38.985
E36        16.000    24507939.567 7 128790118.38007      1367.308 7        45.874                                                                    24507939.659 8  96174455.90708      1021.052 8        48.855    24507939.541 8  98683349.52808      1047.693 8        49.983
S45        17.000    63417381.115 6 333262024.84106      -466.445 6        37.112
G03        18.000    20430199.247 8 107361477.45808      1026.596 8        49.009                                    20430197.203 8  83658313.32008       799.945 8        50.144    20430198.077 7  83658322.32207       799.876 7        45.181
R21        19.000    20874650.653 8 111704511.27008      2768.712 8        50.044                                                                    20874649.854 7  86881295.97807      2153.352 7        44.456
R20        20.000    19237808.655 6 102873258.91906     -1152.129 6        40.124                                                                    19237810.577 7  80012534.26807      -896.080 7        46.971
R05        21.000    19114247.413 8 102176651.43608      -926.849 8        51.616                                                                    19114246.593 7  79470734.85407      -720.844 7        46.947
I06        22.000    38250015.371 7 150101506.47307      -213.665 7        43.221
S28        23.000    40892468.323 5 214891357.79105      -416.929 5        34.219
E10        24.000    24881001.079 7 130750666.42707     -2300.318 7        45.618                                                                    24881000.355 8  97638551.95408     -1717.852 8        48.887    24881000.030 8 100185635.07908     -1762.629 8        49.326
S23        25.000    38167844.596 7 200573339.62907      -421.168 7        44.954
E06        26.000    23957098.193 7 125895457.09007      1154.550 7        47.805                                                                    23957097.781 8  94012839.93808       862.172 8        49.599    23957097.703 8  96465347.41108       884.719 8        50.505
E30        27.000    28497346.799 6 149754571.99506      -799.325 6        37.645                                                                    28497348.491 6 111829713.78106      -596.895 6        40.482    28497348.250 6 114747008.44706      -612.402 6        41.502
E12        28.000    27023042.103 6 142007186.75006     -2942.502 6        36.983                                                                    27023039.600 6 106044400.68706     -2197.118 6        41.759    27023038.870 6 108810764.13206     -2254.489 6        41.945
E19        30.000    26524154.129 5 139385378.34705     -2986.936 5        34.319                                                                    26524152.512 6 104086481.80106     -2230.380 6        38.018    26524151.915 6 106801778.75306     -2288.627 6        38.171
G32        31.000    23628027.337 7 124166135.07307     -3344.740 7        42.882                                    23628025.951 6  96752828.61606     -2606.290 6        39.075    23628026.042 6  96752833.61006     -2606.302 6        40.534
G02        32.000    20756423.148 8 109075784.30308     -1006.355 8        49.878                                    20756416.366 7  84994114.78307      -784.171 7        42.662
G19        33.000    24148376.131 6 126900596.47806      2801.405 6        38.270                                    24148370.867 4  98883600.26104      2182.906 4        24.451
G17        34.000    22567950.325 7 118595434.66707       999.672 7        45.087                                    22567946.015 7  92412037.79307       778.962 7        42.100    22567946.153 6  92412037.78806       778.985 6        41.640
E11        35.000    23386136.698 7 122895048.72907     -1064.630 7        44.093                                                                    23386132.451 7  91772295.88807      -795.022 7        47.166    23386132.119 7  94166348.17707      -815.739 7        47.693
C32        36.000                                                                                                                                    23269643.897 8 121171171.05008     -2643.621 8        48.518                                                                    23269644.121 8  98461512.78008     -2148.038 8        48.845
C35        37.000                                                                                                                                    24836516.011 7 129330269.31707      2377.938 7        43.611                                                                    24836514.783 7 105091436.23107      1932.238 7        43.765
I09        38.000    37127881.527 7 145697779.76807      -317.494 7        43.221
C29        39.000                                                                                                                                    21781528.997 8 113422141.83208      -640.383 8        50.743                                                                    21781526.366 8  92164776.03908      -520.326 8        48.915
G08        40.000    24893045.769 6 130813865.83806     -4117.651 6        37.251                                    24893045.004 4 101932901.01704     -3208.557 4        29.100    24893046.586 5 101932908.02005     -3208.552 5        35.671
S44        42.000    40578110.369 6 213239611.94106      -491.003 6        37.633
C09        43.000                                                                                                                                    39626650.584 6 206346381.72506       967.696 6        40.424    39626646.823 7 159560100.96007       748.149 7        44.167    39626645.075 6 167673317.34806       786.317 6        40.374
C05        44.000                                                                                                                                    39132676.502 6 203774152.05106      -412.797 6        37.595    39132671.661 7 157571124.39507      -319.151 7        43.439    39132673.933 6 165583293.53306      -335.403 6        40.367
R06        45.000    22008823.372 6 117443336.92506      3202.324 6        38.453
R13        46.000    23811085.960 6 127149885.71006         0.799 6        37.146
C39        47.000                                                                                                                                    38992800.458 7 203045749.97907        27.886 7        42.730                                                                    38992795.899 7 164991292.85007        22.702 7        43.126
C20        48.000                                                                                                                                    21953876.908 8 114319644.62708       458.693 8        51.931                                                                    21953871.118 8  92894067.37808       372.803 8        49.158
C06        49.000                                                                                                                                    38791596.348 6 201998039.39406       583.316 6        39.937    38791590.857 7 156197679.87207       451.219 7        44.027    38791590.240 6 164139931.77506       474.134 6        40.715
C16        50.000                                                                                                                                    39140455.138 6 203814638.02506       458.162 6        41.678    39140455.390 7 157602414.94207       354.376 7        42.389    39140453.158 6 165616086.48706       372.389 6        38.847
S48        51.000    77203259.731 6 405706461.20106      -429.865 6        37.282
C19        52.000                                                                                                                                    24965984.333 7 130004474.33507      2488.018 7        44.497                                                                    24965980.146 7 105639284.27907      2021.702 7        44.650
R04        53.000    21612068.653 8 115731668.01408     -4054.900 8        48.519                                                                    21612065.864 7  90013527.16507     -3153.813 7        44.436
C60        54.000                                                                                                                                    40578113.645 6 211301089.44706      -486.662 6        40.133                                                                    40578097.330 6 171699413.29106      -395.410 6        39.459
C30        55.000                                                                                                                                    23896143.545 7 124433482.36607     -3469.807 7        46.512                                                                    23896144.094 7 101112394.72707     -2819.433 7        45.639
R19        56.000    23214120.969 5 124179924.32105     -4565.312 5        34.614                                                                    23214120.738 6  96584422.42706     -3550.767 6        38.312
C02        57.000                                                                                                                                    40553862.672 5 211174651.04405      -457.281 5        34.238    40553855.930 6 163293629.47606      -353.456 6        40.207    40553858.564 5 171596705.25105      -371.283 5        35.405
I03        58.000   133749032.244 6 449074687.02706       975.406 6        40.577
C13        59.000                                                                                                                                    41131072.066 6 214180346.01106     -1108.063 6        36.650    41131074.860 6 165617870.40206      -856.848 6        38.141    41131071.955 5 174039104.63705      -900.191 5        35.176
> 2025 01 01 00 31 30.0000000  0 54
G28         1.000    23515723.007 6 123575969.13606      1105.435 6        41.335                                    23515719.804 4  96292943.23504       861.381 4        27.473    23515719.599 7  96292949.22707       861.413 7        42.294
G31         2.000    23856302.240 6 125365717.70106      2489.064 6        40.953                                    23856297.763 5  97687557.76705      1939.529 5        35.043    23856298.606 6  97687556.77806      1939.429 6        38.345
E34         4.000    28850086.235 6 151608223.11606      2330.200 6        36.465                                                                    28850086.949 6 113213937.21506      1740.091 6        37.508    28850086.254 6 116167343.98406      1785.432 6        37.924
S21         5.000    38449318.865 6 202052392.50106      -424.859 6        41.845
R12         6.000    24330724.559 7 129970380.66007     -2477.035 7        43.611                                                                    24330727.752 6 101088088.52706     -1926.489 6        40.644
G21         7.000    21575781.689 7 113381557.95107     -2324.867 7        45.655                                    21575776.341 6  88349270.21506     -1811.584 6        36.004
E04         8.000    23754733.934 7 124831994.19707      -321.017 7        47.195                                                                    23754732.165 8  93218702.10408      -239.726 8        50.403    23754731.980 8  95650486.25908      -245.964 8        51.008
G04        10.000    23342803.082 6 122667281.65806      3211.352 6        40.653                                    23342800.843 4  95584899.10004      2502.345 4        26.802    23342800.727 6  95584894.10606      2502.327 6        41.051
E09        11.000    25274782.692 7 132819920.95007      2175.352 7        44.609                                                                    25274782.550 7  99183722.01207      1624.468 7        47.600    25274782.320 8 101771122.96308      1666.871 8        48.557
S27        12.000    39098578.656 5 205464392.10305      -404.192 5        35.700
S36        14.000    38216971.581 7 200832047.40107      -424.369 7        43.501
E02        15.000    28131391.739 5 147831487.73005     -2658.756 5        35.981                                                                    28131391.789 6 110393660.76106     -1985.476 6        38.282    28131390.776 6 113273491.10906     -2037.314 6        39.063
E36        16.000    24506638.899 7 128783284.30507      1366.274 7        45.834                                                                    24506639.214 8  96169352.54608      1020.291 8        48.902    24506639.091 8  98678113.03608      1046.868 8        49.940
S45        17.000    63417781.871 6 333262756.93916      -466.517 6        37.043
G03        18.000    20429223.548 8 107356349.61508      1024.488 8        49.054                                    20429221.401 8  83654317.60208       798.302 8        50.155    20429221.971 7  83654326.60907       798.366 7        45.208
R21        19.000    20872065.165 8 111690673.90108      2766.250 8        50.284                                                                    20872063.638 7  86870533.56707      2151.604 7        44.673
R20        20.000    19238888.132 6 102879029.57306     -1156.176 6        40.386                                                                    19238889.758 7  80017022.54207      -899.238 7        47.010
R05        21.000    19115116.369 8 102181294.92308      -930.527 8        51.785                                                                    19115115.142 7  79474346.45507      -723.694 7        47.157
I06        22.000    38250287.885 7 150102575.51207      -213.829 7        43.363
S28        23.000    40892865.198 5 214893442.13905      -416.975 5        34.176
E10        24.000    24883190.403 7 130762171.58207     -2301.724 7        45.619                                                                    24883189.695 8  97647143.46808     -1718.823 8        48.900    24883189.509 8 100194450.71808     -1763.642 8        49.297
S23        25.000    38168245.795 7 200575445.98507      -421.404 7        44.724
E06        26.000    23956000.598 7 125889689.43507      1152.496 7        47.701                                                                    23956000.234 8  94008532.92708       860.630 8        49.624    23956000.145 8  96460928.04808       883.061 8        50.468
E30        27.000    28498108.271 6 149758574.86006      -801.873 6        36.405                                                                    28498110.124 6 111832702.95706      -598.881 6        40.005    28498109.965 6 114750075.58806      -614.332 6        41.077
E12        28.000    27025841.868 6 142021900.62406     -2943.170 6        37.138                                                                    27025839.456 6 106055388.34206     -2197.921 6        41.619    27025838.670 6 108822038.40906     -2255.180 6        41.728
E19        30.000    26526996.191 5 139400314.30105     -2987.708 5        34.752                                                                    26526994.683 6 104097635.26706     -2231.089 6        37.701    26526994.138 6 106813223.17506     -2289.075 6        38.474
G32        31.000    23631210.374 7 124182862.01207     -3346.222 7        42.760                                    23631208.991 6  96765862.59406     -2607.444 6        38.907    23631209.005 6  96765867.58806     -2607.362 6        39.817
G02        32.000    20757381.665 8 109080822.00208     -1008.716 8        49.945                                    20757374.992 7  84998040.25807      -786.012 7        42.605
G19        33.000    24145711.713 6 126886594.13706      2799.597 6        39.916                                    24145706.173 4  98872689.38904      2181.492 4        24.662
G17        34.000    22567000.689 7 118590443.32907       996.903 7        44.677                                    22566996.211 7  92408148.44307       776.809 7        42.106    22566996.117 6  92408148.45806       776.729 6        41.721
E11        35.000    23387150.506 7 122900375.70207     -1066.314 7        43.972                                                                    23387146.149 7  91776273.82507      -796.345 7        47.114    23387145.882 7  94170429.88007      -817.013 7        47.579
C32        36.000                                                                                                                                    23272183.171 8 121184392.44308     -2644.947 8        48.547                                                                    23272183.087 8  98472256.26508     -2149.241 8        48.783
C35        37.000                                                                                                                                    24834233.345 7 129318382.91207      2376.635 7        43.439                                                                    24834232.194 7 105081777.55307      1931.214 7        43.714
I09        38.000    37128286.264 7 145699367.98407      -317.849 7        43.458
C29        39.000                                                                                                                                    21782145.216 8 113425350.81908      -643.203 8        50.763                                                                    21782142.522 8  92167383.60708      -522.625 8        48.915
G08        40.000    24896963.761 6 130834454.04806     -4117.555 6        37.626                                    24896962.816 4 101948943.76904     -3208.481 4        29.204    24896964.113 5 101948950.78705     -3208.514 5        35.533
S44        42.000    40578576.696 6 213242067.43906      -491.168 6        37.577
C09        43.000                                                                                                                                    39625722.272 6 206341546.03106       966.812 6        40.656    39625718.246 7 159556361.69007       747.554 7        44.160    39625716.334 6 167669387.94806       785.768 6        40.431
C05        44.000                                                                                                                                    39133072.554 6 203776215.85106      -412.776 6        37.618    39133068.156 7 157572720.26407      -319.237 7        43.401    39133070.141 6 165584970.55606      -335.426 6        40.434
R06        45.000    22005824.066 6 117427329.76906      3200.352 6        38.727
R13        46.000    23811086.300 6 127149891.70506        -3.381 6        37.074
C39        47.000                                                                                                                                    38992774.443 7 203045613.41207        26.846 7        42.728                                                                    38992769.589 7 164991181.89807        21.786 7        43.084
C20        48.000                                                                                                                                    21953437.566 8 114317356.58708       456.541 8        51.952                                                                    21953431.747 8  92892208.17308       370.947 8        49.185
C06        49.000                                                                                                                                    38791036.604 6 201995124.61706       582.438 6        39.724    38791031.020 7 156195426.00807       450.371 7        44.077    38791030.655 6 164137563.30406       473.247 6        40.684
C16        50.000                                                                                                                                    39140015.851 6 203812349.10006       457.378 6        41.719    39140015.858 7 157600645.00507       353.601 7        42.449    39140013.525 6 165614226.55806       371.494 6        38.832
S48        51.000    77203661.645 6 405708610.59206      -429.910 6        36.896
C19        52.000                                                                                                                                    24963595.925 7 129992037.17407      2486.839 7        44.567                                                                    24963591.710 7 105629178.08007      2020.877 7        44.612
R04        53.000    21615855.537 8 115751945.88008     -4056.201 8        48.253                                                                    21615852.943 7  90029298.83307     -3154.892 7        44.566
C60        54.000                                                                                                                                    40578580.925 6 211303522.61606      -486.687 6        40.193                                                                    40578564.619 6 171701390.45806      -395.559 6        39.312
C30        55.000                                                                                                                                    23899475.996 7 124450834.61407     -3471.130 7        46.249                                                                    23899476.412 7 101126494.84707     -2820.486 7        45.607
R19        56.000    23218388.204 5 124202753.83405     -4566.684 5        33.946                                                                    23218388.450 6  96602178.71906     -3551.813 6        38.105
C02        57.000                                                                                                                                    40554301.231 5 211176937.01505      -457.337 5        33.443    40554294.467 6 163295397.14906      -353.509 6        40.212    40554297.798 5 171598562.79105      -371.493 5        35.481
I03        58.000   133747789.428 6 449069809.69506       975.474 6        40.734
C13        59.000                                                                                                                                    41132136.129 6 214185886.43206     -1108.138 6        36.427    41132138.341 6 165622154.61106      -856.821 6        38.435    41132136.242 5 174043606.70905      -900.302 5        35.357
> 2025 01 01 00 31 35.0000000  0 54
G28         1.000    23514672.291 7 123570447.88007      1102.870 7        42.290                                    23514669.201 4  96288640.96204       859.376 4        27.772    23514668.852 6  96288646.97206       859.351 6        41.692
G31         2.000    23853934.249 6 125353275.34206      2487.758 6        40.665                                    23853930.048 5  97677862.42005      1938.510 5        35.119    23853930.550 6  97677861.42506      1938.509 6        38.216
E34         4.000    28847868.923 6 151596570.51306      2330.852 6        36.106                                                                    28847869.652 6 113205235.62006      1740.436 6        37.429    28847868.942 6 116158415.39106      1785.800 6        37.448
S21         5.000    38449724.039 7 202054516.39707      -424.862 7        42.250
R12         6.000    24333045.229 7 129982772.82707     -2480.220 7        42.940                                                                    24333046.984 6 101097726.74806     -1928.695 6        39.294
G21         7.000    21577994.032 7 113393185.75307     -2326.437 7        45.485                                    21577989.057 6  88358330.83906     -1812.807 6        36.023
E04         8.000    23755040.417 7 124833604.41407      -323.221 7        47.178                                                                    23755038.609 8  93219904.54308      -241.365 8        50.357    23755038.372 8  95651720.06608      -247.660 8        51.162
G04        10.000    23339748.172 6 122651226.87806      3210.590 6        40.610                                    23339745.540 4  95572388.89204      2501.749 4        26.611    23339745.800 6  95572383.90906      2501.601 6        40.806
E09        11.000    25272713.493 7 132809046.87207      2174.170 7        44.746                                                                    25272713.303 7  99175601.76207      1623.557 7        47.455    25272713.068 8 101762790.87808      1665.958 8        48.607
S27        12.000    39098964.069 5 205466411.79105      -403.617 5        35.890
S36        14.000    38217373.862 7 200834168.65507      -424.189 7        43.882
E02        15.000    28133921.930 5 147844784.08805     -2659.882 5        35.695                                                                    28133921.974 6 110403589.85506     -1986.222 6        38.228    28133921.064 6 113283679.22606     -2038.130 6        39.114
E36        16.000    24505339.268 7 128776454.54507      1365.445 7        45.859                                                                    24505339.520 8  96164252.40108      1019.646 8        48.831    24505339.382 8  98672879.84208      1046.250 8        50.041
S45        17.000    63418175.848 6 333265088.61106      -466.382 6        37.463
G03        18.000    20428249.413 8 107351231.20308      1022.730 8        48.819                                    20428247.397 8  83650329.22908       796.931 8        50.155    20428247.602 7  83650338.23007       796.923 7        44.977
R21        19.000    20869481.447 8 111676847.04408      2764.304 8        50.333                                                                    20869480.052 7  86859779.35707      2150.046 7        45.126
R20        20.000    19239971.589 6 102884819.14206     -1159.887 6        40.260                                                                    19239972.711 7  80021525.53607      -902.077 7        47.425
R05        21.000    19115988.296 8 102185956.07108      -934.035 8        51.671                                                                    19115987.310 7  79477971.80007      -726.505 7        47.047
I06        22.000    38250560.372 7 150103644.27507      -213.725 7        43.228
S28        23.000    40893260.122 5 214895525.75705      -416.544 5        34.281
E10        24.000    24885380.994 7 130773682.56507     -2302.836 7        45.457                                                                    24885380.150 8  97655739.32108     -1719.598 8        48.894    24885380.033 8 100203270.81908     -1764.496 8        49.423
S23        25.000    38168646.618 7 200577551.90407      -421.235 7        44.880
E06        26.000    23954904.853 7 125883931.40307      1150.579 7        47.602                                                                    23954904.491 8  94004233.09908       859.211 8        49.506    23954904.421 8  96456516.04808       881.659 8        50.599
E30        27.000    28498872.201 5 149762588.80005      -804.214 5        35.257                                                                    28498873.919 6 111835700.36606      -600.366 6        38.979    28498873.602 6 114753151.21306      -616.114 6        40.615
E12        28.000    27028642.887 6 142036617.96206     -2943.869 6        37.380                                                                    27028640.016 6 106066378.54406     -2198.270 6        41.240    27028639.294 6 108833315.32006     -2255.552 6        41.912
E19        30.000    26529838.885 5 139415255.06005     -2988.766 5        35.014                                                                    26529837.713 6 104108792.30406     -2231.740 6        37.595    26529837.486 6 106824671.27106     -2290.022 6        38.414
G32        31.000    23634394.556 7 124199595.90907     -3347.644 7        42.855                                    23634393.202 6  96778901.98706     -2608.552 6        38.802    23634392.961 6  96778906.98706     -2608.575 6        39.195
G02        32.000    20758342.394 8 109085870.66708     -1010.870 8        50.047                                    20758335.716 7  85001974.28207      -787.689 7        42.688
G19        33.000    24143049.685 6 126872600.29006      2797.828 6        40.012                                    24143043.246 4  98861785.13004      2180.120 4        24.947
G17        34.000    22566053.200 7 118585465.29307       994.259 7        45.071                                    22566048.925 7  92404269.46207       774.746 7        42.144    22566049.085 6  92404269.45206       774.860 6        41.454
E11        35.000    23388165.712 7 122905710.05707     -1067.650 7        43.896                                                                    23388161.209 7  91780257.27507      -797.296 7        47.078    23388160.991 7  94174517.25307      -818.117 7        47.711
C32        36.000                                                                                                                                    23274723.286 8 121197619.67408     -2646.068 8        48.614                                                                    23274723.259 8  98483004.47308     -2150.177 8        48.674
C35        37.000                                                                                                                                    24831952.009 7 129306502.39607      2375.486 7        43.733                                                                    24831950.654 7 105072123.66607      1930.213 7        43.549
I09        38.000    37128691.322 7 145700956.82507      -317.831 7        43.168
C29        39.000                                                                                                                                    21782764.026 8 113428572.96108      -645.792 8        50.947                                                                    21782761.365 8  92170001.86908      -524.782 8        48.827
G08        40.000    24900881.136 6 130855040.78206     -4117.346 6        37.554                                    24900880.431 4 101964985.37404     -3208.322 4        29.251    24900881.892 5 101964992.35705     -3208.175 5        35.700
S44        42.000    40579043.145 6 213244522.60106      -491.080 6        37.747
C09        43.000                                                                                                                                    39624794.268 6 206336713.45206       966.081 6        40.977    39624790.303 7 159552624.83307       747.020 7        43.977    39624788.302 6 167665461.08806       784.980 6        40.143
C05        44.000                                                                                                                                    39133469.379 6 203778279.36306      -412.861 6        37.853    39133464.476 7 157574315.88407      -319.058 7        43.380    39133466.577 6 165586647.31606      -335.406 6        40.164
R06        45.000    22002826.215 6 117411331.16206      3198.727 6        38.171
R13        46.000    23811092.564 6 127149917.71906        -7.223 6        37.792
C39        47.000                                                                                                                                    38992748.612 7 203045481.41007        25.850 7        42.933                                                                    38992744.312 7 164991074.63207        20.994 7        42.859
C20        48.000                                                                                                                                    21952999.960 8 114315078.78708       454.534 8        51.893                                                                    21952994.309 8  92890357.27708       369.257 8        48.971
C06        49.000                                                                                                                                    38790477.497 6 201992213.94706       581.660 6        40.093    38790472.174 7 156193175.30107       449.742 7        44.059    38790471.683 6 164135198.14706       472.718 6        40.622
C16        50.000                                                                                                                                    39139577.518 6 203810064.32406       456.404 6        41.926    39139577.124 7 157598878.26707       352.983 7        42.499    39139574.792 6 165612370.00106       370.786 6        38.742
S48        51.000    77204062.499 6 405710759.62406      -429.692 6        37.172
C19        52.000                                                                                                                                    24961208.410 7 129979604.59207      2486.081 7        44.801                                                                    24961204.189 7 105619075.61307      2020.026 7        44.456
R04        53.000    21619642.630 8 115772229.79308     -4057.437 8        48.398                                                                    21619640.784 7  90045075.22307     -3155.835 7        44.295
C60        54.000                                                                                                                                    40579048.089 6 211305955.44606      -486.599 6        40.215                                                                    40579031.805 6 171703367.32206      -395.460 6        39.147
C30        55.000                                                                                                                                    23902809.385 7 124468192.78507     -3472.174 7        45.866                                                                    23902809.931 7 101140599.79107     -2821.495 7        45.425
R19        56.000    23222655.702 5 124225588.95605     -4567.495 5        33.623                                                                    23222657.510 6  96619939.36706     -3552.474 6        38.069
C02        57.000                                                                                                                                    40554740.299 5 211179222.64005      -457.017 5        33.772    40554733.831 6 163297164.55006      -353.360 6        40.102    40554736.759 5 171600420.06705      -371.543 5        35.114
I03        58.000   133746546.645 6 449064932.24306       975.484 6        40.651
C13        59.000                                                                                                                                    41133199.245 6 214191425.98906     -1107.838 6        36.749    41133201.854 6 165626438.15406      -856.658 6        38.420    41133199.856 5 174048108.07905      -900.228 5        34.895
> 2025 01 01 00 31 40.0000000  0 54
G28         1.000    23513624.705 6 123564940.53206      1100.029 6        41.607                                    23513621.209 4  96284349.53204       857.168 4        27.509    23513620.818 6  96284355.54206       857.178 6        41.402
G31         2.000    23851568.078 6 125340840.76606      2486.037 6        40.920                                    23851563.871 5  97668173.14505      1937.171 5        35.090    23851564.554 6  97668172.15106      1937.106 6        38.547
E34         4.000    28845650.255 5 151584917.16605      2330.724 5        34.100                                                                    28845652.176 6 113196533.45406      1740.423 6        36.677    28845651.083 6 116149486.21106      1785.722 6        36.389
S21         5.000    38450125.859 6 202056640.80006      -424.796 6        41.712
R12         6.000    24335367.811 7 129995181.89607     -2483.671 7        42.722                                                                    24335369.724 6 101107378.26906     -1931.739 6        39.892
G21         7.000    21580208.461 7 113404822.43107     -2328.330 7        45.655                                    21580203.440 5  88367398.37305     -1814.284 5        35.848
E04         8.000    23755349.121 7 124835226.58907      -325.693 7        46.845                                                                    23755347.277 8  93221115.90408      -243.227 8        50.345    23755347.108 8  95652963.03008      -249.572 8        51.010
G04        10.000    23336694.094 6 122635177.33906      3209.186 6        41.135                                    23336691.350 4  95559882.76904      2500.660 4        26.491    23336691.504 6  95559877.77106      2500.700 6        40.467
E09        11.000    25270646.079 7 132798180.10207      2172.482 7        44.813                                                                    25270645.429 7  99167486.96407      1622.347 7        47.519    25270645.178 8 101754464.38808      1664.692 8        48.475
S27        12.000    39099347.368 5 205468431.95905      -404.230 5        35.733
S36        14.000    38217779.411 7 200836290.42307      -424.466 7        43.537
E02        15.000    28136453.481 5 147858086.47905     -2661.318 5        35.043                                                                    28136453.343 6 110413523.43406     -1987.303 6        38.105    28136452.480 6 113293871.95206     -2039.216 6        38.952
E36        16.000    24504040.563 7 128769629.97807      1364.256 7        45.479                                                                    24504040.920 8  96159156.13908      1018.742 8        48.850    24504040.766 8  98667650.63008      1045.352 8        49.816
S45        17.000    63418578.263 6 333267420.95406      -466.518 6        36.949
G03        18.000    20427277.347 8 107346123.10608      1020.455 8        48.759                                    20427275.351 8  83646348.89408       795.161 8        50.013    20427276.140 7  83646357.89607       795.077 7        44.885
R21        19.000    20866899.653 8 111663031.76508      2761.886 8        50.283                                                                    20866898.524 7  86849034.15207      2148.121 7        44.948
R20        20.000    19241057.734 6 102890628.41106     -1163.905 6        40.663                                                                    19241059.162 7  80026043.86307      -905.271 7        47.225
R05        21.000    19116863.734 8 102190635.89908      -937.951 8        51.620                                                                    19116862.446 7  79481611.66607      -729.509 7        47.267
I06        22.000    38250833.099 7 150104713.43007      -213.991 7        43.175
S28        23.000    40893657.618 5 214897609.89505      -416.920 5        34.062
E10        24.000    24887572.741 7 130785200.26507     -2304.315 7        45.303                                                                    24887571.881 8  97664340.19808     -1720.749 8        48.842    24887571.825 8 100212096.05908     -1765.630 8        49.269
S23        25.000    38169046.770 7 200579658.24407      -421.352 7        44.814
E06        26.000    23953811.121 7 125878183.88007      1148.303 7        47.304                                                                    23953810.734 8  93999941.11208       857.556 8        49.477    23953810.686 8  96452112.09608       879.952 8        50.404
E30        27.000    28499639.142 6 149766614.72006      -806.463 6        36.881                                                                    28499640.106 6 111838706.71706      -602.004 6        40.396    28499639.699 6 114756235.99006      -618.007 6        41.664
E12        28.000    27031443.893 6 142051339.59006     -2944.954 6        37.036                                                                    27031441.278 6 106077371.96506     -2199.023 6        41.192    27031440.914 6 108844595.52306     -2256.375 6        41.299
E19        30.000    26532682.607 5 139430201.61405     -2990.048 5        34.776                                                                    26532681.813 6 104119953.68506     -2232.908 6        37.497    26532681.607 6 106836123.82606     -2291.176 6        38.351
G32        31.000    23637580.338 7 124216337.61807     -3349.198 7        42.787                                    23637578.893 6  96791947.47006     -2609.762 6        38.577    23637579.558 6  96791952.46306     -2609.844 6        39.096
G02        32.000    20759305.444 8 109090931.14208     -1013.399 8        49.941                                    20759298.689 7  85005917.50907      -789.662 7        42.531
G19        33.000    24140387.792 6 126858615.82806      2795.877 6        39.069                                    24140382.040 4  98850888.17704      2178.601 4        24.617
G17        34.000    22565108.544 7 118580501.40307       991.230 7        44.689                                    22565104.317 7  92400401.49307       772.389 7        42.006    22565104.509 6  92400401.49606       772.327 6        41.521
E11        35.000    23389182.276 7 122911052.70107     -1069.439 7        43.691                                                                    23389177.956 7  91784246.89807      -798.564 7        46.998    23389177.653 7  94178610.95507      -819.365 7        47.607
C32        36.000                                                                                                                                    23277264.629 8 121210853.60408     -2647.563 8        48.455                                                                    23277264.699 8  98493758.12408     -2151.406 8        48.661
C35        37.000                                                                                                                                    24829671.715 7 129294628.65907      2373.946 7        43.769                                                                    24829670.451 7 105062475.28607      1929.056 7        43.748
I09        38.000    37129096.426 7 145702546.97807      -318.241 7        43.166
C29        39.000                                                                                                                                    21783385.483 8 113431809.13608      -648.725 8        51.010                                                                    21783382.853 8  92172631.52608      -527.130 8        48.841
G08        40.000    24904798.334 6 130875626.86806     -4117.347 6        37.357                                    24904797.970 4 101981026.46704     -3208.333 4        29.393    24904798.727 5 101981033.47105     -3208.386 5        35.767
S44        42.000    40579512.696 6 213246978.24206      -491.221 6        37.554
C09        43.000                                                                                                                                    39623866.733 6 206331884.85706       965.265 6        40.901    39623862.786 7 159548891.06807       746.336 7        44.056    39623861.086 6 167661537.47306       784.340 6        40.117
C05        44.000                                                                                                                                    39133865.542 6 203780343.40106      -413.129 6        37.943    39133860.697 7 157575911.92607      -319.307 7        43.492    39133862.928 6 165588324.52806      -335.725 6        40.272
R06        45.000    21999829.214 6 117395342.22106      3196.714 6        39.006
R13        46.000    23811101.774 6 127149964.64206       -11.510 6        38.003
C39        47.000                                                                                                                                    38992724.004 7 203045354.80707        24.559 7        43.046                                                                    38992719.976 7 164990971.77007        20.002 7        42.891
C20        48.000                                                                                                                                    21952564.701 8 114312812.11208       452.085 8        51.919                                                                    21952559.039 8  92888515.42608       367.321 8        48.941
C06        49.000                                                                                                                                    38789919.787 6 201989308.26206       580.530 6        40.253    38789914.144 7 156190928.42407       448.959 7        43.898    38789913.569 6 164132837.04806       471.651 6        40.708
C16        50.000                                                                                                                                    39139139.409 7 203807784.54307       455.305 7        42.095    39139139.148 7 157597115.37907       352.190 7        42.506    39139137.010 6 165610517.49706       370.042 6        38.760
S48        51.000    77204464.968 6 405712909.05806      -430.198 6        37.040
C19        52.000                                                                                                                                    24958821.627 7 129967177.48707      2484.857 7        44.582                                                                    24958817.631 7 105608977.58607      2019.031 7        44.397
R04        53.000    21623431.077 7 115792520.50707     -4058.901 7        47.915                                                                    21623430.246 7  90060856.88707     -3156.979 7        43.951
C60        54.000                                                                                                                                    40579515.105 6 211308388.77606      -486.776 6        40.191                                                                    40579499.004 6 171705344.62006      -395.605 6        39.150
C30        55.000                                                                                                                                    23906143.520 7 124485557.76707     -3473.728 7        45.469                                                                    23906144.654 7 101154710.25107     -2822.666 7        45.384
R19        56.000    23226928.065 5 124248430.62105     -4569.154 5        34.729                                                                    23226926.684 6  96637705.08006     -3553.858 6        38.141
C02        57.000                                                                                                                                    40555179.023 5 211181508.85905      -457.607 5        33.856    40555172.412 6 163298932.38606      -353.680 6        40.243    40555175.533 5 171602277.78905      -371.634 5        35.390
I03        58.000   133745304.051 6 449060055.34406       975.145 6        40.641
C13        59.000                                                                                                                                    41134263.330 6 214196965.64606     -1108.397 6        36.537    41134266.103 6 165630721.76006      -856.806 6        38.652    41134263.497 5 174052609.50605      -900.412 5        35.195
> 2025 01 01 00 31 45.0000000  0 54
G28         1.000    23512578.955 6 123559446.36506      1097.473 6        41.495                                    23512575.744 4  96280068.35704       855.171 4        27.617    23512575.670 6  96280074.36106       855.332 6        41.831
G31         2.000    23849203.178 6 125328413.14606      2484.734 6        41.380                                    23849199.045 5  97658489.28905      1936.160 5        35.557    23849199.870 6  97658488.31206      1936.089 6        38.916
E34         4.000    28843432.916 5 151573262.28105      2330.906 5        34.290                                                                    28843434.496 6 113187830.12406      1740.664 6        36.450    28843433.296 6 116140555.82106      1786.191 6        36.163
S21         5.000    38450530.527 6 202058764.65106      -424.668 6        41.778
R12         6.000    24337693.968 7 130007607.00907     -2486.430 7        44.996                                                                    24337696.287 6 101117042.29006     -1933.934 6        40.560
G21         7.000    21582424.391 7 113416467.22707     -2329.819 7        45.190                                    21582419.348 5  88376472.24505     -1815.442 5        35.919
E04         8.000    23755659.809 7 124836859.96907      -327.882 7        47.033                                                                    23755658.069 8  93222335.64308      -244.884 8        50.358    23755657.928 8  95654214.58308      -251.190 8        51.020
G04        10.000    23333640.907 6 122619132.23406      3208.537 6        40.908                                    23333637.921 4  95547380.09304      2500.157 4        26.862    23333638.329 6  95547375.10306      2500.150 6        40.579
E09        11.000    25268579.261 7 132787319.83407      2171.394 7        44.906                                                                    25268578.912 7  99159377.03607      1621.480 7        47.608    25268578.568 8 101746142.89608      1663.797 8        48.488
S27        12.000    39099731.449 5 205470451.83305      -403.980 5        35.552
S36        14.000    38218182.524 7 200838411.20607      -424.214 7        43.627
E02        15.000    28138985.980 5 147871394.08305     -2662.338 5        35.633                                                                    28138985.544 6 110423460.92706     -1987.820 6        38.369    28138985.001 6 113304068.66006     -2039.788 6        38.985
E36        16.000    24502742.840 7 128762809.85507      1363.553 7        45.636                                                                    24502743.037 8  96154063.18608      1018.245 8        48.865    24502742.949 8  98662424.82008      1044.800 8        49.884
S45        17.000    63418974.524 6 333269752.95906      -466.430 6        36.972
G03        18.000    20426307.430 8 107341024.55308      1018.741 8        48.513                                    20426305.116 8  83642375.99908       793.824 8        50.074    20426305.582 7  83642385.00407       793.742 7        44.802
R21        19.000    20864320.072 8 111649227.16208      2759.825 8        50.674                                                                    20864318.405 7  86838297.23207      2146.538 7        45.114
R20        20.000    19242148.357 6 102896456.68206     -1167.517 6        40.551                                                                    19242148.961 7  80030576.96707      -908.091 7        46.993
R05        21.000    19117742.594 8 102195333.55008      -941.363 8        51.811                                                                    19117741.102 7  79485265.39007      -732.155 7        47.276
I06        22.000    38251105.240 7 150105782.40107      -213.724 7        43.247
S28        23.000    40894056.223 5 214899693.87605      -416.780 5        33.868
E10        24.000    24889765.674 7 130796723.89307     -2305.348 7        45.624                                                                    24889764.779 8  97672945.50908     -1721.556 8        48.857    24889764.629 8 100220925.86308     -1766.526 8        49.335
S23        25.000    38169447.351 7 200581764.18307      -421.280 7        44.721
E06        26.000    23952719.195 7 125872446.07907      1146.579 7        47.425                                                                    23952718.857 8  93995656.39908       856.184 8        49.512    23952718.832 8  96447715.60608       878.524 8        50.456
E30        27.000    28500407.548 6 149770651.84806      -808.698 6        36.295                                                                    28500408.655 6 111841721.37806      -603.794 6        38.853    28500407.933 6 114759329.30206      -619.532 6        40.229
E12        28.000    27034245.947 6 142066064.77006     -2945.304 6        36.503                                                                    27034243.401 6 106088368.04406     -2199.518 6        40.844    27034243.119 6 108855878.45706     -2256.826 6        41.533
E19        30.000    26535527.903 5 139445153.11405     -2991.014 5        34.976                                                                    26535527.035 6 104131118.77806     -2233.675 6        37.482    26535526.760 6 106847580.15306     -2291.502 6        38.504
G32        31.000    23640767.808 7 124233086.39007     -3350.466 7        42.536                                    23640765.997 6  96804998.45606     -2610.752 6        38.709    23640766.869 6  96805003.45406     -2610.775 6        39.622
G02        32.000    20760270.517 8 109096002.67608     -1015.525 8        49.652                                    20760263.777 7  85009869.35407      -791.318 7        42.620
G19        33.000    24137728.215 6 126844640.07506      2794.346 6        38.820                                    24137722.529 4  98839998.01404      2177.406 4        24.992
G17        34.000    22564166.468 7 118575550.91507       988.783 7        44.197                                    22564162.285 7  92396543.97307       770.478 7        42.049    22564161.991 6  92396543.97806       770.492 6        41.731
E11        35.000    23390200.061 7 122916402.85907     -1070.720 7        43.803                                                                    23390196.088 7  91788242.15207      -799.631 7        47.184    23390195.696 7  94182710.43107      -820.439 7        47.572
C32        36.000                                                                                                                                    23279807.151 8 121224093.45308     -2648.558 8        48.376                                                                    23279807.311 8  98504516.57108     -2152.102 8        48.826
C35        37.000                                                                                                                                    24827392.532 7 129282760.95107      2372.904 7        43.869                                                                    24827391.307 7 105052831.78707      1928.200 7        43.718
I09        38.000    37129501.617 7 145704137.86807      -318.337 7        43.240
C29        39.000                                                                                                                                    21784009.496 8 113435058.57908      -651.255 8        50.954                                                                    21784006.868 8  92175271.95708      -529.115 8        48.891
G08        40.000    24908715.601 6 130896211.55306     -4116.820 6        37.202                                    24908715.215 4 101997066.47504     -3207.912 4        29.716    24908716.323 6 101997073.47006     -3208.092 6        36.250
S44        42.000    40579978.224 6 213249433.64006      -490.984 6        37.501
C09        43.000                                                                                                                                    39622940.501 6 206327059.47406       964.739 6        40.965    39622935.976 7 159545159.76707       746.011 7        43.882    39622934.385 6 167657616.43506       784.050 6        40.267
C05        44.000                                                                                                                                    39134261.008 6 203782407.24006      -412.781 6        37.743    39134257.294 7 157577507.83007      -319.204 7        43.350    39134259.351 6 165590001.54206      -335.267 6        40.341
R06        45.000    21996834.910 6 117379361.97706      3195.117 6        38.243
R13        46.000    23811114.323 6 127150031.75206       -15.467 6        37.750
C39        47.000                                                                                                                                    38992700.591 7 203045232.86007        23.811 7        43.172                                                                    38992696.566 7 164990872.66207        19.559 7        43.137
C20        48.000                                                                                                                                    21952131.472 8 114310555.75808       450.196 8        51.861                                                                    21952125.706 8  92886681.93808       365.925 8        49.095
C06        49.000                                                                                                                                    38789363.059 6 201986406.76906       579.727 6        40.338    38789356.976 7 156188684.82307       448.344 7        43.609    38789356.575 6 164130479.34706       471.134 6        40.820
C16        50.000                                                                                                                                    39138702.426 7 203805509.01007       454.641 7        42.006    39138702.095 7 157595355.81907       351.475 7        42.476    39138699.940 6 165608668.42906       369.581 6        38.919
S48        51.000    77204862.799 6 405715058.15306      -429.928 6        37.047
C19        52.000                                                                                                                                    24956435.823 7 129954755.09307      2483.977 7        44.594                                                                    24956432.019 7 105598883.35207      2018.540 7        44.530
R04        53.000    21627221.123 7 115812817.40607     -4059.958 7        47.418                                                                    21627220.191 7  90076643.35207     -3157.736 7        43.888
C60        54.000                                                                                                                                    40579982.573 6 211310821.84606      -486.583 6        40.210                                                                    40579966.325 6 171707321.66406      -395.167 6        39.258
C30        55.000                                                                                                                                    23909479.450 7 124502928.75207     -3474.897 7        46.228                                                                    23909480.367 7 101168825.58407     -2823.539 7        45.311
R19        56.000    23231199.464 5 124271277.77905     -4569.969 5        34.890                                                                    23231198.246 6  96655475.10806     -3554.808 6        38.267
C02        57.000                                                                                                                                    40555617.667 5 211183794.88805      -456.908 5        34.062    40555611.548 6 163300700.08806      -353.602 6        40.153    40555614.633 5 171604135.38005      -371.505 5        35.162
I03        58.000   133744060.607 6 449055178.42106       975.275 6        40.796
C13        59.000                                                                                                                                    41135327.921 6 214202504.52306     -1107.710 6        36.817    41135329.597 6 165635004.77206      -856.638 6        38.784    41135327.090 5 174057110.29505      -900.079 5        35.362
> 2025 01 01 00 31 50.0000000  0 54
G28         1.000    23511536.266 6 123553965.42506      1094.847 6        41.027                                    23511532.774 4  96275797.50504       853.123 4        27.713    23511532.563 6  96275803.50906       853.072 6        41.428
G31         2.000    23846839.767 6 125315992.60206      2483.344 6        41.187                                    23846835.564 5  97648810.94805      1935.078 5        35.690    23846835.838 6  97648809.95506      1934.918 6        38.814
E34         4.000    28841215.149 5 151561605.91905      2331.414 5        34.210                                                                    28841216.230 6 113179125.70106      1740.912 6        37.274    28841215.137 6 116131624.34906      1786.296 6        36.915
S21         5.000    38450935.330 6 202060887.99906      -424.620 6        41.902
R12         6.000    24340024.369 7 130020047.99207     -2489.890 7        44.843                                                                    24340025.294 6 101126718.58506     -1936.441 6        40.996
G21         7.000    21584641.877 7 113428120.21407     -2331.476 7        45.183                                    21584636.848 5  88385552.49005     -1816.733 5        35.871
E04         8.000    23755972.846 7 124838504.58307      -330.047 7        46.997                                                                    23755971.073 8  93223563.76608      -246.492 8        50.438    23755970.894 8  95655474.74508      -252.934 8        50.999
G04        10.000    23330588.383 6 122603091.68006      3207.678 6        41.097                                    23330585.381 4  95534880.97204      2499.488 4        27.054    23330586.143 6  95534875.97306      2499.546 6        40.498
E09        11.000    25266513.655 7 132776466.18507      2170.041 7        45.144                                                                    25266513.533 7  99151272.03407      1620.477 7        47.710    25266513.147 8 101737826.46408      1662.767 8        48.456
S27        12.000    39100117.582 5 205472471.69705      -403.793 5        35.419
S36        14.000    38218585.470 7 200840531.55807      -424.296 7        43.611
E02        15.000    28141519.224 5 147884706.98305     -2663.133 5        35.986                                                                    28141519.090 6 110433402.35806     -1988.736 6        38.622    28141518.488 6 113314269.44506     -2040.610 6        39.138
E36        16.000    24501445.861 7 128755994.22607      1362.615 7        45.500                                                                    24501446.074 8  96148973.60008      1017.568 8        48.929    24501445.926 8  98657202.46208      1044.131 8        49.848
S45        17.000    63419376.671 6 333272084.61006      -466.238 6        36.960
G03        18.000    20425338.696 8 107335935.61708      1016.802 8        48.820                                    20425336.715 8  83638410.59708       792.312 8        50.069    20425337.444 7  83638419.59107       792.370 7        45.044
R21        19.000    20861742.464 8 111635433.24908      2757.617 8        50.198                                                                    20861741.012 7  86827568.64207      2144.850 7        45.007
R20        20.000    19243241.687 6 102902303.96406     -1171.379 6        40.832                                                                    19243242.499 7  80035124.84607      -911.052 7        46.979
R05        21.000    19118624.611 8 102200048.98708      -944.919 8        51.922                                                                    19118623.527 7  79488932.95407      -734.928 7        47.473
I06        22.000    38251377.811 7 150106851.22507      -213.797 7        43.105
S28        23.000    40894449.194 5 214901777.45105      -416.647 5        33.958
E10        24.000    24891959.519 7 130808253.54107     -2306.563 7        45.613                                                                    24891958.824 8  97681555.30908     -1722.398 8        48.906    24891958.459 8 100229760.26308     -1767.393 8        49.299
S23        25.000    38169847.745 7 200583869.80207      -421.119 7        44.712
E06        26.000    23951629.070 7 125866718.10607      1144.601 7        47.562                                                                    23951628.860 8  93991379.01308       854.716 8        49.688    23951628.858 8  96443326.63708       877.009 8        50.439
E30        27.000    28501177.308 6 149774700.39306      -810.738 6        37.739                                                                    28501179.104 6 111844744.65406      -605.604 6        40.982    28501178.341 6 114762431.43006      -621.228 6        41.745
E12        28.000    27037048.927 6 142080793.55406     -2946.253 6        36.941                                                                    27037046.221 6 106099366.80606     -2200.022 6        41.037    27037046.043 6 108867164.13506     -2257.400 6        41.700
E19        30.000    26538374.058 5 139460109.65105     -2991.574 5        34.743                                                                    26538373.549 6 104142287.59706     -2234.054 6        37.773    26538372.942 6 106859040.36206     -2292.421 6        38.351
G32        31.000    23643955.890 7 124249842.25907     -3351.889 7        42.502                                    23643954.506 6  96818054.97406     -2611.859 6        38.565    23643955.536 6  96818059.98706     -2612.044 6        39.751
G02        32.000    20761237.774 8 109101085.30308     -1017.676 8        49.384                                    20761230.984 7  85013829.84307      -792.994 7        42.569
G19        33.000    24135070.937 6 126830673.05306      2792.587 6        38.486                                    24135064.807 4  98829114.66004      2176.034 4        24.737
G17        34.000    22563227.252 7 118570613.91107       985.964 7        44.479                                    22563222.788 7  92392696.95807       768.283 7        42.002    22563222.815 6  92392696.96206       768.335 6        41.468
E11        35.000    23391220.050 7 122921760.57707     -1072.245 7        43.793                                                                    23391215.597 7  91792243.04607      -800.712 7        47.182    23391215.282 7  94186815.69807      -821.645 7        47.421
C32        36.000                                                                                                                                    23282350.885 8 121237339.29008     -2649.798 8        48.446                                                                    23282351.051 8  98515279.90108     -2153.160 8        48.858
C35        37.000                                                                                                                                    24825114.686 7 129270899.33207      2371.657 7        43.962                                                                    24825113.375 7 105043193.25207      1927.171 7        43.860
I09        38.000    37129907.410 7 145705729.52307      -318.416 7        43.316
C29        39.000                                                                                                                                    21784636.131 8 113438321.36608      -653.952 8        50.881                                                                    21784633.495 8  92177923.23208      -531.320 8        48.925
G08        40.000    24912632.967 6 130916794.87106     -4116.480 6        37.180                                    24912632.222 5 102013105.40905     -3207.643 5        30.023    24912633.164 6 102013112.42306     -3207.631 6        36.310
S44        42.000    40580442.924 6 213251888.85006      -491.197 6        37.482
C09        43.000                                                                                                                                    39622014.652 6 206322237.37506       964.162 6        41.075    39622010.165 7 159541431.02907       745.469 7        44.024    39622008.306 6 167653698.09506       783.396 6        40.222
C05        44.000                                                                                                                                    39134658.321 6 203784470.92706      -412.875 6        37.860    39134653.520 7 157579103.59607      -319.153 7        43.471    39134655.545 6 165591678.45706      -335.417 6        40.272
R06        45.000    21993842.258 6 117363390.62906      3193.415 6        38.661
R13        46.000    23811131.180 6 127150119.28306       -19.561 6        38.772
C39        47.000                                                                                                                                    38992677.872 7 203045115.62207        22.955 7        43.111                                                                    38992673.968 7 164990777.40507        18.623 7        43.115
C20        48.000                                                                                                                                    21951700.199 8 114308309.83208       448.117 8        52.017                                                                    21951694.426 8  92884856.94208       364.170 8        49.157
C06        49.000                                                                                                                                    38788806.506 6 201983509.52806       578.981 6        40.276    38788800.508 7 156186444.48707       447.747 7        43.388    38788800.066 6 164128125.09906       470.467 6        40.925
C16        50.000                                                                                                                                    39138266.211 6 203803237.79706       453.734 6        41.857    39138265.854 7 157593599.56807       350.824 7        42.580    39138264.014 6 165606822.89106       368.634 6        39.018
S48        51.000    77205266.354 6 405717206.89706      -429.691 6        36.839
C19        52.000                                                                                                                                    24954050.955 7 129942337.47207      2483.013 7        44.418                                                                    24954047.378 7 105588793.03707      2017.666 7        44.713
R04        53.000    21631012.849 7 115833120.42107     -4061.236 7        47.780                                                                    21631011.709 7  90092434.59407     -3158.741 7        43.429
C60        54.000                                                                                                                                    40580449.683 6 211313254.75306      -486.605 6        40.153                                                                    40580433.542 6 171709298.59306      -395.367 6        39.261
C30        55.000                                                                                                                                    23912816.962 7 124520305.80207     -3476.046 7        46.446                                                                    23912817.594 7 101182945.87607     -2824.587 7        45.431
R19        56.000    23235471.039 5 124294130.62105     -4571.121 5        35.181                                                                    23235470.442 6  96673249.49806     -3555.358 6        38.258
C02        57.000                                                                                                                                    40556058.024 5 211186080.82505      -457.261 5        34.105    40556050.478 6 163302467.72106      -353.561 6        40.095    40556053.567 5 171605992.87505      -371.522 5        35.562
I03        58.000   133742818.095 6 449050301.51306       975.323 6        40.760
C13        59.000                                                                                                                                    41136391.056 6 214208042.76806     -1107.742 6        36.881    41136392.679 6 165639287.30306      -856.455 6        38.841    41136390.642 5 174061610.56805      -900.147 5        35.324
