     3.04           OBSERVATION DATA    M                   RINEX VERSION / TYPE
ssrcrin-15.6.1x                         20250101 011500 UTC PGM / RUN BY / DATE 
(00000000023479385599111004) Septentrio proprietary         COMMENT             
rref                                                        MARKER NAME         
01                                                          MARKER NUMBER       
geodetic                                                    MARKER TYPE         
NFB                 CLIMERS@TUW                             OBSERVER / AGENCY   
3297213             SEPT ASTERX SB3 PROB4.14.4              REC # / TYPE / VERS 
Unknown             Unknown                                 ANT # / TYPE        
  4127831.7112  1207193.0413  4695247.6274                  APPROX POSITION XYZ 
        0.0000        0.0000        0.0000                  ANTENNA: DELTA H/E/N
G   23 X1  C1C L1C D1C S1C C1W S1W C2W L2W D2W S2W C2L L2L  SYS / # / OBS TYPES 
       D2L S2L C5Q L5Q D5Q S5Q C1L L1L D1L S1L              SYS / # / OBS TYPES 
E   21 X1  C1C L1C D1C S1C C6C L6C D6C S6C C5Q L5Q D5Q S5Q  SYS / # / OBS TYPES 
       C7Q L7Q D7Q S7Q C8Q L8Q D8Q S8Q                      SYS / # / OBS TYPES 
S    9 X1  C1C L1C D1C S1C C5I L5I D5I S5I                  SYS / # / OBS TYPES 
R   17 X1  C1C L1C D1C S1C C2P L2P D2P S2P C2C L2C D2C S2C  SYS / # / OBS TYPES 
       C3Q L3Q D3Q S3Q                                      SYS / # / OBS TYPES 
C   25 X1  C1P L1P D1P S1P C5P L5P D5P S5P C2I L2I D2I S2I  SYS / # / OBS TYPES 
       C7I L7I D7I S7I C6I L6I D6I S6I C7D L7D D7D S7D      SYS / # / OBS TYPES 
J   17 X1  C1C L1C D1C S1C C2L L2L D2L S2L C5Q L5Q D5Q S5Q  SYS / # / OBS TYPES 
       C1L L1L D1L S1L                                      SYS / # / OBS TYPES 
I    5 X1  C5A L5A D5A S5A                                  SYS / # / OBS TYPES 
SEPTENTRIO RECEIVERS OUTPUT ALIGNED CARRIER PHASES.         COMMENT             
NO FURTHER PHASE SHIFT APPLIED IN THE RINEX ENCODER.        COMMENT             
G L1C                                                       SYS / PHASE SHIFT   
G L2W                                                       SYS / PHASE SHIFT   
G L2L  0.00000                                              SYS / PHASE SHIFT   
G L5Q  0.00000                                              SYS / PHASE SHIFT   
G L1L  0.00000                                              SYS / PHASE SHIFT   
E L1C  0.00000                                              SYS / PHASE SHIFT   
E L6C  0.00000                                              SYS / PHASE SHIFT   
E L5Q  0.00000                                              SYS / PHASE SHIFT   
E L7Q  0.00000                                              SYS / PHASE SHIFT   
E L8Q  0.00000                                              SYS / PHASE SHIFT   
S L1C                                                       SYS / PHASE SHIFT   
S L5I                                                       SYS / PHASE SHIFT   
R L1C                                                       SYS / PHASE SHIFT   
R L2P  0.00000                                              SYS / PHASE SHIFT   
R L2C                                                       SYS / PHASE SHIFT   
R L3Q  0.00000                                              SYS / PHASE SHIFT   
C L1P  0.00000                                              SYS / PHASE SHIFT   
C L5P  0.00000                                              SYS / PHASE SHIFT   
C L2I                                                       SYS / PHASE SHIFT   
C L7I                                                       SYS / PHASE SHIFT   
C L6I                                                       SYS / PHASE SHIFT   
C L7D                                                       SYS / PHASE SHIFT   
J L1C                                                       SYS / PHASE SHIFT   
J L2L  0.00000                                              SYS / PHASE SHIFT   
J L5Q  0.00000                                              SYS / PHASE SHIFT   
J L1L  0.00000                                              SYS / PHASE SHIFT   
I L5A                                                       SYS / PHASE SHIFT   
  2025     1     1     1    15    0.0000000     GPS         TIME OF FIRST OBS   
 C1C    0.000 C2C    0.000 C2P    0.000                     GLONASS COD/PHS/BIS 
DBHZ                                                        SIGNAL STRENGTH UNIT
    18                                                      LEAP SECONDS        
 24 R01  1 R02 -4 R03  5 R04  6 R05  1 R06 -4 R07  5 R08  6 GLONASS SLOT / FRQ #
    R09 -2 R10 -7 R11  0 R12 -1 R13 -2 R14 -7 R15  0 R16 -1 GLONASS SLOT / FRQ #
    R17  4 R18 -3 R19  3 R20  2 R21  4 R22 -3 R23  3 R24  2 GLONASS SLOT / FRQ #
                                                            END OF HEADER       
> 2025 01 01 01 15  0.0000000  0 56
G28         1.000    23053271.366 7 121145772.84907      -500.199 7        43.225                                    23053267.415 5  94399284.97205      -389.767 5        30.075    23053267.878 7  94399290.97407      -389.796 7        42.736
G31         2.000    22577372.776 7 118644904.30207      1329.091 7        44.299                                    22577368.652 6  92450561.42606      1035.658 6        40.934    22577369.051 6  92450560.43906      1035.575 6        40.753
G09         3.000    23799378.002 6 125066593.90406      3269.891 6        38.592                                    23799377.152 5  97454493.27905      2547.965 5        34.938    23799377.590 6  97454494.28906      2548.018 6        37.505
E34         4.000    27376646.889 6 143865254.75106      2364.744 6        39.222                                                                    27376647.737 7 107431852.17107      1766.067 7        42.011    27376647.395 7 110234421.75207      1812.072 7        43.172
S21         5.000    38360985.029 7 201588208.36407      -422.700 7        42.199
E05         6.000    26335249.771 6 138392684.60506      2677.996 6        37.176                                                                    26335252.196 6 103345206.85206      1999.810 6        41.192    26335251.261 6 106041161.91706      2052.010 6        41.602
G21         7.000    22635562.269 7 118950741.48007     -3110.409 7        43.323                                    22635558.002 5  92688892.73605     -2423.698 5        30.792
E04         8.000    23901950.699 7 125605624.22607     -1442.492 7        46.791                                                                    23901948.831 8  93796413.10408     -1077.155 8        50.201    23901948.653 8  96243267.94208     -1105.267 8        51.214
R14         9.000    23478618.550 7 125154256.77707      1280.640 7        44.144                                                                    23478619.040 6  97342189.56106       996.063 6        38.853
G04        10.000    21617411.646 7 113600302.22707      2446.655 7        46.132                                    21617408.634 5  88519723.65105      1906.484 5        35.267    21617408.537 7  88519718.64307      1906.591 7        44.406
E09        11.000    24096509.109 8 126628054.08308      1324.714 8        48.097                                                                    24096508.454 8  94559926.48108       989.218 8        49.789    24096508.139 8  97026706.54108      1015.037 8        50.874
S27        12.000    39001126.466 5 204952304.07505      -406.774 5        35.924
G06        13.000    25252859.780 6 132704682.94406      3126.993 6        36.276                                    25252858.642 4 103406247.00104      2436.597 4        28.322    25252859.619 5 103406258.03205      2436.368 5        34.633
S36        14.000    38128488.254 7 200367051.01007      -422.778 7        43.865
E27        15.000    28918385.001 6 151967135.00406        77.594 6        36.529                                                                    28918385.680 6 113481958.76006        57.747 6        39.949    28918384.937 6 116442355.31606        59.486 6        41.259
E36        16.000    23676022.023 7 124418364.18707       725.756 7        47.695                                                                    23676022.225 8  92909834.72708       541.949 8        50.883    23676021.887 8  95333564.26208       556.074 8        51.549
S45        17.000    63326871.374 6 332786345.57606      -463.697 6        37.104
G03        18.000    19881627.107 8 104478714.00708       -28.497 8        49.952                                    19881625.045 8  81412004.55108       -22.208 8        51.766    19881625.669 7  81412013.54307       -22.221 7        45.254
R21        19.000    19578790.460 8 104770101.42208      1164.391 8        52.382                                                                    19578788.700 7  81487866.84107       905.615 7        46.163
R20        20.000    19990414.968 6 106897773.83806     -3105.916 6        39.393                                                                    19990416.066 7  83142711.42407     -2415.668 7        46.296
R05        21.000    19688886.224 8 105248421.98408     -2539.442 8        51.991                                                                    19688884.803 7  81859889.45407     -1975.015 7        47.140
I06        22.000    38095493.489 7 149495127.81807      -219.646 7        42.313
S28        23.000    40800768.433 5 214409484.60305      -415.474 5        34.162
E10        24.000    25883810.871 7 136020463.46207     -2914.445 7        42.834                                                                    25883810.370 7 101573788.68507     -2176.351 7        46.880    25883810.153 7 104223530.31807     -2233.189 7        47.362
S23        25.000    38078123.068 7 200101874.81507      -418.997 7        44.494
E06        26.000    23355808.349 8 122735661.10408        49.562 8        48.367                                                                    23355807.894 8  91653252.77008        36.990 8        50.588    23355807.771 8  94044205.71008        37.942 8        51.363
E30        27.000    28881546.725 6 151773560.41806     -1902.343 6        36.015                                                                    28881547.612 6 113337401.53406     -1420.499 6        37.115    28881547.338 6 116294026.99206     -1457.635 6        38.565
E12        28.000    28277965.517 5 148601852.17005     -3277.127 5        32.533                                                                    28277963.606 5 110968986.90005     -2447.320 5        35.633    28277963.570 6 113863817.97706     -2510.904 6        36.783
E19        30.000    27815023.193 5 146168930.65705     -3336.493 5        32.240                                                                    27815023.108 5 109152117.21405     -2491.450 5        34.881    27815022.597 6 111999561.68906     -2556.564 6        36.026
G32        31.000    25137662.722 6 132099318.91706     -3830.390 6        38.087                                    25137661.336 5 102934529.02805     -2984.715 5        30.309    25137662.723 6 102934534.02406     -2984.741 6        36.234
G02        32.000    21256219.189 8 111702227.76108     -2196.745 8        48.915                                    21256212.688 6  87040693.32006     -1711.748 6        39.943
G19        33.000    22746489.583 7 119533640.16507      1521.099 7        42.087                                    22746483.221 5  93143117.23205      1185.274 5        30.249
G17        34.000    22150603.454 7 116402259.56507      -550.459 7        44.975                                    22150598.757 7  90703070.07607      -428.928 7        43.674    22150599.303 6  90703070.07606      -429.021 6        41.545
E11        35.000    23826066.114 7 125206889.30607     -1910.286 7        44.590                                                                    23826061.633 7  93498669.62307     -1426.540 7        46.482    23826061.467 7  95937757.83907     -1463.750 7        47.316
C32        36.000                                                                                                                                    24430519.665 7 127216150.97207     -3109.329 7        45.716                                                                    24430519.837 7 103373553.40607     -2526.687 7        46.061
C35        37.000                                                                                                                                    23551739.511 7 122640106.20807      1465.958 7        46.999                                                                    23551738.232 7  99655131.57907      1191.065 7        46.398
I09        38.000    37072447.233 7 145480243.51207      -410.202 7        42.933
C29        39.000                                                                                                                                    22158336.642 8 115384275.77308     -2030.076 8        50.196                                                                    22158334.236 8  93759169.96008     -1649.715 8        48.615
R22        40.000    23548790.449 7 125705064.73307      3782.878 7        43.065                                                                    23548790.921 6  97770615.89606      2942.251 6        41.657
S44        42.000    40524923.227 6 212960085.01906      -495.417 6        36.393
C09        43.000                                                                                                                                    38940462.503 6 202773228.28906       565.478 6        41.988    38940459.556 7 156797112.87507       437.347 7        45.469    38940457.388 6 164769838.16006       459.329 6        41.266
C05        44.000                                                                                                                                    39043634.643 6 203310481.46606      -422.414 6        38.601    39043628.773 7 157212584.89507      -326.604 7        43.589    39043630.280 6 165206523.18506      -343.331 6        40.126
R06        45.000    20409649.940 6 108909851.36906      2040.517 6        40.157
R13        46.000    24035080.355 6 128345999.44406     -2098.781 6        36.692
C39        47.000                                                                                                                                    38808373.675 7 202085397.25607      -477.074 7        43.124                                                                    38808370.054 7 164210927.60907      -387.729 7        43.221
C20        48.000                                                                                                                                    21697387.385 8 112984038.07408      -605.677 8        51.689                                                                    21697381.644 8  91808777.92608      -492.245 8        49.145
C06        49.000                                                                                                                                    38321109.515 6 199548098.21706        97.268 6        40.744    38321104.229 7 154303230.53907        75.183 7        44.149    38321104.231 6 162149154.38606        78.921 6        41.952
C16        50.000                                                                                                                                    38732872.223 7 201692243.04807       -25.982 7        43.045    38732871.636 7 155961244.88507       -20.092 7        43.441    38732869.072 6 163891467.03906       -21.303 6        39.589
S48        51.000    77113613.595 6 405235921.33906      -423.236 6        37.414
C19        52.000                                                                                                                                    23565898.231 7 122713870.55607      1869.361 7        47.258                                                                    23565893.806 8  99715073.84408      1518.978 8        48.245
R04        53.000    23397391.216 7 125291989.17507     -4367.224 7        43.645                                                                    23397390.329 6  97449331.18706     -3396.619 6        37.592
C60        54.000                                                                                                                                    40524921.660 6 211024103.69406      -490.990 6        39.778                                                                    40524905.260 6 171474339.43506      -399.059 6        39.342
C30        55.000                                                                                                                                    25468824.584 6 132622837.92906     -3905.455 6        41.542                                                                    25468826.593 6 107766914.55906     -3173.582 6        41.809
C02        57.000                                                                                                                                    40487546.484 5 210829327.49105      -468.310 5        34.538    40487540.762 6 163026603.23806      -362.042 6        40.336    40487544.124 6 171316101.39606      -380.409 6        37.108
I03        58.000   132807034.552 6 445378086.22206       955.477 6        40.598
C13        59.000                                                                                                                                    41382736.703 4 215490810.54304     -1094.158 4        27.569    41382736.143 5 166631203.02905      -846.240 5        31.457    41382734.840 4 175103963.10404      -889.018 4        29.100
> 2025 01 01 01 15  5.0000000  0 56
G28         1.000    23053749.177 7 121148283.37407      -503.831 7        42.512                                    23053745.289 5  94401241.23205      -392.598 5        30.060    23053745.355 7  94401247.22807      -392.573 7        42.457
G31         2.000    22576110.015 7 118638267.25107      1325.978 7        44.637                                    22576105.598 6  92445389.70006      1033.229 6        40.989    22576106.151 6  92445388.70406      1033.153 6        40.813
G09         3.000    23796267.523 6 125050247.64606      3268.811 6        39.168                                    23796266.602 5  97441755.94705      2547.124 5        34.895    23796266.907 6  97441756.95306      2547.129 6        37.134
E34         4.000    27374397.155 6 143853431.88106      2364.236 6        38.468                                                                    27374397.907 7 107423023.40007      1765.687 7        42.066    27374397.579 7 110225362.66507      1811.787 7        42.950
S21         5.000    38361390.086 7 201590323.08207      -423.120 7        42.226
E05         6.000    26332701.872 6 138379296.87906      2677.362 6        37.172                                                                    26332704.415 6 103335209.52306      1999.241 6        41.161    26332703.540 6 106030903.78206      2051.432 6        41.395
G21         7.000    22638522.849 7 118966297.68307     -3112.026 7        42.808                                    22638518.355 5  92701014.45105     -2424.955 5        30.792
E04         8.000    23903324.372 7 125612842.37007     -1444.648 7        46.649                                                                    23903322.414 8  93801803.27208     -1078.827 8        50.192    23903322.228 8  96248798.72808     -1106.989 8        51.194
R14         9.000    23477419.464 7 125147863.13207      1276.882 7        44.090                                                                    23477419.520 6  97337216.73106       993.019 6        38.438
G04        10.000    21615085.017 7 113588074.30507      2444.613 7        46.105                                    21615081.709 5  88510195.40605      1904.893 5        35.214    21615081.916 7  88510190.40407      1904.814 7        43.822
E09        11.000    24095249.875 8 126621436.38908      1322.590 8        48.128                                                                    24095249.184 8  94554984.69608       987.639 8        49.895    24095248.841 8  97021635.84308      1013.320 8        50.865
S27        12.000    39001518.985 5 204954338.35605      -407.218 5        35.933
G06        13.000    25249884.711 5 132689049.71505      3126.667 5        35.862                                    25249883.702 4 103394065.30104      2436.358 4        28.341    25249884.149 5 103394076.28805      2436.297 5        34.924
S36        14.000    38128891.371 7 200369165.36007      -422.756 7        43.930
E27        15.000    28918312.681 6 151966754.39606        74.934 6        37.009                                                                    28918313.081 6 113481674.51206        55.940 6        39.610    28918312.616 6 116442063.66506        57.363 6        40.989
E36        16.000    23675332.211 7 124414740.12507       723.933 7        47.720                                                                    23675332.567 8  92907128.44208       540.599 8        50.821    23675332.307 8  95330787.38108       554.701 8        51.543
S45        17.000    63327268.852 6 332788664.79806      -463.713 6        37.074
G03        18.000    19881655.430 8 104478862.69308       -30.804 8        49.915                                    19881653.351 8  81412120.40908       -24.002 8        51.760    19881654.295 7  81412129.40907       -24.041 7        45.407
R21        19.000    19577704.318 8 104764290.59508      1160.134 8        52.216                                                                    19577703.013 7  81483347.30707       902.347 7        46.546
R20        20.000    19993321.162 6 106913313.26406     -3109.589 6        40.234                                                                    19993322.574 7  83154797.65007     -2418.588 7        46.287
R05        21.000    19691262.339 8 105261126.08208     -2542.058 8        51.776                                                                    19691261.339 7  81869770.42807     -1977.221 7        47.164
I06        22.000    38095773.187 7 149496226.73207      -219.830 7        42.345
S28        23.000    40801163.447 5 214411562.67105      -415.886 5        33.958
E10        24.000    25886584.596 7 136035039.34607     -2915.888 7        42.772                                                                    25886584.228 7 101584673.26707     -2177.409 7        46.882    25886583.824 7 104234698.84607     -2234.204 7        47.158
S23        25.000    38078521.284 7 200103970.58907      -419.161 7        44.558
E06        26.000    23355762.289 8 122735419.89708        47.076 8        48.242                                                                    23355761.997 8  91653072.64508        35.168 8        50.577    23355761.935 8  94044020.88908        36.063 8        51.345
E30        27.000    28883357.599 5 151783077.31005     -1904.176 5        35.086                                                                    28883358.943 6 113344508.33906     -1421.860 6        36.590    28883358.408 6 116301319.21406     -1459.295 6        38.237
E12        28.000    28281085.142 5 148618240.54005     -3277.877 5        32.126                                                                    28281082.561 5 110981224.99205     -2448.171 5        35.671    28281082.257 6 113876375.32906     -2511.936 6        36.733
E19        30.000    27818198.699 5 146185615.23305     -3336.860 5        32.042                                                                    27818198.271 5 109164576.46205     -2491.994 5        35.067    27818197.548 5 112012345.94405     -2557.032 5        35.805
G32        31.000    25141307.777 6 132118472.62006     -3830.955 6        38.492                                    25141306.272 5 102949453.98805     -2985.160 5        30.581    25141307.231 6 102949458.97306     -2985.051 6        36.246
G02        32.000    21258310.681 8 111713218.24108     -2199.257 8        48.543                                    21258304.120 6  87049257.32906     -1713.706 6        39.973
G19        33.000    22745044.024 7 119526043.51907      1517.741 7        42.317                                    22745037.586 5  93137197.77005      1182.653 5        30.136
G17        34.000    22151128.723 7 116405021.39607      -553.951 7        44.921                                    22151124.325 7  90705222.15107      -431.647 7        43.666    22151124.894 6  90705222.15206      -431.654 6        41.969
E11        35.000    23827884.634 7 125216445.58107     -1912.187 7        44.704                                                                    23827880.187 7  93505805.79807     -1427.910 7        46.460    23827880.023 7  95945080.17307     -1465.216 7        47.317
C32        36.000                                                                                                                                    24433505.724 7 127231700.04507     -3110.163 7        45.329                                                                    24433505.777 7 103386188.28907     -2527.227 7        46.027
C35        37.000                                                                                                                                    23550333.217 7 122632783.31507      1463.399 7        46.806                                                                    23550331.924 7  99649181.11507      1189.208 7        46.379
I09        38.000    37072970.202 7 145482295.50407      -410.592 7        42.863
C29        39.000                                                                                                                                    22160287.132 8 115394433.22608     -2032.783 8        50.010                                                                    22160284.857 8  93767423.70908     -1651.757 8        48.676
R22        40.000    23545248.936 7 125686152.93207      3781.948 7        43.388                                                                    23545248.900 6  97755906.74106      2941.399 6        41.056
S44        42.000    40525390.377 6 212962563.26706      -495.679 6        36.405
C09        43.000                                                                                                                                    38939920.090 6 202770403.87106       564.415 6        41.616    38939917.193 7 156794928.85907       436.461 7        45.397    38939915.081 6 164767543.07306       458.821 6        41.421
C05        44.000                                                                                                                                    39044039.494 6 203312594.69206      -422.539 6        38.270    39044034.868 7 157214218.97307      -326.996 7        43.585    39044036.133 6 165208240.34706      -343.336 6        40.207
R06        45.000    20407739.562 6 108899656.36206      2037.651 6        40.272
R13        46.000    24037047.168 6 128356503.73906     -2102.951 6        36.541
C39        47.000                                                                                                                                    38808832.203 7 202087785.68307      -478.212 7        42.935                                                                    38808828.762 7 164212868.39707      -388.528 7        43.272
C20        48.000                                                                                                                                    21697970.019 8 112987072.06708      -607.797 8        51.584                                                                    21697964.255 8  91811243.29208      -493.811 8        49.257
C06        49.000                                                                                                                                    38321017.310 6 199547615.07106        96.063 6        40.491    38321011.500 7 154302856.93507        74.288 7        44.256    38321011.552 6 162148761.76206        78.266 6        41.750
C16        50.000                                                                                                                                    38732898.155 7 201692376.31907       -27.199 7        43.052    38732897.157 7 155961347.94107       -21.029 7        43.532    38732894.701 6 163891575.31306       -21.976 6        39.715
S48        51.000    77114017.794 6 405238039.42206      -423.698 6        37.807
C19        52.000                                                                                                                                    23564104.537 7 122704528.00007      1867.770 7        47.332                                                                    23564099.683 8  99707482.24608      1517.849 8        48.281
R04        53.000    23401468.926 7 125313826.32407     -4367.623 7        43.437                                                                    23401467.619 6  97466315.62506     -3396.997 6        38.150
C60        54.000                                                                                                                                    40525393.018 6 211026559.41706      -491.127 6        39.375                                                                    40525376.958 6 171476334.91006      -399.166 6        39.538
C30        55.000                                                                                                                                    25472575.033 6 132642366.57106     -3906.011 6        41.607                                                                    25472576.771 6 107782783.16406     -3173.850 6        41.838
C02        57.000                                                                                                                                    40487996.262 5 210831669.78505      -468.618 5        34.567    40487990.679 6 163028414.47506      -362.373 6        40.315    40487993.858 6 171318004.72906      -380.667 6        37.025
I03        58.000   132805817.225 6 445373309.95706       955.201 6        40.586
C13        59.000                                                                                                                                    41383786.700 4 215496283.11604     -1094.647 4        26.060    41383788.210 5 166635434.68205      -846.459 5        30.408    41383784.526 4 175108410.04604      -889.906 4        28.123
> 2025 01 01 01 15 10.0000000  0 56
G28         1.000    23054230.080 7 121150810.48607      -507.164 7        42.569                                    23054226.194 4  94403210.40804      -395.203 4        29.877    23054225.964 7  94403216.40907      -395.135 7        42.341
G31         2.000    22574849.763 7 118631644.90807      1323.014 7        44.218                                    22574845.369 6  92440229.43506      1030.920 6        40.882    22574846.025 6  92440228.43706      1030.934 6        40.956
G09         3.000    23793157.968 6 125033905.23706      3268.046 6        39.976                                    23793156.803 5  97429021.61705      2546.528 5        34.957    23793156.842 6  97429022.59806      2546.640 6        37.274
E34         4.000    27372147.528 6 143841609.84206      2364.506 6        37.716                                                                    27372148.253 7 107414195.29607      1765.580 7        42.286    27372147.768 7 110216304.25307      1811.612 7        43.001
S21         5.000    38361796.543 7 201592437.89007      -423.009 7        42.337
E05         6.000    26330154.875 6 138365910.87706      2677.163 6        37.221                                                                    26330157.223 6 103325213.50206      1999.164 6        41.075    26330156.448 6 106020647.00306      2051.240 6        41.116
G21         7.000    22641483.994 7 118981860.38407     -3113.079 7        42.694                                    22641479.937 5  92713141.23105     -2425.774 5        30.430
E04         8.000    23904699.579 7 125620070.25107     -1446.577 7        46.672                                                                    23904697.883 8  93807200.72108     -1080.223 8        50.213    23904697.654 8  96254336.97108     -1108.326 8        51.196
R14         9.000    23476223.378 7 125141487.23407      1273.440 7        44.634                                                                    23476223.474 6  97332257.67906       990.344 6        39.333
G04        10.000    21612759.759 7 113575856.19007      2442.733 7        46.208                                    21612756.658 5  88500674.80005      1903.424 5        34.929    21612757.114 7  88500669.81007      1903.357 7        44.464
E09        11.000    24093992.424 8 126614827.99208      1320.744 8        48.097                                                                    24093991.607 8  94550049.85708       986.343 8        49.824    24093991.350 8  97016572.26808      1012.034 8        50.846
S27        12.000    39001902.520 5 204956373.14605      -406.952 5        35.676
G06        13.000    25246909.411 6 132673416.81106      3126.299 6        36.079                                    25246908.759 4 103381883.83904      2436.070 4        28.209    25246908.937 5 103381894.81805      2436.204 5        34.990
S36        14.000    38129290.942 7 200371279.03407      -422.571 7        43.685
E27        15.000    28918242.732 6 151966385.35306        72.693 6        37.161                                                                    28918242.949 6 113481398.97306        54.229 6        39.781    28918242.413 6 116441780.93106        55.708 6        41.056
E36        16.000    23674644.079 7 124411123.71407       722.575 7        47.726                                                                    23674644.418 8  92904427.88508       539.540 8        50.832    23674644.094 8  95328016.37308       553.671 8        51.549
S45        17.000    63327664.452 6 332789384.08316      -463.887 6        37.285
G03        18.000    19881685.771 8 104479021.66008       -32.824 8        49.937                                    19881683.606 8  81412244.28308       -25.579 8        51.616    19881684.442 7  81412253.28407       -25.602 7        45.613
R21        19.000    19576621.831 8 104758499.23708      1156.336 8        51.820                                                                    19576620.757 7  81478842.91707       899.320 7        46.222
R20        20.000    19996230.848 6 106928869.74806     -3113.000 6        40.431                                                                    19996231.699 7  83166897.13407     -2421.200 7        46.530
R05        21.000    19693641.072 8 105273842.50908     -2544.474 8        51.642                                                                    19693640.139 7  81879660.98507     -1979.100 7        46.843
I06        22.000    38096053.363 7 149497325.79007      -219.845 7        42.239
S28        23.000    40801559.557 5 214413640.79505      -415.927 5        34.010
E10        24.000    25889359.436 7 136049620.61507     -2916.752 7        42.864                                                                    25889359.057 7 101595561.87807     -2178.073 7        46.973    25889358.568 7 104245871.51607     -2234.955 7        47.231
S23        25.000    38078919.572 7 200106066.31607      -419.149 7        44.551
E06        26.000    23355718.438 8 122735189.47508        45.061 8        48.170                                                                    23355718.161 8  91652900.58108        33.634 8        50.552    23355718.047 8  94043844.33308        34.553 8        51.293
E30        27.000    28885170.394 6 151792603.46406     -1906.061 6        36.767                                                                    28885171.955 6 113351622.06706     -1423.195 6        38.162    28885171.080 6 116308618.50206     -1460.629 6        39.150
E12        28.000    28284203.982 5 148634631.44105     -3278.205 5        32.126                                                                    28284201.687 5 110993464.90805     -2447.939 5        35.805    28284201.337 6 113888934.57706     -2512.225 6        36.741
E19        30.000    27821373.935 5 146202301.39605     -3337.258 5        32.156                                                                    27821373.620 5 109177036.88205     -2492.427 5        34.914    27821372.974 5 112025131.42505     -2557.476 5        35.819
G32        31.000    25144953.564 6 132137628.48306     -3831.375 6        38.658                                    25144951.547 5 102964380.62705     -2985.483 5        30.755    25144952.001 6 102964385.62306     -2985.442 6        36.257
G02        32.000    21260404.329 8 111724219.79708     -2201.417 8        48.458                                    21260397.676 6  87057829.97006     -1715.389 6        39.844
G19        33.000    22743601.145 7 119518462.20007      1514.711 7        42.216                                    22743595.009 5  93131290.25305      1180.290 5        30.008
G17        34.000    22151657.566 7 116407798.58607      -557.077 7        45.159                                    22151652.799 7  90707386.19207      -434.084 7        43.503    22151653.199 7  90707386.18207      -433.961 7        42.106
E11        35.000    23829704.513 7 125226010.09407     -1913.635 7        44.718                                                                    23829700.263 7  93512948.13907     -1429.140 7        46.478    23829700.036 7  95952408.82707     -1466.312 7        47.256
C32        36.000                                                                                                                                    24436492.622 7 127247252.01507     -3110.672 7        45.181                                                                    24436492.362 7 103398825.54907     -2527.587 7        46.111
C35        37.000                                                                                                                                    23548928.955 7 122625471.53607      1461.205 7        46.606                                                                    23548927.857 7  99643239.71407      1187.446 7        46.441
I09        38.000    37073493.226 7 145484348.39207      -410.680 7        42.838
C29        39.000                                                                                                                                    22162240.174 8 115404603.17908     -2035.260 8        49.986                                                                    22162237.919 8  93775687.63608     -1653.705 8        48.643
R22        40.000    23541706.226 7 125667244.34907      3781.541 7        43.050                                                                    23541706.180 6  97741200.11306      2941.214 6        40.868
S44        42.000    40525860.760 6 212965041.63806      -495.453 6        36.257
C09        43.000                                                                                                                                    38939378.680 6 202767583.61406       563.668 6        41.590    38939375.447 7 156792748.08207       435.856 7        45.439    38939373.583 6 164765251.41406       458.082 6        41.299
C05        44.000                                                                                                                                    39044445.956 6 203314708.06206      -422.588 6        38.589    39044440.364 7 157215853.17607      -326.873 7        43.517    39044441.938 6 165209957.65206      -343.400 6        40.091
R06        45.000    20405832.031 6 108889474.07906      2035.339 6        40.057
R13        46.000    24039017.983 6 128367026.60206     -2106.385 6        37.229
C39        47.000                                                                                                                                    38809291.810 7 202090178.81207      -479.037 7        42.864                                                                    38809288.516 7 164214813.01707      -389.243 7        43.308
C20        48.000                                                                                                                                    21698554.529 8 112990115.60008      -609.678 8        51.652                                                                    21698548.720 8  91813716.41908      -495.324 8        49.273
C06        49.000                                                                                                                                    38320925.557 6 199547136.69506        95.080 6        40.462    38320920.094 7 154302487.02307        73.620 7        44.384    38320919.689 6 162148373.06306        77.502 6        41.912
C16        50.000                                                                                                                                    38732924.635 7 201692514.28107       -28.096 7        43.318    38732923.696 7 155961454.63707       -21.647 7        43.363    38732921.194 6 163891687.44206       -22.621 6        39.703
S48        51.000    77114414.051 6 405240157.51506      -423.581 6        37.716
C19        52.000                                                                                                                                    23562311.675 7 122695192.17907      1866.531 7        47.692                                                                    23562306.840 8  99699896.14908      1516.778 8        48.303
R04        53.000    23405546.534 7 125335663.51307     -4367.426 7        42.978                                                                    23405545.079 6  97483300.11706     -3396.670 6        37.921
C60        54.000                                                                                                                                    40525864.747 6 211029015.26206      -491.323 6        39.547                                                                    40525848.580 6 171478330.48106      -398.980 6        39.357
C30        55.000                                                                                                                                    25476325.614 7 132661897.18107     -3906.327 7        42.015                                                                    25476327.611 6 107798653.39906     -3174.134 6        41.969
C02        57.000                                                                                                                                    40488446.724 5 210834012.28205      -468.764 5        34.405    40488440.193 6 163030225.82006      -362.294 6        40.455    40488443.613 6 171319908.19006      -380.538 6        36.805
I03        58.000   132804600.396 6 445368533.94906       955.112 6        40.517
C13        59.000                                                                                                                                    41384836.668 4 215501755.74804     -1094.311 4        28.588    41384838.738 5 166639666.58605      -846.361 5        31.351    41384836.574 4 175112856.97604      -889.365 4        29.062
> 2025 01 01 01 15 15.0000000  0 56
G28         1.000    23054714.285 7 121153354.04807      -510.529 7        42.358                                    23054710.247 4  94405192.41304      -397.815 4        29.782    23054710.214 7  94405198.41607      -397.766 7        42.413
G31         2.000    22573592.199 7 118625037.12607      1320.044 7        44.203                                    22573588.061 6  92435080.51206      1028.604 6        40.999    22573588.693 6  92435079.51906      1028.622 6        41.397
G09         3.000    23790048.912 6 125017566.49806      3267.314 6        40.625                                    23790047.572 5  97416290.13505      2545.956 5        35.124    23790047.728 6  97416291.16306      2545.719 6        37.236
E34         4.000    27369898.085 6 143829788.56206      2364.058 6        37.883                                                                    27369898.714 7 107405367.70807      1765.370 7        42.049    27369898.238 7 110207246.38407      1811.450 7        43.037
S21         5.000    38362196.056 7 201594552.60907      -422.892 7        42.265
E05         6.000    26327608.071 6 138352526.50406      2676.541 6        36.767                                                                    26327610.287 6 103315218.68206      1998.744 6        41.225    26327609.242 6 106010391.44206      2050.851 6        40.818
G21         7.000    22644446.693 7 118997429.41607     -3114.504 7        43.397                                    22644442.530 5  92725272.93905     -2426.885 5        30.287
E04         8.000    23906076.893 7 125627307.72207     -1448.518 7        46.449                                                                    23906075.052 8  93812605.31508     -1081.620 8        50.195    23906074.904 8  96259882.56408     -1109.919 8        51.209
R14         9.000    23475030.859 7 125135128.76807      1269.794 7        45.213                                                                    23475031.814 6  97327312.18706       987.587 6        39.568
G04        10.000    21610436.483 7 113563647.74507      2440.643 7        46.218                                    21610433.489 5  88491161.73005      1901.799 5        34.957    21610433.747 7  88491156.72907      1901.819 7        44.593
E09        11.000    24092736.578 8 126608228.72808      1318.838 8        48.042                                                                    24092735.819 8  94545121.84308       984.879 8        49.868    24092735.570 8  97011515.69408      1010.517 8        50.870
S27        12.000    39002288.614 5 204958407.58505      -406.841 5        35.476
G06        13.000    25243935.334 5 132657784.14005      3126.467 5        35.767                                    25243933.963 4 103369702.57004      2436.213 4        27.820    25243934.678 6 103369713.58406      2436.072 6        37.021
S36        14.000    38129693.625 7 200373392.32507      -422.734 7        43.562
E27        15.000    28918174.413 6 151966027.65106        70.411 6        36.715                                                                    28918174.819 6 113481131.85406        52.497 6        39.610    28918174.155 6 116441506.83706        54.035 6        40.493
E36        16.000    23673957.227 7 124407514.82207       720.938 7        47.549                                                                    23673957.620 8  92901732.93108       538.363 8        50.848    23673957.369 8  95325251.11408       552.386 8        51.529
S45        17.000    63328063.840 6 332791703.13206      -463.969 6        37.259
G03        18.000    19881717.919 8 104479190.75908       -34.893 8        49.924                                    19881715.783 8  81412376.04808       -27.191 8        51.624    19881716.327 7  81412385.04207       -27.158 7        45.752
R21        19.000    19575543.167 8 104752727.15508      1152.391 8        52.071                                                                    19575541.939 7  81474353.53407       896.232 7        46.904
R20        20.000    19999142.376 6 106944443.08906     -3116.469 6        40.014                                                                    19999143.899 7  83179009.73107     -2423.919 7        46.481
R05        21.000    19696022.396 8 105286571.08908     -2547.025 8        51.909                                                                    19696021.640 7  81889560.98607     -1981.018 7        47.517
I06        22.000    38096333.616 7 149498424.86307      -219.858 7        42.394
S28        23.000    40801951.633 5 214415718.57805      -415.586 5        34.057
E10        24.000    25892134.803 7 136064207.13207     -2917.774 7        42.753                                                                    25892134.782 7 101606454.40207     -2178.932 7        46.930    25892134.642 7 104257048.19007     -2235.829 7        47.374
S23        25.000    38079319.737 7 200108161.77607      -419.145 7        44.409
E06        26.000    23355676.709 8 122734969.70708        42.819 8        48.000                                                                    23355676.335 8  91652736.47308        31.960 8        50.626    23355676.226 8  94043675.93908        32.830 8        51.301
E30        27.000    28886984.443 5 151802138.61905     -1907.722 5        35.543                                                                    28886986.002 6 113358742.50606     -1424.653 6        38.333    28886985.235 6 116315924.68806     -1462.072 6        39.186
E12        28.000    28287323.414 5 148651024.68005     -3278.619 5        32.054                                                                    28287320.746 5 111005706.61605     -2448.376 5        35.643    28287321.119 6 113901495.62906     -2512.487 6        36.756
E19        30.000    27824549.345 5 146218989.02805     -3337.710 5        32.210                                                                    27824549.210 5 109189498.39105     -2492.521 5        34.876    27824548.316 5 112037918.00205     -2557.462 5        35.381
G32        31.000    25148598.656 6 132156786.32006     -3831.854 6        38.859                                    25148597.203 5 102979308.80905     -2985.858 5        31.125    25148597.657 6 102979313.81206     -2985.720 6        36.533
G02        32.000    21262499.869 8 111735232.29808     -2203.663 8        48.944                                    21262493.306 6  87066411.13406     -1717.139 6        39.865
G19        33.000    22742161.199 7 119510896.05907      1511.688 7        42.607                                    22742155.321 4  93125394.56204      1177.940 4        29.962
G17        34.000    22152188.660 7 116410590.93207      -560.080 7        45.642                                    22152184.171 7  90709562.04607      -436.425 7        43.558    22152184.605 7  90709562.04507      -436.435 7        42.176
E11        35.000    23831526.019 7 125235582.67807     -1915.361 7        44.444                                                                    23831521.888 7  93520096.48807     -1430.297 7        46.503    23831521.644 7  95959743.66407     -1467.698 7        47.285
C32        36.000                                                                                                                                    24439479.370 7 127262806.71307     -3111.315 7        45.523                                                                    24439479.481 7 103411465.00607     -2528.189 7        46.000
C35        37.000                                                                                                                                    23547526.716 7 122618170.75507      1458.937 7        46.623                                                                    23547525.791 7  99637307.22207      1185.542 7        46.496
I09        38.000    37074016.659 7 145486402.01907      -410.949 7        42.823
C29        39.000                                                                                                                                    22164195.525 8 115414785.47008     -2037.782 8        50.166                                                                    22164193.280 8  93783961.58108     -1655.865 8        48.601
R22        40.000    23538163.946 7 125648338.81907      3780.613 7        43.037                                                                    23538164.013 6  97726495.83006      2940.590 6        39.589
S44        42.000    40526339.068 6 212967519.97506      -495.782 6        36.015
C09        43.000                                                                                                                                    38938837.798 6 202764767.40606       562.731 6        41.409    38938834.599 7 156790570.39507       435.112 7        45.416    38938832.769 6 164762962.98806       457.372 6        41.225
C05        44.000                                                                                                                                    39044851.747 6 203316821.46506      -422.539 6        38.504    39044846.141 7 157217487.38707      -326.925 7        43.452    39044847.711 6 165211674.95806      -343.395 6        40.222
R06        45.000    20403925.294 6 108879304.53006      2032.518 6        39.856
R13        46.000    24040992.113 6 128377567.46506     -2109.914 6        36.828
C39        47.000                                                                                                                                    38809752.425 7 202092576.47307      -480.144 7        42.703                                                                    38809748.912 7 164216761.30407      -390.100 7        43.287
C20        48.000                                                                                                                                    21699140.734 8 112993168.49708      -611.605 8        51.602                                                                    21699135.034 8  91816197.13908      -496.961 8        49.288
C06        49.000                                                                                                                                    38320834.438 6 199546662.94206        94.256 6        40.818    38320829.075 7 154302120.70007        72.795 7        44.615    38320828.732 6 162147988.10106        76.537 6        41.809
C16        50.000                                                                                                                                    38732952.014 7 201692656.79007       -28.985 7        43.608    38732950.912 7 155961564.84307       -22.566 7        43.177    38732948.575 6 163891803.23806       -23.495 6        39.784
S48        51.000    77114809.105 6 405242275.58506      -423.980 6        37.301
C19        52.000                                                                                                                                    23560520.079 7 122685862.95507      1865.098 7        47.627                                                                    23560515.205 8  99692315.38208      1515.549 8        48.312
R04        53.000    23409625.063 7 125357500.62107     -4367.682 7        42.720                                                                    23409623.236 6  97500284.55806     -3396.989 6        37.531
C60        54.000                                                                                                                                    40526336.812 6 211031471.05706      -491.335 6        39.625                                                                    40526320.153 6 171480326.00706      -399.103 6        39.351
C30        55.000                                                                                                                                    25480076.835 7 132681429.59407     -3906.552 7        42.334                                                                    25480078.609 7 107814525.08107     -3174.423 7        42.197
C02        57.000                                                                                                                                    40488896.502 5 210836354.78305      -468.517 5        34.329    40488890.266 6 163032037.21106      -362.359 6        40.238    40488893.593 6 171321811.70506      -380.938 6        37.055
I03        58.000   132803383.453 6 445363758.06206       955.137 6        40.503
C13        59.000                                                                                                                                    41385885.608 4 215507228.55704     -1095.030 4        27.617    41385889.999 5 166643898.42205      -846.414 5        31.117    41385886.307 4 175117304.06204      -889.709 4        26.958
> 2025 01 01 01 15 20.0000000  0 56
G28         1.000    23055201.265 7 121155914.49007      -513.762 7        42.334                                    23055197.524 4  94407187.55704      -400.334 4        29.934    23055197.645 7  94407193.55307      -400.258 7        42.275
G31         2.000    22572338.030 7 118618444.31407      1317.066 7        44.321                                    22572333.686 6  92429943.26206      1026.283 6        41.256    22572333.989 6  92429942.26406      1026.345 6        41.812
G09         3.000    23786940.391 6 125001231.91306      3266.690 6        40.458                                    23786939.070 5  97403561.89405      2545.473 5        35.281    23786939.247 6  97403562.90806      2545.358 6        37.043
E34         4.000    27367649.128 6 143817968.42506      2364.053 6        38.790                                                                    27367649.149 7 107396540.97507      1765.267 7        42.193    27367648.788 7 110198189.39707      1811.287 7        42.963
S21         5.000    38362598.940 7 201596667.54307      -423.081 7        42.373
E05         6.000    26325061.737 6 138339144.16406      2676.236 6        37.108                                                                    26325063.750 6 103305225.37906      1998.491 6        41.354    26325062.659 6 106000137.43906      2050.733 6        40.632
G21         7.000    22647410.948 7 119013005.18107     -3115.741 7        43.064                                    22647406.380 5  92737409.89505     -2427.846 5        30.528
E04         8.000    23907456.206 7 125634555.16707     -1450.495 7        46.482                                                                    23907454.200 8  93818017.37308     -1083.144 8        50.327    23907454.034 8  96265435.79808     -1111.392 8        51.167
R14         9.000    23473840.860 7 125128788.30707      1266.416 7        44.766                                                                    23473841.618 6  97322380.68406       985.070 6        38.751
G04        10.000    21608115.199 7 113551449.37007      2438.660 7        45.744                                    21608112.274 5  88481656.50305      1900.259 5        35.205    21608112.311 7  88481651.50807      1900.362 7        44.376
E09        11.000    24091482.292 7 126601639.03907      1317.000 7        47.876                                                                    24091481.870 8  94540200.96808       983.493 8        49.996    24091481.583 8  97006466.44808      1009.142 8        50.827
S27        12.000    39002680.457 5 204960442.60705      -407.287 5        35.676
G06        13.000    25240960.194 6 132642152.18206      3126.264 6        38.348                                    25240959.399 4 103357521.84404      2436.038 4        28.209    25240960.244 6 103357532.83106      2436.180 6        36.760
S36        14.000    38130096.728 7 200375505.90307      -422.522 7        43.695
E27        15.000    28918108.434 5 151965681.60705        67.924 5        35.671                                                                    28918109.261 6 113480873.36206        50.889 6        39.562    28918108.451 6 116441241.62406        52.237 6        40.114
E36        16.000    23673272.021 7 124403913.85507       719.472 7        47.537                                                                    23673272.435 8  92899043.90108       537.242 8        50.987    23673272.141 8  95322491.93708       551.222 8        51.546
S45        17.000    63328460.084 6 332794022.41206      -463.764 6        37.444
G03        18.000    19881752.110 8 104479370.40008       -37.014 8        50.030                                    19881749.969 8  81412516.02908       -28.843 8        51.750    19881750.562 7  81412525.03007       -28.848 7        45.278
R21        19.000    19574468.481 8 104746974.83108      1148.506 8        51.955                                                                    19574467.107 7  81469879.49307       893.283 7        46.695
R20        20.000    20002057.269 6 106960033.74806     -3119.762 6        39.769                                                                    20002059.218 7  83191135.79707     -2426.495 7        46.253
R05        21.000    19698405.784 8 105299312.11408     -2549.430 8        51.649                                                                    19698404.901 7  81899470.67207     -1982.859 7        46.919
I06        22.000    38096613.700 7 149499524.27907      -219.892 7        42.366
S28        23.000    40802350.994 5 214417796.66705      -415.424 5        34.314
E10        24.000    25894911.759 7 136078799.29507     -2918.869 7        42.163                                                                    25894911.481 7 101617351.15207     -2179.749 7        46.956    25894911.627 7 104268229.20007     -2236.582 7        47.503
S23        25.000    38079717.452 7 200110257.55007      -419.112 7        44.564
E06        26.000    23355637.008 7 122734761.00207        40.558 7        47.768                                                                    23355636.616 8  91652580.62408        30.308 8        50.733    23355636.469 8  94043516.02608        31.148 8        51.304
E30        27.000    28888801.077 5 151811683.16805     -1910.054 5        34.571                                                                    28888802.956 6 113365869.94106     -1426.086 6        38.099    28888801.445 6 116323238.04206     -1463.279 6        38.757
E12        28.000    28290443.402 5 148667420.68405     -3279.161 5        32.114                                                                    28290441.064 5 111017950.38305     -2449.000 5        35.986    28290441.004 6 113914058.79806     -2512.915 6        36.832
E19        30.000    27827725.637 5 146235678.44105     -3338.336 5        31.962                                                                    27827724.721 5 109201961.22905     -2492.581 5        34.738    27827724.267 5 112050705.97805     -2557.761 5        34.914
G32        31.000    25152244.516 6 132175946.53406     -3832.271 6        38.943                                    25152243.324 5 102994238.84005     -2986.187 5        31.525    25152243.723 6 102994243.83506     -2986.205 6        36.106
G02        32.000    21264597.986 8 111746256.13308     -2205.945 8        48.889                                    21264591.092 6  87075001.13506     -1718.918 6        39.952
G19        33.000    22740724.944 7 119503345.52807      1508.565 7        42.114                                    22740718.503 5  93119511.02805      1175.509 5        30.241
G17        34.000    22152723.306 7 116413398.89607      -563.137 7        45.562                                    22152718.512 7  90711750.06607      -438.808 7        43.638    22152718.742 6  90711750.06506      -438.715 6        41.795
E11        35.000    23833349.212 7 125245163.75207     -1917.047 7        44.346                                                                    23833345.107 7  93527251.18607     -1431.532 7        46.598    23833344.810 7  95967085.00107     -1468.820 7        47.250
C32        36.000                                                                                                                                    24442467.141 7 127278364.56007     -3111.832 7        45.943                                                                    24442467.213 7 103424107.03607     -2528.628 7        46.069
C35        37.000                                                                                                                                    23546127.385 7 122610881.35507      1456.836 7        46.776                                                                    23546125.926 7  99631383.99707      1183.723 7        46.421
I09        38.000    37074540.211 7 145488456.71407      -410.958 7        42.743
C29        39.000                                                                                                                                    22166153.537 8 115424980.53208     -2040.311 8        50.181                                                                    22166151.138 8  93792245.90108     -1657.906 8        48.483
R22        40.000    23534623.893 7 125629436.75607      3780.087 7        44.015                                                                    23534622.459 6  97711794.27106      2939.918 6        40.019
S44        42.000    40526806.120 6 212969998.68006      -495.783 6        36.110
C09        43.000                                                                                                                                    38938297.820 6 202761955.62806       562.009 6        41.385    38938294.720 7 156788396.15807       434.437 7        45.430    38938292.881 6 164760678.20306       456.580 6        41.135
C05        44.000                                                                                                                                    39045257.471 6 203318935.32406      -422.713 6        38.444    39045252.165 7 157219121.95107      -326.958 7        43.414    39045253.832 6 165213392.63706      -343.504 6        40.226
R06        45.000    20402022.010 6 108869148.08006      2030.021 6        39.766
R13        46.000    24042969.747 6 128388127.25506     -2113.995 6        36.711
C39        47.000                                                                                                                                    38810214.094 7 202094979.08007      -480.987 7        42.700                                                                    38810210.344 7 164218713.62307      -390.861 7        43.164
C20        48.000                                                                                                                                    21699728.850 8 112996231.17608      -613.456 8        51.519                                                                    21699723.119 8  91818685.81808      -498.501 8        49.175
C06        49.000                                                                                                                                    38320744.429 6 199546194.21706        93.175 6        40.834    38320739.182 7 154301758.25607        72.027 7        44.632    38320738.657 6 162147607.21606        75.869 6        41.697
C16        50.000                                                                                                                                    38732980.256 7 201692804.28107       -29.988 7        43.609    38732979.191 7 155961678.89307       -23.273 7        43.141    38732976.970 6 163891923.09606       -24.414 6        39.586
S48        51.000    77115206.932 6 405244393.89006      -423.446 6        37.331
C19        52.000                                                                                                                                    23558729.626 7 122676540.74507      1863.795 7        47.693                                                                    23558724.967 8  99684740.32108      1514.432 8        48.251
R04        53.000    23413702.237 7 125379337.96207     -4367.471 7        42.516                                                                    23413701.103 6  97517269.16206     -3396.995 6        37.372
C60        54.000                                                                                                                                    40526808.452 6 211033927.23506      -491.177 6        39.682                                                                    40526791.860 6 171482321.85606      -399.152 6        39.384
C30        55.000                                                                                                                                    25483828.738 7 132700964.23207     -3907.219 7        42.440                                                                    25483830.024 7 107830398.56507     -3174.854 7        42.347
C02        57.000                                                                                                                                    40489345.887 5                      -468.471 5        34.448    40489340.098 6 163033848.93906      -362.315 6        40.200    40489343.514 6 171323715.55106      -380.800 6        37.036
I03        58.000   132802166.567 6 445358982.62006       955.008 6        40.658
C13        59.000                                                                                                                                    41386938.454 4 215512701.80804     -1094.298 4        27.521    41386940.077 4 166648130.80204      -846.712 4        28.768    41386938.152 4 175121751.59904      -889.725 4        28.009
> 2025 01 01 01 15 25.0000000  0 56
G28         1.000    23055691.719 7 121158490.65307      -517.129 7        43.238                                    23055687.726 4  94409194.95804      -402.952 4        29.829    23055687.874 7  94409200.96607      -402.975 7        42.768
G31         2.000    22571085.983 7 118611865.38007      1313.987 7        43.750                                    22571081.944 6  92424816.82506      1023.883 6        41.383    22571082.127 7  92424815.83207      1024.016 7        42.178
G09         3.000    23783832.215 6 124984900.33206      3265.610 6        40.598                                    23783831.136 5  97390835.99505      2544.626 5        35.267    23783830.950 6  97390836.99506      2544.694 6        36.964
E34         4.000    27365399.886 6 143806148.29606      2363.606 6        38.850                                                                    27365399.698 7 107387714.26807      1765.056 7        42.080    27365399.515 7 110189132.40907      1811.125 7        42.891
S21         5.000    38363001.601 7 201598781.51807      -422.969 7        42.351
E05         6.000    26322515.369 6 138325762.72506      2675.838 6        36.870                                                                    26322517.459 6 103295232.76106      1998.216 6        41.433    26322516.109 6 105989884.12706      2050.460 6        40.663
G21         7.000    22650375.679 7 119028586.52307     -3117.082 7        42.787                                    22650371.329 5  92749551.20205     -2428.890 5        30.438
E04         8.000    23908837.046 7 125641811.46707     -1452.411 7        46.591                                                                    23908835.015 8  93823436.03908     -1084.616 8        50.281    23908834.840 8  96270995.82008     -1112.880 8        51.190
R14         9.000    23472654.325 7 125122464.67607      1262.628 7        44.600                                                                    23472655.391 6  97317462.28506       982.152 6        39.228
G04        10.000    21605795.633 7 113539259.93807      2436.727 7        45.773                                    21605792.741 5  88472158.24605      1898.746 5        35.271    21605792.656 7  88472153.24707      1898.756 7        44.295
E09        11.000    24090230.036 7 126595057.77307      1315.098 7        47.980                                                                    24090229.531 8  94535286.38808       982.074 8        49.914    24090229.151 8  97001423.66308      1007.628 8        50.892
S27        12.000    39003066.148 5 204962476.69505      -407.179 5        35.795
G06        13.000    25237984.215 6 132626519.65706      3126.022 6        37.096                                    25237984.733 4 103345340.67604      2435.842 4        28.673    25237984.909 6 103345351.74406      2436.017 6        36.922
S36        14.000    38130500.793 7 200377618.96007      -422.756 7        43.736
E27        15.000    28918044.489 5 151965346.15205        65.691 5        35.429                                                                    28918045.267 6 113480622.73806        49.116 6        39.550    28918044.749 6 116440984.47506        50.411 6        40.050
E36        16.000    23672588.298 7 124400319.69707       717.842 7        47.418                                                                    23672588.509 8  92896359.95008       536.028 8        50.946    23672588.174 8  95319737.97008       550.016 8        51.501
S45        17.000    63328858.604 6 332796340.96006      -463.939 6        37.304
G03        18.000    19881788.134 8 104479559.44608       -39.046 8        50.127                                    19881785.939 8  81412663.33708       -30.424 8        51.793    19881786.793 7  81412672.33407       -30.395 7        45.670
R21        19.000    19573397.297 8 104741241.08708      1144.578 8        52.315                                                                    19573395.257 7  81465419.91407       890.223 7        46.557
R20        20.000    20004976.368 6 106975640.56506     -3123.246 6        40.112                                                                    20004977.812 7  83203274.43207     -2429.200 7        46.347
R05        21.000    19700791.048 8 105312064.65108     -2551.936 8        51.285                                                                    19700790.261 7  81909389.31107     -1984.844 7        46.996
I06        22.000    38096893.477 7 149500623.16007      -219.936 7        42.159
S28        23.000    40802746.884 5 214419874.33905      -415.754 5        34.081
E10        24.000    25897689.512 7 136093395.99007     -2920.122 7        42.476                                                                    25897689.106 7 101628251.26707     -2180.638 7        46.892    25897689.196 7 104279413.66307     -2237.447 7        47.699
S23        25.000    38080115.400 7 200112352.55607      -419.146 7        44.405
E06        26.000    23355599.304 7 122734562.22007        38.456 7        47.851                                                                    23355598.808 8  91652432.17708        28.771 8        50.699    23355598.663 8  94043363.71408        29.487 8        51.292
E30        27.000    28890618.835 5 151821235.99505     -1911.811 5        34.986                                                                    28890620.486 6 113373003.56906     -1427.627 6        38.369    28890619.478 6 116330557.77506     -1464.808 6        38.697
E12        28.000    28293563.677 5 148683818.30605     -3279.969 5        31.796                                                                    28293561.566 6 111030195.36806     -2449.399 6        36.087    28293561.355 6 113926623.20106     -2513.233 6        36.964
E19        30.000    27830901.666 5 146252368.43705     -3337.955 5        32.156                                                                    27830900.939 5 109214424.53305     -2492.754 5        34.710    27830900.636 5 112063494.42205     -2557.919 5        34.776
G32        31.000    25155891.196 6 132195107.99006     -3832.679 6        39.513                                    25155889.673 5 103009169.84005     -2986.504 5        31.796    25155890.374 6 103009174.83006     -2986.600 6        36.692
G02        32.000    21266697.275 8 111757290.16108     -2208.169 8        48.799                                    21266690.836 6  87083599.07206     -1720.649 6        39.991
G19        33.000    22739290.207 7 119495809.49407      1505.540 7        42.307                                    22739284.441 5  93113638.79705      1173.144 5        30.287
G17        34.000    22153260.042 7 116416221.32707      -566.285 7        45.562                                    22153255.617 7  90713949.36107      -441.262 7        43.750    22153256.095 7  90713949.36407      -441.168 7        42.074
E11        35.000    23835173.945 7 125254752.17907     -1918.704 7        44.400                                                                    23835169.697 7  93534411.36907     -1432.735 7        46.601    23835169.326 7  95974431.98107     -1470.181 7        47.201
C32        36.000                                                                                                                                    24445455.420 7 127293924.39907     -3112.505 7        45.851                                                                    24445455.486 7 103436750.69307     -2529.150 7        46.214
C35        37.000                                                                                                                                    23544729.899 7 122603602.26207      1454.438 7        46.778                                                                    23544728.056 7  99625469.13707      1181.870 7        46.537
I09        38.000    37075063.775 7 145490511.64807      -411.373 7        42.718
C29        39.000                                                                                                                                    22168113.648 8 115435187.22208     -2042.785 8        50.123                                                                    22168111.301 8  93800539.67808     -1659.963 8        48.628
R22        40.000    23531083.612 7 125610537.01207      3779.539 7        43.687                                                                    23531081.961 6  97697094.46306      2939.684 6        40.243
S44        42.000    40527274.612 5 212972476.62005      -495.622 5        35.762
C09        43.000                                                                                                                                    38937758.735 6 202759147.16806       561.028 6        41.385    38937755.429 7 156786224.47407       433.828 7        45.381    38937753.496 6 164758396.10106       455.903 6        41.425
C05        44.000                                                                                                                                    39045663.471 6 203321048.47406      -422.731 6        38.321    39045657.893 7 157220755.97507      -327.071 7        43.310    39045659.498 6 165215109.74306      -343.494 6        39.934
R06        45.000    20400119.748 6 108859003.55006      2027.459 6        40.029
R13        46.000    24044949.228 6 128398704.73206     -2117.558 6        36.420
C39        47.000                                                                                                                                    38810676.132 7 202097385.52007      -481.946 7        42.423                                                                    38810672.442 7 164220669.05607      -391.646 7        43.424
C20        48.000                                                                                                                                    21700318.797 8 112999302.51508      -615.476 8        51.528                                                                    21700312.962 8  91821181.53508      -500.018 8        49.260
C06        49.000                                                                                                                                    38320654.891 6 199545729.40306        92.151 6        40.555    38320649.871 7 154301398.82607        71.359 7        44.850    38320649.442 6 162147229.52106        75.001 6        41.740
C16        50.000                                                                                                                                    38733009.471 7 201692955.57807       -30.881 7        43.473    38733008.153 7 155961795.88307       -23.889 7        43.137    38733006.039 6 163892046.04106       -25.125 6        39.706
S48        51.000    77115606.928 6 405246511.29006      -423.842 6        37.648
C19        52.000                                                                                                                                    23556940.624 7 122667224.39507      1862.388 7        47.426                                                                    23556935.827 8  99677170.03508      1513.338 8        48.387
R04        53.000    23417780.127 7 125401174.42007     -4367.480 7        42.514                                                                    23417778.781 6  97534253.04306     -3397.053 6        37.497
C60        54.000                                                                                                                                    40527279.922 6 211036382.66306      -491.355 6        39.477                                                                    40527263.361 6 171484317.10106      -399.229 6        39.414
C30        55.000                                                                                                                                    25487580.509 7 132720499.93107     -3907.405 7        42.373                                                                    25487581.719 7 107846272.91907     -3175.128 7        42.652
C02        57.000                                                                                                                                    40489795.732 5 210841040.04815      -468.535 5        34.257    40489789.934 6 163035660.15706      -362.376 6        40.265    40489793.127 6 171325618.84906      -380.867 6        37.198
I03        58.000   132800949.782 6 445354206.75306       954.973 6        40.501
C13        59.000                                                                                                                                    41387988.800 4 215518174.47404     -1095.129 4        25.925    41387991.410 5 166652362.57105      -846.389 5        30.589    41387989.663 4 175126198.52304      -889.366 4        27.006
> 2025 01 01 01 15 30.0000000  0 56
G28         1.000    23056185.206 7 121161084.09207      -520.429 7        43.403                                    23056181.245 4  94411215.82204      -405.527 4        29.943    23056181.467 7  94411221.82007      -405.532 7        42.633
G31         2.000    22569836.831 7 118605301.87107      1311.109 7        44.569                                    22569833.078 6  92419702.40506      1021.640 6        41.337    22569832.856 6  92419701.41806      1021.619 6        41.840
G09         3.000    23780725.051 6 124968573.30106      3264.814 6        40.882                                    23780724.034 5  97378113.63605      2544.011 5        35.271    23780724.490 6  97378114.63906      2544.109 6        37.146
E34         4.000    27363150.534 6 143794329.72706      2363.465 6        38.985                                                                    27363150.565 7 107378888.73407      1764.941 7        42.210    27363150.507 7 110180076.65007      1810.941 7        43.033
S21         5.000    38363408.389 7 201600895.98207      -423.130 7        42.154
E05         6.000    26319969.549 6 138312383.73906      2675.560 6        37.138                                                                    26319971.534 6 103285241.95406      1997.920 6        41.299    26319970.217 6 105979632.70006      2049.959 6        41.051
G21         7.000    22653342.168 7 119044174.99507     -3118.448 7        43.206                                    22653337.580 5  92761698.05805     -2429.963 5        30.483
E04         8.000    23910219.843 7 125649078.16507     -1454.514 7        46.553                                                                    23910217.788 8  93828862.46308     -1086.130 8        50.257    23910217.673 8  96276563.80708     -1114.464 8        51.292
R14         9.000    23471471.925 7 125116159.42307      1259.108 7        44.447                                                                    23471472.254 6  97312558.18306       979.345 6        39.108
G04        10.000    21603478.297 7 113527081.01907      2434.612 7        46.069                                    21603475.166 5  88462668.18505      1897.096 5        35.124    21603475.223 7  88462663.18007      1897.128 7        44.250
E09        11.000    24088979.581 7 126588486.47607      1313.188 7        47.998                                                                    24088979.076 8  94530379.25308       980.628 8        49.928    24088978.711 8  96996388.51608      1006.213 8        50.922
S27        12.000    39003452.751 5 204964511.45905      -406.963 5        35.795
G06        13.000    25235010.261 5 132610888.20905      3126.560 5        34.233                                    25235010.169 4 103333160.37104      2436.299 4        28.616    25235011.357 6 103333171.47706      2435.795 6        36.091
S36        14.000    38130895.369 7 200379733.09507      -422.802 7        43.500
E27        15.000    28917982.920 5 151965022.84705        63.210 5        34.776                                                                    28917984.074 6 113480381.14806        47.378 6        39.697    28917983.410 6 116440736.60206        48.605 6        40.057
E36        16.000    23671906.024 7 124396733.88807       716.282 7        47.510                                                                    23671906.103 8  92893682.23308       534.864 8        50.898    23671905.833 8  95316990.39608       548.796 8        51.583
S45        17.000    63329256.963 6 332798660.35206      -463.951 6        37.164
G03        18.000    19881826.047 8 104479759.46008       -41.138 8        50.065                                    19881823.997 8  81412819.19108       -32.056 8        51.672    19881824.639 7  81412828.18907       -32.092 7        45.649
R21        19.000    19572329.639 8 104735527.58008      1140.652 8        52.625                                                                    19572327.867 7  81460976.07107       887.153 7        46.917
R20        20.000    20007899.454 6 106991265.11806     -3126.896 6        40.198                                                                    20007899.801 7  83215426.85807     -2431.965 7        46.350
R05        21.000    19703179.217 8 105324830.06508     -2554.452 8        51.556                                                                    19703178.731 7  81919317.96807     -1986.814 7        47.271
I06        22.000    38097173.721 7 149501722.67007      -219.991 7        42.169
S28        23.000    40803140.007 5 214421952.69105      -415.652 5        34.214
E10        24.000    25900468.570 7 136107998.72407     -2921.276 7        42.790                                                                    25900467.952 7 101639155.90207     -2181.428 7        46.799    25900467.874 7 104290602.77607     -2238.380 7        47.787
S23        25.000    38080515.476 7 200114448.32207      -419.252 7        44.512
E06        26.000    23355563.571 8 122734374.91008        36.210 8        48.047                                                                    23355563.218 8  91652292.30708        27.055 8        50.674    23355563.049 8  94043220.19008        27.755 8        51.428
E30        27.000    28892438.149 5 151830798.67705     -1913.516 5        34.738                                                                    28892439.868 6 113380144.59106     -1429.080 6        37.444    28892439.082 6 116337885.06106     -1466.242 6        37.996
E12        28.000    28296684.522 5 148700219.09305     -3280.434 5        31.540                                                                    28296682.390 5 111042442.68805     -2449.814 5        35.890    28296682.551 6 113939190.04006     -2513.743 6        36.972
E19        30.000    27834078.227 5 146269060.86605     -3338.363 5        32.347                                                                    27834077.512 5 109226889.64405     -2493.178 5        34.971    27834076.681 5 112076284.69405     -2558.163 5        35.252
G32        31.000    25159538.000 6 132214272.18806     -3833.242 6        39.664                                    25159536.442 5 103024102.96605     -2986.935 5        31.343    25159537.077 5 103024107.95605     -2986.943 5        35.633
G02        32.000    21268799.247 8 111768335.90608     -2210.410 8        48.608                                    21268792.812 6  87092206.14606     -1722.396 6        39.895
G19        33.000    22737859.454 7 119488289.51307      1502.329 7        42.582                                    22737853.441 5  93107779.06905      1170.643 5        30.219
G17        34.000    22153800.065 7 116419059.78807      -569.264 7        45.068                                    22153795.757 7  90716161.14507      -443.585 7        43.609    22153795.686 6  90716161.16506      -443.801 6        41.893
E11        35.000    23837000.343 7 125264349.53007     -1920.341 7        44.494                                                                    23836996.053 7  93541578.21507     -1433.996 7        46.586    23836995.648 7  95981785.78507     -1471.446 7        47.309
C32        36.000                                                                                                                                    24448444.211 7 127309487.78707     -3113.079 7        45.514                                                                    24448444.393 7 103449397.20307     -2529.707 7        46.264
C35        37.000                                                                                                                                    23543333.668 7 122596334.98607      1452.222 7        46.653                                                                    23543332.444 7  99619563.87407      1180.011 7        46.550
I09        38.000    37075587.770 7 145492567.95507      -411.555 7        42.620
C29        39.000                                                                                                                                    22170076.402 8 115445407.07308     -2045.404 8        50.029                                                                    22170073.852 8  93808844.12908     -1662.026 8        48.608
R22        40.000    23527543.415 7 125591641.28307      3778.678 7        44.003                                                                    23527542.755 6  97682397.83006      2939.008 6        40.026
S44        42.000    40527752.427 6 212974955.35506      -495.810 6        36.170
C09        43.000                                                                                                                                    38937221.063 6 202756343.55906       560.144 6        41.626    38937217.193 7 156784056.54007       433.085 7        45.168    38937214.987 6 164756117.92306       455.237 6        41.271
C05        44.000                                                                                                                                    39046069.598 6 203323162.46006      -422.976 6        38.324    39046064.077 7 157222390.63107      -327.044 7        43.357    39046065.557 6 165216827.52706      -343.723 6        39.949
R06        45.000    20398222.386 6 108848872.51606      2024.854 6        40.105
R13        46.000    24046934.529 6 128409300.95806     -2121.369 6        37.350
C39        47.000                                                                                                                                    38811139.549 7 202099797.31807      -482.909 7        42.353                                                                    38811135.629 7 164222628.82907      -392.472 7        43.401
C20        48.000                                                                                                                                    21700910.569 8 113002384.03108      -617.411 8        51.479                                                                    21700904.735 8  91823685.51308      -501.684 8        49.254
C06        49.000                                                                                                                                    38320566.913 6 199545270.04406        91.413 6        40.470    38320561.578 7 154301043.61807        70.634 7        44.900    38320561.149 6 162146856.25906        74.220 6        41.723
C16        50.000                                                                                                                                    38733039.534 7 201693112.28007       -31.992 7        43.354    38733038.681 7 155961917.04907       -24.747 7        43.043    38733035.927 6 163892173.35906       -26.043 6        39.904
S48        51.000    77116001.477 6 405248629.46006      -423.734 6        37.671
C19        52.000                                                                                                                                    23555152.956 7 122657915.47107      1860.989 7        47.600                                                                    23555148.182 8  99669605.76308      1512.185 8        48.345
R04        53.000    23421858.120 6 125423011.71806     -4367.573 6        41.895                                                                    23421857.471 6  97551237.61506     -3397.004 6        36.975
C60        54.000                                                                                                                                    40527751.473 6 211038838.85706      -491.231 6        39.309                                                                    40527735.059 6 171486312.95806      -399.328 6        39.471
C30        55.000                                                                                                                                    25491332.643 7 132740038.24507     -3907.981 7        42.099                                                                    25491333.807 7 107862149.38107     -3175.452 7        42.586
C02        57.000                                                                                                                                    40490245.609 5 210843383.24505      -468.988 5        34.300    40490239.833 6 163037472.03506      -362.475 6        40.234    40490243.263 6 171327522.86406      -381.099 6        37.032
I03        58.000   132799732.396 6 445349431.65006       954.895 6        40.327
C13        59.000                                                                                                                                    41389041.006 4 215523648.16904     -1095.738 4        26.216    41389043.020 4 166656595.12404      -846.719 4        27.377    41389039.950 4 175130646.30404      -889.747 4        27.329
> 2025 01 01 01 15 35.0000000  0 56
G28         1.000    23056681.460 7 121163693.82507      -523.658 7        43.117                                    23056677.900 4  94413249.38104      -408.036 4        29.744    23056678.140 7  94413255.38407      -407.909 7        42.844
G31         2.000    22568590.985 7 118598752.81907      1308.337 7        44.552                                    22568586.873 6  92414599.25206      1019.485 6        41.156    22568586.828 7  92414598.25607      1019.489 7        42.144
G09         3.000    23777618.907 6 124952249.84506      3264.248 6        40.491                                    23777617.767 5  97365394.06505      2543.572 5        35.205    23777618.609 6  97365395.07406      2543.660 6        37.561
E34         4.000    27360901.473 6 143782511.69906      2363.680 6        38.724                                                                    27360901.809 7 107370063.58107      1764.956 7        42.011    27360901.699 7 110171021.28607      1810.994 7        42.982
S21         5.000    38363810.075 7 201603009.80307      -422.733 7        42.045
E05         6.000    26317423.853 6 138299006.21006      2675.435 6        36.922                                                                    26317425.730 6 103275252.25506      1997.929 6        40.994    26317424.669 6 105969382.39006      2050.005 6        41.240
G21         7.000    22656310.101 7 119059769.62007     -3119.557 7        43.170                                    22656305.061 5  92773849.71405     -2430.823 5        30.355
E04         8.000    23911604.537 7 125656354.23107     -1456.195 7        46.359                                                                    23911602.385 8  93834295.89508     -1087.423 8        50.183    23911602.248 8  96282138.97908     -1115.737 8        51.237
R14         9.000    23470291.714 7 125109871.83507      1255.829 7        44.394                                                                    23470291.676 6  97307667.81506       976.631 6        39.015
G04        10.000    21601162.545 7 113514911.61307      2432.951 7        46.194                                    21601159.407 5  88453185.53205      1895.808 5        35.019    21601159.588 7  88453180.53207      1895.705 7        44.128
E09        11.000    24087730.975 8 126581924.18508      1311.543 8        48.000                                                                    24087730.233 8  94525478.83708       979.387 8        49.824    24087729.926 8  96991360.26508      1004.962 8        50.914
S27        12.000    39003838.889 5 204966546.27705      -406.867 5        35.571
G06        13.000    25232035.827 6 132595257.05506      3126.265 6        36.287                                    25232035.686 4 103320980.29504      2436.040 4        27.725    25232035.986 6 103320991.30606      2436.023 6        36.612
S36        14.000    38131299.666 7 200381846.76907      -422.814 7        43.553
E27        15.000    28917924.310 5 151964710.90505        61.313 5        34.352                                                                    28917924.929 6 113480148.14806        45.839 6        39.571    28917924.206 6 116440497.54606        46.922 6        39.769
E36        16.000    23671224.969 7 124393155.44707       714.961 7        47.370                                                                    23671225.156 8  92891010.01908       533.912 8        50.840    23671224.878 8  95314248.47608       547.793 8        51.599
S45        17.000    63329655.465 6 332800979.52806      -463.949 6        37.059
G03        18.000    19881866.141 8 104479969.43108       -43.074 8        50.180                                    19881863.960 8  81412982.80408       -33.562 8        51.557    19881864.820 7  81412991.80207       -33.600 7        45.931
R21        19.000    19571265.238 8 104729833.20108      1136.922 8        52.276                                                                    19571263.577 7  81456547.10707       884.310 7        46.691
R20        20.000    20010822.674 6 107006906.30106     -3129.737 6        39.562                                                                    20010824.977 7  83227592.23507     -2434.419 7        46.629
R05        21.000    19705569.730 8 105337607.47508     -2556.689 8        51.371                                                                    19705568.846 7  81929255.94307     -1988.536 7        47.089
I06        22.000    38097454.003 7 149502822.10407      -219.878 7        42.307
S28        23.000    40803535.209 5 214424030.89605      -415.617 5        34.433
E10        24.000    25903248.310 7 136122606.51507     -2922.033 7        42.749                                                                    25903247.883 7 101650064.33007     -2182.087 7        46.777    25903247.543 7 104301795.76607     -2239.013 7        47.705
S23        25.000    38080915.990 7 200116544.08207      -419.166 7        44.545
E06        26.000    23355529.840 7 122734198.08307        34.254 7        47.913                                                                    23355529.516 8  91652160.26208        25.590 8        50.582    23355529.346 8  94043084.69708        26.326 8        51.405
E30        27.000    28894260.480 5 151840370.19605     -1915.210 5        34.971                                                                    28894261.405 6 113387292.12406     -1430.152 6        38.703    28894260.215 6 116345219.07006     -1467.402 6        39.255
E12        28.000    28299806.101 5 148716622.08405     -3280.868 5        31.668                                                                    28299803.850 5 111054691.67305     -2450.122 5        35.862    28299803.893 6 113951758.54606     -2513.823 6        36.794
E19        30.000    27837254.744 5 146285754.49305     -3339.176 5        32.042                                                                    27837253.862 5 109239355.63205     -2493.173 5        34.433    27837253.635 5 112089075.90405     -2558.415 5        34.462
G32        31.000    25163185.185 6 132233438.19306     -3833.451 6        39.928                                    25163183.573 5 103039037.51405     -2987.105 5        31.238    25163184.410 6 103039042.50206     -2987.005 6        36.140
G02        32.000    21270903.379 8 111779392.38908     -2212.423 8        48.463                                    21270896.786 6  87100821.58506     -1723.965 6        39.712
G19        33.000    22736431.551 7 119480784.56207      1499.492 7        42.701                                    22736425.303 5  93101931.06205      1168.434 5        30.023
G17        34.000    22154342.838 7 116421913.24307      -572.244 7        45.615                                    22154338.760 7  90718384.61207      -445.905 7        43.446    22154339.247 7  90718384.62107      -445.931 7        42.267
E11        35.000    23838828.186 7 125273954.78907     -1921.966 7        44.266                                                                    23838823.785 7  93548750.97307     -1435.137 7        46.445    23838823.499 7  95989145.65507     -1472.567 7        47.250
C32        36.000                                                                                                                                    24451433.238 7 127325053.73307     -3113.544 7        45.147                                                                    24451433.628 7 103462045.79907     -2529.970 7        46.190
C35        37.000                                                                                                                                    23541940.187 7 122589078.56007      1450.129 7        46.653                                                                    23541938.953 7  99613667.43507      1178.352 7        46.497
I09        38.000    37076112.012 7 145494624.89307      -411.420 7        42.741
C29        39.000                                                                                                                                    22172041.014 8 115455639.08908     -2047.642 8        49.900                                                                    22172038.812 8  93817158.48408     -1663.936 8        48.565
R22        40.000    23524004.620 7 125572748.49207      3778.347 7        44.337                                                                    23524004.172 6  97667703.47106      2938.717 6        41.437
S44        42.000    40528222.162 6 212977433.89906      -495.548 6        36.049
C09        43.000                                                                                                                                    38936683.626 6 202753543.79606       559.395 6        41.540    38936679.393 7 156781891.59507       432.625 7        45.427    38936677.397 6 164753842.89806       454.682 6        41.397
C05        44.000                                                                                                                                    39046474.955 6 203325276.30506      -422.720 6        38.351    39046470.186 7 157224025.20007      -326.926 7        43.410    39046471.495 6 165218545.19806      -343.490 6        40.274
R06        45.000    20396325.760 6 108838753.96406      2022.376 6        39.501
R13        46.000    24048923.072 6 128419915.60306     -2124.941 6        37.989
C39        47.000                                                                                                                                    38811603.681 7 202102213.49307      -483.733 7        42.190                                                                    38811599.592 7 164224592.16907      -393.079 7        43.378
C20        48.000                                                                                                                                    21701504.094 8 113005474.73608      -619.111 8        51.447                                                                    21701498.293 8  91826196.96508      -503.102 8        49.192
C06        49.000                                                                                                                                    38320479.626 6 199544815.17306        90.558 6        40.510    38320474.280 7 154300691.88507        69.999 7        45.120    38320473.824 6 162146486.63306        73.433 6        41.764
C16        50.000                                                                                                                                    38733070.050 7 201693273.33807       -32.749 7        43.191    38733069.491 7 155962041.59207       -25.288 7        43.014    38733066.915 6 163892304.23706       -26.677 6        39.823
S48        51.000    77116402.461 6 405250747.17706      -423.177 6        37.403
C19        52.000                                                                                                                                    23553366.561 7 122648612.98307      1859.802 7        47.793                                                                    23553361.766 8  99662046.73108      1511.260 8        48.316
R04        53.000    23425936.345 6 125444848.63806     -4367.322 6        41.802                                                                    23425934.631 6  97568221.86506     -3396.862 6        36.541
C60        54.000                                                                                                                                    40528223.032 6 211041294.86706      -491.199 6        39.306                                                                    40528206.735 6 171488308.66206      -399.262 6        39.390
C30        55.000                                                                                                                                    25495085.029 6 132759578.16406     -3908.198 6        41.557                                                                    25495086.295 7 107878027.15607     -3175.831 7        42.662
C02        57.000                                                                                                                                    40490696.133 5 210845726.22705      -468.483 5        34.100    40490690.059 6 163039283.80506      -362.551 6        40.265    40490693.282 6 171329426.72306      -380.744 6        36.953
I03        58.000   132798515.968 6 445344656.54506       955.068 6        40.515
C13        59.000                                                                                                                                    41390089.251 4 215529121.68604     -1094.858 4        26.479    41390092.857 5 166660827.64005      -846.276 5        30.121    41390092.669 4 175135094.01104      -889.586 4        26.862
> 2025 01 01 01 15 40.0000000  0 56
G28         1.000    23057181.359 7 121166320.27507      -526.779 7        42.305                                    23057177.773 4  94415295.96704      -410.478 4        29.498    23057177.959 7  94415301.98207      -410.513 7        43.014
G31         2.000    22567347.199 7 118592218.65007      1305.473 7        44.203                                    22567343.431 6  92409507.69106      1017.251 6        41.018    22567343.201 7  92409506.70307      1017.182 7        42.064
G09         3.000    23774513.074 6 124935930.38206      3263.501 6        39.351                                    23774512.400 5  97352677.61305      2542.986 5        35.000    23774512.895 6  97352678.62706      2543.015 6        37.936
E34         4.000    27358653.049 6 143770694.70006      2363.322 6        38.859                                                                    27358653.291 6 107361239.17006      1764.958 6        41.862    27358653.112 7 110161966.67107      1810.987 7        42.819
S21         5.000    38364210.513 7 201605123.61607      -422.605 7        42.263
E05         6.000    26314878.392 6 138285630.59506      2675.105 6        36.730                                                                    26314880.366 6 103265263.98106      1997.578 6        40.932    26314879.612 6 105959133.55806      2049.632 6        41.304
G21         7.000    22659278.662 7 119075370.78607     -3120.679 7        43.310                                    22659273.923 5  92786006.46305     -2431.700 5        30.370
E04         8.000    23912990.829 7 125663640.13007     -1457.982 7        46.386                                                                    23912988.898 8  93839736.66408     -1088.766 8        50.192    23912988.722 8  96287721.68208     -1117.134 8        51.090
R14         9.000    23469115.581 7 125103602.03707      1252.240 7        44.767                                                                    23469116.809 6  97302791.28706       973.976 6        39.201
G04        10.000    21598848.603 7 113502752.18807      2430.827 7        46.035                                    21598845.512 5  88443710.66005      1894.151 5        34.843    21598845.721 7  88443705.65707      1894.224 7        44.734
E09        11.000    24086483.905 7 126575371.31207      1309.739 7        47.861                                                                    24086483.291 8  94520585.46508       978.027 8        49.802    24086482.975 8  96986339.23508      1003.595 8        50.822
S27        12.000    39004227.733 6 204968581.37906      -407.081 6        36.151
G06        13.000    25229062.427 5 132579626.26805      3126.250 5        35.862                                    25229061.207 4 103308800.49904      2436.028 4        27.617    25229060.880 5 103308811.50605      2435.995 5        35.252
S36        14.000    38131701.545 7 200383960.46207      -422.525 7        43.695
E27        15.000    28917866.603 5 151964410.81505        58.923 5        34.076                                                                    28917867.770 6 113479924.10606        44.017 6        39.312    28917866.904 6 116440267.63306        45.166 6        39.772
E36        16.000    23670545.269 7 124389584.81307       713.479 7        47.469                                                                    23670545.690 8  92888343.63808       532.763 8        50.794    23670545.417 8  95311512.53408       546.714 8        51.490
S45        17.000    63330048.847 6 332801698.69216      -463.625 6        37.508
G03        18.000    19881908.063 8 104480189.80208       -44.935 8        50.043                                    19881905.895 8  81413154.52308       -35.017 8        51.474    19881906.677 7  81413163.52207       -34.985 7        45.959
R21        19.000    19570204.464 8 104724158.55508      1133.083 8        52.271                                                                    19570202.895 7  81452133.50407       881.276 7        46.427
R20        20.000    20013750.727 6 107022564.55006     -3133.343 6        39.946                                                                    20013752.752 7  83239770.85307     -2436.978 7        46.568
R05        21.000    19707962.557 8 105350397.25508     -2559.093 8        51.416                                                                    19707961.350 7  81939203.55407     -1990.468 7        47.046
I06        22.000    38097734.068 7 149503921.73807      -219.938 7        42.227
S28        23.000    40803929.119 5 214426108.85705      -415.661 5        34.086
E10        24.000    25906029.056 7 136137219.80907     -2923.108 7        42.119                                                                    25906028.680 7 101660976.85307     -2182.819 7        46.876    25906028.316 7 104312992.96107     -2239.732 7        47.497
S23        25.000    38081311.742 7 200118640.03407      -419.115 7        44.671
E06        26.000    23355498.306 7 122734032.16207        32.147 7        47.822                                                                    23355497.957 8  91652036.36908        24.008 8        50.600    23355497.813 8  94042957.57508        24.669 8        51.225
E30        27.000    28896082.730 5 151849950.93805     -1916.889 5        34.929                                                                    28896084.465 6 113394446.57006     -1431.517 6        38.423    28896083.879 6 116352560.14006     -1468.922 6        38.709
E12        28.000    28302928.033 5 148733027.63505     -3281.048 5        31.411                                                                    28302925.783 6 111066942.56306     -2450.327 6        36.049    28302925.733 6 113964329.02706     -2514.218 6        36.794
E19        30.000    27840431.457 5 146302449.78805     -3338.857 5        32.198                                                                    27840431.228 5 109251822.86905     -2493.327 5        34.424    27840430.678 5 112101868.38105     -2558.428 5        34.595
G32        31.000    25166832.563 6 132252606.38906     -3833.692 6        40.141                                    25166831.179 5 103053973.76605     -2987.288 5        31.441    25166831.125 5 103053978.76205     -2987.315 5        35.700
G02        32.000    21273009.513 8 111790460.08108     -2214.580 8        48.747                                    21273002.893 6  87109445.75906     -1725.647 6        39.631
G19        33.000    22735005.928 7 119473295.14807      1496.443 7        42.677                                    22735000.121 5  93096095.15705      1166.061 5        30.030
G17        34.000    22154889.282 7 116424782.10007      -575.007 7        45.603                                    22154884.700 7  90720620.08707      -448.054 7        43.346    22154885.089 7  90720620.10207      -448.130 7        42.254
E11        35.000    23840657.512 7 125283568.39507     -1923.557 7        44.495                                                                    23840653.178 7  93555929.96007     -1436.365 7        46.359    23840652.953 7  95996511.92607     -1473.874 7        47.111
C32        36.000                                                                                                                                    24454423.175 7 127340622.63207     -3113.942 7        45.266                                                                    24454423.447 7 103474696.81907     -2530.361 7        46.149
C35        37.000                                                                                                                                    23540548.825 7 122581833.42107      1448.052 7        46.799                                                                    23540547.578 7  99607780.17807      1176.666 7        46.540
I09        38.000    37076636.738 7 145496682.80007      -411.549 7        42.732
C29        39.000                                                                                                                                    22174008.620 8 115465883.69008     -2050.101 8        50.118                                                                    22174006.195 8  93825483.06308     -1665.817 8        48.552
R22        40.000    23520466.050 7 125553859.10607      3777.658 7        45.342                                                                    23520464.670 6  97653011.77706      2938.217 6        41.826
S44        42.000    40528694.083 6 212979912.66006      -495.750 6        36.325
C09        43.000                                                                                                                                    38936146.154 6 202750748.33706       558.680 6        41.156    38936142.892 7 156779729.96907       432.063 7        45.366    38936140.618 6 164751571.36406       454.027 6        41.442
C05        44.000                                                                                                                                    39046881.430 6 203327390.45806      -422.721 6        38.474    39046875.985 7 157225659.99807      -326.800 7        43.547    39046877.572 6 165220263.14206      -343.674 6        39.967
R06        45.000    20394431.548 6 108828648.43406      2019.888 6        40.229
R13        46.000    24050914.670 6 128430548.40106     -2128.176 6        37.664
C39        47.000                                                                                                                                    38812068.739 7 202104634.44007      -484.494 7        42.095                                                                    38812064.576 7 164226559.39807      -393.724 7        43.280
C20        48.000                                                                                                                                    21702099.418 8 113008575.06508      -620.896 8        51.482                                                                    21702093.628 8  91828716.24408      -504.531 8        49.222
C06        49.000                                                                                                                                    38320392.486 6 199544365.16006        89.722 6        40.439    38320387.743 7 154300343.90807        69.356 7        45.219    38320387.413 6 162146120.97906        72.782 6        41.661
C16        50.000                                                                                                                                    38733101.659 7 201693439.23207       -33.374 7        42.900    38733101.024 7 155962169.86407       -25.890 7        43.046    38733098.782 6 163892439.03706       -27.215 6        39.805
S48        51.000    77116798.468 6 405252864.97406      -423.393 6        37.338
C19        52.000                                                                                                                                    23551581.356 7 122639317.35907      1858.547 7        47.768                                                                    23551576.570 8  99654493.28908      1510.218 8        48.272
R04        53.000    23430015.020 7 125466685.60407     -4367.265 7        42.313                                                                    23430012.441 6  97585206.18306     -3396.760 6        37.009
C60        54.000                                                                                                                                    40528694.972 6 211043751.09106      -491.139 6        39.477                                                                    40528678.522 6 171490304.53906      -398.915 6        39.207
C30        55.000                                                                                                                                    25498837.810 6 132779120.11506     -3908.569 6        41.209                                                                    25498839.039 7 107893906.58107     -3175.871 7        42.614
C02        57.000                                                                                                                                    40491145.697 5 210848069.51705      -468.483 5        34.214    40491139.685 6 163041095.77506      -362.341 6        40.253    40491143.235 6 171331330.86206      -380.781 6        37.006
I03        58.000   132797298.711 6 445339881.77806       955.234 6        40.496
C13        59.000                                                                                                                                    41391142.805 4 215534595.58204     -1094.510 4        25.955    41391145.847 4 166665060.39304      -846.460 4        29.564    41391141.670 4 175139542.03504      -889.704 4        26.575
> 2025 01 01 01 15 45.0000000  0 56
G28         1.000    23057684.289 7 121168963.42707      -530.170 7        42.188                                    23057680.755 4  94417355.56504      -413.113 4        29.678    23057680.857 7  94417361.56807      -413.148 7        43.200
G31         2.000    22566106.589 7 118585699.35307      1302.469 7        44.259                                    22566102.779 6  92404427.72306      1014.911 6        41.144    22566102.225 6  92404426.73006      1014.910 6        41.464
G09         3.000    23771408.362 6 124919614.91006      3262.719 6        38.703                                    23771407.869 5  97339964.27005      2542.370 5        34.824    23771408.128 6  97339965.28306      2542.453 6        38.126
E34         4.000    27356404.376 6 143758878.67406      2363.127 6        39.117                                                                    27356404.775 6 107352415.52706      1764.580 6        41.940    27356404.602 7 110152912.83807      1810.807 7        42.963
S21         5.000    38364609.936 7 201607237.49707      -422.770 7        42.660
E05         6.000    26312333.077 6 138272256.85406      2674.746 6        36.801                                                                    26312335.367 6 103255277.10206      1997.358 6        40.708    26312334.781 6 105948886.15806      2049.371 6        41.719
G21         7.000    22662248.437 7 119090978.52407     -3122.150 7        43.132                                    22662244.149 5  92798168.33305     -2432.843 5        30.355
E04         8.000    23914378.992 7 125670935.82807     -1460.069 7        46.551                                                                    23914377.146 8  93845184.74108     -1090.261 8        50.111    23914377.048 8  96293311.88308     -1118.702 8        51.095
R14         9.000    23467943.415 7 125097350.02707      1248.734 7        44.829                                                                    23467943.585 6  97297928.61306       971.201 6        39.171
G04        10.000    21596536.390 7 113490602.69207      2428.992 7        46.135                                    21596533.522 5  88434243.52105      1892.721 5        34.971    21596534.055 7  88434238.51607      1892.722 7        44.813
E09        11.000    24085238.636 7 126568827.83807      1307.830 7        47.888                                                                    24085238.117 8  94515699.10808       976.589 8        49.766    24085237.788 8  96981325.40408      1002.127 8        50.810
S27        12.000    39004618.360 6 204970616.54806      -406.908 6        36.159
G06        13.000    25226088.520 6 132563996.02206      3126.016 6        36.507                                    25226086.729 4 103296621.10904      2435.850 4        27.976    25226086.561 5 103296632.14605      2435.972 5        35.514
S36        14.000    38132106.705 7 200386074.00607      -422.601 7        44.086
E27        15.000    28917811.753 5 151964122.26305        56.635 5        33.707                                                                    28917812.568 6 113479708.63006        42.308 6        38.898    28917811.898 6 116440046.52506        43.511 6        39.808
E36        16.000    23669867.233 7 124386021.97507       711.853 7        47.250                                                                    23669867.706 8  92885683.06908       531.604 8        50.731    23669867.417 8  95308782.56308       545.437 8        51.402
S45        17.000    63330448.113 6 332804018.10806      -464.062 6        37.490
G03        18.000    19881951.853 8 104480420.55408       -47.095 8        49.851                                    19881949.797 8  81413334.32808       -36.697 8        51.591    19881950.257 7  81413343.32807       -36.766 7        45.911
R21        19.000    19569147.918 8 104718503.56708      1129.160 8        52.545                                                                    19569146.592 7  81447735.17207       878.220 7        46.538
R20        20.000    20016683.290 6 107038239.84206     -3136.572 6        39.868                                                                    20016684.256 7  83251962.76007     -2439.629 7        46.594
R05        21.000    19710357.046 8 105363199.27608     -2561.514 8        51.531                                                                    19710356.599 7  81949160.67807     -1992.318 7        47.127
I06        22.000    38098014.216 7 149505021.58007      -220.001 7        42.229
S28        23.000    40804327.290 5 214428187.10105      -415.406 5        34.176
E10        24.000    25908811.132 7 136151838.59507     -2924.225 7        42.262                                                                    25908810.456 7 101671893.45707     -2183.588 7        46.597    25908810.223 7 104324194.35207     -2240.646 7        47.466
S23        25.000    38081712.180 7 200120736.08707      -419.050 7        44.831
E06        26.000    23355468.648 7 122733877.12807        30.003 7        47.891                                                                    23355468.402 8  91651920.58808        22.424 8        50.530    23355468.330 8  94042838.77408        22.980 8        51.180
E30        27.000    28897908.287 5 151859540.87405     -1918.712 5        34.943                                                                    28897909.413 6 113401607.87306     -1432.825 6        37.614    28897909.095 6 116359908.27606     -1470.371 6        38.423
E12        28.000    28306050.384 5 148749435.79305     -3281.628 5        31.449                                                                    28306048.144 5 111079195.38305     -2450.640 5        35.662    28306048.032 6 113976901.49106     -2514.603 6        36.975
E19        30.000    27843608.992 5 146319146.68805     -3339.480 5        32.305                                                                    27843608.643 5 109264291.32105     -2493.765 5        34.814    27843608.138 5 112114662.08805     -2558.957 5        34.624
G32        31.000    25170480.663 6 132271776.74006     -3834.219 6        40.203                                    25170479.182 5 103068911.69505     -2987.700 5        31.472    25170479.561 5 103068916.68005     -2987.672 5        35.805
G02        32.000    21275117.929 8 111801538.94808     -2216.805 8        48.832                                    21275111.152 6  87118078.63706     -1727.381 6        39.721
G19        33.000    22733583.462 7 119465821.21007      1493.377 7        42.646                                    22733577.890 5  93090271.30805      1163.670 5        30.174
G17        34.000    22155438.034 7 116427666.38007      -578.258 7        45.667                                    22155433.570 7  90722867.57307      -450.590 7        43.484    22155433.861 7  90722867.58007      -450.603 7        42.144
E11        35.000    23842488.333 7 125293190.31407     -1925.229 7        44.513                                                                    23842484.261 7  93563115.15707     -1437.671 7        46.432    23842483.978 7  96003884.56207     -1475.159 7        47.170
C32        36.000                                                                                                                                    24457413.700 7 127356194.48907     -3114.630 7        45.254                                                                    24457413.677 7 103487350.21007     -2530.849 7        46.014
C35        37.000                                                                                                                                    23539159.833 7 122574599.56207      1445.703 7        46.975                                                                    23539158.353 7  99601902.06707      1174.834 7        46.386
I09        38.000    37077161.079 7 145498741.64207      -411.832 7        42.694
C29        39.000                                                                                                                                    22175978.567 8 115476140.84208     -2052.633 8        50.102                                                                    22175976.017 8  93833817.82808     -1667.905 8        48.484
R22        40.000    23516928.013 7 125534973.08407      3776.991 7        44.047                                                                    23516927.006 6  97638322.66906      2937.630 6        40.539
S44        42.000    40529163.599 6 212982391.64706      -495.821 6        36.435
C09        43.000                                                                                                                                    38935609.653 6 202747957.16406       557.811 6        41.156    38935606.400 7 156777571.63407       431.459 7        45.147    38935604.575 6 164749303.28706       453.423 6        41.159
C05        44.000                                                                                                                                    39047287.270 6 203329504.85606      -422.685 6        38.583    39047282.174 7 157227294.98707      -326.958 7        43.549    39047283.529 6 165221981.23906      -343.483 6        39.796
R06        45.000    20392541.646 6 108818555.82506      2017.458 6        39.892
R13        46.000    24052909.100 6 128441199.87206     -2131.976 6        36.669
C39        47.000                                                                                                                                    38812534.583 7 202107060.17707      -485.529 7        42.104                                                                    38812530.500 7 164228530.50407      -394.559 7        43.088
C20        48.000                                                                                                                                    21702696.684 8 113011684.96708      -622.811 8        51.547                                                                    21702690.842 8  91831243.28408      -506.085 8        49.101
C06        49.000                                                                                                                                    38320307.089 6 199543920.03806        88.673 6        40.622    38320302.272 7 154299999.71607        68.514 7        45.099    38320301.863 6 162145759.25106        72.191 6        41.659
C16        50.000                                                                                                                                    38733134.146 7 201693609.91807       -34.584 7        42.959    38733133.994 7 155962301.84507       -26.732 7        42.900    38733131.630 6 163892577.72306       -28.085 6        39.673
S48        51.000    77117200.408 6 405254982.97006      -423.142 6        37.871
C19        52.000                                                                                                                                    23549797.455 7 122630028.58307      1857.186 7        47.824                                                                    23549792.814 8  99646945.39108      1509.107 8        48.169
R04        53.000    23434092.649 7 125488522.63607     -4367.440 7        42.620                                                                    23434091.283 6  97602190.50306     -3396.860 6        37.845
C60        54.000                                                                                                                                    40529166.464 6 211046207.52306      -491.196 6        39.318                                                                    40529150.081 6 171492300.59306      -399.055 6        39.285
C30        55.000                                                                                                                                    25502591.101 6 132798664.05606     -3908.863 6        41.111                                                                    25502592.335 7 107909787.61507     -3176.252 7        42.421
C02        57.000                                                                                                                                    40491595.475 5 210850413.07605      -468.810 5        34.010    40491590.160 6 163042907.94706      -362.368 6        40.241    40491593.120 6 171333235.17906      -380.744 6        36.934
I03        58.000   132796082.264 6 445335107.31706       954.881 6        40.501
C13        59.000                                                                                                                                    41392193.764 4 215540069.91804     -1095.054 4        26.647    41392194.532 4 166669293.52304      -846.795 4        27.138    41392195.425 4 175143990.24404      -888.938 4        26.719
> 2025 01 01 01 15 50.0000000  0 56
G28         1.000    23058191.005 7 121171623.16207      -533.639 7        42.409                                    23058186.893 4  94419428.09404      -415.821 4        29.611    23058186.466 7  94419434.08407      -415.754 7        42.502
G31         2.000    22564868.606 7 118579194.75307      1299.508 7        44.491                                    22564864.985 6  92399359.20806      1012.605 6        41.151    22564864.792 6  92399358.20506      1012.597 6        41.614
G09         3.000    23768304.358 6 124903303.34106      3261.970 6        39.748                                    23768304.013 5  97327253.97005      2541.793 5        34.900    23768304.096 6  97327254.98006      2541.707 6        37.924
E34         4.000    27354155.989 6 143747063.51906      2363.071 6        39.072                                                                    27354156.328 6 107343592.51406      1764.646 6        41.940    27354156.189 7 110143859.66907      1810.522 7        43.012
S21         5.000    38365012.029 7 201609351.46907      -422.749 7        42.330
E05         6.000    26309788.471 6 138258884.88706      2674.235 6        37.032                                                                    26309790.498 6 103245291.55806      1996.918 6        40.467    26309790.443 6 105938640.11306      2049.176 6        41.962
G21         7.000    22665219.831 7 119106592.68707     -3123.360 7        43.041                                    22665215.444 5  92810335.20905     -2433.779 5        30.392
E04         8.000    23915769.469 7 125678241.18807     -1461.949 7        46.589                                                                    23915767.332 8  93850640.04108     -1091.707 8        50.118    23915767.178 8  96298909.49908     -1120.211 8        51.069
R14         9.000    23466773.616 7 125091115.72607      1245.066 7        44.324                                                                    23466774.540 6  97293079.68406       968.383 6        39.246
G04        10.000    21594226.443 7 113478463.04007      2427.011 7        46.023                                    21594223.379 5  88424784.05505      1891.177 5        35.019    21594223.605 7  88424779.06907      1891.087 7        44.950
E09        11.000    24083995.233 7 126562293.66907      1305.962 7        47.879                                                                    24083994.676 8  94510819.69008       975.284 8        49.726    24083994.405 8  96976318.70708      1000.668 8        50.800
S27        12.000    39005003.532 6 204972651.65506      -406.913 6        36.015
G06        13.000    25223113.536 6 132548366.15406      3126.190 6        36.745                                    25223112.295 4 103284442.00504      2436.000 4        28.483    25223112.888 5 103284453.03105      2435.833 5        33.737
S36        14.000    38132510.269 7 200388187.84807      -422.672 7        43.958
E27        15.000    28917759.282 5 151963845.12305        54.299 5        33.707                                                                    28917759.631 6 113479501.59306        40.560 6        38.754    28917759.331 6 116439834.11206        41.665 6        40.088
E36        16.000    23669190.920 7 124382466.79707       710.292 7        47.493                                                                    23669191.167 8  92883028.23708       530.435 8        50.697    23669190.910 8  95306058.47608       544.223 8        51.435
S45        17.000    63330845.721 6 332806337.47806      -463.895 6        37.580
G03        18.000    19881997.766 8 104480661.56108       -49.147 8        49.958                                    19881995.671 8  81413522.12908       -38.295 8        51.626    19881996.121 7  81413531.12707       -38.258 7        45.889
R21        19.000    19568095.038 8 104712868.11808      1125.188 8        52.294                                                                    19568093.453 7  81443352.04407       875.213 7        46.553
R20        20.000    20019617.944 6 107053932.09506     -3140.195 6        39.814                                                                    20019618.307 7  83264167.83107     -2442.345 7        46.501
R05        21.000    19712754.660 8 105376013.42508     -2564.036 8        51.734                                                                    19712753.516 7  81959127.23907     -1994.249 7        47.274
I06        22.000    38098294.610 7 149506121.53607      -219.880 7        42.263
S28        23.000    40804724.424 5 214430265.54005      -415.437 5        34.171
E10        24.000    25911593.799 7 136166462.69407     -2925.308 7        42.453                                                                    25911593.190 7 101682814.06207     -2184.450 7        46.512    25911592.940 7 104335399.83907     -2241.459 7        47.382
S23        25.000    38082111.107 7 200122832.04007      -419.041 7        44.667
E06        26.000    23355441.431 7 122733732.86307        27.850 7        47.890                                                                    23355440.978 8  91651812.86108        20.777 8        50.547    23355440.822 8  94042728.24008        21.316 8        51.227
E30        27.000    28899734.956 6 151869139.90806     -1920.612 6        36.038                                                                    28899736.540 6 113408775.96106     -1434.257 6        38.096    28899735.815 6 116367263.35706     -1471.549 6        38.958
E12        28.000    28309173.385 5 148765846.37305     -3282.370 5        31.789                                                                    28309170.977 5 111091450.01205     -2451.000 5        35.857    28309170.896 6 113989475.82606     -2514.950 6        37.002
E19        30.000    27846786.718 5 146335845.12105     -3339.405 5        32.539                                                                    27846786.026 5 109276760.91605     -2493.951 5        34.800    27846785.615 5 112127456.98005     -2559.182 5        34.276
G32        31.000    25174128.799 6 132290949.11906     -3834.604 6        40.431                                    25174127.606 5 103083851.20505     -2987.998 5        31.743    25174128.072 5 103083856.20605     -2988.165 5        35.914
G02        32.000    21277227.973 8 111812628.79908     -2218.970 8        48.902                                    21277221.485 6  87126720.08006     -1729.066 6        39.754
G19        33.000    22732164.465 7 119458362.64407      1490.302 7        42.982                                    22732158.557 5  93084459.44305      1161.278 5        30.226
G17        34.000    22155989.727 7 116430565.97007      -581.360 7        45.958                                    22155985.337 7  90725126.99307      -453.007 7        43.566    22155985.404 6  90725126.99406      -452.924 6        41.847
E11        35.000    23844320.903 7 125302820.44907     -1926.835 7        44.542                                                                    23844316.829 7  93570306.49607     -1438.872 7        46.460    23844316.540 7  96011263.49907     -1476.389 7        47.179
C32        36.000                                                                                                                                    24460404.566 7 127371769.16607     -3115.167 7        44.965                                                                    24460404.551 7 103500005.92607     -2531.384 7        46.018
C35        37.000                                                                                                                                    23537772.736 7 122567376.86407      1443.462 7        47.047                                                                    23537771.310 7  99596033.05407      1172.945 7        46.504
I09        38.000    37077685.909 7 145500801.33207      -411.882 7        42.722
C29        39.000                                                                                                                                    22177950.692 8 115486410.43408     -2055.097 8        50.047                                                                    22177948.186 8  93842162.72508     -1669.986 8        48.576
R22        40.000    23513390.007 7 125516090.35607      3776.318 7        44.810                                                                    23513389.657 6  97623636.11806      2937.085 6        40.386
S44        42.000    40529636.684 6 212984870.69306      -495.837 6        36.291
C09        43.000                                                                                                                                    38935074.132 6 202745170.13906       557.162 6        41.194    38935071.180 7 156775416.55907       430.780 7        45.004    38935069.296 6 164747038.64406       452.486 6        41.445
C05        44.000                                                                                                                                    39047692.819 6 203331619.40606      -422.845 6        38.390    39047688.130 7 157228930.09807      -327.132 7        43.335    39047689.632 6 165223699.50506      -343.689 6        40.055
R06        45.000    20390652.215 6 108808476.12706      2014.811 6        39.417
R13        46.000    24054906.836 6 128451869.70206     -2135.479 6        36.284
C39        47.000                                                                                                                                    38813001.198 7 202109490.55407      -486.466 7        42.282                                                                    38812997.103 7 164230505.40707      -395.410 7        43.393
C20        48.000                                                                                                                                    21703295.747 8 113014804.37508      -624.760 8        51.568                                                                    21703289.917 8  91833778.07608      -507.698 8        49.217
C06        49.000                                                                                                                                    38320223.274 6 199543479.66306        87.757 6        40.713    38320217.854 7 154299659.19007        67.783 7        45.014    38320217.348 6 162145401.42006        71.258 6        41.504
C16        50.000                                                                                                                                    38733167.734 7 201693785.24807       -35.446 7        42.855    38733167.359 7 155962437.43707       -27.507 7        42.859    38733165.279 6 163892720.20106       -28.798 6        39.778
S48        51.000    77117600.686 6 405257100.83106      -423.238 6        37.690
C19        52.000                                                                                                                                    23548014.711 7 122620746.53707      1855.794 7        47.859                                                                    23548010.280 8  99639402.98808      1507.896 8        48.276
R04        53.000    23438170.698 7 125510359.68207     -4367.393 7        43.027                                                                    23438168.815 6  97619174.86906     -3396.916 6        38.150
C60        54.000                                                                                                                                    40529638.046 6 211048664.03906      -491.197 6        39.429                                                                    40529621.963 6 171494296.73706      -399.189 6        39.330
C30        55.000                                                                                                                                    25506344.758 6 132818209.86006     -3909.142 6        41.063                                                                    25506345.971 7 107925670.19407     -3176.649 7        42.485
C02        57.000                                                                                                                                    40492045.334 5 210852756.77705      -468.625 5        34.252    40492039.871 6 163044720.26806      -362.389 6        40.124    40492043.314 6 171335139.63006      -380.785 6        36.707
I03        58.000   132794865.711 6 445330333.09206       954.919 6        40.524
C13        59.000                                                                                                                                    41393245.613 4 215545544.39304     -1094.436 4        27.928    41393248.072 4 166673526.69804      -846.853 4        28.720
> 2025 01 01 01 15 55.0000000  0 56
G28         1.000    23058700.300 7 121174299.44607      -536.903 7        42.635                                    23058696.126 4  94421513.51004      -418.373 4        29.479    23058695.874 7  94421519.51707      -418.376 7        42.121
G31         2.000    22563633.931 7 118572704.90107      1296.459 7        44.599                                    22563630.062 6  92394302.18106      1010.229 6        41.104    22563630.097 7  92394301.18607      1010.288 7        42.104
G09         3.000    23765201.724 6 124886995.66706      3261.073 6        40.217                                    23765200.760 5  97314546.70205      2541.098 5        35.014    23765201.108 6  97314547.69906      2541.140 6        37.645
E34         4.000    27351907.501 6 143735249.25706      2362.684 6        38.697                                                                    27351908.158 6 107334770.16906      1764.318 6        41.940    27351907.867 7 110134807.16707      1810.320 7        42.952
S21         5.000    38365417.699 7 201611465.61507      -422.916 7        42.391
E05         6.000    26307244.393 6 138245514.69806      2673.753 6        37.603                                                                    26307246.006 6 103235307.30906      1996.771 6        40.107    26307246.042 7 105928395.42407      2048.655 7        42.051
G21         7.000    22668192.365 7 119122213.24407     -3124.814 7        42.967                                    22668187.888 5  92822507.06905     -2434.919 5        30.000
E04         8.000    23917161.423 7 125685556.18807     -1463.977 7        46.343                                                                    23917159.321 8  93856102.54608     -1093.272 8        50.013    23917159.188 8  96304514.50008     -1121.751 8        51.037
R14         9.000    23465607.819 7 125084899.37307      1241.501 7        44.385                                                                    23465607.927 6  97288244.71606       965.717 6        39.462
G04        10.000    21591917.927 7 113466333.21607      2424.946 7        46.078                                    21591915.060 5  88415332.24905      1889.566 5        34.971    21591915.094 7  88415327.24907      1889.547 7        44.569
E09        11.000    24082753.689 7 126555768.76707      1304.003 7        47.872                                                                    24082752.996 8  94505947.20508       973.769 8        49.633    24082752.710 8  96971319.10708       999.194 8        50.716
S27        12.000    39005389.706 5 204974686.81205      -407.075 5        35.967
G06        13.000    25220138.695 6 132532736.75906      3125.801 6        38.276                                    25220138.125 4 103272263.28304      2435.684 4        28.616    25220139.278 5 103272274.27905      2435.518 5        34.919
S36        14.000    38132909.969 7 200390301.28407      -422.733 7        43.936
E27        15.000    28917708.248 5 151963579.86605        51.997 5        33.192                                                                    28917709.235 6 113479303.64206        38.781 6        38.526    28917708.756 6 116439630.99206        39.694 6        39.943
E36        16.000    23668515.966 7 124378919.28607       708.725 7        47.298                                                                    23668516.082 8  92880379.12108       529.264 8        50.641    23668515.843 8  95303340.25108       543.088 8        51.375
S45        17.000    63331241.804 6 332808657.03506      -463.856 6        37.255
G03        18.000    19882045.766 8 104480912.79308       -51.307 8        49.759                                    19882043.469 8  81413717.89808       -39.981 8        51.563    19882043.888 7  81413726.89507       -39.986 7        45.598
R21        19.000    19567045.261 8 104707252.25308      1121.239 8        52.376                                                                    19567043.676 7  81438984.14707       872.087 7        46.337
R20        20.000    20022554.112 6 107069641.30706     -3143.561 6        39.321                                                                    20022556.360 7  83276386.10007     -2444.946 7        46.324
R05        21.000    19715153.567 8 105388839.80408     -2566.503 8        51.501                                                                    19715152.946 7  81969103.30307     -1996.174 7        47.350
I06        22.000    38098575.055 7 149507221.60507      -220.047 7        42.294
S28        23.000    40805116.259 5 214432343.80305      -415.879 5        34.519
E10        24.000    25914377.668 6 136181092.13806     -2926.561 6        41.957                                                                    25914377.090 7 101693738.64707     -2185.370 7        46.285    25914376.756 7 104346609.40607     -2242.332 7        47.223
S23        25.000    38082509.117 7 200124927.88707      -419.182 7        44.641
E06        26.000    23355416.029 7 122733599.34407        25.627 7        47.952                                                                    23355415.535 8  91651713.15408        19.137 8        50.389    23355415.442 8  94042625.93308        19.620 8        51.147
E30        27.000    28901563.485 5 151878748.01805     -1922.804 5        35.686                                                                    28901563.875 6 113415950.74806     -1435.470 6        37.066    28901564.211 6 116374625.32806     -1473.124 6        38.294
E12        28.000    28312296.484 5 148782259.36805     -3282.780 5        31.698                                                                    28312294.100 5 111103706.47005     -2451.362 5        35.933    28312294.251 6 114002052.01606     -2515.511 6        37.017
E19        30.000    27849964.456 5 146352545.11705     -3340.122 5        32.317                                                                    27849964.114 5 109289231.64205     -2494.382 5        34.109    27849963.910 5 112140253.03205     -2559.365 5        33.419
G32        31.000    25177777.676 6 132310123.53606     -3834.997 6        40.067                                    25177776.427 5 103098792.28905     -2988.305 5        31.441    25177776.848 6 103098797.29206     -2988.339 6        36.147
G02        32.000    21279340.411 8 111823729.64308     -2221.265 8        49.145                                    21279333.911 6  87135370.08506     -1730.853 6        39.688
G19        33.000    22730748.354 7 119450919.49807      1487.030 7        42.974                                    22730742.179 5  93078659.58705      1158.725 5        30.211
G17        34.000    22156544.586 7 116433480.86407      -584.439 7        45.886                                    22156540.019 7  90727398.33707      -455.406 7        43.490    22156540.466 7  90727398.33907      -455.498 7        42.193
E11        35.000    23846155.138 7 125312458.76507     -1928.556 7        44.301                                                                    23846151.013 7  93577503.93307     -1440.146 7        46.391    23846150.683 7  96018648.69707     -1477.673 7        47.115
C32        36.000                                                                                                                                    24463396.016 7 127387346.64807     -3115.800 7        45.038                                                                    24463396.099 7 103512663.89007     -2531.858 7        45.974
C35        37.000                                                                                                                                    23536387.661 7 122560165.33207      1441.224 7        46.814                                                                    23536386.439 7  99590173.07507      1171.078 7        46.342
I09        38.000    37078210.916 7 145502861.89107      -412.241 7        42.775
C29        39.000                                                                                                                                    22179925.159 8 115496692.45108     -2057.646 8        49.962                                                                    22179922.702 8  93850517.69308     -1671.980 8        48.538
R22        40.000    23509854.402 7 125497210.95807      3775.523 7        45.339                                                                    23509852.561 6  97608952.14906      2936.651 6        40.074
S44        42.000    40530108.158 6 212987349.82606      -495.879 6        36.306
C09        43.000                                                                                                                                    38934539.906 6 202742387.25306       556.162 6        41.111    38934536.820 7 156773264.64307       429.975 7        45.181    38934534.928 6 164744777.30106       451.803 6        41.304
C05        44.000                                                                                                                                    39048099.298 6 203333734.11406      -422.918 6        38.228    39048094.283 7 157230565.30707      -327.042 7        43.488    39048095.678 6 165225417.85406      -343.630 6        39.961
R06        45.000    20388764.794 6 108798409.07306      2012.058 6        40.114
R13        46.000    24056907.334 6 128462557.57006     -2139.330 6        36.560
C39        47.000                                                                                                                                    38813468.929 7 202111925.58707      -487.556 7        42.235                                                                    38813464.772 7 164232484.04807      -396.116 7        43.215
C20        48.000                                                                                                                                    21703896.578 8 113017933.23008      -626.759 8        51.372                                                                    21703890.717 8  91836320.51508      -509.296 8        49.143
C06        49.000                                                                                                                                    38320139.659 6 199543044.02106        86.611 6        40.679    38320134.049 7 154299322.32607        66.982 7        44.960    38320133.544 6 162145047.42106        70.523 6        41.611
C16        50.000                                                                                                                                    38733202.257 7 201693965.26807       -36.502 7        42.857    38733201.811 7 155962576.63007       -28.229 7        42.982    38733199.872 6 163892866.48906       -29.792 6        39.715
S48        51.000    77117995.029 6 405259218.63206      -423.908 6        37.251
C19        52.000                                                                                                                                    23546233.589 7 122611471.20207      1854.410 7        47.675                                                                    23546229.033 8  99631866.00208      1506.845 8        48.273
R04        53.000    23442248.426 7 125532196.69607     -4367.383 7        42.961                                                                    23442246.919 6  97636159.21206     -3396.925 6        38.495
C60        54.000                                                                                                                                    40530109.999 6 211051120.64206      -491.434 6        39.372                                                                    40530093.683 6 171496292.90606      -399.239 6        39.333
C30        55.000                                                                                                                                    25510098.359 6 132837757.51506     -3909.730 6        41.230                                                                    25510099.748 7 107941554.24707     -3176.996 7        42.436
C02        57.000                                                                                                                                    40492496.413 5 210855100.56805      -468.702 5        33.982    40492489.788 6 163046532.63906      -362.545 6        40.126    40492493.347 6 171337044.16706      -380.806 6        36.749
I03        58.000   132793649.238 6 445325559.06506       954.708 6        40.536
C13        59.000                                                                                                                                    41394295.854 4 215551019.18904     -1094.548 4        26.766    41394298.965 4 166677760.14704      -847.196 4        25.504    41394296.743 4 175152887.50304      -890.155 4        26.335
> 2025 01 01 01 16  0.0000000  0 56
G28         1.000    23059212.660 7 121176992.41407      -540.191 7        42.561                                    23059208.565 4  94423611.92704      -420.934 4        29.573    23059208.946 7  94423617.92707      -420.896 7        42.836
G31         2.000    22562401.962 7 118566229.91907      1293.548 7        44.647                                    22562397.951 6  92389256.74506      1007.959 6        41.046    22562397.442 6  92389255.74806      1008.041 6        41.897
G09         3.000    23762098.887 6 124870691.96506      3260.497 6        39.772                                    23762098.170 5  97301842.52605      2540.643 5        34.995    23762098.138 6  97301843.53406      2540.707 6        37.652
E34         4.000    27349659.664 6 143723435.94206      2362.574 6        38.637                                                                    27349660.340 6 107325948.52806      1764.447 6        41.881    27349660.010 7 110125755.41107      1810.307 7        42.682
S21         5.000    38365815.879 7 201613580.19107      -422.882 7        42.125
E05         6.000    26304700.691 6 138232146.36006      2673.561 6        37.807                                                                    26304702.028 6 103225324.47606      1996.444 6        39.985    26304702.159 6 105918152.16306      2048.710 6        41.688
G21         7.000    22671166.288 7 119137840.28707     -3125.998 7        42.789                                    22671161.445 4  92834683.98604     -2435.850 4        29.915
E04         8.000    23918555.457 7 125692880.94107     -1465.861 7        46.575                                                                    23918553.252 8  93861572.32208     -1094.583 8        50.086    23918553.040 8  96310126.96708     -1123.144 8        50.882
R14         9.000    23464444.090 7 125078700.72207      1238.072 7        43.748                                                                    23464444.667 6  97283423.54706       962.924 6        39.769
G04        10.000    21589612.212 7 113454213.32907      2423.145 7        46.160                                    21589608.664 5  88405888.18705      1888.162 5        34.933    21589608.651 7  88405883.18907      1888.160 7        44.674
E09        11.000    24081513.651 7 126549253.25107      1302.190 7        47.975                                                                    24081513.173 8  94501081.71508       972.502 8        49.819    24081512.838 8  96966326.69108       997.877 8        50.544
S27        12.000    39005777.034 5 204976722.38705      -407.295 5        35.890
G06        13.000    25217164.158 6 132517107.84706      3125.640 6        36.560                                    25217164.241 4 103260084.94004      2435.526 4        28.616    25217165.056 6 103260095.96306      2435.781 6        36.427
S36        14.000    38133314.110 7 200392415.30107      -422.592 7        43.700
E27        15.000    28917660.128 5 151963326.24605        49.671 5        33.635                                                                    28917660.966 6 113479114.41706        37.047 6        39.240    28917660.355 6 116439436.80906        38.027 6        40.143
E36        16.000    23667842.372 7 124375379.55407       707.268 7        47.541                                                                    23667842.438 8  92877735.81208       528.174 8        50.724    23667842.231 8  95300627.98508       542.016 8        51.200
S45        17.000    63331639.439 6 332810976.62006      -463.799 6        37.350
G03        18.000    19882095.303 8 104481174.39008       -53.354 8        49.766                                    19882093.251 8  81413921.73508       -41.576 8        51.549    19882093.806 7  81413930.73507       -41.524 7        45.856
R21        19.000    19565999.354 8 104701656.07608      1117.381 8        52.221                                                                    19565997.974 7  81434631.56407       869.091 7        46.519
R20        20.000    20025495.581 6 107085367.53006     -3146.863 6        40.060                                                                    20025497.293 7  83288617.60507     -2447.530 7        46.063
R05        21.000    19717555.271 8 105401678.42008     -2568.881 8        51.106                                                                    19717554.349 7  81979088.89107     -1997.996 7        46.992
I06        22.000    38098855.380 7 149508321.84107      -220.044 7        42.220
S28        23.000    40805512.610 5 214434422.38105      -415.980 5        34.129
E10        24.000    25917162.632 6 136195727.00206     -2927.423 6        41.819                                                                    25917162.019 7 101704667.27207     -2186.039 7        46.356    25917161.769 7 104357823.12807     -2243.026 7        46.981
S23        25.000    38082909.873 7 200127023.78107      -419.088 7        44.551
E06        26.000    23355392.740 8 122733476.68508        23.517 8        48.104                                                                    23355392.207 8  91651621.56008        17.595 8        50.510    23355392.135 8  94042531.94208        18.076 8        50.982
E30        27.000    28903393.306 5 151888365.34905     -1924.209 5        35.043                                                                    28903394.552 6 113423132.52406     -1436.997 6        38.162    28903394.263 6 116381994.46106     -1474.469 6        39.231
E12        28.000    28315420.091 5 148798674.89805     -3282.966 5        32.629                                                                    28315417.826 6 111115964.84206     -2451.781 6        36.038    28315418.034 6 114014630.14006     -2515.495 6        37.187
E19        30.000    27853143.102 5 146369246.72405     -3340.325 5        32.281                                                                    27853142.489 5 109301703.62005     -2494.604 5        34.609    27853141.683 5 112153050.36705     -2559.675 5        34.043
G32        31.000    25181426.793 6 132329300.07006     -3835.557 6        39.171                                    25181425.647 5 103113735.03205     -2988.743 5        30.928    25181426.402 5 103113740.03105     -2988.640 5        35.990
G02        32.000    21281455.038 8 111834841.60208     -2223.436 8        49.046                                    21281448.425 6  87144028.75406     -1732.547 6        39.694
G19        33.000    22729334.861 7 119443491.80707      1484.185 7        42.703                                    22729328.691 5  93072871.77305      1156.504 5        30.136
G17        34.000    22157101.757 7 116436411.13207      -587.527 7        45.890                                    22157097.622 7  90729681.65607      -457.813 7        43.501    22157097.963 7  90729681.65407      -457.771 7        42.288
E11        35.000    23847990.836 7 125322105.34407     -1930.031 7        44.560                                                                    23847986.693 7  93584707.54307     -1441.219 7        46.476    23847986.336 7  96026040.22907     -1478.817 7        46.972
C32        36.000                                                                                                                                    24466388.200 7 127402927.02207     -3116.226 7        45.320                                                                    24466388.283 7 103525324.21907     -2532.324 7        45.923
C35        37.000                                                                                                                                    23535004.913 7 122552965.04707      1439.018 7        46.771                                                                    23535003.699 7  99584322.26407      1169.170 7        46.428
I09        38.000    37078736.498 7 145504923.35907      -412.345 7        42.938
C29        39.000                                                                                                                                    22181902.075 8 115506986.98608     -2060.079 8        49.801                                                                    22181899.678 8  93858882.84008     -1674.050 8        48.555
R22        40.000    23506318.042 7 125478334.99407      3775.006 7        44.492                                                                    23506316.821 6  97594270.90406      2936.026 6        40.827
S44        42.000    40530581.037 6 212989829.12306      -495.654 6        36.284
C09        43.000                                                                                                                                    38934007.329 6 202739608.59006       555.317 6        41.354    38934003.382 7 156771116.00007       429.580 7        45.229    38934001.302 6 164742519.39806       451.310 6        41.271
C05        44.000                                                                                                                                    39048505.818 6 203335849.03406      -422.928 6        38.246    39048500.401 7 157232200.70907      -327.112 7        43.435    39048501.742 6 165227136.41306      -343.733 6        40.019
R06        45.000    20386881.681 6 108788355.12506      2009.617 6        39.847
R13        46.000    24058914.856 6 128473263.76606     -2143.029 6        37.853
C39        47.000                                                                                                                                    38813937.624 7 202114365.34407      -488.313 7        42.341                                                                    38813933.236 7 164234466.56707      -396.935 7        43.300
C20        48.000                                                                                                                                    21704499.248 8 113021071.63808      -628.552 8        51.280                                                                    21704493.458 8  91838870.73108      -510.839 8        49.117
C06        49.000                                                                                                                                    38320057.010 6 199542613.21706        85.764 6        40.973    38320051.408 7 154298989.18507        66.369 7        44.731    38320050.901 6 162144697.36206        69.576 6        41.611
C16        50.000                                                                                                                                    38733237.432 7 201694150.02507       -37.256 7        42.533    38733237.739 7 155962719.50507       -28.890 7        43.009    38733235.318 6 163893016.60606       -30.396 6        39.640
S48        51.000    77118393.562 6 405261336.26306      -423.515 6        37.399
C19        52.000                                                                                                                                    23544453.848 7 122602202.69207      1853.132 7        47.660                                                                    23544449.114 8  99624334.58008      1505.641 8        48.180
R04        53.000    23446326.189 7 125554033.71007     -4367.350 7        43.173                                                                    23446325.025 6  97653143.59806     -3396.882 6        38.306
C60        54.000                                                                                                                                    40530581.688 6 211053577.40106      -491.369 6        39.426                                                                    40530565.457 6 171498289.22106      -399.318 6        39.189
C30        55.000                                                                                                                                    25513852.513 6 132857307.12406     -3910.077 6        41.342                                                                    25513854.189 7 107957439.88307     -3177.320 7        42.464
C02        57.000                                                                                                                                    40492945.945 5 210857444.69105      -468.812 5        33.910    40492940.228 6 163048345.25306      -362.492 6        40.291    40492943.599 6 171338948.94406      -381.096 6        36.715
I03        58.000   132792432.920 6 445320785.33206       954.839 6        40.582
C13        59.000                                                                                                                                    41395348.134 4 215556494.26704     -1094.871 4        27.737    41395350.668 4 166681993.87604      -846.713 4        26.575
> 2025 01 01 01 16  5.0000000  0 56
G28         1.000    23059728.158 7 121179702.30207      -543.666 7        43.153                                    23059724.215 4  94425723.53804      -423.630 4        29.678    23059724.707 7  94425729.53407      -423.597 7        42.891
G31         2.000    22561172.581 7 118559770.06707      1290.501 7        44.471                                    22561168.679 6  92384223.10006      1005.585 6        40.939    22561168.204 6  92384222.10706      1005.513 6        41.571
G09         3.000    23758997.398 6 124854392.51106      3259.590 6        39.820                                    23758996.438 5  97289141.66705      2539.935 5        35.124    23758996.617 6  97289142.67506      2539.852 6        37.671
E34         4.000    27347411.677 6 143711623.86806      2362.346 6        38.871                                                                    27347412.605 7 107317127.83107      1764.073 7        42.072    27347412.413 7 110116704.60007      1810.141 7        42.918
S21         5.000    38366223.731 7 201615695.18807      -423.090 7        42.102
E05         6.000    26302157.278 6 138218780.16906      2672.941 6        38.045                                                                    26302158.807 6 103215343.22006      1996.009 6        40.143    26302158.564 6 105907910.53006      2048.105 6        41.502
G21         7.000    22674141.334 7 119153473.95307     -3127.505 7        42.669                                    22674136.358 5  92846866.06505     -2437.015 5        30.068
E04         8.000    23919951.017 7 125700215.67107     -1467.970 7        46.773                                                                    23919949.009 8  93867049.55508     -1096.175 8        50.112    23919948.771 8  96315747.08708     -1124.771 8        50.882
R14         9.000    23463284.825 7 125072520.19107      1234.272 7        44.075                                                                    23463285.687 6  97278616.47106       959.988 6        38.802
G04        10.000    21587307.571 7 113442103.65707      2420.930 7        46.607                                    21587304.299 5  88396452.08105      1886.439 5        34.948    21587304.567 7  88396447.07607      1886.450 7        44.569
E09        11.000    24080275.947 8 126542747.35808      1300.247 8        48.059                                                                    24080275.161 8  94496223.43008       970.881 8        49.828    24080274.824 8  96961341.66208       996.292 8        50.579
S27        12.000    39006162.760 5 204978758.64605      -407.427 5        35.848
G06        13.000    25214190.188 6 132501479.74406      3125.566 6        36.635                                    25214190.402 4 103247907.26704      2435.496 4        28.919    25214190.850 6 103247918.31706      2435.479 6        37.176
S36        14.000    38133714.052 7 200394529.08707      -422.692 7        43.725
E27        15.000    28917614.285 5 151963084.50105        47.220 5        33.569                                                                    28917614.936 6 113478934.10906        35.188 6        39.952    28917614.419 6 116439251.76506        36.261 6        40.691
E36        16.000    23667170.245 7 124371847.84507       705.507 7        47.576                                                                    23667170.416 8  92875098.49908       526.816 8        50.759    23667170.175 8  95297921.87008       540.617 8        51.200
S45        17.000    63332038.178 6 332813296.51606      -463.988 6        37.448
G03        18.000    19882147.332 8 104481446.55208       -55.532 8        49.862                                    19882145.033 8  81414133.81308       -43.270 8        51.533    19882145.702 7  81414142.81907       -43.268 7        45.624
R21        19.000    19564957.533 8 104696079.73908      1113.335 8        52.498                                                                    19564956.170 7  81430294.41807       865.902 7        46.704
R20        20.000    20028440.095 6 107101110.96006     -3150.358 6        40.040                                                                    20028441.905 7  83300862.49607     -2450.277 7        46.493
R05        21.000    19719959.431 8 105414529.55008     -2571.450 8        51.399                                                                    19719958.428 7  81989084.22507     -2000.037 7        47.131
I06        22.000    38099135.827 7 149509422.44907      -220.198 7        42.324
S28        23.000    40805909.600 5 214436501.24105      -415.744 5        34.076
E10        24.000    25919948.888 7 136210367.53007     -2928.629 7        42.438                                                                    25919948.064 7 101715600.13407     -2186.943 7        46.452    25919947.956 7 104369041.19807     -2244.006 7        47.148
S23        25.000    38083307.803 7 200129120.13507      -419.293 7        44.643
E06        26.000    23355371.480 8 122733365.10708        21.225 8        48.051                                                                    23355370.983 8  91651538.24108        15.852 8        50.558    23355370.873 8  94042446.45308        16.277 8        50.996
E30        27.000    28905225.244 5 151897992.18705     -1926.507 5        35.081                                                                    28905226.321 6 113430321.38606     -1438.580 6        37.762    28905226.187 6 116389370.85106     -1476.094 6        38.823
E12        28.000    28318544.646 5 148815093.24605     -3283.888 5        32.144                                                                    28318542.182 6 111128225.26606     -2452.156 6        36.030    28318542.353 6 114027210.40106     -2515.999 6        37.130
E19        30.000    27856321.474 5 146385950.11605     -3340.977 5        32.275                                                                    27856321.137 5 109314176.87505     -2494.791 5        35.048    27856320.202 5 112165849.01305     -2559.741 5        33.910
G32        31.000    25185076.114 6 132348478.92906     -3835.974 6        39.003                                    25185075.314 5 103128679.58805     -2989.066 5        30.792    25185076.006 6 103128684.58906     -2989.032 6        36.234
G02        32.000    21283571.771 8 111845964.89808     -2225.821 8        48.869                                    21283565.094 6  87152696.25606     -1734.407 6        39.583
G19        33.000    22727924.142 7 119436079.85807      1480.865 7        42.880                                    22727918.198 5  93067096.22905      1153.920 5        30.023
G17        34.000    22157662.505 7 116439356.99807      -590.790 7        45.539                                    22157658.238 7  90731977.13807      -460.353 7        43.454    22157658.640 7  90731977.13607      -460.327 7        42.112
E11        35.000    23849828.315 7 125331760.46707     -1931.785 7        44.549                                                                    23849823.924 7  93591917.54607     -1442.535 7        46.466    23849823.613 7  96033438.31607     -1480.272 7        46.858
C32        36.000                                                                                                                                    24469380.580 7 127418510.53607     -3117.055 7        45.336                                                                    24469381.030 7 103537987.11607     -2532.847 7        45.932
C35        37.000                                                                                                                                    23533624.163 7 122545776.30207      1436.578 7        46.833                                                                    23533623.153 7  99578480.82807      1167.362 7        46.418
I09        38.000    37079262.181 7 145506985.91507      -412.525 7        42.734
C29        39.000                                                                                                                                    22183881.510 8 115517294.26108     -2062.731 8        49.836                                                                    22183879.083 8  93867258.36008     -1676.142 8        48.498
R22        40.000    23502782.027 7 125459462.70407      3774.136 7        44.849                                                                    23502780.751 6  97579592.49006      2935.471 6        41.540
S44        42.000    40531049.792 6 212992308.84506      -495.865 6        36.181
C09        43.000                                                                                                                                    38933475.013 6 202736834.41206       554.307 6        41.459    38933470.406 7 156768970.83807       428.769 7        45.580    38933468.485 6 164740265.17206       450.425 6        41.220
C05        44.000                                                                                                                                    39048911.685 6 203337964.44806      -423.012 6        38.237    39048906.603 7 157233836.47907      -327.132 7        43.678    39048908.033 6 165228855.37906      -343.904 6        39.871
R06        45.000    20384999.657 6 108778314.19106      2006.801 6        40.119
R13        46.000    24060921.809 6 128483988.55006     -2146.866 6        37.059
C39        47.000                                                                                                                                    38814407.084 7 202116810.09107      -489.503 7        42.519                                                                    38814402.677 7 164236453.12507      -397.650 7        43.192
C20        48.000                                                                                                                                    21705103.739 8 113024219.83408      -630.622 8        51.230                                                                    21705098.055 8  91841428.91008      -512.430 8        49.114
C06        49.000                                                                                                                                    38319975.859 6 199542187.50506        84.582 6        41.044    38319969.488 7 154298659.99307        65.507 7        44.859    38319969.080 6 162144351.44206        68.832 6        41.464
C16        50.000                                                                                                                                    38733274.088 7 201694339.77707       -38.339 7        42.531    38733273.884 7 155962866.23707       -29.737 7        43.460    38733271.864 6 163893170.82406       -31.241 6        39.670
S48        51.000    77118794.130 6 405263454.17206      -423.631 6        37.312
C19        52.000                                                                                                                                    23542675.149 7 122592941.24307      1851.566 7        47.579                                                                    23542670.548 8  99616808.90908      1504.539 8        48.208
R04        53.000    23450403.779 7 125575870.92507     -4367.307 7        42.946                                                                    23450402.188 6  97670128.09706     -3396.878 6        38.300
C60        54.000                                                                                                                                    40531053.435 6 211056034.56906      -491.343 6        39.604                                                                    40531037.433 6 171500285.89706      -399.392 6        39.366
C30        55.000                                                                                                                                    25517607.424 6 132876858.88206     -3910.585 6        41.495                                                                    25517608.905 7 107973327.29307     -3177.588 7        42.269
C02        57.000                                                                                                                                    40493396.546 5 210859789.26605      -468.837 5        34.152    40493390.454 6 163050158.22306      -362.510 6        40.296    40493393.776 6 171340854.12406      -381.040 6        36.635
I03        58.000   132791216.394 6 445316012.07506       954.595 6        40.658
C13        59.000                                                                                                                                    41396400.274 4 215561969.94504     -1095.491 4        27.401    41396404.030 4 166686227.91604      -846.621 4        29.905    41396398.139 4                      -889.649 4        24.692
> 2025 01 01 01 16 10.0000000  0 56
G28         1.000    23060247.072 7 121182429.01207      -546.728 7        43.479                                    23060242.995 4  94427848.24404      -426.019 4        29.659    23060243.210 7  94427854.25407      -426.225 7        42.993
G31         2.000    22559945.858 7 118553325.31007      1287.739 7        44.805                                    22559942.238 6  92379201.21506      1003.434 6        41.037    22559941.926 6  92379200.21006      1003.468 6        41.268
G09         3.000    23755896.461 6 124838097.23606      3258.910 6        40.830                                    23755895.560 5  97276444.06405      2539.409 5        35.400    23755894.998 6  97276445.08206      2539.344 6        38.030
E34         4.000    27345163.821 6 143699812.98406      2362.164 6        39.057                                                                    27345164.870 7 107308308.02407      1764.006 7        42.226    27345164.898 7 110107654.71707      1810.070 7        43.064
S21         5.000    38366624.317 7 201617810.45107      -422.856 7        42.430
E05         6.000    26299614.122 6 138205416.00506      2672.860 6        38.027                                                                    26299615.870 6 103205363.48706      1995.967 6        40.338    26299615.465 6 105897670.46806      2047.917 6        41.378
G21         7.000    22677117.567 7 119169114.23407     -3128.474 7        42.777                                    22677112.665 5  92859053.29705     -2437.772 5        30.106
E04         8.000    23921348.726 7 125707560.29607     -1469.592 7        46.679                                                                    23921346.576 8  93872534.18108     -1097.378 8        50.087    23921346.402 8  96321374.78808     -1126.019 8        50.935
R14         9.000    23462129.303 7 125066357.77807      1230.978 7        43.357                                                                    23462129.459 6  97273823.47206       957.240 6        38.520
G04        10.000    21585004.800 7 113430004.09207      2419.145 7        46.059                                    21585001.838 5  88387023.84805      1885.048 5        34.952    21585001.994 7  88387018.85007      1885.022 7        44.974
E09        11.000    24079039.641 8 126536251.02108      1298.531 8        48.198                                                                    24079038.976 8  94491372.26708       969.686 8        49.891    24079038.573 8  96956363.95408       994.980 8        50.639
S27        12.000    39006553.813 6 204980794.76106      -407.188 6        36.181
G06        13.000    25211217.147 6 132485852.31006      3125.607 6        36.049                                    25211216.630 4 103235730.08604      2435.530 4        28.569    25211216.522 6 103235741.15206      2435.437 6        36.370
S36        14.000    38134116.842 7 200396642.70607      -422.437 7        43.924
E27        15.000    28917570.196 5 151962854.28605        44.987 5        33.461                                                                    28917571.233 6 113478762.22806        33.661 6        39.949    28917570.562 6 116439075.39806        34.589 6        40.734
E36        16.000    23666499.453 7 124368324.07007       704.222 7        47.621                                                                    23666499.851 8  92872467.11208       525.847 8        50.773    23666499.612 8  95295221.84008       539.546 8        51.298
S45        17.000    63332435.566 6 332815616.79606      -463.638 6        37.448
G03        18.000    19882201.133 8 104481729.21808       -57.271 8        49.829                                    19882198.822 8  81414354.07108       -44.626 8        51.566    19882199.375 7  81414363.07307       -44.558 7        45.567
R21        19.000    19563919.345 8 104690523.24608      1109.568 8        52.617                                                                    19563917.502 7  81425972.70207       862.982 7        46.637
R20        20.000    20031387.385 6 107116871.61906     -3153.606 6        39.333                                                                    20031389.006 7  83313120.79207     -2452.832 7        46.610
R05        21.000    19722366.152 8 105427393.10308     -2573.728 8        51.574                                                                    19722365.354 7  81999089.19907     -2001.762 7        47.395
I06        22.000    38099416.303 7 149510523.35507      -219.967 7        42.508
S28        23.000    40806304.266 5 214438580.85305      -415.568 5        34.533
E10        24.000    25922735.787 7 136225013.64007     -2929.517 7        42.938                                                                    25922735.229 7 101726537.16407     -2187.619 7        46.567    25922735.010 7 104380263.55107     -2244.765 7        47.160
S23        25.000    38083707.535 7 200131216.78307      -419.151 7        44.643
E06        26.000    23355352.023 8 122733264.55608        19.266 8        48.163                                                                    23355351.809 8  91651463.15508        14.407 8        50.551    23355351.754 8  94042369.41108        14.758 8        51.103
E30        27.000    28907058.877 6 151907628.29906     -1927.769 6        36.355                                                                    28907060.121 6 113437517.23606     -1439.899 6        39.093    28907059.689 6 116396754.40506     -1477.179 6        40.029
E12        28.000    28321669.311 5 148831514.21305     -3284.223 5        32.323                                                                    28321667.123 6 111140487.70806     -2452.712 6        36.083    28321667.218 6 114039792.72406     -2516.434 6        37.138
E19        30.000    27859500.372 5 146402655.28605     -3341.000 5        32.138                                                                    27859499.776 5 109326651.50305     -2494.792 5        34.676    27859499.457 5 112178649.09305     -2560.114 5        33.928
G32        31.000    25188725.773 6 132367660.06106     -3836.263 6        38.441                                    25188725.481 5 103143625.91405     -2989.294 5        30.226    25188725.469 6 103143630.92406     -2989.275 6        36.363
G02        32.000    21285690.496 8 111857099.44908     -2227.809 8        48.877                                    21285683.892 6  87161372.52806     -1735.957 6        39.631
G19        33.000    22726516.587 7 119428683.55607      1478.023 7        42.059                                    22726510.688 5  93061332.88505      1151.710 5        30.068
G17        34.000    22158226.171 7 116442318.39407      -593.504 7        45.387                                    22158221.765 7  90734284.71907      -462.470 7        43.479    22158222.037 7  90734284.73307      -462.600 7        42.548
E11        35.000    23851667.012 7 125341424.05407     -1933.276 7        44.521                                                                    23851662.825 7  93599133.85607     -1443.668 7        46.409    23851662.514 7  96040842.88007     -1481.313 7        46.952
C32        36.000                                                                                                                                    24472373.898 7 127434097.08107     -3117.391 7        45.640                                                                    24472374.262 7 103550652.46707     -2533.212 7        46.054
C35        37.000                                                                                                                                    23532246.189 7 122538598.97807      1434.617 7        47.021                                                                    23532244.850 7  99572648.67107      1165.673 7        46.366
I09        38.000    37079787.808 7 145509049.52307      -412.686 7        43.033
C29        39.000                                                                                                                                    22185863.145 8 115527614.20308     -2065.009 8        50.037                                                                    22185860.891 8  93875644.15508     -1678.063 8        48.473
R22        40.000    23499246.661 7 125440593.98607      3773.606 7        44.555                                                                    23499246.716 6  97564916.86106      2934.902 6        40.791
S44        42.000    40531523.646 6 212994788.88306      -495.837 6        36.306
C09        43.000                                                                                                                                    38932942.646 6 202734064.61706       553.844 6        41.807    38932938.506 7 156766829.06707       428.324 7        45.460    38932936.637 6 164738014.49706       449.773 6        41.268
C05        44.000                                                                                                                                    39049318.486 6 203340080.23906      -422.831 6        38.408    39049313.154 7 157235472.55307      -327.083 7        43.501    39049314.535 6 165230574.63906      -343.795 6        39.913
R06        45.000    20383119.282 6 108768286.43006      2004.442 6        39.862
R13        46.000    24062933.178 6 128494731.90606     -2150.230 6        36.408
C39        47.000                                                                                                                                    38814877.372 7 202119259.73507      -490.162 7        42.654                                                                    38814873.079 7 164238443.66807      -398.440 7        43.276
C20        48.000                                                                                                                                    21705710.340 8 113027377.72708      -632.330 8        51.360                                                                    21705704.513 8  91843994.95508      -513.891 8        49.057
C06        49.000                                                                                                                                    38319895.143 6 199541766.78506        83.896 6        41.306    38319888.481 7 154298334.68207        64.804 7        44.757    38319888.234 6 162144009.57106        68.155 6        41.447
C16        50.000                                                                                                                                    38733311.671 7 201694534.45507       -39.053 7        42.610    38733311.666 7 155963016.77807       -30.270 7        43.575    38733309.168 6 163893329.00906       -31.822 6        39.817
S48        51.000    77119192.056 6 405265572.18406      -423.381 6        37.418
C19        52.000                                                                                                                                    23540897.823 7 122583686.77607      1850.446 7        47.698                                                                    23540893.339 8  99609288.89908      1503.518 8        48.149
R04        53.000    23454480.708 7 125597708.29407     -4367.243 7        42.512                                                                    23454481.127 6  97687112.72606     -3396.870 6        38.228
C60        54.000                                                                                                                                    40531525.755 6 211058492.07606      -491.267 6        39.465                                                                    40531509.242 6 171502282.81906      -399.202 6        39.183
C30        55.000                                                                                                                                    25521362.649 6 132896412.72206     -3910.699 6        41.485                                                                    25521364.017 7 107989216.38507     -3177.879 7        42.089
C02        57.000                                                                                                                                    40493846.615 5 210862134.22105      -468.607 5        34.271    40493840.791 6 163051971.50206      -362.555 6        40.305    40493844.242 6 171342759.58606      -380.964 6        36.696
I03        58.000   132790000.186 6 445311239.22106       954.600 6        40.772
C13        59.000                                                                                                                                    41397451.147 4 215567446.03604     -1095.222 4        28.806    41397453.173 4 166690462.34404      -846.026 4        24.917    41397453.283 4                      -890.535 4        26.443
> 2025 01 01 01 16 15.0000000  0 56
G28         1.000    23060768.622 7 121185171.46307      -550.205 7        43.615                                    23060764.829 4  94429985.22704      -428.732 4        29.820    23060764.938 7  94429991.22907      -428.711 7        42.626
G31         2.000    22558722.346 7 118546894.54907      1284.634 7        44.618                                    22558718.445 6  92374190.23006      1001.012 6        41.204    22558718.240 6  92374189.23306      1001.053 6        41.282
G09         3.000    23752796.807 6 124821805.05806      3257.970 6        41.213                                    23752795.267 5  97263748.87005      2538.678 5        35.743    23752795.736 6  97263749.85606      2538.755 6        37.939
E34         4.000    27342916.875 6 143688002.14706      2361.996 6        39.129                                                                    27342917.502 7 107299488.25607      1763.804 7        42.100    27342917.229 7 110098604.85907      1809.800 7        43.012
S21         5.000    38367026.853 7 201619924.93807      -422.886 7        42.504
E05         6.000    26297071.070 6 138192052.81606      2672.421 6        37.890                                                                    26297073.068 6 103195384.47806      1995.684 6        40.515    26297072.372 6 105887431.12406      2047.726 6        41.440
G21         7.000    22680095.115 7 119184760.07907     -3129.745 7        43.217                                    22680090.131 5  92871244.86005     -2438.761 5        30.287
E04         8.000    23922747.870 7 125714913.71607     -1471.718 7        46.435                                                                    23922745.903 8  93878025.37608     -1098.988 8        50.070    23922745.695 8  96327009.23108     -1127.641 8        50.978
R14         9.000    23460975.795 7 125060212.33407      1227.235 7        44.017                                                                    23460976.847 6  97269043.68706       954.530 6        38.772
G04        10.000    21582704.053 7 113417913.56307      2417.098 7        46.226                                    21582701.126 5  88377602.66205      1883.452 5        35.200    21582701.292 7  88377597.66107      1883.405 7        44.921
E09        11.000    24077804.936 8 126529763.13308      1296.622 8        48.096                                                                    24077804.322 8  94486527.42508       968.236 8        49.825    24077804.016 8  96951392.72508       993.497 8        50.737
S27        12.000    39006935.251 5 204982830.00405      -406.958 5        35.981
G06        13.000    25208243.011 6 132470224.56806      3125.683 6        37.531                                    25208242.603 4 103223552.70304      2435.597 4        28.957    25208242.968 5 103223563.70305      2435.741 5        35.271
S36        14.000    38134519.020 7 200398755.43107      -422.450 7        43.892
E27        15.000    28917528.887 5 151962634.96805        43.149 5        33.575                                                                    28917529.117 6 113478598.60906        31.810 6        39.541    28917528.657 6 116438907.49306        32.788 6        40.484
E36        16.000    23665830.255 7 124364807.15507       702.608 7        47.323                                                                    23665830.633 8  92869840.84408       524.694 8        50.702    23665830.361 8  95292527.06208       538.336 8        51.353
S45        17.000    63332833.729 6 332816336.31516      -463.761 6        37.520
G03        18.000    19882256.614 8 104482021.30308       -59.444 8        49.877                                    19882254.395 8  81414581.67008       -46.320 8        51.744    19882255.089 7  81414590.67507       -46.311 7        45.738
R21        19.000    19562884.111 8 104684985.50208      1105.584 8        52.258                                                                    19562882.706 7  81421665.57707       859.867 7        46.873
R20        20.000    20034337.708 6 107132648.36906     -3157.130 6        40.133                                                                    20034339.036 7  83325391.58707     -2455.432 7        46.542
R05        21.000    19724774.929 8 105440267.93008     -2576.191 8        51.426                                                                    19724773.552 7  82009102.95907     -2003.704 7        47.149
I06        22.000    38099696.838 7 149511623.74607      -220.065 7        42.356
S28        23.000    40806700.215 5 214440659.19105      -415.970 5        34.314
E10        24.000    25925523.779 7 136239664.23907     -2930.676 7        42.773                                                                    25925523.141 7 101737477.55307     -2188.510 7        46.618    25925522.853 7 104391489.33307     -2245.595 7        47.366
S23        25.000    38084106.184 7 200133312.68407      -419.196 7        44.864
E06        26.000    23355334.973 7 122733173.91207        17.008 7        47.967                                                                    23355334.592 8  91651395.47008        12.766 8        50.533    23355334.511 8  94042299.96008        13.071 8        51.149
E30        27.000    28908894.269 6 151917272.60206     -1929.739 6        36.106                                                                    28908895.561 6 113444719.11806     -1441.023 6        38.483    28908894.743 6 116404144.17706     -1478.780 6        39.234
E12        28.000    28324795.290 5 148847936.81005     -3284.654 5        31.887                                                                    28324791.952 5 111152751.34105     -2453.114 5        35.829    28324792.057 6 114052376.27806     -2516.896 6        37.293
E19        30.000    27862679.734 5 146419361.09305     -3341.782 5        32.425                                                                    27862678.877 5 109339126.57705     -2494.923 5        35.224    27862678.342 5 112191449.60605     -2560.334 5        34.310
G32        31.000    25192375.954 6 132386842.31006     -3836.629 6        37.716                                    25192375.756 5 103158573.11205     -2989.580 5        30.113    25192376.402 5 103158578.10705     -2989.583 5        35.948
G02        32.000    21287811.443 8 111868244.16108     -2230.040 8        48.755                                    21287804.613 6  87170056.72006     -1737.692 6        39.814
G19        33.000    22725111.829 7 119421301.85907      1474.727 7        42.677                                    22725106.062 5  93055580.91705      1149.136 5        30.219
G17        34.000    22158792.551 7 116445294.25407      -596.682 7        45.422                                    22158788.051 7  90736603.56607      -464.946 7        43.572    22158788.442 7  90736603.57107      -464.976 7        42.495
E11        35.000    23853507.380 7 125351094.98907     -1935.065 7        44.292                                                                    23853503.130 7  93606355.66307     -1445.039 7        46.472    23853502.851 7  96048253.07807     -1482.727 7        47.030
C32        36.000                                                                                                                                    24475367.609 7 127449685.58807     -3118.029 7        45.609                                                                    24475367.792 7 103563319.39607     -2533.670 7        46.049
C35        37.000                                                                                                                                    23530869.795 7 122531432.02907      1432.357 7        46.831                                                                    23530868.562 7  99566824.94607      1163.773 7        46.416
I09        38.000    37080313.770 7 145511113.32607      -412.771 7        42.993
C29        39.000                                                                                                                                    22187847.403 8 115537945.70908     -2067.557 8        50.002                                                                    22187844.955 8  93884039.34808     -1680.106 8        48.528
R22        40.000    23495712.836 7 125421727.76707      3772.911 7        44.525                                                                    23495712.374 6  97550243.13906      2934.430 6        40.322
S44        42.000    40531996.971 6 212997268.17906      -495.970 6        36.314
C09        43.000                                                                                                                                    38932410.679 6 202731298.17406       552.873 6        41.764    38932407.197 7 156764689.88507       427.585 7        45.451    38932405.201 6 164735766.52906       449.119 6        41.342
C05        44.000                                                                                                                                    39049724.031 6 203342195.36706      -422.996 6        38.138    39049719.119 7 157237108.09207      -327.112 7        43.562    39049720.657 6 165232293.31406      -343.759 6        39.931
R06        45.000    20381243.932 6 108758270.60506      2001.728 6        40.224
R13        46.000    24064949.205 5 128505492.89605     -2154.009 5        35.957
C39        47.000                                                                                                                                    38815348.322 7 202121713.18607      -491.112 7        42.444                                                                    38815344.191 7 164240437.29807      -399.208 7        43.175
C20        48.000                                                                                                                                    21706318.574 8 113030544.23808      -634.243 8        51.255                                                                    21706312.603 8  91846568.00308      -515.413 8        49.077
C06        49.000                                                                                                                                    38319815.022 6 199541349.95306        82.979 6        41.032    38319808.651 7 154298012.36707        64.085 7        44.676    38319808.125 6 162143670.87906        67.245 6        41.518
C16        50.000                                                                                                                                    38733349.782 7 201694732.97507       -40.204 7        42.330    38733349.634 7 155963170.29107       -31.123 7        43.647    38733347.328 6 163893490.31806       -32.891 6        39.739
S48        51.000    77119587.942 6 405267689.42606      -423.579 6        37.871
C19        52.000                                                                                                                                    23539121.916 7 122574438.21407      1848.991 7        47.766                                                                    23539117.244 8  99601773.68208      1502.426 8        48.181
R04        53.000    23458558.511 7 125619544.72207     -4367.334 7        42.226                                                                    23458558.323 6  97704096.61606     -3396.749 6        37.811
C60        54.000                                                                                                                                    40531997.421 6 211060948.83506      -491.359 6        39.547                                                                    40531981.030 6 171504279.13106      -399.467 6        39.177
C30        55.000                                                                                                                                    25525117.432 6 132915967.56406     -3911.300 6        41.435                                                                    25525119.185 6 108005106.28506     -3178.326 6        41.850
C02        57.000                                                                                                                                    40494296.308 5 210864478.50905      -468.811 5        33.892    40494291.025 6 163053784.24006      -362.575 6        40.236    40494294.414 6 171344664.50106      -380.950 6        36.752
I03        58.000   132788783.739 6 445306465.93206       954.732 6        40.763
C13        59.000                                                                                                                                    41398502.513 4 215572921.55904     -1095.527 4        28.749    41398502.516 4 166694696.42804      -847.395 4        26.467    41398503.393 4 175170684.90014      -889.952 4        25.489
> 2025 01 01 01 16 20.0000000  0 56
G28         1.000    23061293.037 7 121187930.38607      -553.292 7        43.228                                    23061289.851 4  94432135.04004      -431.139 4        29.829    23061289.870 7  94432141.03907      -431.120 7        42.345
G31         2.000    22557501.640 7 118540478.51107      1281.820 7        44.593                                    22557497.486 6  92369190.72706       998.822 6        41.118    22557497.408 6  92369189.71806       998.915 6        41.752
G09         3.000    23749696.625 6 124805516.68006      3257.471 6        40.122                                    23749695.606 5  97251056.63205      2538.289 5        35.338    23749695.488 6  97251057.63306      2538.327 6        37.146
E34         4.000    27340669.553 6 143676192.08806      2362.027 6        39.318                                                                    27340670.121 7 107290669.05607      1763.880 7        42.057    27340669.723 7 110089555.59307      1809.903 7        42.940
S21         5.000    38367429.379 7 201622039.31407      -422.717 7        42.226
E05         6.000    26294528.488 6 138178691.25906      2672.341 6        37.834                                                                    26294530.562 6 103185406.71606      1995.367 6        40.532    26294529.738 6 105877193.07706      2047.622 6        41.166
G21         7.000    22683073.515 7 119200412.22107     -3130.893 7        42.847                                    22683068.750 5  92883441.33205     -2439.660 5        30.272
E04         8.000    23924148.911 7 125722276.65807     -1473.415 7        46.410                                                                    23924147.089 8  93883523.66808     -1100.237 8        50.029    23924146.841 8  96332650.96008     -1128.944 8        50.815
R14         9.000    23459827.314 7 125054084.55507      1223.980 7        44.661                                                                    23459827.487 6  97264277.61206       952.029 6        38.919
G04        10.000    21580405.261 7 113405832.77707      2415.341 7        46.098                                    21580402.300 5  88368189.06705      1882.078 5        35.124    21580402.167 7  88368184.08207      1881.993 7        45.160
E09        11.000    24076571.944 7 126523284.42807      1294.947 7        47.957                                                                    24076571.501 8  94481689.43408       967.022 8        49.656    24076571.187 8  96946428.52308       992.298 8        50.551
S27        12.000    39007327.600 5 204984865.45605      -406.816 5        35.767
G06        13.000    25205268.510 6 132454597.12206      3125.663 6        37.304                                    25205268.701 4 103211375.53904      2435.574 4        28.180    25205269.271 5 103211386.54305      2435.394 5        34.729
S36        14.000    38134922.034 7 200400867.62707      -422.339 7        43.746
E27        15.000    28917489.261 5 151962426.99605        40.619 5        33.257                                                                    28917489.310 6 113478443.45506        30.289 6        39.285    28917488.958 6 116438748.28606        30.903 6        40.198
E36        16.000    23665162.783 7 124361297.82107       701.314 7        47.423                                                                    23665162.793 8  92867220.24108       523.718 8        50.572    23665162.530 8  95289838.09208       537.341 8        51.203
S45        17.000    63333231.050 6 332818655.66506      -463.526 6        37.233
G03        18.000    19882314.212 8 104482323.52708       -61.377 8        49.982                                    19882311.914 8  81414817.17008       -47.827 8        51.645    19882312.631 7  81414826.16407       -47.843 7        46.031
R21        19.000    19561852.563 8 104679467.27608      1101.806 8        52.213                                                                    19561851.532 7  81417373.61607       857.019 7        46.446
R20        20.000    20037290.671 6 107148441.83106     -3160.108 6        39.474                                                                    20037292.711 7  83337675.39007     -2457.869 7        46.655
R05        21.000    19727185.206 8 105453154.69808     -2578.422 8        51.173                                                                    19727184.320 7  82019125.98907     -2005.401 7        46.972
I06        22.000    38099977.120 7 149512724.15607      -219.975 7        42.554
S28        23.000    40807095.506 5 214442737.64005      -415.668 5        34.248
E10        24.000    25928312.492 7 136254320.05007     -2931.615 7        42.597                                                                    25928312.000 7 101748421.81207     -2189.057 7        46.587    25928311.622 7 104402719.10107     -2246.267 7        46.989
S23        25.000    38084504.521 7 200135408.51607      -419.024 7        44.626
E06        26.000    23355319.885 7 122733093.90107        15.095 7        47.922                                                                    23355319.339 8  91651335.73008        11.252 8        50.420    23355319.246 8  94042238.65308        11.605 8        50.985
E30        27.000    28910731.594 6 151926925.88006     -1931.372 6        36.405                                                                    28910732.221 6 113451927.68206     -1442.158 6        38.030    28910731.764 6 116411540.79506     -1479.962 6        38.769
E12        28.000    28327919.981 5 148864361.72405     -3284.948 5        31.977                                                                    28327917.709 6 111165016.64906     -2453.235 6        36.053    28327917.616 6 114064961.57306     -2517.211 6        36.892
E19        30.000    27865858.563 5 146436068.23205     -3341.523 5        32.216                                                                    27865858.316 5 109351602.65805     -2495.129 5        34.724    27865857.592 5 112204251.13105     -2560.038 5        34.333
G32        31.000    25196027.307 6 132406026.45106     -3836.780 6        37.505                                    25196026.366 4 103173521.77104     -2989.696 4        29.450    25196026.776 5 103173526.77905     -2989.891 5        35.514
G02        32.000    21289934.188 8 111879399.74708     -2232.046 8        48.815                                    21289927.444 6  87178749.38106     -1739.259 6        39.715
G19        33.000    22723710.709 7 119413935.48707      1471.795 7        42.658                                    22723704.293 5  93049840.89405      1146.855 5        30.166
G17        34.000    22159361.514 7 116448285.27307      -599.572 7        45.684                                    22159357.240 7  90738934.23007      -467.200 7        43.494    22159357.351 7  90738934.23107      -467.131 7        42.455
E11        35.000    23855349.130 7 125360773.99507     -1936.440 7        44.131                                                                    23855344.988 7  93613583.48307     -1446.084 7        46.355    23855344.658 7  96055669.45607     -1483.791 7        46.840
C32        36.000                                                                                                                                    24478361.650 7 127465276.76007     -3118.295 7        45.518                                                                    24478361.916 7 103575988.48807     -2533.789 7        45.875
C35        37.000                                                                                                                                    23529495.531 7 122524276.17107      1430.227 7        46.502                                                                    23529494.254 7  99561010.20407      1162.265 7        46.202
I09        38.000    37080840.269 7 145513177.92407      -412.859 7        42.988
C29        39.000                                                                                                                                    22189833.765 8 115548289.50408     -2069.844 8        50.070                                                                    22189831.405 8  93892444.51408     -1681.867 8        48.277
R22        40.000    23492179.400 7 125402864.82507      3772.546 7        44.134                                                                    23492178.550 6  97535571.98906      2934.164 6        39.685
S44        42.000    40532466.832 6 212999747.44806      -495.687 6        36.045
C09        43.000                                                                                                                                    38931880.175 6 202728535.76406       552.277 6        41.671    38931876.719 7 156762553.81307       427.116 7        45.476    38931874.785 6 164733521.82206       448.921 6        41.194
C05        44.000                                                                                                                                    39050130.399 6 203344310.48306      -422.886 6        38.562    39050125.267 7 157238743.63707      -327.018 7        43.608    39050126.837 6 165234012.01106      -343.431 6        39.739
R06        45.000    20379369.343 6 108748267.52806      1999.457 6        40.260
R13        46.000    24066967.321 6 128516271.83406     -2157.549 6        36.862
C39        47.000                                                                                                                                    38815820.235 7 202124171.15407      -491.803 7        42.411                                                                    38815816.229 7 164242434.58807      -399.708 7        43.062
C20        48.000                                                                                                                                    21706928.393 8 113033720.07508      -635.945 8        51.244                                                                    21706922.459 8  91849148.61408      -516.708 8        48.909
C06        49.000                                                                                                                                    38319735.663 6 199540937.77706        82.134 6        40.996    38319729.373 7 154297693.64107        63.508 7        44.566    38319728.984 6 162143335.93106        66.877 6        41.237
C16        50.000                                                                                                                                    38733388.710 7 201694936.04407       -40.925 7        42.237    38733388.622 7 155963327.30007       -31.579 7        43.863    38733386.374 6 163893655.29606       -33.091 6        39.492
S48        51.000    77119987.428 6 405269806.48406      -423.395 6        37.089
C19        52.000                                                                                                                                    23537347.025 7 122565196.27807      1847.870 7        47.702                                                                    23537342.371 8  99594263.83308      1501.679 8        48.015
R04        53.000    23462636.664 7 125641380.94707     -4367.093 7        42.663                                                                    23462636.775 6  97721080.35406     -3396.510 6        38.021
C60        54.000                                                                                                                                    40532469.240 6 211063405.55006      -491.207 6        39.375                                                                    40532452.965 6 171506275.39306      -399.114 6        39.003
C30        55.000                                                                                                                                    25528873.085 6 132935524.07206     -3911.291 6        41.642                                                                    25528874.844 6 108020997.52806     -3178.250 6        41.383
C02        57.000                                                                                                                                    40494746.811 5 210866822.79605      -468.473 5        34.129    40494740.879 6 163055597.01106      -362.558 6        40.238    40494744.528 6 171346569.43706      -380.842 6        36.681
I03        58.000   132787567.664 6 445301692.80106       954.730 6        40.903
C13        59.000                                                                                                                                    41399552.621 4 215578397.20204     -1095.358 4        29.204    41399558.535 4 166698930.52704      -846.376 4        26.455    41399555.671 4 175175134.35404      -889.517 4        26.455
> 2025 01 01 01 16 25.0000000  0 56
G28         1.000    23061821.453 7 121190705.71107      -556.876 7        43.308                                    23061817.914 4  94434297.62904      -433.932 4        29.943    23061818.227 6  94434303.62906      -433.895 6        41.943
G31         2.000    22556283.105 7 118534077.15207      1278.625 7        44.464                                    22556279.322 6  92364202.65306       996.329 6        41.130    22556279.132 6  92364201.65906       996.360 6        41.866
G09         3.000    23746596.899 6 124789232.06506      3256.471 6        39.607                                    23746596.525 5  97238367.32105      2537.507 5        35.252    23746596.560 6  97238368.31406      2537.466 6        36.786
E34         4.000    27338421.894 6 143664382.74006      2361.732 6        38.715                                                                    27338422.786 7 107281850.39207      1763.605 7        42.157    27338422.582 7 110080506.88207      1809.510 7        43.018
S21         5.000    38367833.301 7 201624153.77207      -423.163 7        42.324
E05         6.000    26291985.967 6 138165331.38406      2671.625 6        37.444                                                                    26291988.192 6 103175430.18806      1995.043 6        40.739    26291987.495 6 105866956.27706      2047.251 6        41.159
G21         7.000    22686052.896 7 119216070.53807     -3132.458 7        42.821                                    22686048.434 5  92895642.61905     -2440.878 5        30.332
E04         8.000    23925551.952 7 125729649.05307     -1475.587 7        46.536                                                                    23925550.003 8  93889029.03808     -1101.944 8        49.936    23925549.765 8  96338299.94708     -1130.683 8        50.859
R14         9.000    23458681.119 7 125047974.60707      1220.087 7        44.001                                                                    23458681.771 6  97259525.43406       948.901 6        39.021
G04        10.000    21578108.408 7 113393761.74107      2413.040 7        46.522                                    21578105.317 5  88358783.06705      1880.293 5        35.210    21578105.243 7  88358778.06207      1880.312 7        45.029
E09        11.000    24075340.876 7 126516814.86807      1292.813 7        47.970                                                                    24075340.372 8  94476858.27008       965.403 8        49.750    24075340.057 8  96941471.32708       990.586 8        50.524
S27        12.000    39007714.060 5 204986901.07505      -407.260 5        35.857
G06        13.000    25202294.099 6 132438969.96306      3125.185 6        37.146                                    25202294.795 4 103199198.59604      2435.198 4        28.493    25202295.093 6 103199209.57906      2435.300 6        36.491
S36        14.000    38135321.748 7 200402980.10207      -422.761 7        43.689
E27        15.000    28917451.235 5 151962230.13405        37.995 5        34.286                                                                    28917451.744 6 113478296.42206        28.417 6        38.937    28917451.402 6 116438597.41006        29.175 6        40.122
E36        16.000    23664496.347 7 124357796.03907       699.440 7        47.431                                                                    23664496.435 8  92864605.27008       522.316 8        50.576    23664496.198 8  95287154.90508       535.926 8        51.193
S45        17.000    63333626.623 6 332820974.87206      -463.877 6        36.907
G03        18.000    19882373.492 8 104482635.81708       -63.619 8        49.859                                    19882371.346 8  81415060.51308       -49.573 8        51.779    19882371.961 7  81415069.51007       -49.567 7        45.907
R21        19.000    19560825.531 8 104673968.46208      1097.673 8        52.289                                                                    19560823.919 7  81413096.76107       853.777 7        46.662
R20        20.000    20040247.322 6 107164251.83806     -3163.868 6        39.468                                                                    20040248.814 7  83349972.06707     -2460.770 7        46.528
R05        21.000    19729598.130 8 105466053.38108     -2581.089 8        51.209                                                                    19729597.536 7  82029158.29407     -2007.470 7        47.299
I06        22.000    38100257.704 7 149513824.55507      -220.208 7        42.263
S28        23.000    40807494.151 5 214444815.77805      -415.721 5        34.109
E10        24.000    25931102.174 7 136268980.99307     -2932.834 7        42.527                                                                    25931101.907 7 101759369.92907     -2190.117 7        46.575    25931101.404 7 104413952.81707     -2247.324 7        46.977
S23        25.000    38084903.260 7 200137504.20007      -419.279 7        44.524
E06        26.000    23355306.471 8 122733024.48508        12.643 8        48.032                                                                    23355306.112 8  91651283.89408         9.428 8        50.367    23355306.100 8  94042185.46808         9.709 8        50.996
E30        27.000    28912569.774 5 151936587.99205     -1933.566 5        35.500                                                                    28912571.084 6 113459142.87306     -1443.705 6        37.497    28912570.632 6 116418944.19906     -1481.479 6        38.297
E12        28.000    28331046.285 5 148880788.86005     -3285.555 5        31.932                                                                    28331043.703 6 111177283.68006     -2453.612 6        36.026    28331043.488 6 114077548.61706     -2517.901 6        36.930
E19        30.000    27869037.932 5 146452776.62905     -3341.883 5        32.222                                                                    27869037.718 5 109364079.69805     -2495.840 5        34.933    27869037.350 5 112217053.68005     -2560.840 5        34.595
G32        31.000    25199678.594 6 132425212.39806     -3837.718 6        37.357                                    25199677.312 4 103188471.83204     -2990.425 4        29.318    25199677.155 5 103188476.82905     -2990.411 5        35.500
G02        32.000    21292059.083 8 111890566.18508     -2234.503 8        48.668                                    21292052.368 6  87187450.49706     -1741.172 6        39.820
G19        33.000    22722311.598 7 119406584.39907      1468.540 7        42.675                                    22722305.364 5  93044112.77005      1144.316 5        30.325
G17        34.000    22159933.715 7 116451291.49207      -602.854 7        45.734                                    22159929.312 7  90741276.73607      -469.757 7        43.651    22159929.499 7  90741276.73407      -469.819 7        42.468
E11        35.000    23857192.541 7 125370461.05107     -1938.500 7        44.184                                                                    23857188.368 7  93620817.32007     -1447.583 7        46.354    23857188.104 7  96063092.00207     -1485.369 7        46.868
C32        36.000                                                                                                                                    24481356.377 7 127480870.56207     -3119.192 7        45.326                                                                    24481356.479 7 103588659.74107     -2534.568 7        45.971
C35        37.000                                                                                                                                    23528123.561 7 122517131.37007      1427.738 7        46.553                                                                    23528122.141 7  99555204.47607      1160.112 7        46.250
I09        38.000    37081366.177 7 145515243.22507      -413.239 7        42.815
C29        39.000                                                                                                                                    22191822.475 8 115558645.52508     -2072.675 8        49.895                                                                    22191820.148 8  93900859.64208     -1684.180 8        48.371
R22        40.000    23488646.057 7 125384005.15507      3771.354 7        44.626                                                                    23488645.566 6  97520903.37706      2933.263 6        40.176
S44        42.000    40532938.136 6 213002226.60306      -495.880 6        36.011
C09        43.000                                                                                                                                    38931350.332 6 202725777.34306       551.002 6        41.492    38931347.080 7 156760420.83607       426.092 7        45.645    38931345.163 6 164731280.39106       447.864 6        41.201
C05        44.000                                                                                                                                    39050536.713 6 203346425.59206      -423.090 6        38.132    39050531.546 7 157240379.18107      -327.261 7        43.630    39050533.048 6 165235730.73606      -343.863 6        39.949
R06        45.000    20377497.060 6 108738277.17006      1996.615 6        39.568
R13        46.000    24068990.844 6 128527069.10506     -2161.601 6        36.771
C39        47.000                                                                                                                                    38816293.099 7 202126633.62507      -493.137 7        42.305                                                                    38816289.153 7 164244435.54307      -400.671 7        43.234
C20        48.000                                                                                                                                    21707539.916 8 113036905.21008      -638.092 8        51.208                                                                    21707534.117 8  91851736.80808      -518.465 8        49.027
C06        49.000                                                                                                                                    38319656.996 6 199540530.15806        81.021 6        40.913    38319651.245 7 154297378.45707        62.520 7        44.775    38319650.763 6 162143004.72006        65.886 6        41.373
C16        50.000                                                                                                                                    38733428.480 7 201695143.59207       -42.087 7        42.351    38733428.506 7 155963487.79507       -32.613 7        43.989    38733426.239 6 163893823.97606       -34.191 6        39.820
S48        51.000    77120384.539 6 405271923.30406      -423.583 6        37.319
C19        52.000                                                                                                                                    23535573.231 7 122555960.91307      1846.256 7        47.366                                                                    23535568.830 8  99586759.35708      1500.271 8        48.150
R04        53.000    23466715.661 7 125663216.87607     -4367.290 7        42.963                                                                    23466713.935 6  97738063.87206     -3396.781 6        38.411
C60        54.000                                                                                                                                    40532940.889 6 211065862.18506      -491.526 6        39.267                                                                    40532924.788 6 171508271.61506      -399.287 6        39.276
C30        55.000                                                                                                                                    25532629.126 6 132955082.22406     -3911.945 6        41.666                                                                    25532630.629 6 108036890.14606     -3178.624 6        41.349
C02        57.000                                                                                                                                    40495197.770 5 210869167.09905      -469.038 5        33.844    40495191.319 6 163057409.76606      -362.712 6        40.281    40495194.891 6 171348474.37406      -381.141 6        36.586
I03        58.000   132786351.105 6 445296919.75006       954.585 6        40.656
C13        59.000                                                                                                                                    41400606.365 4 215583872.91104     -1095.728 4        29.194    41400604.984 3                      -844.357 3        22.019    41400608.341 4 175179583.79504      -889.960 4        24.421
> 2025 01 01 01 16 30.0000000  0 56
G28         1.000    23062352.747 7 121193497.16207      -559.884 7        43.632                                    23062348.964 4  94436472.78604      -436.273 4        29.810    23062349.503 7  94436478.78007      -436.164 7        42.011
G31         2.000    22555067.949 7 118527690.17007      1276.115 7        44.105                                    22555063.873 6  92359225.78606       994.374 6        41.035    22555063.412 6  92359224.78806       994.288 6        41.540
G09         3.000    23743499.156 6 124772950.95606      3256.022 6        40.565                                    23743498.147 5  97225680.75405      2537.161 5        35.438    23743499.234 6  97225681.77006      2536.985 6        37.025
E34         4.000    27336174.586 6 143652573.84106      2361.909 6        38.492                                                                    27336175.602 7 107273032.05107      1763.783 7        42.123    27336175.372 7 110071458.49707      1809.704 7        43.050
S21         5.000    38368234.776 7 201626268.07607      -422.630 7        42.178
E05         6.000    26289443.920 6 138151972.83406      2671.727 6        37.112                                                                    26289446.058 6 103165454.64706      1995.074 6        40.822    26289445.436 6 105856720.52106      2047.102 6        41.304
G21         7.000    22689033.741 7 119231734.72607     -3133.274 7        42.633                                    22689029.061 5  92907848.47305     -2441.518 5        30.121
E04         8.000    23926956.469 7 125737030.60407     -1477.120 7        46.638                                                                    23926954.658 8  93894541.23308     -1103.004 8        50.014    23926954.412 8  96343955.93608     -1131.825 8        50.877
R14         9.000    23457537.282 7 125041881.92607      1216.890 7        43.627                                                                    23457538.584 6  97254786.68806       946.401 6        38.967
G04        10.000    21575812.904 7 113381700.10607      2411.537 7        46.403                                    21575810.141 5  88349384.39305      1879.116 5        35.200    21575809.866 7  88349379.39407      1879.068 7        44.709
E09        11.000    24074111.537 8 126510354.13708      1291.398 8        48.017                                                                    24074110.921 8  94472033.69608       964.391 8        49.821    24074110.606 8  96936520.90208       989.535 8        50.620
S27        12.000    39008096.898 5 204988936.12205      -406.686 5        35.619
G06        13.000    25199320.879 6 132423342.66306      3125.592 6        36.442                                    25199321.031 4 103187021.49604      2435.506 4        28.692    25199321.392 5 103187032.46305      2435.565 5        35.148
S36        14.000    38135725.347 7 200405092.47007      -422.306 7        43.566
E27        15.000    28917415.898 5 151962044.37005        36.333 5        34.143                                                                    28917416.550 6 113478157.71806        26.961 6        39.420    28917416.164 6 116438455.10106        27.632 6        40.327
E36        16.000    23663831.248 7 124354301.48207       698.223 7        47.381                                                                    23663831.476 8  92861995.69908       521.437 8        50.665    23663831.221 8  95284477.26108       535.048 8        51.256
S45        17.000    63334028.036 6 332823293.73006      -463.505 6        37.195
G03        18.000    19882434.717 8 104482957.90008       -65.314 8        49.936                                    19882432.634 8  81415311.49008       -50.896 8        51.776    19882433.059 7  81415320.48807       -50.880 7        45.687
R21        19.000    19559801.831 8 104668488.86508      1094.121 8        52.346                                                                    19559799.678 7  81408834.85307       850.962 7        46.540
R20        20.000    20043207.805 6 107180078.27506     -3166.894 6        39.889                                                                    20043208.789 7  83362281.51607     -2463.115 7        46.849
R05        21.000    19732013.421 8 105478963.74308     -2583.148 8        51.008                                                                    19732012.427 7  82039199.69507     -2009.145 7        47.170
I06        22.000    38100538.040 7 149514924.71207      -219.922 7        42.245
S28        23.000    40807885.199 5 214446893.59205      -415.344 5        34.267
E10        24.000    25933893.120 7 136283646.79107     -2933.479 7        42.480                                                                    25933892.666 7 101770321.66007     -2190.583 7        46.583    25933892.207 7 104425190.24207     -2247.739 7        46.912
S23        25.000    38085302.719 7 200139599.39507      -418.847 7        44.409
E06        26.000    23355295.302 8 122732965.34808        10.943 8        48.137                                                                    23355294.879 8  91651239.73108         8.170 8        50.453    23355294.813 8  94042140.15408         8.390 8        51.039
E30        27.000    28914410.540 6 151946258.74406     -1934.991 6        36.491                                                                    28914411.157 6 113466364.54106     -1444.738 6        38.243    28914410.943 6 116426354.27106     -1482.503 6        38.793
E12        28.000    28334172.432 5 148897217.92405     -3285.697 5        32.347                                                                    28334170.272 6 111189552.13706     -2453.573 6        36.132    28334169.927 6 114090137.12806     -2517.780 6        36.915
E19        30.000    27872218.027 5 146469486.11105     -3342.010 5        32.144                                                                    27872217.683 5 109376557.47905     -2495.331 5        35.352    27872217.357 5 112229856.98205     -2560.746 5        34.600
G32        31.000    25203329.851 6 132444399.82006     -3837.481 6        37.561                                    25203328.464 4 103203423.05504     -2990.252 4        28.919    25203328.608 5 103203428.03505     -2990.212 5        35.238
G02        32.000    21294185.913 8 111901743.13708     -2236.375 8        48.665                                    21294179.264 6  87196159.80806     -1742.628 6        39.976
G19        33.000    22720915.267 7 119399248.28307      1465.955 7        42.834                                    22720909.332 5  93038396.31805      1142.298 5        30.408
G17        34.000    22160508.455 7 116454312.51507      -605.539 7        45.446                                    22160504.198 7  90743630.77707      -471.848 7        43.729    22160504.294 7  90743630.78107      -471.901 7        42.387
E11        35.000    23859037.558 7 125380155.79707     -1939.728 7        44.588                                                                    23859033.203 7  93628056.89407     -1448.426 7        46.355    23859032.941 7  96070520.43607     -1486.281 7        46.889
C32        36.000                                                                                                                                    24484351.654 7 127496466.66207     -3119.312 7        45.025                                                                    24484351.508 7 103601332.84407     -2534.830 7        45.997
C35        37.000                                                                                                                                    23526753.753 7 122509997.32407      1425.883 7        46.412                                                                    23526752.167 7  99549407.47307      1158.516 7        46.439
I09        38.000    37081892.668 7 145517309.01307      -413.056 7        42.777
C29        39.000                                                                                                                                    22193813.575 8 115569013.45608     -2074.650 8        49.821                                                                    22193811.242 8  93909284.43108     -1685.929 8        48.385
R22        40.000    23485113.490 7 125365148.38707      3771.157 7        45.181                                                                    23485113.313 6  97506237.05506      2933.021 6        41.333
S44        42.000    40533407.250 5 213004705.38205      -495.713 5        35.995
C09        43.000                                                                                                                                    38930821.026 6 202723022.61706       550.698 6        41.225    38930818.070 7 156758290.69907       425.856 7        45.497    38930816.040 6 164729041.94806       447.404 6        41.166
C05        44.000                                                                                                                                    39050943.098 6 203348540.37106      -422.915 6        37.989    39050937.694 7 157242014.46007      -327.000 7        43.471    39050939.143 6 165237449.14906      -343.608 6        39.949
R06        45.000    20375626.620 6 108728299.18506      1994.399 6        39.631
R13        46.000    24071015.793 6 128537884.27706     -2164.824 6        36.643
C39        47.000                                                                                                                                    38816766.932 7 202129100.24507      -493.525 7        42.347                                                                    38816762.884 7 164246439.87507      -401.201 7        43.213
C20        48.000                                                                                                                                    21708153.131 8 113040099.29608      -639.600 8        51.137                                                                    21708147.498 8  91854332.26508      -519.807 8        49.110
C06        49.000                                                                                                                                    38319579.519 6 199540126.81706        80.306 6        41.166    38319573.694 7 154297066.56007        62.141 7        44.655    38319573.451 6 162142676.96306        65.189 6        41.521
C16        50.000                                                                                                                                    38733469.644 7 201695355.34907       -42.725 7        42.354    38733469.252 7 155963651.52707       -32.932 7        43.784    38733466.795 6 163893996.03506       -34.851 6        39.736
S48        51.000    77120785.143 6 405272439.79216      -423.121 6        37.089
C19        52.000                                                                                                                                    23533800.841 7 122546731.81907      1845.342 7        47.350                                                                    23533796.476 8  99579259.95608      1499.434 8        48.116
R04        53.000    23470793.893 7 125685052.20907     -4366.868 7        43.683                                                                    23470791.878 6  97755046.93106     -3396.523 6        38.601
C60        54.000                                                                                                                                    40533412.694 6 211068318.41006      -490.952 6        39.336                                                                    40533396.486 6 171510267.51006      -399.181 6        39.219
C30        55.000                                                                                                                                    25536385.520 6 132974641.70906     -3911.880 6        41.728                                                                    25536386.910 6 108052783.81806     -3178.893 6        41.390
C02        57.000                                                                                                                                    40495647.297 5 210871511.08505      -468.667 5        34.048    40495641.231 6 163059222.28506      -362.454 6        40.064    40495644.612 6 171350379.04106      -380.787 6        36.597
I03        58.000   132785134.435 6 445292146.56706       954.754 6        40.522
C13        59.000                                                                                                                                    41401657.847 4 215589348.37604     -1095.250 4        29.507    41401660.775 4                      -846.395 4        25.353    41401654.264 4                      -888.693 4        24.496
> 2025 01 01 01 16 35.0000000  0 56
G28         1.000    23062886.916 7 121196305.10207      -563.029 7        43.100                                    23062883.233 5  94438660.78905      -438.721 5        30.045    23062884.203 7  94438666.79707      -438.775 7        42.354
G31         2.000    22553855.208 7 118521317.96907      1273.164 7        44.330                                    22553851.200 6  92354260.43506       992.073 6        40.961    22553850.693 6  92354259.44306       991.997 6        41.633
G09         3.000    23740402.246 6 124756673.73506      3255.117 6        40.725                                    23740400.609 5  97212997.21605      2536.455 5        35.624    23740401.477 6  97212998.22806      2536.490 6        37.214
E34         4.000    27333927.996 6 143640765.77506      2361.860 6        39.018                                                                    27333928.538 7 107264214.33607      1763.687 7        42.095    27333928.448 7 110062410.76107      1809.638 7        43.149
S21         5.000    38368638.720 7 201628382.50907      -422.785 7        42.307
E05         6.000    26286902.105 6 138138616.02506      2671.428 6        37.353                                                                    26286904.486 6 103155480.42006      1994.801 6        41.013    26286903.808 6 105846486.08706      2046.764 6        41.402
G21         7.000    22692015.891 7 119247405.18907     -3134.564 7        42.006                                    22692011.061 5  92920059.22805     -2442.513 5        30.309
E04         8.000    23928363.168 7 125744421.67707     -1478.948 7        46.760                                                                    23928361.158 8  93900060.53708     -1104.442 8        50.036    23928360.871 8  96349619.22308     -1133.233 8        50.919
R14         9.000    23456397.502 7 125035807.14507      1213.391 7        44.464                                                                    23456398.157 6  97250061.83606       943.718 6        38.934
G04        10.000    21573519.106 7 113369648.31407      2409.605 7        46.231                                    21573516.762 5  88339993.38705      1877.614 5        35.290    21573516.599 7  88339988.39507      1877.573 7        44.712
E09        11.000    24072883.927 8 126503902.65508      1289.545 8        48.103                                                                    24072883.187 8  94467216.02908       962.969 8        49.877    24072882.923 8  96931577.55308       988.063 8        50.693
S27        12.000    39008486.475 5 204990970.94005      -406.722 5        35.705
G06        13.000    25196347.982 6 132407715.73106      3125.578 6        37.380                                    25196347.304 4 103174844.66104      2435.517 4        28.929    25196348.276 6 103174855.66206      2435.544 6        36.775
S36        14.000    38136127.650 7 200407204.46307      -422.061 7        43.500
E27        15.000    28917382.507 5 151961869.95205        33.901 5        34.114                                                                    28917383.284 6 113478027.43706        25.230 6        39.174    28917382.753 6 116438321.42406        25.944 6        40.195
E36        16.000    23663167.711 7 124350814.57907       696.827 7        47.649                                                                    23663167.925 8  92859391.83908       520.349 8        50.638    23663167.673 8  95281805.47308       533.901 8        51.372
S45        17.000    63334424.499 6 332825612.38706      -463.617 6        36.972
G03        18.000    19882497.944 8 104483290.14208       -67.286 8        49.946                                    19882495.854 8  81415570.37908       -52.430 8        51.925    19882496.328 7  81415579.37807       -52.426 7        45.776
R21        19.000    19558781.170 8 104663028.86208      1090.232 8        52.274                                                                    19558779.696 7  81404588.18807       847.884 7        46.687
R20        20.000    20046170.386 6 107195921.56506     -3170.084 6        39.964                                                                    20046171.720 7  83374604.07507     -2465.667 7        46.778
R05        21.000    19734430.692 8 105491886.13908     -2585.509 8        50.935                                                                    19734429.918 7  82049250.43007     -2010.934 7        47.250
I06        22.000    38100818.274 7 149516024.91607      -219.868 7        42.303
S28        23.000    40808282.735 5 214448971.22305      -415.345 5        34.133
E10        24.000    25936684.945 7 136298317.83807     -2934.441 7        42.332                                                                    25936684.457 7 101781277.30707     -2191.368 7        46.648    25936684.189 7 104436431.69107     -2248.543 7        46.936
S23        25.000    38085701.597 7 200141694.48807      -418.820 7        44.599
E06        26.000    23355286.162 8 122732916.89408         8.761 8        48.160                                                                    23355285.636 8  91651203.54908         6.560 8        50.462    23355285.593 8  94042103.02808         6.739 8        51.092
E30        27.000    28916251.850 6 151955938.45906     -1936.683 6        36.416                                                                    28916253.197 6 113473592.91106     -1446.210 6        37.679    28916252.762 6 116433771.19006     -1483.920 6        38.321
E12        28.000    28337299.470 5 148913649.39105     -3286.538 5        32.180                                                                    28337297.069 6 111201822.36206     -2454.174 6        36.340    28337296.964 6 114102727.43206     -2518.191 6        37.267
E19        30.000    27875397.187 5 146486196.89405     -3342.373 5        32.449                                                                    27875397.538 5 109389036.28505     -2495.919 5        35.462    27875397.209 5 112242661.33505     -2560.959 5        34.805
G32        31.000    25206981.741 6 132463589.13606     -3837.904 6        37.588                                    25206979.982 4 103218375.75804     -2990.568 4        29.422    25206980.200 5 103218380.75005     -2990.602 5        35.243
G02        32.000    21296314.928 8 111912930.99108     -2238.485 8        48.669                                    21296308.226 6  87204877.61306     -1744.272 6        39.985
G19        33.000    22719522.294 7 119391927.58107      1462.719 7        42.916                                    22719516.234 5  93032691.87205      1139.783 5        30.498
G17        34.000    22161086.095 7 116457348.66007      -608.534 7        44.805                                    22161081.976 7  90745996.60107      -474.178 7        43.769    22161082.289 7  90745996.59607      -474.069 7        42.152
E11        35.000    23860883.835 7 125389858.65507     -1941.161 7        44.659                                                                    23860879.584 7  93635302.54907     -1449.636 7        46.311    23860879.399 7  96077955.10007     -1487.447 7        46.966
C32        36.000                                                                                                                                    24487346.956 7 127512065.45007     -3119.864 7        44.916                                                                    24487347.095 7 103614008.14507     -2535.252 7        45.997
C35        37.000                                                                                                                                    23525385.742 7 122502874.43607      1423.680 7        46.467                                                                    23525384.314 7  99543619.55207      1156.748 7        46.406
I09        38.000    37082419.363 7 145519375.61107      -413.263 7        42.804
C29        39.000                                                                                                                                    22195807.034 8 115579393.71308     -2077.115 8        49.630                                                                    22195804.624 8  93917719.24308     -1687.880 8        48.421
R22        40.000    23481581.466 7 125346294.96307      3770.593 7        44.507                                                                    23481580.729 6  97491573.28006      2932.621 6        40.341
S44        42.000    40533883.477 6 213007184.15206      -495.197 6        36.087
C09        43.000                                                                                                                                    38930293.006 6 202720271.96806       549.846 6        41.049    38930289.974 7 156756163.71807       425.284 7        45.416    38930287.792 6 164726806.83506       446.719 6        41.199
C05        44.000                                                                                                                                    39051348.889 6 203350655.23406      -422.767 6        38.303    39051343.896 7 157243649.79807      -326.934 7        43.573    39051345.287 6 165239167.66406      -343.576 6        39.850
R06        45.000    20373758.551 6 108718333.99206      1991.841 6        40.040
R13        46.000    24073043.026 5 128548717.80105     -2168.261 5        35.105
C39        47.000                                                                                                                                    38817241.144 7 202131571.43107      -494.338 7        42.417                                                                    38817237.387 7 164248447.94107      -401.905 7        43.300
C20        48.000                                                                                                                                    21708768.419 8 113043302.74308      -641.425 8        51.184                                                                    21708762.742 8  91856935.34008      -521.341 8        49.057
C06        49.000                                                                                                                                    38319503.630 6 199539728.15406        79.361 6        41.123    38319497.111 7 154296758.28007        61.432 7        44.427    38319496.825 6 162142353.02606        64.426 6        41.464
C16        50.000                                                                                                                                    38733511.422 7 201695571.70907       -43.539 7        42.519    38733510.991 7 155963818.84107       -33.747 7        43.909    38733508.371 6 163894171.87506       -35.606 6        39.703
S48        51.000    77121177.760 6 405274556.11406      -422.990 6        37.981
C19        52.000                                                                                                                                    23532029.980 7 122537509.39607      1844.020 7        47.431                                                                    23532025.449 8  99571766.00108      1498.342 8        48.155
R04        53.000    23474870.995 7 125706887.15907     -4366.773 7        43.854                                                                    23474868.437 6  97772029.64206     -3396.359 6        38.541
C60        54.000                                                                                                                                    40533884.129 6 211070774.67506      -491.108 6        39.216                                                                    40533868.068 6 171512263.41606      -399.010 6        39.207
C30        55.000                                                                                                                                    25540141.934 6 132994202.91706     -3912.236 6        41.747                                                                    25540143.350 6 108068678.90106     -3179.042 6        41.387
C02        57.000                                                                                                                                    40496097.044 5 210873855.14705      -468.773 5        33.772    40496091.497 6 163061034.85306      -362.403 6        40.307    40496094.913 6 171352283.79506      -381.050 6        36.673
I03        58.000   132783918.352 6 445287373.55406       954.749 6        40.684
C13        59.000                                                                                                                                    41402709.178 4 215594823.99804     -1095.250 4        29.156    41402711.235 3                      -845.098 3        22.609    41402709.763 4                      -889.049 4        24.617
> 2025 01 01 01 16 40.0000000  0 56
G28         1.000    23063424.169 7 121199129.64407      -566.688 7        43.149                                    23063420.749 5  94440861.72905      -441.576 5        30.091    23063421.276 7  94440867.73507      -441.739 7        42.605
G31         2.000    22552645.925 7 118514960.66207      1269.728 7        43.611                                    22552641.376 6  92349306.69106       989.395 6        41.108    22552641.012 6  92349305.70806       989.383 6        41.526
G09         3.000    23737305.196 6 124740400.45406      3254.096 6        39.453                                    23737303.868 5  97200316.74805      2535.661 5        35.410    23737304.959 6  97200317.76506      2535.554 6        36.983
E34         4.000    27331681.436 6 143628958.65306      2361.028 6        39.637                                                                    27331681.777 7 107255397.30507      1763.266 7        42.100    27331681.504 7 110053363.71307      1809.245 7        42.906
S21         5.000    38369039.244 7 201630497.06507      -423.126 7        42.313
E05         6.000    26284360.818 6 138125261.03906      2670.557 6        37.214                                                                    26284362.990 6 103145507.53006      1994.391 6        40.808    26284362.326 6 105836253.03206      2046.447 6        41.504
G21         7.000    22694999.249 7 119263082.01907     -3136.227 7        42.011                                    22694994.317 5  92932274.92805     -2443.808 5        30.249
E04         8.000    23929771.446 7 125751822.37507     -1481.278 7        46.766                                                                    23929769.461 8  93905587.02908     -1106.141 8        50.069    23929769.172 8  96355289.88608     -1135.007 8        50.850
R14         9.000    23455261.933 7 125029750.05707      1209.483 7        44.038                                                                    23455261.026 6  97245350.77506       940.636 6        38.246
G04        10.000    21571228.074 7 113357606.44007      2407.244 7        46.253                                    21571225.216 5  88330610.11305      1875.776 5        35.405    21571224.998 7  88330605.11607      1875.742 7        44.439
E09        11.000    24071658.198 8 126497460.46608      1287.292 8        48.170                                                                    24071657.280 8  94462405.30808       961.303 8        49.863    24071657.049 8  96926641.33308       986.399 8        50.584
S27        12.000    39008876.637 5 204993005.86705      -407.148 5        35.348
G06        13.000    25193374.102 6 132392089.27606      3125.220 6        36.544                                    25193373.787 4 103162668.19704      2435.230 4        29.137    25193375.196 6 103162679.22306      2435.115 6        36.560
S36        14.000    38136529.381 7 200409315.99607      -422.455 7        43.702
E27        15.000    28917351.974 5 151961707.18605        31.356 5        34.705                                                                    28917352.473 6 113477905.89306        23.266 6        39.357    28917351.935 6 116438196.69906        24.076 6        40.393
E36        16.000    23662505.514 7 124347335.39307       694.913 7        47.857                                                                    23662505.860 8  92856793.74808       518.896 8        50.707    23662505.588 8  95279139.60308       532.485 8        51.223
S45        17.000    63334819.192 6 332827930.95906      -463.988 6        37.346
G03        18.000    19882563.295 8 104483632.64708       -69.684 8        49.776                                    19882561.028 8  81415837.26308       -54.297 8        52.030    19882561.691 7  81415846.25407       -54.224 7        45.834
R21        19.000    19557764.506 8 104657588.59508      1085.930 8        52.274                                                                    19557763.122 7  81400356.86207       844.615 7        46.803
R20        20.000    20049135.732 6 107211781.73506     -3173.975 6        40.195                                                                    20049137.701 7  83386939.74207     -2468.550 7        46.692
R05        21.000    19736850.325 8 105504820.48508     -2588.218 8        51.170                                                                    19736849.336 7  82059310.48307     -2013.031 7        46.974
I06        22.000    38101098.769 7 149517125.23807      -220.130 7        42.383
S28        23.000    40808678.389 5 214451049.17105      -415.780 5        33.976
E10        24.000    25939477.773 7 136312994.20407     -2936.031 7        42.508                                                                    25939477.419 7 101792236.91807     -2192.458 7        46.661    25939477.105 7 104447677.20707     -2249.636 7        46.935
S23        25.000    38086100.210 7 200143789.65107      -419.213 7        44.542
E06        26.000    23355278.976 8 122732879.18908         6.293 8        48.194                                                                    23355278.424 8  91651175.39408         4.684 8        50.471    23355278.465 8  94042074.13808         4.807 8        51.029
E30        27.000    28918095.734 6 151965627.23406     -1938.846 6        36.423                                                                    28918097.069 6 113480828.01006     -1447.791 6        37.648    28918096.537 6 116441195.04506     -1485.613 6        38.562
E12        28.000    28340426.977 5 148930083.21705     -3287.091 5        32.527                                                                    28340424.136 6 111214094.37806     -2454.712 6        36.665    28340424.427 6 114115319.59306     -2518.786 6        37.376
E19        30.000    27878578.005 5 146502909.11405     -3342.920 5        31.570                                                                    27878577.890 5 109401516.15505     -2496.124 5        34.857    27878577.436 5 112255466.76505     -2561.235 5        34.524
G32        31.000    25210633.289 6 132482780.39706     -3838.690 6        37.648                                    25210631.795 4 103233329.97204     -2991.172 4        29.109    25210631.832 5 103233334.97905     -2991.154 5        34.590
G02        32.000    21298446.292 8 111924129.81708     -2241.054 8        48.832                                    21298439.352 6  87213603.96706     -1746.276 6        40.064
G19        33.000    22718132.276 7 119384622.31407      1459.310 7        42.713                                    22718126.069 5  93026999.45905      1137.126 5        30.641
G17        34.000    22161666.812 7 116460400.06607      -611.983 7        45.374                                    22161662.634 7  90748374.31807      -476.869 7        43.839    22161662.832 6  90748374.31806      -476.919 6        41.971
E11        35.000    23862731.786 7 125399569.72207     -1943.214 7        44.780                                                                    23862727.555 7  93642554.30407     -1451.022 7        46.377    23862727.321 7  96085396.03407     -1488.935 7        46.904
C32        36.000                                                                                                                                    24490343.251 7 127527666.99107     -3120.809 7        44.962                                                                    24490343.293 7 103626685.66907     -2535.719 7        45.983
C35        37.000                                                                                                                                    23524020.240 7 122495762.78207      1420.944 7        46.628                                                                    23524018.591 7  99537840.74007      1154.870 7        46.289
I09        38.000    37082945.921 7 145521443.04407      -413.702 7        42.889
C29        39.000                                                                                                                                    22197802.708 8 115589786.34408     -2079.959 8        49.836                                                                    22197800.437 8  93926164.09708     -1690.022 8        48.431
R22        40.000    23478049.686 7 125327444.95007      3769.451 7        44.555                                                                    23478049.350 6  97476912.20706      2931.766 6        40.293
S44        42.000    40534353.409 6 213009663.02006      -495.882 6        36.465
C09        43.000                                                                                                                                    38929765.273 6 202717525.46606       548.641 6        41.077    38929762.175 7 156754039.94007       424.383 7        45.329    38929760.264 6 164724575.06106       445.997 6        41.154
C05        44.000                                                                                                                                    39051755.114 6 203352770.24206      -423.183 6        38.351    39051750.031 7 157245285.25607      -327.268 7        43.336    39051751.574 6 165240886.27706      -343.655 6        39.874
R06        45.000    20371894.273 6 108708381.68806      1988.878 6        40.010
R13        46.000    24075074.851 5 128559569.26305     -2172.255 5        35.733
C39        47.000                                                                                                                                    38817716.808 7 202134047.27307      -495.860 7        42.436                                                                    38817712.825 7 164250459.74607      -402.764 7        43.094
C20        48.000                                                                                                                                    21709385.571 8 113046515.62708      -643.688 8        51.372                                                                    21709379.730 8  91859546.06008      -522.857 8        49.023
C06        49.000                                                                                                                                    38319428.444 6 199539334.23506        78.155 6        41.390    38319421.513 7 154296453.68407        60.329 7        44.408    38319421.145 6 162142032.92806        63.589 6        41.411
C16        50.000                                                                                                                                    38733554.052 7 201695792.71707       -44.906 7        42.567    38733553.447 7 155963989.73907       -34.681 7        43.837    38733550.719 6 163894351.44206       -36.361 6        39.691
S48        51.000    77121581.020 6 405276672.49606      -423.736 6        37.319
C19        52.000                                                                                                                                    23530260.336 7 122528293.72507      1842.257 7        47.620                                                                    23530255.674 8  99564277.50908      1497.137 8        48.123
R04        53.000    23478947.667 7 125728722.07607     -4367.112 7        43.306                                                                    23478946.725 6  97789012.39506     -3396.755 6        38.270
C60        54.000                                                                                                                                    40534355.827 6 211073231.01006      -491.607 6        39.306                                                                    40534339.860 6 171514259.38606      -399.211 6        39.195
C30        55.000                                                                                                                                    25543898.876 6 133013765.89606     -3913.055 6        41.864                                                                    25543900.156 6 108084575.40706     -3179.410 6        41.364
C02        57.000                                                                                                                                    40496548.490 5 210876199.33805      -469.164 5        34.371    40496541.660 6 163062847.53006      -362.670 6        40.086    40496545.053 6 171354188.63806      -381.220 6        36.646
I03        58.000   132782701.962 6 445282600.75606       954.465 6        40.465
C13        59.000                                                                                                                                    41403759.627 4 215600299.90904     -1095.201 4        29.441    41403760.787 3                      -848.880 3        21.429    41403760.586 3                      -886.258 3        22.667
> 2025 01 01 01 16 45.0000000  0 56
G28         1.000    23063965.054 7 121201970.57907      -569.985 7        43.386                                    23063961.364 4  94443075.44704      -444.152 4        29.791    23063962.000 7  94443081.45807      -444.129 7        42.863
G31         2.000    22551438.749 7 118508618.05307      1267.034 7        44.533                                    22551434.395 6  92344364.40506       987.298 6        41.189    22551433.912 6  92344363.42406       987.161 6        41.292
G09         3.000    23734208.936 6 124724130.97606      3253.366 6        38.868                                    23734207.900 5  97187639.23805      2535.085 5        35.014    23734208.950 6  97187640.23106      2535.465 6        37.595
E34         4.000    27329434.513 6 143617152.27006      2361.177 6        39.408                                                                    27329435.290 7 107246580.85407      1763.090 7        42.006    27329434.839 7 110044317.27707      1809.153 7        42.811
S21         5.000    38369441.793 7 201632611.50407      -423.031 7        42.326
E05         6.000    26281819.497 6 138111907.68706      2670.633 6        36.794                                                                    26281822.020 6 103135535.90106      1994.171 6        40.856    26281821.210 6 105826021.28206      2046.086 6        41.564
G21         7.000    22697983.776 7 119278765.00707     -3137.266 7        42.263                                    22697978.839 5  92944495.43705     -2444.620 5        30.302
E04         8.000    23931181.396 7 125759232.48707     -1482.989 7        46.677                                                                    23931179.540 8  93911120.56208     -1107.455 8        50.001    23931179.298 8  96360967.76608     -1136.327 8        50.953
R14         9.000    23454128.437 7 125023710.72607      1206.103 7        44.304                                                                    23454128.524 6  97240653.51506       938.066 6        38.733
G04        10.000    21568938.448 7 113345574.30207      2405.361 7        46.489                                    21568935.540 5  88321234.42405      1874.305 5        35.276    21568935.302 7  88321229.41807      1874.385 7        44.357
E09        11.000    24070433.792 8 126491027.42008      1285.657 8        48.277                                                                    24070433.111 8  94457601.41108       960.102 8        49.780    24070432.839 8  96921712.12108       985.086 8        50.675
S27        12.000    39009261.264 5 204995040.89305      -407.133 5        35.819
G06        13.000    25190400.382 6 132376463.20906      3125.189 6        36.756                                    25190400.131 4 103150492.03904      2435.212 4        29.147    25190400.751 5 103150503.03005      2434.889 5        35.171
S36        14.000    38136933.200 7 200411428.75907      -422.518 7        44.011
E27        15.000    28917322.939 5 151961555.74005        28.925 5        35.119                                                                    28917323.642 6 113477792.78806        21.622 6        39.234    28917322.694 6 116438080.63306        22.347 6        39.847
E36        16.000    23661845.034 7 124343863.75607       693.585 7        47.739                                                                    23661845.228 8  92854201.29508       517.894 8        50.601    23661844.967 8  95276479.52208       531.392 8        51.286
S45        17.000    63335217.984 6 332830249.38206      -463.814 6        37.342
G03        18.000    19882630.222 8 104483985.22408       -71.622 8        49.543                                    19882628.124 8  81416111.99808       -55.810 8        51.906    19882628.845 7  81416121.00107       -55.823 7        45.871
R21        19.000    19556751.435 8 104652167.73208      1082.125 8        52.282                                                                    19556749.812 7  81396140.64107       841.599 7        46.601
R20        20.000    20052104.875 6 107227658.48506     -3177.146 6        39.760                                                                    20052106.432 7  83399288.33507     -2471.090 7        46.434
R05        21.000    19739271.977 8 105517766.60008     -2590.518 8        50.867                                                                    19739271.593 7  82069379.68807     -2014.823 7        47.268
I06        22.000    38101379.028 7 149518225.52007      -220.074 7        42.209
S28        23.000    40809076.126 5 214453126.91905      -415.632 5        33.623
E10        24.000    25942271.714 7 136327675.68307     -2936.879 7        42.965                                                                    25942271.173 7 101803200.36207     -2193.071 7        46.646    25942271.016 7 104458926.66507     -2250.384 7        47.078
S23        25.000    38086497.756 7 200145884.76607      -419.171 7        44.528
E06        26.000    23355273.767 8 122732852.05208         4.289 8        48.230                                                                    23355273.321 8  91651155.13608         3.212 8        50.428    23355273.274 8  94042053.35008         3.295 8        51.084
E30        27.000    28919940.990 6 151975324.87006     -1940.698 6        36.068                                                                    28919942.097 6 113488069.76806     -1449.092 6        38.751    28919942.148 6 116448625.71306     -1486.875 6        39.396
E12        28.000    28343554.115 5 148946519.27505     -3287.578 5        32.365                                                                    28343551.696 6 111226368.04606     -2454.874 6        36.314    28343552.120 6 114127913.45706     -2518.966 6        37.403
E19        30.000    27881758.576 5 146519622.66505     -3342.658 5        32.228                                                                    27881758.499 5 109413997.03605     -2496.446 5        35.657    27881758.044 5 112268273.22305     -2561.483 5        35.010
G32        31.000    25214285.398 6 132501973.39506     -3838.866 6        38.006                                    25214284.024 4 103248285.54404     -2991.323 4        29.213    25214284.317 5 103248290.54905     -2991.401 5        34.390
G02        32.000    21300579.302 8 111935339.45508     -2243.052 8        48.633                                    21300572.490 6  87222338.74906     -1747.834 6        39.943
G19        33.000    22716744.756 7 119377332.35407      1456.417 7        42.387                                    22716738.779 5  93021318.96805      1134.869 5        30.377
G17        34.000    22162250.708 7 116463466.57407      -614.794 7        45.383                                    22162246.176 7  90750763.80107      -479.063 7        43.767    22162246.379 6  90750763.80906      -479.113 6        41.998
E11        35.000    23864581.243 7 125409288.77607     -1944.585 7        44.945                                                                    23864577.029 7  93649812.04207     -1452.090 7        46.293    23864576.841 7  96092843.11307     -1490.046 7        46.935
C32        36.000                                                                                                                                    24493339.879 7 127543271.11807     -3121.169 7        44.898                                                                    24493339.962 7 103639365.29807     -2536.116 7        45.988
C35        37.000                                                                                                                                    23522656.682 7 122488662.18407      1418.977 7        46.754                                                                    23522654.936 7  99532070.93007      1153.023 7        46.354
I09        38.000    37083473.145 7 145523511.18807      -413.687 7        42.775
C29        39.000                                                                                                                                    22199801.116 8 115600191.17308     -2082.212 8        50.067                                                                    22199798.557 8  93934618.87208     -1691.940 8        48.439
R22        40.000    23474519.783 7 125308598.23807      3769.055 7        43.833                                                                    23474519.262 6  97462253.66406      2931.534 6        40.095
S44        42.000    40534828.278 6 213012141.79306      -495.616 6        36.072
C09        43.000                                                                                                                                    38929238.406 6 202714782.95306       548.038 6        40.925    38929235.638 7 156751919.25907       423.758 7        45.374    38929233.723 6 164722346.54606       445.323 6        41.130
C05        44.000                                                                                                                                    39052161.387 6 203354885.23606      -423.132 6        38.384    39052155.894 7 157246920.69707      -327.148 7        43.363    39052157.745 6 165242604.87806      -343.751 6        39.997
R06        45.000    20370031.268 6 108698442.06306      1986.577 6        40.088
R13        46.000    24077111.854 6 128570438.78906     -2175.647 6        36.624
C39        47.000                                                                                                                                    38818193.084 7 202136527.56907      -496.650 7        42.800                                                                    38818189.198 7 164252475.18707      -403.519 7        43.198
C20        48.000                                                                                                                                    21710004.462 8 113049737.76008      -645.428 8        51.534                                                                    21709998.536 8  91862164.30608      -524.444 8        48.941
C06        49.000                                                                                                                                    38319353.062 6 199538944.87306        77.364 6        41.590    38319346.824 7 154296152.60707        59.746 7        44.348    38319346.397 6 162141716.53606        62.853 6        41.337
C16        50.000                                                                                                                                    38733597.179 7 201696018.21207       -45.557 7        42.923    38733596.805 7 155964164.11907       -35.308 7        43.795    38733594.163 6 163894534.66606       -36.927 6        39.778
S48        51.000    77121979.576 6 405278788.71006      -423.040 6        36.824
C19        52.000                                                                                                                                    23528491.664 7 122519084.61507      1841.127 7        47.731                                                                    23528487.177 8  99556794.34808      1496.117 8        48.098
R04        53.000    23483024.888 7 125750556.64707     -4366.846 7        42.844                                                                    23483023.824 6  97805994.86306     -3396.594 6        38.312
C60        54.000                                                                                                                                    40534827.489 6 211075687.22406      -491.178 6        39.228                                                                    40534811.545 6 171516255.27506      -399.232 6        39.186
C30        55.000                                                                                                                                    25547655.997 7 133033330.46007     -3913.185 7        42.023                                                                    25547657.381 6 108100473.21006     -3179.736 6        41.380
C02        57.000                                                                                                                                    40496997.951 5 210878543.55905      -469.176 5        33.527    40496991.992 6 163064660.21706      -362.535 6        40.019    40496995.422 6 171356093.45606      -380.631 6        36.681
I03        58.000   132781485.851 6 445277828.05306       954.420 6        40.424
C13        59.000                                                                                                                                    41404812.081 4 215605775.84804     -1095.131 4        28.967    41404820.347 4                      -845.916 4        24.977    41404811.005 3                      -890.953 3        22.876
