     3.04           OBSERVATION DATA    M                   RINEX VERSION / TYPE
ssrcrin-15.6.1x                         20250101 000000 UTC PGM / RUN BY / DATE 
(00000000023479385599111004) Septentrio proprietary         COMMENT             
ract                                                        MARKER NAME         
01                                                          MARKER NUMBER       
geodetic                                                    MARKER TYPE         
NFB                 CLIMERS@TUW                             OBSERVER / AGENCY   
3296359             SEPT ASTERX SB3 PROB4.14.4              REC # / TYPE / VERS 
Unknown             Unknown                                 ANT # / TYPE        
  4127445.8715  1206915.1282  4695541.0781                  APPROX POSITION XYZ 
        0.0000        0.0000        0.0000                  ANTENNA: DELTA H/E/N
G   23 X1  C1C L1C D1C S1C C1W S1W C2W L2W D2W S2W C2L L2L  SYS / # / OBS TYPES 
       D2L S2L C5Q L5Q D5Q S5Q C1L L1L D1L S1L              SYS / # / OBS TYPES 
E   21 X1  C1C L1C D1C S1C C6C L6C D6C S6C C5Q L5Q D5Q S5Q  SYS / # / OBS TYPES 
       C7Q L7Q D7Q S7Q C8Q L8Q D8Q S8Q                      SYS / # / OBS TYPES 
S    9 X1  C1C L1C D1C S1C C5I L5I D5I S5I                  SYS / # / OBS TYPES 
R   17 X1  C1C L1C D1C S1C C2P L2P D2P S2P C2C L2C D2C S2C  SYS / # / OBS TYPES 
       C3Q L3Q D3Q S3Q                                      SYS / # / OBS TYPES 
C   25 X1  C1P L1P D1P S1P C5P L5P D5P S5P C2I L2I D2I S2I  SYS / # / OBS TYPES 
       C7I L7I D7I S7I C6I L6I D6I S6I C7D L7D D7D S7D      SYS / # / OBS TYPES 
J   17 X1  C1C L1C D1C S1C C2L L2L D2L S2L C5Q L5Q D5Q S5Q  SYS / # / OBS TYPES 
       C1L L1L D1L S1L                                      SYS / # / OBS TYPES 
I    5 X1  C5A L5A D5A S5A                                  SYS / # / OBS TYPES 
SEPTENTRIO RECEIVERS OUTPUT ALIGNED CARRIER PHASES.         COMMENT             
NO FURTHER PHASE SHIFT APPLIED IN THE RINEX ENCODER.        COMMENT             
G L1C                                                       SYS / PHASE SHIFT   
G L2W                                                       SYS / PHASE SHIFT   
G L2L  0.00000                                              SYS / PHASE SHIFT   
G L5Q  0.00000                                              SYS / PHASE SHIFT   
G L1L  0.00000                                              SYS / PHASE SHIFT   
E L1C  0.00000                                              SYS / PHASE SHIFT   
E L6C  0.00000                                              SYS / PHASE SHIFT   
E L5Q  0.00000                                              SYS / PHASE SHIFT   
E L7Q  0.00000                                              SYS / PHASE SHIFT   
E L8Q  0.00000                                              SYS / PHASE SHIFT   
S L1C                                                       SYS / PHASE SHIFT   
S L5I                                                       SYS / PHASE SHIFT   
R L1C                                                       SYS / PHASE SHIFT   
R L2P  0.00000                                              SYS / PHASE SHIFT   
R L2C                                                       SYS / PHASE SHIFT   
R L3Q  0.00000                                              SYS / PHASE SHIFT   
C L1P  0.00000                                              SYS / PHASE SHIFT   
C L5P  0.00000                                              SYS / PHASE SHIFT   
C L2I                                                       SYS / PHASE SHIFT   
C L7I                                                       SYS / PHASE SHIFT   
C L6I                                                       SYS / PHASE SHIFT   
C L7D                                                       SYS / PHASE SHIFT   
J L1C                                                       SYS / PHASE SHIFT   
J L2L  0.00000                                              SYS / PHASE SHIFT   
J L5Q  0.00000                                              SYS / PHASE SHIFT   
J L1L  0.00000                                              SYS / PHASE SHIFT   
I L5A                                                       SYS / PHASE SHIFT   
  2025     1     1     0     0    0.0000000     GPS         TIME OF FIRST OBS   
 C1C    0.000 C2C    0.000 C2P    0.000                     GLONASS COD/PHS/BIS 
DBHZ                                                        SIGNAL STRENGTH UNIT
    18                                                      LEAP SECONDS        
 24 R01  1 R02 -4 R03  5 R04  6 R05  1 R06 -4 R07  5 R08  6 GLONASS SLOT / FRQ #
    R09 -2 R10 -7 R11  0 R12 -1 R13 -2 R14 -7 R15  0 R16 -1 GLONASS SLOT / FRQ #
    R17  4 R18 -3 R19  3 R20  2 R21  4 R22 -3 R23  3 R24  2 GLONASS SLOT / FRQ #
                                                            END OF HEADER       
> 2025 01 01 00 00  0.0000000  0 35
E19         1.000    25817476.586 4                     -2880.776 4        24.707                                                                    25817471.410 5 101313297.87005     -2151.198 5        31.102    25817469.721 5                     -2207.587 5        32.054
G32         2.000    22826963.723 6 119956741.60906     -3034.662 6        41.809                                    22826957.086 4  93472572.22204     -2364.667 4        28.863    22826957.670 6  93472621.23106     -2364.750 6        37.754
G21         3.000    21138432.798 6 111083218.18606     -2061.463 6        36.998                                    21138435.198 2  86558338.02502     -1606.377 2        12.061
G14         4.000    24780285.631 4                     -2824.539 4        28.635                                                                                                    24780311.788 5 101471180.86605     -2201.057 5        32.533
G02         5.000    20825678.165 7 109439853.91407      -586.274 7        47.193                                    20825670.126 6  85277671.33206      -456.839 6        36.352
E04         7.000    24077386.310 5 126527816.51405       152.101 5        35.700                                                                    24077384.380 6  94484862.32306       113.449 6        40.200    24077383.243 7  96949635.66307       116.578 7        43.991
G03         8.000    21208966.183 7 111453921.69407      1340.737 7        45.982                                    21208963.718 6  86847221.37106      1044.730 6        40.968    21208964.597 6  86847221.38106      1044.670 6        39.150
E02         9.000    27546100.567 6 144756148.98106     -2514.447 6        36.306                                                                    27546096.900 5 108096907.72705     -1877.479 5        32.066    27546118.624 5 110916813.35605     -1926.627 5        34.233
E12        10.000    26303206.971 5 138224319.11205     -3031.100 5        31.162                                                                    26303205.247 6 103219430.93606     -2263.385 6        38.393    26303204.098 6 105912182.12506     -2322.473 6        39.330
G28        11.000    24357461.468 5                      1555.024 5        31.721
E09        12.000    26419926.626 6 138837691.31806      2197.358 6        39.417                                                                    26419926.888 6 103677518.59406      1641.003 6        38.643    26419927.854 6 106382106.90606      1683.716 6        40.164
E10        13.000    24421818.747 7 128337515.93807     -2225.226 7        45.305                                                                    24421815.833 7  95836457.99807     -1661.744 7        45.704    24421815.083 7  98336563.02807     -1705.038 7        43.359
E06        14.000    24780738.508 6 130223652.12406      1447.794 6        36.968                                                                    24780735.210 5  97244959.42605      1081.165 5        34.600    24780747.433 5  99781807.02305      1109.604 5        32.377
E11        15.000    23387016.184 6 122899597.84106      -906.268 6        39.916                                                                    23387011.878 7  91775663.90107      -676.798 7        43.136    23387012.691 7  94169810.28407      -694.408 7        45.081
E30        17.000                                                                                                                                    28649190.269 4 112425730.87604      -234.129 4        26.551
E36        20.000    25334115.973 6 133131664.73206      1254.038 6        36.208                                                                    25334115.504 6  99416497.29206       936.502 6        38.504    25334112.267 5 102009998.07505       960.868 5        34.748
G08        21.000    23701626.602 6 124552941.45806     -4438.107 6        39.778                                    23701680.212 1  97054450.66301     -3458.278 1         6.125    23701629.924 4                     -3458.604 4        28.853
G17        22.000    23378377.475 7 122854411.34607      1515.190 7        46.669                                    23378373.700 6  95730625.84706      1180.661 6        38.904    23378373.557 6  95730534.83606      1180.705 6        40.393
S23        24.000    38297315.381 6 201253703.37506      -824.524 6        41.042
S36        25.000    38344982.565 6 201504049.69806      -827.042 6        37.108
R20        27.000    19362992.732 3                      -163.843 3        22.095                                                                    19362988.968 5  80533083.02705      -127.433 5        35.114
R04        28.000    20576835.881 7 110188167.07007     -3751.146 7        46.649                                                                    20576833.965 7  85701798.04107     -2917.580 7        43.005
R12        32.000    23972579.092 5 128057132.36005     -1489.056 5        34.357                                                                    23972615.825 3                     -1159.045 3        22.990
C19        33.000                                                                                                                                    26207787.287 5                      2401.975 5        32.257
R21        34.000    22248035.958 6 119053787.48106      2954.888 6        41.690                                                                    22248033.399 6  92597484.62506      2298.133 6        38.513
R19        35.000    21983738.586 4 117598163.80604     -4372.100 4        28.464                                                                    21983730.345 5  91465243.33305     -3399.834 5        30.347
R05        36.000    19319791.004 8 103275461.72108       113.393 8        51.513                                                                    19319790.390 7  80325256.04507        88.181 7        47.782
C39        38.000                                                                                                                                    39350763.412 5 204909737.51005         2.626 5        33.748
C29        43.000                                                                                                                                    22011463.104 7 114619424.33007       -51.649 7        47.388                                                                    22011460.934 7  93137733.47607       -41.993 7        45.828
C16        45.000                                                                                                                                                                                                    39647452.944 4                       302.981 4        24.271
C32        47.000                                                                                                                                    22691281.000 8 118159524.50308     -2462.383 8        48.699                                                                    22691278.818 7  96014279.26407     -2000.817 7        42.472
C35        51.000                                                                                                                                    26047413.834 7 135635719.52507      2325.485 7        42.210                                                                    26047412.765 6 110215132.68406      1889.615 6        38.336
I09        54.000    37274035.422 6 146271319.66006      -541.005 6        40.665
C20        55.000                                                                                                                                    22545983.868 7 117402846.82907       861.526 7        44.704                                                                    22545978.925 7  95399507.83107       700.100 7        47.774
C30        58.000                                                                                                                                    23020404.141 6 119873434.26806     -3284.998 6        41.058                                                                    23020404.542 6  97406921.09406     -2669.262 6        41.857
> 2025 01 01 00 00  5.0000000  0 35
E19         1.000    25820211.243 3                     -2883.263 3        19.582                                                                    25820213.648 5 101324057.39905     -2152.639 5        32.539    25820212.011 5                     -2208.845 5        31.343
G32         2.000    22829852.258 7 119971921.65007     -3037.376 7        42.864                                    22829845.857 4  93484400.80404     -2366.781 4        29.374    22829845.562 6  93484449.77906     -2366.697 6        36.873
G21         3.000    21140397.491 6 111093530.88206     -2063.434 6        36.129                                    21140397.426 2  86566373.90902     -1607.883 2        12.242
G14         4.000                                                                                                                                                                    24783007.569 5 101482189.15205     -2202.339 5        30.830
G02         5.000    20826237.258 7 109442790.75607      -588.555 7        46.230                                    20826228.985 6  85279959.78806      -458.614 6        36.121
E04         7.000    24077244.281 6 126527062.54406       149.524 6        38.625                                                                    24077240.566 6  94484299.31006       111.498 6        39.420    24077239.613 7  96949057.94607       114.580 7        43.930
G03         8.000    21207691.635 7 111447222.67507      1338.804 7        46.219                                    21207689.068 6  86842001.36306      1043.224 6        40.756    21207689.993 6  86842001.37606      1043.120 6        39.967
E02         9.000    27548497.103 6 144768725.95806     -2516.486 6        36.975                                                                    27548491.179 5 108106299.59605     -1879.214 5        32.407    27548508.979 5 110926450.18705     -1928.104 5        34.438
E12        10.000    26306092.625 5 138239477.26405     -3032.180 5        31.396                                                                    26306089.914 6 103230750.34006     -2264.255 6        38.682    26306088.662 6 105923796.81506     -2323.405 6        39.348
G28        11.000    24355986.602 5                      1553.217 5        32.665
E09        12.000    26417836.291 6 138826706.76406      2196.335 6        39.387                                                                    26417837.213 6 103669315.86906      1639.983 6        39.081    26417837.175 6 106373690.17006      1683.001 6        40.181
E10        13.000    24423935.984 7 128348645.74407     -2226.740 7        44.340                                                                    24423933.931 7  95844769.20707     -1662.826 7        46.023    24423933.253 7  98345091.05107     -1706.211 7        43.335
E06        14.000    24779361.089 6 130216416.49606      1446.024 6        36.234                                                                    24779358.391 5  97239556.19405      1079.890 5        34.952    24779371.469 5  99776262.83605      1107.849 5        34.348
E11        15.000    23387879.750 6 122904133.40106      -907.936 6        39.820                                                                    23387874.970 7  91779050.84507      -677.937 7        43.295    23387875.736 7  94173285.57907      -695.581 7        45.160
E30        17.000                                                                                                                                    28649490.716 4 112426909.13004      -236.580 4        27.293    28649512.794 5 115359616.46515      -243.133 5        32.988
E36        20.000    25332922.940 6 133125397.20806      1252.954 6        36.393                                                                    25332923.263 6  99411816.99106       935.742 6        39.087    25332918.970 5 102005195.69205       960.027 5        33.701
G08        21.000    23705848.803 6 124575134.03106     -4439.025 6        38.895                                    23705903.534 1  97071743.49701     -3458.804 1         3.200    23705854.520 4                     -3458.763 4        29.431
G17        22.000    23376937.222 7 122846840.70507      1512.920 7        46.086                                    23376932.729 6  95724726.64806      1178.899 6        38.874    23376932.828 6  95724635.64206      1178.967 6        39.898
S23        24.000    38298098.331 6 201257825.64706      -824.633 6        40.884
S36        25.000    38345769.280 6 201508184.87906      -827.223 6        36.904
R20        27.000                                                                                                                                    19363143.612 6  80533727.93306      -130.274 6        37.146
R04        28.000    20580340.039 7 110206929.73207     -3753.969 7        46.828                                                                    20580338.674 7  85716391.22907     -2919.631 7        43.242
R12        32.000    23973971.258 4 128064590.07204     -1493.825 4        29.498                                                                    23974003.718 3                     -1162.028 3        20.976
C19        33.000                                                                                                                                    26205480.775 5                      2401.134 5        32.832
R21        34.000    22245277.967 7 119039015.94907      2953.590 7        44.396                                                                    22245273.174 6  92585995.61106      2297.202 6        37.819
R19        35.000    21987822.686 4 117620027.64804     -4374.095 4        25.594                                                                    21987819.346 4  91482248.60104     -3402.315 4        29.934
R05        36.000    19319687.450 8 103274904.88708       109.272 8        51.546                                                                    19319685.765 8  80324822.95208        84.974 8        48.205
C39        38.000                                                                                                                                    39350760.215 5 204909727.79605         1.499 5        33.251
C29        43.000                                                                                                                                    22011513.204 7 114619689.03107       -54.317 7        46.455                                                                    22011511.831 7  93137948.53007       -44.071 7        46.036
C16        45.000                                                                                                                                                                                                    39647075.665 4                       300.922 4        25.383
C32        47.000                                                                                                                                    22693645.273 8 118171841.31508     -2464.406 8        48.895                                                                    22693644.545 7  96024287.64807     -2002.419 7        42.991
C35        51.000                                                                                                                                    26045181.137 7 135624094.46907      2324.538 7        42.207                                                                    26045180.285 6 110205686.35206      1889.061 6        38.751
I09        54.000    37274725.400 6 146274025.17206      -541.243 6        40.672
C20        55.000                                                                                                                                    22545157.788 7 117398544.66207       859.233 7        46.192                                                                    22545152.529 7  95396011.96107       698.278 7        47.284
C30        58.000                                                                                                                                    23023559.379 6 119889863.55806     -3286.935 6        40.953                                                                    23023559.783 6  97420271.21706     -2670.762 6        41.847
> 2025 01 01 00 00 10.0000000  0 35
E19         1.000                                                                                                                                    25822957.488 5 101334823.07905     -2153.715 5        33.228    25822955.329 5                     -2210.133 5        31.555
G32         2.000    22832742.284 7 119987113.05007     -3039.500 7        42.660                                    22832736.524 4  93496238.25504     -2368.433 4        29.336    22832736.159 5  93496287.25805     -2368.387 5        35.838
G21         3.000    21142360.327 5 111103852.57605     -2064.945 5        31.947                                    21142361.453 1  86574416.74601     -1609.030 1        11.333
G14         4.000                                                                                                                                                                    24785701.168 4 101493204.59104     -2203.907 4        28.882
G02         5.000    20826798.149 7 109445737.83707      -590.569 7        45.616                                    20826789.865 6  85282256.21706      -460.179 6        36.185
E04         7.000    24077101.872 6 126526319.96206       147.366 6        40.391                                                                    24077099.015 6  94483744.79106       109.872 6        38.102    24077098.096 7  96948488.95107       112.826 7        43.623
G03         8.000    21206418.684 7 111440532.69307      1336.926 7        45.682                                    21206416.167 6  86836788.38606      1041.762 6        40.572    21206417.075 6  86836788.40206      1041.725 6        40.386
E02         9.000    27550896.782 6 144781311.69006     -2518.108 6        36.250                                                                    27550886.667 5 108115698.03205     -1880.087 5        32.772    27550906.859 5 110936093.81205     -1929.296 5        34.886
E12        10.000    26308978.191 5 138254639.82005     -3032.981 5        32.904                                                                    26308975.366 6 103242073.01906     -2264.949 6        38.709    26308974.351 6 105935414.84606     -2324.094 6        39.856
G28        11.000    24354508.476 5                      1551.562 5        31.992
E09        12.000    26415746.872 6 138815726.49906      2195.460 6        39.141                                                                    26415748.054 6 103661116.32206      1639.530 6        39.814    26415747.376 6 106365276.72806      1682.319 6        39.745
E10        13.000    24426054.235 7 128359781.84907     -2227.922 7        42.709                                                                    24426053.211 7  95853085.11807     -1663.682 7        46.024    24426052.564 7  98353623.90707     -1707.165 7        43.219
E06        14.000    24777985.004 5 130209189.10905      1444.612 5        34.429                                                                    24777982.906 5  97234159.10305      1079.101 5        34.757    24777996.416 5  99770724.96005      1106.807 5        35.162
E11        15.000    23388744.240 6 122908675.94906      -909.273 6        39.556                                                                    23388739.398 7  91782442.99407      -678.988 7        43.145    23388740.115 7  94176766.22807      -696.671 7        45.189
E30        17.000                                                                                                                                    28649793.450 4 112428095.94304      -238.117 4        28.550    28649810.122 5 115360834.21105      -244.582 5        33.150
E36        20.000    25331731.039 5 133119132.66705      1252.213 5        35.276                                                                    25331731.155 6  99407138.90406       935.272 6        39.429    25331726.460 5 102000395.54905       959.812 5        33.263
G08        21.000    23710072.657 6 124597329.86106     -4439.613 6        38.261                                    23710127.469 1  97089039.02801     -3459.485 1         3.200    23710079.631 4                     -3459.273 4        29.630
G17        22.000    23375498.703 7 122839280.48107      1510.901 7        44.980                                    23375493.671 6  95718835.56706      1177.331 6        38.562    23375494.470 6  95718744.54906      1177.199 6        38.321
S23        24.000    38298883.289 6 201261947.91006      -824.585 6        40.934
S36        25.000    38346557.390 6 201512321.34206      -827.261 6        37.100
R20        27.000    19363286.111 4                      -170.563 4        24.511                                                                    19363301.138 6  80534386.19706      -132.939 6        38.306
R04        28.000    20583845.887 7 110225704.96707     -3756.364 7        46.764                                                                    20583844.491 7  85730994.19107     -2921.649 7        43.024
R12        32.000    23975369.903 4 128072067.47804     -1497.928 4        25.955
C19        33.000                                                                                                                                    26203177.630 5                      2400.535 5        32.299
R21        34.000    22242519.373 7 119024249.45407      2952.711 7        45.351                                                                    22242512.745 6  92574510.55806      2296.603 6        36.450
R19        35.000                                                                                                                                    21991909.194 5  91499261.38705     -3403.480 5        30.860
R05        36.000    19319586.242 8 103274367.74908       105.376 8        50.839                                                                    19319585.522 8  80324405.18008        81.957 8        48.093
C39        38.000                                                                                                                                    39350759.880 5 204909723.00005         0.099 5        32.461
C29        43.000                                                                                                                                    22011566.377 7 114619966.04207       -56.713 7        46.236                                                                    22011565.153 7  93138173.66007       -46.197 7        46.253
C16        45.000                                                                                                                                                                                                    39646698.126 4                       300.835 4        25.639
C32        47.000                                                                                                                                    22696011.684 8 118184167.21208     -2466.175 8        48.820                                                                    22696011.974 7  96034303.46907     -2004.076 7        43.992
C35        51.000                                                                                                                                    26042949.409 6 135612472.39606      2323.929 6        41.459                                                                    26042948.544 6 110196242.50906      1888.340 6        38.883
I09        54.000    37275415.128 6 146276731.75406      -541.368 6        40.801
C20        55.000                                                                                                                                    22544335.215 7 117394252.87707       857.232 7        46.564                                                                    22544328.209 7  95392524.56807       696.520 7        47.014
C30        58.000                                                                                                                                    23026715.179 6 119906301.81806     -3288.657 6        40.329                                                                    23026716.668 7  97433628.67107     -2672.262 7        42.040
> 2025 01 01 00 00 15.0000000  0 35
E19         1.000                                                                                                                                    25825702.516 5 101345595.17505     -2155.005 5        34.181    25825699.930 5                     -2211.331 5        31.079
G32         2.000    22835635.398 6 120002316.44406     -3042.097 6        41.359                                    22835629.243 4  93508085.05104     -2370.454 4        29.081    22835629.336 5  93508134.00305     -2370.100 5        34.476
G21         3.000    21144319.536 4 111114183.94904     -2067.491 4        27.748                                    21144327.397 1  86582467.26601     -1611.015 1        10.370
G14         4.000                                                                                                                                                                    24788392.741 4 101504227.63804     -2205.815 4        28.682
G02         5.000    20827361.062 7 109448695.81007      -592.751 7        46.428                                    20827352.865 6  85284561.12606      -461.888 6        36.442
E04         7.000    24076962.287 6 126525589.34106       144.986 6        40.770                                                                    24076960.005 6  94483199.21906       108.252 6        37.342    24076958.876 7  96947929.12907       111.038 7        43.177
G03         8.000    21205147.294 7 111433852.31907      1335.089 7        45.806                                    21205145.113 6  86831582.90306      1040.329 6        40.763    21205145.983 6  86831582.92106      1040.366 6        40.808
E02         9.000    27553295.830 5 144793906.74605     -2520.043 5        34.667                                                                    27553284.701 5 108125103.41405     -1881.630 5        32.940    27553310.926 5 110945744.63805     -1930.886 5        35.381
E12        10.000    26311864.459 5 138269807.32105     -3034.081 5        33.617                                                                    26311861.904 6 103253399.42206     -2265.694 6        38.682    26311860.646 6 105947036.70806     -2324.937 6        39.991
E09        12.000    26413659.051 6 138804751.09806      2194.448 6        38.874                                                                    26413660.140 6 103652920.43706      1638.826 6        40.234    26413658.553 6 106356867.01506      1681.533 6        39.625
E10        13.000    24428174.278 6 128370924.84506     -2229.285 6        41.166                                                                    24428173.814 7  95861406.20107     -1664.764 7        46.190    24428173.120 7  98362162.05207     -1708.229 7        43.247
E06        14.000    24776610.621 5 130201970.54305      1443.036 5        33.383                                                                    24776609.096 5  97228768.60405      1077.062 5        34.652    24776621.998 5  99765193.82905      1105.670 5        35.790
E11        15.000    23389610.074 6 122913226.04406      -910.878 6        39.943                                                                    23389605.230 7  91785840.80607      -680.117 7        42.988    23389606.060 7  94180252.67307      -697.899 7        45.229
E30        17.000                                                                                                                                    28650099.002 4 112429291.67404      -239.663 4        28.000    28650110.996 5 115362061.19605      -246.793 5        32.150
E36        20.000    25330539.258 5 133112871.65305      1251.790 5        34.129                                                                    25330539.795 6  99402463.47206       934.865 6        39.673    25330535.178 5 101995598.21105       958.830 5        32.377
G08        21.000    23714298.455 6 124619529.47806     -4440.284 6        37.879                                    23714351.596 1  97106337.23301     -3459.905 1         4.000    23714304.174 5                     -3459.611 5        30.083
G17        22.000    23374062.234 7 122831731.28507      1508.705 7        44.569                                    23374056.675 6  95712953.07406      1175.615 6        38.504    23374058.160 6  95712862.07606      1175.359 6        36.922
S23        24.000    38299668.313 6 201266070.83306      -824.702 6        41.063
S36        25.000    38347344.355 6 201516458.19806      -827.580 6        37.108
R20        27.000                                                                                                                                    19363462.362 6                      -135.837 6        38.042
R04        28.000    20587354.395 7 110244493.25907     -3759.021 7        46.279                                                                    20587353.675 7  85745607.29207     -2923.580 7        42.555
R12        32.000    23976770.301 4 128079565.98804     -1501.866 4        28.398
C19        33.000                                                                                                                                    26200876.408 5                      2399.872 5        31.306
R21        34.000    22239758.850 7 119009488.48907      2951.625 7        45.055                                                                    22239752.274 5  92563029.78505      2295.528 5        34.238
R19        35.000    21996023.575 3                     -4377.409 3        23.371                                                                    21996001.237 5  91516282.46515     -3405.110 5        32.293
R05        36.000    19319489.233 8 103273850.98608       101.250 8        50.641                                                                    19319488.522 8  80324003.25108        78.769 8        48.046
C39        38.000                                                                                                                                    39350760.586 5 204909723.56105        -0.539 5        32.234
C29        43.000                                                                                                                                    22011622.753 7 114620255.98607       -59.345 7        46.806                                                                    22011620.720 7  93138409.27307       -48.199 7        46.244
C16        45.000                                                                                                                                                                                                    39646325.237 4                       301.593 4        26.108
C09        46.000                                                                                                                                    40300361.696 4                       808.954 4        25.774
C32        47.000                                                                                                                                    22698380.108 8 118196502.78008     -2468.160 8        48.774                                                                    22698381.347 7  96044327.11807     -2005.566 7        44.831
C35        51.000                                                                                                                                    26040717.665 6 135600853.80606      2323.337 6        40.770                                                                    26040717.356 6 110186801.45706      1887.847 6        39.057
I09        54.000    37276104.739 6 146279439.83806      -541.720 6        40.756
C20        55.000                                                                                                                                    22543512.231 7 117389972.07307       854.953 7        46.362                                                                    22543506.069 7  95389046.06107       694.768 7        46.644
C30        58.000                                                                                                                                    23029872.373 6 119922749.62506     -3290.563 6        38.721                                                                    23029875.428 7  97446993.86307     -2673.841 7        42.214
> 2025 01 01 00 00 20.0000000  0 34
E19         1.000                                                                                                                                    25828449.078 5 101356373.18205     -2156.025 5        34.633    25828445.596 5                     -2212.390 5        30.777
G32         2.000    22838530.143 6 120017530.92506     -3043.880 6        38.577                                    22838523.827 4  93519940.48904     -2371.845 4        28.180    22838525.718 5  93519989.48205     -2371.905 5        33.731
G21         3.000    21146288.706 4 111124524.09104     -2068.828 4        28.929                                    21146295.094 1  86590524.50801     -1612.071 1         8.571
G14         4.000    24791090.292 5                     -2831.928 5        31.917                                                                                                    24791093.116 4 101515257.50104     -2206.120 4        27.018
G02         5.000    20827925.824 7 109451663.85207      -594.315 7        47.295                                    20827917.819 6  85286873.88806      -463.104 6        36.628
E04         7.000    24076824.863 6 126524869.86706       143.258 6        40.489                                                                    24076822.812 6  94482661.95406       106.728 6        36.832    24076821.837 7  96947377.83207       109.653 7        42.307
G03         8.000    21203877.768 7 111427180.73407      1333.749 7        46.650                                    21203875.704 6  86826384.27206      1039.284 6        40.863    21203876.089 6  86826384.29106      1039.226 6        40.543
E02         9.000    27555690.944 5 144806510.26705     -2521.269 5        33.695                                                                    27555683.148 5 108134515.14005     -1882.887 5        32.904    27555711.991 5 110955401.93105     -1932.085 5        35.033
E12        10.000    26314752.097 5 138284978.93705     -3034.564 5        34.743                                                                    26314748.933 6 103264728.88206     -2265.848 6        38.556    26314747.755 6 105958661.71006     -2325.095 6        40.110
E09        12.000    26411571.778 6 138793779.76906      2194.268 6        38.556                                                                    26411572.582 6 103644727.56606      1638.597 6        40.837    26411570.533 6 106348460.42306      1681.254 6        39.483
E10        13.000    24430295.572 6 128382073.90306     -2230.229 6        39.387                                                                    24430295.591 7  95869731.79707     -1665.392 7        46.277    24430294.808 7  98370704.84007     -1708.863 7        43.433
E06        14.000    24775237.617 5 130194759.96705      1441.404 5        32.431                                                                    24775236.858 5  97223384.05205      1076.399 5        34.557    24775248.540 5  99759668.83405      1104.854 5        35.129
E11        15.000    23390477.311 6 122917782.87506      -911.720 6        40.427                                                                    23390472.380 7  91789243.63307      -680.928 7        43.039    23390473.016 7  94183744.27207      -698.765 7        45.332
E30        17.000                                                                                                                                    28650405.759 4 112430496.37604      -241.463 4        28.701    28650416.214 5 115363297.26605      -247.552 5        30.921
E36        20.000    25329348.230 5 133106613.39605      1251.422 5        33.072                                                                    25329349.072 6  99397790.08906       934.591 6        39.697    25329344.486 5 101990802.90205       958.899 5        31.834
G08        21.000    23718523.142 6 124641732.07906     -4440.521 6        38.111                                    23718576.376 1  97123637.87501     -3460.072 1         5.571    23718530.949 5                     -3460.475 5        30.015
G17        22.000    23372628.612 7 122824192.33807      1507.074 7        44.451                                    23372621.642 6  95707078.56506      1174.349 6        38.300    23372623.189 6  95706987.54806      1174.407 6        37.028
S23        24.000    38300453.664 6 201270193.57106      -824.198 6        41.046
S36        25.000    38348128.360 6 201520595.17106      -827.120 6        37.089
R20        27.000    19363634.133 4                      -178.022 4        28.493                                                                    19363626.391 6                      -138.155 6        37.138
R04        28.000    20590865.188 7 110263293.71307     -3760.987 7        46.518                                                                    20590863.342 6  85760229.84506     -2925.238 6        40.510
R12        32.000                                                                                                                                    23978205.491 4                     -1171.244 4        28.009
C19        33.000                                                                                                                                    26198577.703 5                      2399.365 5        30.174
R21        34.000    22236999.513 7 118994732.24607      2951.001 7        44.387                                                                    22236995.543 5  92551552.69705      2295.328 5        32.138
R19        35.000    22000114.524 4                     -4379.559 4        26.299                                                                    22000095.864 5  91533310.96905     -3406.058 5        34.067
R05        36.000    19319397.003 8 103273353.59608        97.779 8        51.040                                                                    19319395.103 7  80323616.39207        76.009 7        47.695
C39        38.000                                                                                                                                    39350761.436 5 204909728.79005        -1.310 5        31.479
C29        43.000                                                                                                                                    22011681.698 7 114620558.02307       -61.297 7        47.083                                                                    22011678.598 7  93138654.70407       -49.860 7        46.153
C16        45.000                                                                                                                                                                                                    39645953.820 4                       300.045 4        26.299
C32        47.000                                                                                                                                    22700750.750 8 118208847.15908     -2469.447 8        48.745                                                                    22700752.501 7  96054357.91707     -2006.638 7        45.783
C35        51.000                                                                                                                                    26038486.422 6 135589237.86906      2323.293 6        40.205                                                                    26038486.856 6 110177362.54806      1887.740 6        39.144
I09        54.000    37276795.354 6 146282148.76406      -541.712 6        40.911
C20        55.000                                                                                                                                    22542690.062 7 117385701.43207       853.353 7        46.237                                                                    22542685.962 7  95385575.78207       693.431 7        46.490
C30        58.000                                                                                                                                    23033031.689 5 119939206.14205     -3291.920 5        35.019                                                                    23033035.748 7  97460366.11107     -2675.003 7        42.667
> 2025 01 01 00 00 25.0000000  0 35
E19         1.000                                                                                                                                    25831197.118 5 101367156.93505     -2157.201 5        34.957    25831193.641 4                     -2213.564 4        29.896
G32         2.000    22841427.265 6 120032756.35406     -3045.970 6        36.136                                    22841420.312 4  93531804.45304     -2373.492 4        27.210    22841424.063 5  93531853.43805     -2373.400 5        34.467
G21         3.000    21148259.121 5 111134872.80205     -2069.982 5        31.117                                    21148264.504 1  86598588.45601     -1613.043 1         8.381
G14         4.000    24793776.203 5                     -2829.505 5        34.076
G02         5.000    20828491.968 7 109454641.82007      -596.337 7        47.641                                    20828484.722 6  85289194.38406      -464.674 6        36.873
E04         7.000    24076689.399 6 126524161.37506       140.810 6        39.631                                                                    24076688.083 6  94482132.91306       105.026 6        36.722    24076686.912 6  96946834.94706       107.944 6        41.659
G03         8.000    21202609.981 7 111420517.77707      1331.931 7        47.497                                    21202607.870 6  86821192.36306      1037.868 6        41.025    21202607.421 6  86821192.38006      1037.970 6        40.093
E02         9.000    27558086.550 5 144819122.10605     -2523.040 5        32.880                                                                    27558083.412 5 108143933.14505     -1884.384 5        31.781    27558108.290 5 110965065.61005     -1933.169 5        34.571
E12        10.000    26317640.659 5 138300154.48905     -3035.355 5        35.190                                                                    26317636.720 6 103276061.29406     -2266.475 6        38.465    26317635.457 6 105970289.72006     -2325.710 6        39.907
E09        12.000    26409485.425 6 138782812.36706      2193.146 6        38.348                                                                    26409485.912 6 103636537.62106      1637.867 6        41.440    26409483.432 6 106340056.81806      1680.666 6        39.345
E10        13.000    24432417.776 6 128393228.87806     -2231.244 6        36.979                                                                    24432418.406 7  95878061.80207     -1666.333 7        46.319    24432417.562 7  98379252.16607     -1709.791 7        43.530
E06        14.000    24773866.683 5 130187557.24705      1439.614 5        33.389                                                                    24773865.997 5  97218005.34505      1075.462 5        34.014    24773875.293 5  99754149.87005      1103.536 5        34.548
E11        15.000    23391345.369 6 122922346.28306      -913.212 6        40.644                                                                    23391340.826 7  91792651.36707      -682.042 7        42.942    23391341.294 7  94187240.89907      -699.741 7        45.129
E30        17.000                                                                                                                                    28650715.884 5 112431709.04705      -243.350 5        30.317    28650722.339 5 115364541.67405      -249.634 5        30.272
E36        20.000    25328156.541 5 133100357.71105      1250.920 5        31.004                                                                    25328158.482 6  99393118.62206       934.301 6        39.832    25328153.508 5 101986009.58305       958.432 5        30.958
G08        21.000    23722749.798 6 124663937.52006     -4441.304 6        38.844                                    23722801.795 1  97140940.78301     -3460.747 1         6.250    23722756.471 4                     -3460.729 4        29.791
G17        22.000    23371196.210 7 122816663.44207      1505.064 7        44.471                                    23371188.595 6  95701211.88306      1172.779 6        38.072    23371191.385 6  95701120.86606      1172.688 6        37.422
S23        24.000    38301236.556 6 201274315.89906      -824.233 6        40.953
S36        25.000    38348919.717 6 201524731.41306      -826.972 6        36.934
R20        27.000    19363796.909 4                      -181.212 4        29.592                                                                    19363794.638 6                      -140.791 6        37.100
R04        28.000    20594377.853 7 110282106.24607     -3763.499 7        46.746                                                                    20594376.050 6  85774861.78706     -2927.130 6        39.976
R12        32.000                                                                                                                                    23979619.919 4                     -1174.275 4        28.825
C19        33.000                                                                                                                                    26196282.808 4                      2398.784 4        28.256
R21        34.000    22234241.844 7 118979980.66607      2950.126 7        43.983                                                                    22234238.579 4  92540079.29804      2294.617 4        27.892
R19        35.000                                                                                                                                    22004191.212 5  91550346.75915     -3407.634 5        35.505
R05        36.000    19319307.902 8 103272875.59408        93.854 8        51.373                                                                    19319305.597 7  80323244.60707        73.024 7        47.347
C39        38.000                                                                                                                                    39350762.809 5 204909738.47405        -2.042 5        31.208
C29        43.000                                                                                                                                    22011741.860 7 114620872.02107       -63.758 7        46.524                                                                    22011738.752 7  93138909.86607       -51.851 7        45.797
C16        45.000                                                                                                                                                                                                    39645576.983 4                       300.136 4        26.335
C09        46.000                                                                                                                                    40298789.992 4                       807.683 4        25.865
C32        47.000                                                                                                                                    22703123.033 8 118221200.21108     -2471.274 8        48.224                                                                    22703125.070 7  96064395.76807     -2008.126 7        46.375
C35        51.000                                                                                                                                    26036256.485 6 135577624.49206      2322.537 6        40.021                                                                    26036256.354 6 110167925.71106      1887.297 6        38.598
I09        54.000    37277485.596 6 146284858.45606      -541.801 6        40.646
C20        55.000                                                                                                                                    22541872.719 7 117381440.77007       851.341 7        46.762                                                                    22541867.856 7  95382113.63107       691.784 7        46.190
C30        58.000                                                                                                                                    23036190.859 4 119955671.25004     -3293.562 4        28.161                                                                    23036198.003 7  97473745.32007     -2676.415 7        42.861
> 2025 01 01 00 00 30.0000000  0 35
E19         1.000                                                                                                                                    25833946.564 5 101377946.63005     -2158.375 5        35.471    25833943.067 5                     -2214.859 5        30.030
G32         2.000    22844327.163 5 120047993.01305     -3048.522 5        35.471                                    22844319.064 4  93543677.15104     -2375.469 4        25.850    22844322.486 6  93543726.13606     -2375.315 6        36.011
G21         3.000    21150231.610 4 111145230.42304     -2072.610 4        27.569                                    21150235.510 1  86606659.24801     -1615.028 1         6.875
G14         4.000    24796468.521 5 130306345.74715     -2835.534 5        34.100                                                                                                    24796504.667 4 101537338.14104     -2209.285 4        28.739
G02         5.000    20829060.307 7 109457629.96107      -598.659 7        47.283                                    20829053.611 6  85291522.80806      -466.487 6        37.096
E04         7.000    24076557.220 6 126523464.14206       138.321 6        39.336                                                                    24076555.483 6  94481612.24406       103.311 6        36.824    24076554.330 6  96946300.69806       106.104 6        40.901
G03         8.000    21201343.648 7 111413863.72207      1329.950 7        47.814                                    21201341.645 6  86816007.39506      1036.324 6        41.194    21201340.987 6  86816007.42906      1036.204 6        39.700
E02         9.000    27560486.661 5 144831742.48305     -2524.744 5        30.483                                                                    27560484.517 5 108153357.49305     -1885.568 5        30.981    27560504.834 5 110974735.84405     -1934.628 5        34.571
E12        10.000    26320528.726 5 138315334.32605     -3036.504 5        34.995                                                                    26320525.189 6 103287396.89706     -2267.397 6        38.396    26320523.783 6 105981921.00806     -2326.571 6        39.655
E09        12.000    26407399.261 6 138771849.11806      2192.288 6        38.090                                                                    26407400.010 7 103628350.77607      1637.181 7        42.133    26407396.837 6 106331656.41306      1679.693 6        39.105
E10        13.000    24434541.592 5 128404390.03205     -2232.690 5        34.176                                                                    24434542.424 7  95886396.41507     -1667.367 7        46.496    24434541.398 7  98387804.20207     -1710.891 7        43.464
E06        14.000    24772497.687 5 130180362.55705      1437.926 5        34.290                                                                    24772496.875 5  97212632.68905      1073.973 5        33.868    24772499.797 5  99748637.13605      1101.859 5        33.922
E11        15.000    23392214.817 6 122926916.51106      -914.866 6        40.338                                                                    23392210.648 7  91796064.20507      -683.197 7        43.111    23392210.918 7  94190742.76807      -700.854 7        44.966
G19        16.000    25514614.940 5                      2879.042 5        33.419
E30        17.000                                                                                                                                    28651031.212 5 112432930.13405      -244.942 5        30.294    28651026.397 4 115365794.68404      -251.352 4        29.498
E36        20.000    25326967.241 5 133094104.84005      1250.167 5        31.343                                                                    25326968.579 6  99388449.29206       933.606 6        39.793    25326963.222 5 101981218.42805       958.164 5        30.702
G08        21.000    23726975.968 6 124686145.97506     -4441.835 6        40.210                                    23727027.980 1  97158246.10701     -3461.284 1         8.476    23726983.116 4                     -3461.424 4        29.384
G17        22.000    23369765.708 7 122809144.84507      1502.707 7        44.819                                    23369757.608 6  95695353.23306      1170.942 6        37.955    23369760.915 6  95695262.22806      1170.710 6        38.030
S23        24.000    38302023.003 6 201278438.06906      -824.420 6        41.139
S36        25.000    38349704.012 6 201528866.85906      -827.030 6        36.881
R20        27.000    19363964.232 4                      -184.779 4        29.943                                                                    19363964.947 6  80537153.65416      -143.780 6        36.503
R04        28.000    20597893.107 7 110300931.01707     -3766.163 7        47.687                                                                    20597891.486 6  85789503.26706     -2929.219 6        40.312
C19        33.000                                                                                                                                    26193986.098 4                      2397.608 4        24.316
R21        34.000    22231485.877 7 118965233.94507      2948.727 7        43.031
R19        35.000    22008286.745 4                     -4383.543 4        28.171                                                                    22008287.497 5  91567389.93115     -3409.208 5        35.571
R05        36.000    19319221.665 8 103272417.19008        89.700 8        51.249                                                                    19319219.658 7  80322888.06407        69.878 7        46.473
C39        38.000                                                                                                                                    39350765.425 5 204909752.89605        -3.517 5        31.441
C29        43.000                                                                                                                                    22011803.935 7 114621198.25307       -66.407 7        45.366                                                                    22011801.239 7  93139174.96507       -54.032 7        45.378
C16        45.000                                                                                                                                                                                                    39645210.837 4                       298.701 4        26.000
C09        46.000                                                                                                                                    40298011.420 4                       807.990 4        25.609
C32        47.000                                                                                                                                    22705496.962 7 118233562.18307     -2473.247 7        47.598                                                                    22705499.213 7  96074440.88207     -2009.802 7        47.015
C35        51.000                                                                                                                                    26034026.971 6 135566013.86306      2321.877 6        40.143                                                                    26034026.914 6 110158491.14106      1886.664 6        38.333
I09        54.000    37278175.883 6 146287569.09506      -542.326 6        40.791
C20        55.000                                                                                                                                    22541057.742 7 117377190.34107       849.028 7        47.677                                                                    22541051.636 7  95378659.81707       689.822 7        46.068
C30        58.000                                                                                                                                                                                                                                                                    23039361.874 7  97487131.68807     -2678.068 7        43.365
> 2025 01 01 00 00 35.0000000  0 36
E19         1.000                                                                                                                                    25836697.806 5 101388742.38805     -2159.703 5        35.510    25836694.327 5                     -2216.197 5        30.000
G32         2.000    22847232.010 6 120063241.03806     -3050.417 6        36.019                                    22847220.087 3  93555558.70303     -2376.944 3        23.676    22847224.245 6  93555607.72006     -2376.995 6        37.013
G21         3.000    21152202.118 3                     -2075.818 3        22.210
G14         4.000    24799165.312 5 130320527.79605     -2837.272 5        33.006                                                                                                    24799205.601 4 101548389.08904     -2210.608 4        28.379
G02         5.000    20829630.657 7 109460628.43107      -600.564 7        46.308                                    20829624.471 6  85293859.27806      -467.972 6        36.968
E04         7.000    24076427.770 6 126522778.29706       136.406 6        40.048                                                                    24076425.417 6  94481100.12506       101.714 6        37.444    24076423.971 6  96945775.18706       104.357 6        40.563
G03         8.000    21200078.765 7 111407218.72907      1328.285 7        47.106                                    21200077.092 6  86810829.48306      1035.025 6        41.204    21200076.800 6  86810829.52506      1034.905 6        39.967
E02         9.000    27562884.155 4 144844371.63404     -2526.310 4        27.269                                                                    27562886.922 4 108162788.40004     -1886.780 4        29.687    27562905.535 5 110984412.80005     -1936.183 5        33.766
E12        10.000    26323417.982 5 138330518.50105     -3036.910 5        34.948                                                                    26323414.419 6 103298735.75206     -2268.000 6        38.219    26323412.811 6 105993555.64306     -2327.128 6        39.550
E09        12.000    26405313.975 6 138760890.21906      2191.554 6        38.306                                                                    26405314.923 7 103620167.18507      1636.495 7        42.703    26405311.405 6 106323259.33106      1679.144 6        39.156
E10        13.000    24436666.679 5 128415557.50305     -2233.982 5        31.962                                                                    24436667.683 7  95894735.75607     -1668.263 7        46.673    24436666.457 7  98396361.08507     -1711.662 7        43.554
E06        14.000    24771131.467 5 130173176.14405      1436.532 5        34.738                                                                    24771129.206 5  97207266.21405      1072.834 5        33.988    24771127.038 5  99743130.67205      1101.078 5        34.033
E11        15.000    23393085.868 6 122931493.72906      -915.967 6        39.934                                                                    23393081.796 7  91799482.26207      -684.015 7        43.380    23393081.737 7  94194249.98807      -701.874 7        44.810
G19        16.000    25511877.001 5 134065828.60915      2878.491 5        32.970
E30        17.000                                                                                                                                    28651351.309 5 112434160.37505      -246.518 5        31.011    28651335.584 4 115367057.08504      -253.386 4        27.904
E36        20.000    25325782.299 5 133087854.97805      1249.725 5        33.293                                                                    25325779.464 6  99383782.19606       933.286 6        39.838    25325774.092 5 101976429.58805       957.846 5        31.042
G08        21.000    23731202.567 6 124708357.66506     -4442.506 6        41.454                                    23731254.808 1  97175553.96701     -3461.694 1        11.185    23731210.959 4                     -3461.368 4        28.180
G17        22.000    23368337.078 7 122801636.78907      1500.699 7        45.074                                    23368328.768 6  95689502.79606      1169.372 6        37.958    23368331.453 6  95689411.79206      1169.422 6        38.706
S23        24.000    38302806.136 6 201282560.31406      -824.314 6        41.128
S36        25.000    38350489.507 6 201533002.23806      -826.877 6        37.183
R20        27.000    19364139.695 5                      -188.282 5        30.083                                                                    19364138.795 5  80537878.94815      -146.325 5        35.848
R04        28.000    20601411.315 8 110319768.30808     -3768.574 8        48.170                                                                    20601409.399 6  85804154.47606     -2931.174 6        40.896
R12        32.000                                                                                                                                    23982441.124 4                     -1180.443 4        29.668
C19        33.000                                                                                                                                    26191679.729 3                      2398.168 3        22.590
R21        34.000    22228731.433 7 118950492.27107      2947.991 7        42.000                                                                    22228733.663 5  92517143.92305      2293.008 5        31.494
R19        35.000    22012385.658 4                     -4385.252 4        29.014                                                                    22012384.241 5  91584440.70605     -3410.783 5        34.633
R05        36.000    19319139.541 8 103271978.49708        85.938 8        50.562                                                                    19319137.770 7  80322546.86407        66.876 7        46.253
C39        38.000                                                                                                                                    39350770.768 5 204909772.14805        -4.044 5        31.404
C29        43.000                                                                                                                                    22011869.822 7 114621536.87907       -68.887 7        43.746                                                                    22011866.176 7  93139450.08707       -55.854 7        45.058
C16        45.000                                                                                                                                                                                                    39644845.090 4                       298.309 4        27.114
C09        46.000                                                                                                                                    40297236.059 4                       807.019 4        25.128
C32        47.000                                                                                                                                    22707872.789 7 118245933.21807     -2474.949 7        46.867                                                                    22707875.026 7  96084493.32907     -2011.042 7        47.266
C35        51.000                                                                                                                                    26031797.735 6 135554406.26606      2321.424 6        40.358                                                                    26031797.999 6 110149059.00406      1886.409 6        38.351
I09        54.000    37278867.675 6 146290280.78506      -542.361 6        40.703
C20        55.000                                                                                                                                    22540242.922 7 117372950.33407       847.071 7        47.657                                                                    22540237.478 7  95375214.43907       688.370 7        45.928
C30        58.000                                                                                                                                                                                                                                                                    23042527.337 7  97500525.29207     -2679.239 7        43.572
> 2025 01 01 00 00 40.0000000  0 36
E19         1.000                                                                                                                                    25839450.631 5 101399544.78205     -2160.972 5        35.933    25839448.068 4                     -2217.275 4        29.100
G32         2.000    22850144.096 6 120078501.26706     -3053.069 6        36.336                                    22850123.341 3  93567449.72203     -2379.013 3        22.267    22850127.270 6  93567498.71906     -2379.035 6        36.998
G21         3.000    21154180.377 4                     -2076.256 4        24.812
G14         4.000    24801862.229 5 130334719.79305     -2839.412 5        30.823
G02         5.000    20830203.533 7 109463637.98007      -602.788 7        45.368                                    20830197.380 6  85296204.37606      -469.703 6        36.741
E04         7.000    24076299.394 6 126522104.67706       133.767 6        41.058                                                                    24076297.221 6  94480597.11306        99.789 6        38.123    24076295.797 6  96945259.02806       102.387 6        40.181
G03         8.000    21198815.829 7 111400583.58607      1326.277 7        46.730                                    21198814.364 6  86805659.24706      1033.462 6        41.480    21198814.366 6  86805659.27306      1033.403 6        40.331
E02         9.000    27565284.219 4 144857010.50204     -2528.777 4        27.569                                                                    27565293.152 4 108172226.40604     -1888.434 4        29.185    27565310.675 5 110994097.02505     -1937.487 5        32.742
E12        10.000    26326309.019 5 138345707.87205     -3038.325 5        35.124                                                                    26326305.206 6 103310078.45006     -2268.752 6        38.162    26326303.014 6 106005194.21606     -2328.106 6        38.841
E09        12.000    26403229.418 6 138749936.43406      2190.538 6        39.030                                                                    26403230.490 7 103611987.40807      1635.791 7        43.024    26403226.918 6 106314866.17106      1678.381 6        38.976
E10        13.000    24438794.081 5 128426732.06105     -2235.477 5        31.796                                                                    24438794.212 7  95903080.39807     -1669.309 7        46.874    24438792.730 7  98404923.42907     -1712.838 7        43.344
E06        14.000    24769764.836 5 130165998.81105      1434.926 5        34.629                                                                    24769763.861 5  97201906.47205      1071.804 5        34.467    24769761.377 5  99737631.13305      1099.547 5        33.719
E11        15.000    23393958.304 6 122936078.74306      -917.638 6        39.465                                                                    23393954.324 7  91802906.13307      -685.152 7        43.515    23393954.152 7  94197763.17507      -703.089 7        44.512
G19        16.000    25509137.305 5 134051441.07605      2877.341 5        34.019
E30        17.000                                                                                                                                    28651670.949 5 112435399.51505      -248.837 5        31.872    28651652.258 4 115368328.55804      -255.050 4        27.090
E36        20.000    25324598.105 5 133081608.91905      1249.071 5        35.871                                                                    25324591.064 6  99379117.95306       932.721 6        39.925    25324586.586 5 101971643.68505       957.079 5        32.275
G08        21.000    23735430.061 7 124730573.32407     -4443.312 7        42.578                                    23735482.517 2  97192864.87502     -3462.352 2        13.091    23735437.599 4                     -3462.690 4        27.665
G17        22.000    23366909.946 7 122794140.09107      1498.381 7        45.401                                    23366902.191 6  95683661.23406      1167.569 6        37.921    23366904.276 6  95683570.24506      1167.486 6        39.459
S23        24.000    38303591.263 6 201286683.37906      -824.433 6        41.046
S36        25.000    38351278.310 6 201537138.69106      -827.334 6        37.043
R20        27.000    19364322.289 5                      -191.679 5        30.272                                                                    19364318.950 6  80538618.32206      -149.230 6        36.197
R04        28.000    20604931.202 8 110338618.77008     -3771.221 8        48.655                                                                    20604929.379 6  85818815.92806     -2933.114 6        41.840
R12        32.000                                                                                                                                    23983868.609 5                     -1183.609 5        30.740
C19        33.000                                                                                                                                    26189376.902 3                      2395.867 3        22.000
R21        34.000    22225979.037 7 118935756.53307      2946.690 7        42.309                                                                    22225981.248 5  92505682.80205      2292.076 5        35.876
R19        35.000    22016486.078 4                     -4387.348 4        27.186                                                                    22016484.832 5  91601499.71605     -3412.639 5        33.545
R05        36.000    19319060.994 8 103271560.20608        81.803 8        50.210                                                                    19319059.649 7  80322221.52807        63.616 7        46.558
C39        38.000                                                                                                                                    39350775.906 5 204909797.03905        -5.256 5        31.985
C29        43.000                                                                                                                                    22011937.684 7 114621888.65907       -71.469 7        42.366                                                                    22011933.756 7  93139735.95007       -58.178 7        44.783
C16        45.000                                                                                                                                                                                                    39644478.372 4                       297.046 4        27.042
C09        46.000                                                                                                                                    40296462.593 4                       805.944 4        24.180
C32        47.000                                                                                                                                    22710250.867 7 118258314.07907     -2476.915 7        46.653                                                                    22710252.656 7  96094553.80707     -2012.847 7        47.510
C35        51.000                                                                                                                                    26029569.860 6 135542802.46406      2320.568 6        40.753                                                                    26029569.768 6 110139630.00506      1885.745 6        37.686
I09        54.000    37279558.856 6 146292994.13306      -542.669 6        40.830
C20        55.000                                                                                                                                    22539430.576 7 117368721.49907       844.869 7        47.384                                                                    22539425.294 7  95371778.17607       686.385 7        45.731
C30        58.000                                                                                                                                    23045732.573 6                     -3299.274 6        37.660                                                                    23045694.583 7  97513926.85207     -2681.239 7        43.850
> 2025 01 01 00 00 45.0000000  0 36
E19         1.000                                                                                                                                    25842204.966 5 101410352.80705     -2162.222 5        35.962    25842202.954 4                     -2218.615 4        28.796
G32         2.000    22853058.637 5 120093772.23405     -3055.470 5        34.000                                    22853029.100 3  93579349.13703     -2380.871 3        20.381    22853032.361 6  93579398.15106     -2380.950 6        36.692
G21         3.000    21156161.458 4                     -2077.927 4        28.976
G14         4.000    24804563.719 4 130348920.43704     -2841.298 4        27.234
G02         5.000    20830778.663 7 109466657.29207      -605.131 7        44.990                                    20830772.060 6  85298557.08606      -471.529 6        36.314
E04         7.000    24076173.185 6 126521441.92506       131.218 6        41.721                                                                    24076171.195 6  94480102.19506        97.890 6        39.012    24076169.436 6  96944751.19206       100.479 6        39.847
G03         8.000    21197555.379 7 111393956.94707      1324.293 7        46.814                                    21197553.242 6  86800495.64806      1031.918 6        41.461    21197553.422 6  86800495.66806      1031.851 6        40.684
E02         9.000    27567696.172 4 144869657.35404     -2530.196 4        26.970                                                                    27567705.107 5 108181670.57705     -1889.849 5        30.468    27567718.994 5 111003787.50705     -1938.706 5        32.575
E12        10.000    26329199.650 5 138360901.04205     -3039.494 5        33.832                                                                    26329196.789 6 103321424.01406     -2269.697 6        38.198    26329193.889 6 106016835.71906     -2328.805 6        38.556
E09        12.000    26401145.692 6 138738986.43706      2189.321 6        39.988                                                                    26401146.831 7 103603810.47107      1634.948 7        43.181    26401143.352 6 106306475.92306      1677.659 6        38.643
E10        13.000    24440922.904 5 128437912.38805     -2236.582 5        33.126                                                                    24440921.824 7  95911429.36407     -1670.419 7        46.998    24440920.144 7  98413490.19807     -1713.986 7        43.136
E06        14.000    24768398.682 5 130158829.16205      1433.004 5        34.200                                                                    24768399.902 5  97196552.55605      1070.142 5        35.071    24768398.811 5  99732137.53905      1097.849 5        34.143
E11        15.000    23394832.492 6 122940670.21406      -919.120 6        38.694                                                                    23394828.002 7  91806334.82107      -686.307 7        43.537    23394827.710 7  94201281.29907      -704.265 7        44.203
G19        16.000    25506400.310 5 134037057.26305      2876.060 5        33.916
E30        17.000                                                                                                                                    28651987.409 5 112436647.34105      -250.390 5        32.922    28651970.492 4 115369608.95504      -257.128 4        27.198
E36        20.000    25323416.275 6 133075365.43306      1248.346 6        36.945                                                                    25323402.870 6  99374455.55106       931.917 6        39.501    25323399.446 5 101966859.65005       956.300 5        32.940
G08        21.000    23739658.426 7 124752791.61707     -4444.187 7        43.632                                    23739710.905 2  97210177.87402     -3463.029 2        13.515    23739666.730 4                     -3462.871 4        25.459
G17        22.000    23365484.798 7 122786653.41007      1496.068 7        45.812                                    23365477.599 6  95677827.47606      1165.764 6        37.743    23365478.984 6  95677736.46906      1165.945 6        40.083
S23        24.000    38304375.380 6 201290805.81306      -824.606 6        41.154
S36        25.000    38352066.813 6 201541274.02206      -827.268 6        37.395
R20        27.000    19364499.083 4                      -195.582 4        29.204                                                                    19364497.485 6                      -152.107 6        37.059
R04        28.000    20608453.650 8 110357481.09608     -3773.874 8        49.270                                                                    20608452.220 7  85833486.63707     -2935.276 7        42.489
R12        32.000    23985341.908 3                     -1525.602 3        21.024                                                                    23985299.940 5                     -1186.607 5        30.589
C19        33.000                                                                                                                                    26187073.564 3                      2397.078 3        19.552
R21        34.000    22223227.233 7 118921025.27307      2945.486 7        43.846                                                                    22223227.223 6  92494225.19306      2290.910 6        39.544
R19        35.000    22020588.264 4                     -4389.315 4        28.559                                                                    22020588.738 5  91618565.97305     -3414.365 5        32.629
R05        36.000    19318986.522 8 103271161.19508        77.600 8        50.754                                                                    19318984.762 7  80321911.17807        60.345 7        46.586
C39        38.000                                                                                                                                    39350782.157 5 204909826.30005        -6.849 5        32.126
C29        43.000                                                                                                                                    22012007.790 6 114622252.30206       -74.163 6        40.913                                                                    22012003.556 7  93140031.40207       -60.251 7        44.531
C16        45.000                                                                                                                                                                                                    39644110.751 4                       296.492 4        28.322
C09        46.000                                                                                                                                    40295688.046 3                       804.426 3        21.500
C32        47.000                                                                                                                                    22712630.809 7 118270703.42807     -2478.948 7        46.567                                                                    22712631.776 7  96104621.13407     -2014.264 7        47.515
C35        51.000                                                                                                                                    26027341.868 6 135531201.04306      2319.861 6        40.934                                                                    26027342.388 6 110130202.88106      1885.055 6        36.556
I09        54.000    37280249.854 6 146295708.11606      -543.232 6        40.863
C20        55.000                                                                                                                                    22538621.315 7 117364502.54107       842.577 7        47.333                                                                    22538615.040 7  95368349.88807       684.665 7        45.588
C30        58.000                                                                                                                                                                                                                                                                    23048863.529 7  97527335.15807     -2682.545 7        43.972
> 2025 01 01 00 00 50.0000000  0 34
E19         1.000    25844958.982 3                     -2895.123 3        20.595                                                                    25844960.817 6 101421167.25906     -2163.479 6        36.023    25844961.011 4                     -2220.195 4        28.758
G32         2.000    22855967.772 4 120109055.01304     -3057.969 4        28.796                                    22855937.265 3  93591257.78203     -2382.825 3        19.284    22855941.099 6  93591306.81306     -2382.716 6        36.926
G21         3.000    21158134.030 5                     -2079.876 5        32.521
G02         5.000    20831355.625 7 109469687.41407      -607.047 7        45.488                                    20831348.626 5  85300918.21605      -473.023 5        35.819
E04         7.000    24076049.573 7 126520791.08007       128.981 7        42.692                                                                    24076047.393 6  94479616.18506        96.281 6        39.808    24076045.509 6  96944252.49806        98.853 6        39.601
G03         8.000    21196296.727 7 111387339.89907      1322.428 7        47.354                                    21196293.894 6  86795339.51706      1030.463 6        41.619    21196293.380 6  86795339.54406      1030.482 6        40.489
E02         9.000    27570105.696 4 144882313.41004     -2532.279 4        28.360                                                                                                                                    27570129.246 5 111013485.11205     -1940.151 5        33.108
E12        10.000    26332090.460 5 138376099.08805     -3040.144 5        32.132                                                                    26332089.227 6 103332773.20606     -2270.108 6        37.781    26332085.958 6 106028480.99706     -2329.506 6        38.090
E09        12.000    26399062.820 6 138728041.30306      2188.663 6        40.739                                                                    26399063.961 7 103595637.16607      1634.324 7        43.029    26399060.694 6 106298089.43106      1676.946 6        38.892
E10        13.000    24443052.823 5 128449099.58905     -2237.943 5        35.514                                                                    24443050.619 7  95919783.42907     -1671.258 7        47.121    24443048.974 7  98422062.19807     -1714.922 7        42.931
E06        14.000    24767033.705 5 130151668.35905      1431.063 5        33.461                                                                    24767037.515 6  97191205.20006      1068.890 6        36.011    24767036.885 5  99726650.62805      1096.674 5        34.476
E11        15.000    23395707.695 6 122945269.17906      -920.415 6        38.294                                                                    23395703.263 7  91809769.13807      -687.396 7        43.627    23395702.748 7  94204805.19507      -705.315 7        43.860
G19        16.000    25503663.055 5 134022678.16705      2875.605 5        34.143
E30        17.000    28652351.911 5 150569122.38815      -337.854 5        31.358                                                                    28652305.461 5 112437904.35005      -252.114 5        32.216    28652291.187 4 115370898.79304      -259.140 4        27.018
E36        20.000    25322229.082 6 133069125.39406      1247.626 6        38.402                                                                    25322215.417 6  99369795.77906       931.647 6        39.679    25322213.377 5 101962078.32005       955.972 5        33.916
G08        21.000    23743887.295 7 124775013.58407     -4444.701 7        44.205                                    23743940.072 2  97227493.70402     -3463.440 2        13.212    23743897.399 4                     -3463.243 4        24.256
G17        22.000    23364062.370 7 122779177.74207      1494.073 7        46.251                                    23364055.158 6  95672002.28506      1164.213 6        37.648    23364055.746 6  95671911.29006      1164.279 6        40.114
S23        24.000    38305160.946 6 201294928.61606      -824.545 6        41.302
S36        25.000    38352852.589 6 201545409.62106      -826.827 6        37.263
R20        27.000    19364680.493 4                      -198.644 4        29.924                                                                    19364682.458 6  80540136.75316      -154.604 6        38.333
R04        28.000    20611979.398 8 110376356.31208     -3776.257 8        50.126                                                                    20611976.567 7  85848167.34707     -2937.092 7        42.919
R12        32.000                                                                                                                                    23986734.012 5                     -1189.689 5        30.332
R21        34.000    22220476.624 7 118906299.59307      2944.568 7        45.255                                                                    22220474.775 6  92482771.89706      2290.150 6        41.104
R19        35.000    22024690.732 4                     -4391.335 4        26.707                                                                    22024692.506 5  91635640.23905     -3415.459 5        32.096
R05        36.000    19318916.259 8 103270782.33308        73.807 8        51.307                                                                    19318913.439 7  80321616.50007        57.380 7        46.065
C39        38.000                                                                                                                                    39350788.847 5 204909860.94405        -7.348 5        32.311
C29        43.000                                                                                                                                    22012080.084 6 114622628.84806       -76.491 6        39.676                                                                    22012075.995 7  93140337.38807       -62.274 7        44.245
C16        45.000                                                                                                                                                                                                    39643743.260 4                       295.710 4        27.940
C09        46.000                                                                                                                                    40294909.268 3                       803.001 3        21.381
C32        47.000                                                                                                                                    22715012.645 7 118283102.33807     -2480.669 7        46.858                                                                    22715012.566 7  96114696.28807     -2015.759 7        47.374
C35        51.000                                                                                                                                    26025114.444 6 135519603.17806      2319.277 6        40.570                                                                    26025118.964 6 110120778.65006      1884.756 6        36.234
I09        54.000    37280942.433 6 146298423.54106      -543.147 6        40.665
C20        55.000                                                                                                                                    22537814.181 7 117360294.51007       840.524 7        47.485                                                                    22537806.920 7  95364930.52807       682.955 7        45.535
C30        58.000                                                                                                                                                                                                                                                                    23052034.119 7  97540751.19007     -2683.952 7        44.098
> 2025 01 01 00 00 55.0000000  0 34
E19         1.000    25847718.563 3                     -2899.218 3        22.190                                                                    25847717.989 5 101431987.69905     -2164.576 5        35.424    25847720.360 4                     -2221.042 4        28.464
G32         2.000                                                                                                                                                                    22858851.798 6  93603224.22406     -2384.360 6        36.790
G21         3.000    21160114.592 5 111197145.45515     -2081.415 5        35.952
G14         4.000    24809960.628 3                     -2845.217 3        23.638                                                                                                    24809935.040 3 101592665.71203     -2217.115 3        23.676
G02         5.000    20831934.395 7 109472727.82007      -609.146 7        45.910                                    20831926.968 5  85303287.36405      -474.662 5        35.214
E04         7.000    24075927.918 7 126520151.60007       126.710 7        43.022                                                                    24075925.844 6  94479138.65806        94.719 6        40.615    24075923.690 6  96943762.50306        97.096 6        39.228
G03         8.000    21195039.488 8 111380731.84308      1320.745 8        48.236                                    21195036.174 6  86790190.39506      1029.151 6        41.902    21195035.526 6  86790190.39606      1029.232 6        39.297
E02         9.000    27572516.728 5 144894978.15705     -2533.733 5        31.509                                                                    27572539.361 5 108200578.98605     -1892.005 5        33.389    27572539.613 5 111023189.26205     -1941.130 5        32.731
E12        10.000    26334981.632 4 138391301.40404     -3040.295 4        29.507                                                                    26334982.040 6 103344125.63706     -2270.919 6        37.448    26334978.639 6 106040129.57106     -2330.087 6        37.887
E09        12.000    26396980.948 6 138717100.45806      2187.903 6        41.216                                                                    26396981.853 7 103587467.06307      1633.709 7        42.942    26396978.999 6 106289706.20006      1676.383 6        38.751
E10        13.000                                                                                                                                    24445180.554 7  95928142.17407     -1672.209 7        47.240    24445179.213 7  98430639.00107     -1715.926 7        42.792
E06        14.000    24765673.142 5 130144515.67705      1429.913 5        32.461                                                                    24765676.574 6  97185863.96306      1067.599 6        37.123    24765676.802 5  99721170.05405      1095.459 5        34.924
E11        15.000    23396584.524 6 122949875.09506      -921.634 6        38.625                                                                    23396579.655 7  91813208.62507      -688.462 7        43.579    23396579.230 7  94208334.40307      -706.310 7        43.486
G19        16.000    25500925.559 5 134008303.10005      2874.559 5        34.857
E30        17.000    28652673.815 5 150570817.46905      -340.154 5        30.657                                                                    28652627.616 5 112439170.09505      -254.221 5        32.287    28652613.761 4 115372197.50104      -260.349 4        26.766
E36        20.000    25321038.261 6 133062888.25906      1247.339 6        39.483                                                                    25321028.135 6  99365138.19606       931.393 6        39.306    25321028.177 5 101957299.25905       955.685 5        34.814
G08        21.000    23748116.553 7 124797238.64307     -4445.248 7        44.158                                    23748169.883 2  97244812.01402     -3463.852 2        13.333    23748132.366 3                     -3463.392 3        23.714
G17        22.000    23362641.774 7 122771712.57307      1492.068 7        46.086                                    23362634.703 6  95666185.28606      1162.646 6        37.735    23362634.979 6  95666094.30106      1162.557 6        39.321
S23        24.000    38305942.796 6 201299051.26406      -824.410 6        40.958
S36        25.000    38353640.762 6 201549544.55306      -827.022 6        37.013
R20        27.000    19364869.173 5                      -202.273 5        32.066                                                                    19364869.086 6                      -157.192 6        39.105
R04        28.000    20615508.276 8 110395243.87908     -3778.696 8        50.458                                                                    20615503.568 7  85862857.67907     -2939.057 7        43.511
R12        32.000                                                                                                                                    23988171.155 5                     -1192.677 5        30.853
R21        34.000    22217724.761 7 118891579.05207      2943.649 7        45.923                                                                    22217724.439 6  92471322.59006      2289.544 6        41.950
R19        35.000    22028792.278 3                     -4393.811 3        22.781                                                                    22028798.304 5  91652722.06315     -3417.439 5        31.872
R05        36.000    19318848.904 8 103270423.16008        69.949 8        51.070                                                                    19318846.742 7  80321337.14707        54.369 7        45.839
C39        38.000                                                                                                                                    39350796.695 5 204909900.37805        -8.549 5        32.916
C29        43.000                                                                                                                                    22012156.196 6 114623017.69706       -78.866 6        38.691                                                                    22012150.668 7  93140653.36407       -64.262 7        43.968
C16        45.000                                                                                                                                                                                                    39643377.874 4                       295.082 4        27.329
C32        47.000                                                                                                                                    22717396.118 7 118295510.20807     -2482.396 7        47.468                                                                    22717394.966 7  96124778.70307     -2017.193 7        47.028
C35        51.000                                                                                                                                    26022887.146 6 135508008.21506      2318.652 6        40.164
I09        54.000    37281634.323 6 146301139.99206      -543.447 6        40.749
C20        55.000                                                                                                                                    22537007.698 7 117356096.81207       838.514 7        47.265                                                                    22537000.792 7  95361519.54107       681.349 7        45.339
C30        58.000                                                                                                                                    23055205.606 7 120054732.76417     -3304.707 7        44.932                                                                    23055206.532 7  97554174.40007     -2685.436 7        43.949
> 2025 01 01 00 01  0.0000000  0 34
E19         1.000    25850475.274 4                     -2899.434 4        24.962                                                                    25850476.727 5 101442813.77505     -2166.036 5        35.448    25850481.452 4                     -2222.426 4        28.095
G32         2.000    22861779.687 4 120139654.05604     -3062.393 4        25.429                                    22861760.028 2  93615101.02402     -2386.289 2        17.208    22861764.264 6  93615150.04206     -2386.365 6        36.794
G21         3.000    21162095.522 6 111207557.56306     -2083.649 6        38.411                                    21162100.612 2  86655268.46412     -1623.611 2        14.524
G14         4.000    24812664.838 4                     -2844.183 4        24.451
G02         5.000    20832514.457 7 109475777.98707      -611.416 7        45.801                                    20832506.987 5  85305664.11505      -476.428 5        34.619
E04         7.000    24075808.277 7 126519522.98807       124.209 7        43.012                                                                    24075806.360 6  94478669.26606        92.732 6        41.371    24075803.582 6  96943280.85006        95.099 6        38.928
G03         8.000    21193783.956 8 111374132.33008      1318.670 8        48.453                                    21193780.011 6  86785047.92506      1027.537 6        41.907    21193780.076 6  86785047.95406      1027.427 6        39.339
E02         9.000    27574928.895 5 144907651.11505     -2535.826 5        33.509                                                                    27574947.183 5 108210042.57305     -1894.012 5        33.251    27574949.670 5 111032899.69405     -1943.129 5        32.198
E12        10.000    26337872.563 4 138406507.63904     -3041.749 4        26.132                                                                    26337873.596 6 103355480.92106     -2271.858 6        36.888    26337872.569 6 106051781.10406     -2330.875 6        38.312
E09        12.000    26394900.143 6 138706163.47206      2186.712 6        41.709                                                                    26394900.526 7 103579299.83707      1632.745 7        42.897    26394897.922 6 106281325.95406      1675.381 6        39.018
E10        13.000    24447331.282 6 128471492.13706     -2240.891 6        37.732                                                                    24447311.670 7  95936505.24407     -1673.381 7        47.474    24447310.582 7  98439220.24507     -1717.010 7        42.887
E06        14.000    24764314.585 5 130137370.82405      1427.765 5        30.702                                                                    24764316.860 6  97180528.53306      1066.147 6        37.913    24764320.318 5  99715695.40405      1093.783 5        35.771
E11        15.000    23397462.042 6 122954487.50306      -923.496 6        38.820                                                                    23397457.207 7  91816652.96507      -689.667 7        43.666    23397456.723 7  94211868.58607      -707.662 7        43.263
G19        16.000    25498191.314 5 133993931.61105      2873.569 5        34.324
E30        17.000                                                                                                                                    28652953.421 5 112440444.03405      -255.761 5        31.434    28652938.359 4 115373504.68804      -262.817 4        26.359
E36        20.000    25319844.776 6 133056653.62206      1246.248 6        39.847                                                                    25319841.429 6  99360482.49206       930.633 6        38.709    25319843.229 6 101952522.13306       954.824 6        36.401
G08        21.000    23752345.938 7 124819466.31307     -4446.227 7        43.718                                    23752400.199 2  97262132.31502     -3464.572 2        12.909    23752368.660 3                     -3466.700 3        20.500
G17        22.000    23361222.627 7 122764257.36607      1489.682 7        45.892                                    23361216.130 6  95660376.05306      1160.796 6        37.406    23361215.871 6  95660285.07206      1160.688 6        38.544
S23        24.000    38306731.339 6 201303173.35706      -824.714 6        41.070
S36        25.000    38354426.828 6 201553679.00006      -827.045 6        37.077
R20        27.000    19365061.927 5                      -205.304 5        32.784                                                                    19365059.028 6                      -160.242 6        39.357
R04        28.000    20619038.070 8 110414143.15408     -3781.532 8        50.340                                                                    20619033.906 7  85877557.12107     -2941.227 7        44.333
R12        32.000                                                                                                                                    23989601.296 5                     -1195.830 5        32.425
R21        34.000    22214974.662 7 118876863.09107      2942.359 7        45.937                                                                    22214974.275 6  92459876.84406      2288.513 6        41.507
R19        35.000    22032895.314 3                     -4388.397 3        19.821                                                                    22032903.996 5  91669810.97905     -3418.439 5        31.396
R05        36.000    19318784.166 8 103270083.05408        65.670 8        50.643                                                                    19318783.376 7  80321072.63407        51.008 7        46.259
C39        38.000                                                                                                                                    39350805.531 5 204909944.14905        -9.758 5        32.689
C29        43.000                                                                                                                                    22012235.460 6 114623418.45706       -81.732 6        37.784                                                                    22012227.672 7  93140979.01507       -66.326 7        43.769
C16        45.000                                                                                                                                                                                                    39643012.668 4                       294.752 4        28.256
C32        47.000                                                                                                                                    22719780.763 8 118307926.58008     -2484.540 8        48.357                                                                    22719779.153 7  96134868.03907     -2018.757 7        46.701
C35        51.000                                                                                                                                    26020661.265 6 135496415.75706      2317.785 6        40.033                                                                    26020685.230 6 110101936.71206      1883.474 6        36.314
I09        54.000    37282327.111 6 146303857.09706      -543.789 6        40.605
C20        55.000                                                                                                                                    22536202.557 7 117351908.98707       836.154 7        47.262                                                                    22536196.432 7  95358116.61507       679.575 7        45.199
C30        58.000                                                                                                                                    23058381.764 7 120071260.39407     -3306.837 7        45.624                                                                    23058380.574 7  97567604.45807     -2686.901 7        43.966
> 2025 01 01 00 01  5.0000000  0 35
E19         1.000    25853237.037 4                     -2902.323 4        27.401                                                                    25853236.470 5 101453646.12305     -2167.056 5        34.881    25853243.748 4                     -2223.391 4        27.820
G32         2.000    22864699.022 4 120154970.57004     -3065.073 4        25.519                                    22864674.918 2  93627035.95002     -2388.374 2        17.170    22864679.513 6  93627084.94706     -2387.955 6        38.225
G21         3.000    21164079.039 6 111217978.97506     -2085.195 6        39.931                                    21164080.298 2  86663389.00002     -1624.849 2        16.868
G14         4.000    24815376.523 4                     -2848.994 4        24.150                                                                                                    24815372.408 4 101614846.13904     -2219.888 4        26.263
G02         5.000    20833097.013 7 109478838.88207      -613.295 7        45.049                                    20833088.937 5  85308049.22305      -477.890 5        34.152
E04         7.000    24075690.854 7 126518906.16707       122.120 7        42.381                                                                    24075688.742 6  94478208.65106        91.250 6        41.833    24075685.826 6  96942808.22106        93.623 6        38.453
G03         8.000    21192529.354 8 111367542.24608      1317.087 8        48.386                                    21192525.582 6  86779912.80506      1026.299 6        41.881    21192526.320 6  86779912.82706      1026.294 6        38.727
E02         9.000    27577342.127 5 144920333.06705     -2537.590 5        34.629                                                                    27577357.483 5 108219512.89605     -1895.043 5        32.772    27577358.329 5 111042617.03505     -1943.932 5        30.815
E12        10.000                                                                                                                                    26340765.154 6 103366839.74206     -2271.777 6        36.439    26340767.565 6 106063436.27406     -2331.315 6        38.162
E09        12.000    26392820.402 6 138695231.20206      2186.135 6        41.974                                                                    26392820.013 7 103571136.13207      1632.409 7        42.491    26392817.820 6 106272949.29106      1675.115 6        38.868
E10        13.000    24449456.776 6 128482698.10506     -2241.881 6        36.907                                                                    24449444.106 7  95944873.30707     -1674.071 7        47.547    24449443.116 7  98447806.60607     -1717.780 7        42.866
E06        14.000    24762957.897 4 130130234.63004      1426.404 4        28.796                                                                    24762958.768 6  97175199.55306      1065.137 6        38.895    24762963.988 6  99710227.37806      1092.955 6        36.749
E11        15.000    23398341.240 6 122959107.29806      -924.604 6        38.901                                                                    23398336.326 7  91820102.81307      -690.520 7        43.623    23398335.842 7  94215408.42607      -708.465 7        42.955
G19        16.000    25495457.288 5 133979564.47605      2873.144 5        33.425
E30        17.000                                                                                                                                    28653280.761 5 112441727.20005      -257.671 5        30.234    28653267.585 4 115374821.29404      -264.284 4        26.096
E36        20.000    25318654.379 6 133050422.39506      1245.844 6        40.133                                                                    25318655.541 6  99355829.32806       930.331 6        38.739    25318658.328 6 101947747.58806       954.551 6        37.577
G08        21.000    23756576.222 7 124841697.47007     -4446.579 7        42.990                                    23756631.172 1  97279455.37701     -3464.923 1         9.429
G17        22.000    23359805.772 7 122756813.05107      1487.757 7        45.132                                    23359799.618 6  95654575.29106      1159.286 6        37.183    23359799.293 6  95654484.31906      1159.163 6        38.189
S23        24.000    38307514.298 6 201307295.68906      -824.588 6        41.163
S36        25.000    38355214.353 6 201557813.75006      -827.259 6        37.338
R20        27.000    19365256.724 5                      -209.045 5        32.353                                                                    19365253.490 6  80542515.35916      -162.711 6        39.919
R04        28.000    20622569.327 8 110433055.17408     -3783.654 8        49.814                                                                    20622565.586 7  85892266.46807     -2942.831 7        44.594
R12        32.000    23991008.053 6 128155576.30316     -1541.777 6        37.278                                                                    23991032.967 5  99676743.13315     -1199.121 5        34.267
R21        34.000    22212224.155 7 118862152.62607      2941.543 7        44.802                                                                    22212223.884 6  92448435.38206      2287.832 6        40.930
R19        35.000                                                                                                                                    22037012.945 5  91686907.81705     -3419.777 5        31.389
R05        36.000    19318723.559 8 103269763.14808        62.032 8        50.601                                                                    19318723.681 7  80320823.83307        48.155 7        46.711
C39        38.000                                                                                                                                    39350814.278 5 204909993.13205       -10.095 5        32.629
C29        43.000                                                                                                                                    22012318.247 5 114623831.99105       -83.697 5        34.986                                                                    22012306.930 7  93141315.00107       -68.167 7        43.501
C16        45.000                                                                                                                                                                                                    39642646.974 4                       294.294 4        27.389
C09        46.000                                                                                                                                    40292544.848 4                       803.789 4        25.278
C32        47.000                                                                                                                                    22722166.962 8 118320352.31308     -2486.069 8        49.221                                                                    22722165.136 7  96144964.95007     -2020.028 7        46.300
C35        51.000                                                                                                                                    26018435.844 6 135484826.61306      2317.539 6        39.652                                                                    26018457.356 6 110092519.51806      1883.124 6        36.227
I09        54.000    37283019.410 6 146306575.53906      -543.745 6        40.603
C20        55.000                                                                                                                                    22535400.526 8 117347731.92908       834.347 8        48.206                                                                    22535394.156 7  95354722.40107       678.202 7        45.255
C30        58.000                                                                                                                                    23061558.691 7 120087797.30107     -3308.330 7        45.881                                                                    23061556.324 7  97581042.01007     -2688.071 7        43.837
> 2025 01 01 00 01 10.0000000  0 35
E19         1.000    25855999.038 4                     -2903.607 4        29.554                                                                    25855997.403 5 101464484.13605     -2168.450 5        34.248    25856005.758 4                     -2224.857 4        28.028
G32         2.000    22867614.251 4 120170297.93704     -3067.547 4        26.958                                    22867591.708 3  93638979.34503     -2390.284 3        18.657    22867596.519 6  93639028.34006     -2389.798 6        39.553
G21         3.000    21166063.769 6 111228409.04406     -2087.201 6        40.210                                    21166062.492 3  86671516.31503     -1626.393 3        19.552
G14         4.000    24818084.476 4                     -2849.971 4        25.128                                                                                                    24818082.598 4 101625946.82804     -2220.190 4        26.766
G02         5.000    20833681.372 7 109481909.72007      -615.386 7        44.518                                    20833672.743 5  85310442.08105      -479.523 5        33.707
E04         7.000    24075575.549 7 126518300.33407       119.811 7        42.080                                                                    24075573.437 7  94477756.26707        89.440 7        42.085    24075570.202 6  96942344.03706        91.837 6        37.947
G03         8.000    21191276.730 8 111360960.85808      1315.110 8        48.454                                    21191272.673 6  86774784.46106      1024.757 6        41.886    21191273.857 6  86774784.47806      1024.600 6        37.614
E02         9.000    27579756.300 5 144933023.31105     -2539.304 5        35.314                                                                    27579769.577 5 108228989.35705     -1895.917 5        31.306
E12        10.000    26343665.837 4 138436933.59504     -3043.246 4        26.168                                                                    26343659.880 6 103378201.58006     -2272.876 6        36.026    26343663.323 6 106075094.47606     -2332.146 6        38.351
E09        12.000    26390741.584 6 138684302.93206      2185.026 6        41.969                                                                    26390740.332 7 103562975.42007      1631.564 7        42.123    26390738.624 6 106264575.70306      1674.144 6        39.231
E10        13.000                                                                                                                                    24451577.763 7  95953245.80107     -1675.142 7        47.652    24451576.941 7  98456397.51207     -1718.893 7        43.115
E06        14.000    24761602.154 4 130123106.39604      1424.064 4        27.329                                                                    24761602.364 6  97169876.47106      1063.960 6        39.501    24761608.685 6  99704765.41906      1091.656 6        37.293
E11        15.000    23399221.396 6 122963733.69206      -926.254 6        38.847                                                                    23399216.603 7  91823557.59907      -691.711 7        43.704    23399216.079 7  94218953.32707      -709.631 7        42.497
G19        16.000    25492722.043 5 133965201.08105      2872.260 5        32.192
E30        17.000                                                                                                                                    28653610.736 4 112443018.76504      -259.211 4        29.659    28653597.840 4 115376146.66904      -266.780 4        26.024
E36        20.000    25317473.106 6 133044193.82206      1245.188 6        40.577                                                                    25317470.005 6  99351178.11506       929.923 6        38.150    25317472.962 6 101942975.06006       954.067 6        38.486
G08        21.000    23760806.769 7 124863931.35107     -4447.286 7        42.237                                    23760862.364 1  97296780.52001     -3465.536 1         8.857
G17        22.000    23358391.111 7 122749378.87507      1485.533 7        44.856                                    23358384.953 6  95648782.42706      1157.558 6        36.764    23358385.164 6  95648691.44206      1157.520 6        38.138
S23        24.000    38308297.150 6 201311417.52106      -824.632 6        40.965
S36        25.000    38355999.959 6 201561949.03706      -827.419 6        37.036
R20        27.000    19365450.631 5                      -212.599 5        32.006                                                                    19365450.674 6  80543335.01016      -165.568 6        41.020
R04        28.000    20626102.656 8 110451979.19208     -3786.262 8        48.948                                                                    20626099.787 7  85906985.15407     -2944.893 7        44.351
R12        32.000                                                                                                                                    23992474.180 5  99682746.61605     -1202.638 5        35.029
C19        33.000                                                                                                                                    26175558.139 5                      2392.924 5        32.407
R21        34.000    22209475.224 7 118847446.90607      2940.409 7        44.473                                                                    22209474.399 6  92436997.59706      2287.003 6        40.176
R19        35.000                                                                                                                                    22041122.643 4  91704011.88804     -3421.626 4        29.564
R05        36.000    19318667.451 8 103269462.58108        57.945 8        50.519                                                                    19318667.651 7  80320590.06807        45.042 7        47.519
C39        38.000                                                                                                                                    39350825.905 5 204910046.65205       -11.203 5        33.060
C29        43.000                                                                                                                                    22012407.105 5 114624257.43705       -86.191 5        30.234                                                                    22012388.602 7  93141660.78807       -70.342 7        43.308
C16        45.000                                                                                                                                                                                                    39642283.284 4                       293.531 4        27.509
C32        47.000                                                                                                                                    22724554.731 8 118332786.67608     -2488.021 8        49.710                                                                    22724552.870 7  96155068.89407     -2021.566 7        45.860
C35        51.000                                                                                                                                    26016210.354 6 135473240.14706      2316.798 6        39.709                                                                    26016231.875 6 110083104.53006      1882.463 6        36.533
I09        54.000    37283712.593 6 146309294.73806      -544.010 6        40.636
C20        55.000                                                                                                                                    22534600.314 8 117343564.89608       832.173 8        48.844                                                                    22534593.767 7  95351336.37307       676.302 7        45.204
C30        58.000                                                                                                                                    23064735.592 7 120104342.71407     -3310.202 7        46.139                                                                    23064733.692 7  97594486.51207     -2689.703 7        43.742
> 2025 01 01 00 01 15.0000000  0 36
E19         1.000    25858764.741 5                     -2904.986 5        30.083                                                                    25858760.501 5 101475327.88805     -2168.842 5        33.784    25858771.179 4                     -2226.054 4        26.862
G32         2.000    22870528.091 4 120185636.21804     -3068.678 4        28.313                                    22870511.155 3  93650931.23703     -2391.176 3        19.463    22870515.117 6  93650980.20906     -2391.139 6        40.117
G21         3.000    21168050.455 6 111238847.77806     -2088.487 6        40.570                                    21168047.374 3  86679650.39003     -1627.385 3        20.857
G14         4.000    24820803.401 4                     -2851.992 4        28.085                                                                                                    24820798.460 4 101637054.24604     -2222.155 4        28.427
G02         5.000    20834268.007 7 109484990.52707      -617.056 7        44.451                                    20834258.624 5  85312842.70805      -480.825 5        33.515
E04         7.000    24075462.632 7 126517705.60007       117.868 7        42.389                                                                    24075460.191 7  94477312.15407        88.041 7        42.402    24075456.705 6  96941888.31706        90.506 6        37.093
G03         8.000    21190026.111 8 111354388.16608      1313.729 8        48.696                                    21190021.366 6  86769662.89206      1023.683 6        41.945    21190024.128 6  86769662.88506      1023.681 6        37.902
E02         9.000    27582171.999 5 144945721.86605     -2540.549 5        35.495                                                                    27582181.437 5 108238472.04505     -1897.277 5        30.792    27582171.066 5 111062070.82305     -1946.705 5        32.671
E12        10.000                                                                                                                                    26346556.506 6 103389566.36406     -2273.086 6        36.098    26346560.277 6 106086755.75606     -2332.400 6        38.462
E09        12.000    26388663.057 7 138673378.67607      2184.542 7        42.002                                                                    26388661.407 6 103554817.69506      1631.347 6        41.738    26388660.094 6 106256205.19906      1673.789 6        39.294
E10        13.000    24453706.527 6 128505127.89006     -2244.209 6        36.677                                                                    24453712.472 7  95961622.73507     -1675.739 7        47.870    24453711.895 7  98464992.97807     -1719.546 7        43.228
E06        14.000    24760247.497 4 130115985.98404      1423.052 4        28.493                                                                    24760247.496 6  97164559.32806      1062.893 6        40.045    24760253.981 6  99699309.55306      1090.706 6        37.274
E11        15.000    23400102.704 6 122968366.74806      -927.194 6        38.465                                                                    23400098.228 7  91827017.33907      -692.287 7        43.860    23400097.684 7  94222503.32007      -710.362 7        42.131
G19        16.000    25489987.407 5 133950841.53905      2871.235 5        31.464
E30        17.000    28653925.940 6 150577712.50506      -349.303 6        36.053                                                                    28653942.729 4 112444318.92504      -260.915 4        28.152    28653931.185 4 115377480.74504      -267.370 4        24.977
E36        20.000    25316292.401 6 133037967.93706      1245.026 6        40.319                                                                    25316285.346 6  99346528.92306       929.582 6        37.694    25316288.033 6 101938204.57106       954.011 6        39.297
G08        21.000    23765038.882 6 124886167.96906     -4447.506 6        41.616                                    23765093.968 1  97314107.86601     -3465.604 1        10.148    23765035.327 3                     -3465.562 3        21.167
G17        22.000    23356978.575 7 122741954.91907      1483.875 7        45.276                                    23356972.211 6  95642997.53006      1156.265 6        36.374    23356972.208 6  95642906.56106      1156.255 6        38.420
S23        24.000    38309083.534 6 201315538.94906      -824.244 6        40.918
S36        25.000    38356784.925 6 201566083.70806      -826.932 6        37.017
R20        27.000    19365647.110 5                      -215.886 5        33.359                                                                    19365650.236 6  80544167.82116      -167.760 6        41.216
R04        28.000    20629638.364 7 110470915.02307     -3788.209 7        47.152                                                                    20629635.602 7  85921713.02007     -2946.489 7        44.272
R12        32.000                                                                                                                                    23993918.484 5  99688764.84005     -1205.256 5        33.952
C19        33.000                                                                                                                                    26173260.964 5                      2392.232 5        33.449
R21        34.000    22206729.893 7 118832745.91907      2939.870 7        45.305                                                                    22206725.357 6  92425563.49406      2286.581 6        38.057
R19        35.000                                                                                                                                    22045238.160 4  91721123.35004     -3422.942 4        29.081
R05        36.000    19318615.447 8 103269181.30208        54.372 8        50.816                                                                    19318615.014 7  80320371.29607        42.263 7        47.665
C39        38.000                                                                                                                                    39350836.395 5 204910104.66805       -11.959 5        32.671
C29        43.000                                                                                                                                    22012495.922 3                       -87.384 3        21.333                                                                    22012472.594 7  93142016.34807       -72.080 7        42.918
C16        45.000                                                                                                                                                                                                    39641918.055 4                       292.957 4        27.329
C09        46.000                                                                                                                                    40291019.072 4                       802.204 4        27.461
C32        47.000                                                                                                                                    22726944.269 8 118345229.66308     -2489.346 8        49.928                                                                    22726942.424 7  96165179.83707     -2022.748 7        45.245
C35        51.000                                                                                                                                    26013985.924 6 135461656.34806      2316.575 6        39.943                                                                    26014007.488 6 110073691.67006      1882.538 6        36.057
I09        54.000    37284406.190 6 146312014.71006      -543.967 6        40.622
C20        55.000                                                                                                                                    22533801.299 8 117339407.92108       830.486 8        48.985                                                                    22533795.486 7  95347958.48907       674.817 7        45.240
C30        58.000                                                                                                                                    23067914.164 7 120120896.66207     -3311.551 7        46.605                                                                    23067912.658 7  97607937.91907     -2690.775 7        43.183
> 2025 01 01 00 01 20.0000000  0 36
E19         1.000    25861530.006 5                     -2906.635 5        30.747                                                                    25861525.121 5 101486177.16705     -2170.485 5        33.467    25861537.490 4                     -2227.437 4        25.564
G32         2.000    22873439.496 4 120200985.01904     -3070.786 4        29.422                                    22873432.738 3  93662891.29103     -2392.795 3        19.940    22873435.164 6  93662940.27906     -2392.887 6        39.616
G21         3.000    21170038.382 6 111249294.79706     -2090.384 6        40.961                                    21170034.317 3  86687790.90603     -1628.876 3        21.786
G14         4.000    24823528.900 4                     -2853.515 4        28.474                                                                                                    24823516.306 4 101648168.12804     -2223.102 4        29.697
G02         5.000    20834856.126 7 109488080.94207      -619.119 7        44.495                                    20834846.486 5  85315250.81805      -482.431 5        33.467
E04         7.000    24075352.049 7 126517121.53307       115.633 7        42.550                                                                    24075348.995 7  94476875.99207        86.394 7        42.620    24075345.607 6  96941440.80806        88.549 6        36.423
G03         8.000    21188776.705 8 111347823.80508      1311.999 8        48.334                                    21188771.740 6  86764547.81106      1022.336 6        41.950    21188774.950 6  86764547.82206      1022.339 6        37.202
E02         9.000    27584591.000 5 144958428.32005     -2541.852 5        35.010                                                                    27584590.810 4 108247960.59804     -1898.371 4        29.972    27584592.432 5 111071806.95205     -1947.922 5        33.808
E12        10.000    26349478.242 4 138467375.06904     -3045.596 4        26.455                                                                    26349453.686 5 103400933.86705     -2273.624 5        35.986    26349457.351 6 106098419.79806     -2333.004 6        38.688
E09        12.000    26386584.759 6 138662458.07506      2183.776 6        41.321                                                                    26386583.069 6 103546662.70706      1630.703 6        41.199    26386582.047 6 106247837.46406      1673.371 6        39.429
E10        13.000    24455845.830 6 128516351.27806     -2245.130 6        38.306                                                                    24455848.311 7  95970003.83307     -1676.684 7        47.842    24455847.655 7  98473592.70607     -1720.251 7        43.554
E06        14.000    24758894.556 4 130108873.17504      1421.448 4        27.916                                                                    24758893.982 6  97159247.80806      1061.725 6        40.448    24758900.420 6  99693859.48006      1089.371 6        37.195
E11        15.000    23400985.911 6 122973006.06506      -928.620 6        38.054                                                                    23400981.153 7  91830481.76207      -693.327 7        44.032    23400980.481 6  94226058.11106      -711.464 6        41.979
G19        16.000    25487255.636 5 133936485.27105      2871.035 5        30.151
E30        17.000    28654264.977 6 150579464.41906      -351.448 6        37.210                                                                    28654275.740 4 112445627.22404      -263.249 4        28.872    28654268.730 4 115378823.12004      -269.613 4        27.557
E36        20.000    25315104.788 6 133031744.32506      1244.512 6        38.339                                                                    25315101.224 6  99341881.40406       929.365 6        37.440    25315103.323 6 101933435.82206       953.608 6        40.167
G08        21.000    23769270.811 6 124908406.92206     -4448.126 6        41.390                                    23769326.014 1  97331436.93701     -3466.110 1         8.190    23769270.942 3                     -3466.611 3        22.381
G17        22.000    23355567.859 7 122734540.77107      1481.767 7        45.424                                    23355561.280 6  95637220.27506      1154.620 6        36.049    23355561.672 6  95637129.27206      1154.784 6        38.108
S23        24.000    38309868.084 6 201319659.56406      -824.106 6        40.906
S36        25.000    38357573.080 6 201570217.43906      -826.677 6        37.032
R20        27.000    19365852.831 5 103557915.22415      -219.260 5        33.808                                                                    19365854.171 6  80545013.55116      -170.445 6        40.379
R04        28.000    20633176.449 7 110489862.41107     -3790.616 7        44.581                                                                    20633174.323 7  85936449.90007     -2948.291 7        44.129
R12        32.000                                                                                                                                    23995363.812 5  99694797.73605     -1208.011 5        34.095
C19        33.000                                                                                                                                    26170967.026 5                      2391.886 5        33.611
R21        34.000    22203985.589 7 118818049.34007      2938.738 7        46.219                                                                    22203978.319 5  92414132.81105      2285.704 5        35.595
R19        35.000                                                                                                                                    22049354.683 4  91738241.70204     -3424.601 4        26.934
R05        36.000    19318567.134 8 103268919.12408        50.509 8        51.241                                                                    19318565.637 7  80320167.37507        39.343 7        47.041
C39        38.000                                                                                                                                    39350848.296 5 204910166.79605       -12.832 5        32.713
C29        43.000                                                                                                                                                                                                                                                                    22012558.581 7  93142381.40207       -74.074 7        42.360
C16        45.000                                                                                                                                                                                                    39641556.520 4                       292.498 4        27.245
C09        46.000                                                                                                                                    40290250.897 4                       801.897 4        28.199
C32        47.000                                                                                                                                    22729335.163 8 118357680.90208     -2491.152 8        50.177                                                                    22729333.574 7  96175297.48907     -2024.316 7        44.519
C35        51.000                                                                                                                                    26011762.427 6 135450074.84606      2316.060 6        40.019                                                                    26011783.727 5 110064280.71805      1881.946 5        35.062
I09        54.000    37285099.071 6 146314735.19306      -544.278 6        40.758
C20        55.000                                                                                                                                    22533004.337 8 117335260.62208       828.412 8        49.004                                                                    22532999.112 7  95344588.46307       673.181 7        45.211
C30        58.000                                                                                                                                    23071094.982 7 120137458.73207     -3313.279 7        47.567                                                                    23071093.211 7  97621395.97707     -2692.395 7        42.584
> 2025 01 01 00 01 25.0000000  0 36
E19         1.000    25864296.035 5                     -2908.235 5        30.611                                                                    25864291.348 5 101497032.78505     -2171.846 5        33.222    25864304.834 4                     -2228.869 4        25.669
G32         2.000    22876359.140 5 120216345.47805     -3073.432 5        33.335                                    22876356.737 3  93674860.48903     -2394.871 3        22.038    22876358.316 6  93674909.50406     -2394.668 6        39.423
G21         3.000    21172028.639 7 111259751.33007     -2092.329 7        42.070                                    21172023.509 3  86695938.85603     -1630.395 3        22.438
G14         4.000                                                                                                                                                                    24826235.298 5 101659289.48105     -2224.984 5        31.532
G02         5.000    20835445.846 7 109491182.19707      -621.372 7        45.443                                    20835436.584 5  85317667.37605      -484.183 5        33.629
E04         7.000    24075243.132 7 126516549.34707       113.175 7        42.639                                                                    24075240.188 7  94476448.71307        84.622 7        42.544    24075237.044 5  96941002.38505        86.536 5        35.100
G03         8.000    21187528.976 8 111341269.02008      1309.856 8        48.002                                    21187524.112 6  86759440.19006      1020.665 6        41.869    21187527.511 6  86759440.20606      1020.526 6        37.081
E02         9.000    27587011.225 5 144971143.93805     -2544.096 5        35.400                                                                    27587008.337 4 108257456.00204     -1899.885 4        27.988    27587013.157 5 111081550.09405     -1949.330 5        33.647
E12        10.000    26352374.832 4 138482602.37304     -3045.981 4        25.579                                                                    26352352.231 5 103412304.97705     -2274.575 5        35.862    26352355.181 6 106110087.57806     -2333.921 6        38.447
E09        12.000    26384507.232 6 138651542.36306      2182.525 6        40.172                                                                    26384505.853 6 103538511.36306      1629.846 6        40.517    26384504.681 6 106239473.48706      1672.424 6        39.889
E10        13.000    24457986.559 6 128527581.48606     -2246.650 6        40.010                                                                    24457985.283 7  95978390.01807     -1677.771 7        47.770    24457984.911 7  98482197.67007     -1721.590 7        43.869
E06        14.000    24757541.186 4 130101769.12904      1419.793 4        27.605                                                                    24757542.561 6  97153942.88206      1060.322 6        40.899    24757548.403 6  99688416.18006      1087.869 6        36.359
E11        15.000    23401870.411 6 122977652.85406      -930.134 6        37.784                                                                    23401865.685 7  91833951.77607      -694.511 7        44.164    23401864.606 6  94229618.64506      -712.619 6        41.855
G19        16.000    25484529.296 4 133922133.74704      2869.830 4        27.665
E30        17.000    28654602.968 6 150581228.24506      -354.133 6        36.760                                                                    28654610.056 4 112446944.23504      -264.830 4        25.955    28654606.865 4 115380174.44804      -271.641 4        27.880
E36        20.000    25313916.720 6 133025524.20806      1243.652 6        36.015                                                                    25313917.579 6  99337236.53306       928.709 6        36.907    25313919.624 6 101928669.78806       952.954 6        40.906
G08        21.000    23773503.087 6 124930649.44606     -4448.942 6        41.061                                    23773558.548 1  97348768.86801     -3466.678 1         7.625    23773503.708 4                     -3466.775 4        26.719
G17        22.000    23354159.329 7 122727137.71607      1479.455 7        45.160                                    23354152.468 5  95631451.66205      1152.822 5        35.886    23354152.293 6  95631360.68006      1152.661 6        38.673
S23        24.000    38310651.387 6 201323780.65106      -824.315 6        40.982
S36        25.000    38358357.210 6 201574351.97806      -826.836 6        36.983
R20        27.000    19366058.014 5 103559020.63705      -223.258 5        33.760                                                                    19366060.448 6  80545873.23606      -173.388 6        40.184
R04        28.000    20636716.170 7 110508822.48707     -3793.293 7        42.434                                                                    20636714.539 7  85951196.68407     -2950.420 7        43.780
R12        32.000    23996889.227 5 128186566.64505     -1557.773 5        32.551                                                                    23996817.027 5  99700846.63705     -1211.390 5        34.733
C19        33.000                                                                                                                                    26168666.962 5 136267124.20915      2390.925 5        32.898
R21        34.000    22201241.446 7 118803358.50707      2937.533 7        46.663                                                                    22201234.064 5  92402706.60505      2284.637 5        33.994
R19        35.000    22053460.825 4                     -4404.157 4        24.541
R05        36.000    19318522.254 8 103268677.01308        46.383 8        51.260                                                                    19318520.470 7  80319979.06607        36.128 7        47.032
C39        38.000                                                                                                                                    39350861.514 5 204910234.29205       -14.154 5        32.928
C29        43.000                                                                                                                                                                                                                                                                    22012647.183 7  93142756.94107       -76.021 7        42.030
C16        45.000                                                                                                                                                                                                    39641196.349 4                       291.769 4        26.970
C09        46.000                                                                                                                                    40289481.161 4                       800.844 4        28.663
C32        47.000                                                                                                                                    22731727.647 8 118370141.60408     -2493.127 8        50.097                                                                    22731726.436 7  96185422.81807     -2025.781 7        44.187
C35        51.000                                                                                                                                    26009538.543 6 135438496.89006      2315.244 6        40.029                                                                    26009559.940 5 110054872.64405      1881.478 5        34.552
I09        54.000    37285792.487 6 146317457.09006      -544.559 6        40.953
C20        55.000                                                                                                                                    22532209.958 8 117331124.22208       826.152 8        48.942                                                                    22532204.881 7  95341227.30607       671.410 7        45.619
C30        58.000                                                                                                                                    23074277.984 8 120154030.16208     -3315.312 8        48.404                                                                    23074275.372 7  97634861.63707     -2693.849 7        42.252
> 2025 01 01 00 01 30.0000000  0 36
E19         1.000    25867062.785 5                     -2909.827 5        30.023                                                                    25867059.358 5 101507894.27505     -2172.782 5        33.120    25867075.474 4                     -2229.238 4        25.414
G32         2.000    22879286.212 5 120231717.07605     -3075.210 5        34.376                                    22879282.578 4  93686838.33104     -2396.281 4        24.120    22879283.723 6  93686887.34906     -2396.356 6        38.883
G21         3.000    21174020.590 7 111270216.65407     -2093.840 7        42.736                                    21174014.598 3  86704093.64103     -1631.563 3        23.600
G14         4.000    24828985.196 5                     -2857.341 5        30.219                                                                                                    24828950.580 5 101670417.65505     -2226.412 5        30.460
G02         5.000    20836037.808 7 109494293.61807      -623.195 7        46.367                                    20836028.841 5  85320091.85805      -485.605 5        33.916
E04         7.000    24075135.892 7 126515988.45607       111.268 7        42.045                                                                    24075133.415 7  94476029.85007        83.048 7        42.682    24075130.605 5  96940572.62305        85.168 5        34.609
G03         8.000    21186283.153 8 111334723.15208      1308.330 8        48.028                                    21186278.439 6  86754339.51506      1019.478 6        41.805    21186282.365 6  86754339.52906      1019.499 6        37.633
E02         9.000    27589432.228 5 144983868.04305     -2545.492 5        35.076                                                                    27589430.645 4 108266957.78304     -1901.271 4        26.144    27589434.004 5 111091299.73905     -1950.660 5        34.124
E12        10.000    26355271.036 4 138497834.04104     -3047.331 4        25.098                                                                    26355251.236 6 103423679.24606     -2274.863 6        36.333    26355252.784 6 106121758.58206     -2334.342 6        38.429
E09        12.000    26382429.376 6 138640630.90006      2182.114 6        38.673                                                                    26382429.036 6 103530363.20606      1629.569 6        39.604    26382428.158 6 106231112.75906      1671.968 6        40.095
E10        13.000    24460127.064 6 128538817.83706     -2247.728 6        40.546                                                                    24460123.364 7  95986780.80307     -1678.505 7        47.780    24460122.974 7  98490807.34207     -1722.188 7        44.272
E06        14.000    24756190.506 4 130094673.32304      1418.194 4        26.994                                                                    24756192.946 6  97148644.03806      1059.213 6        41.313    24756198.322 5  99682979.10705      1086.765 5        35.543
E11        15.000    23402755.820 6 122982306.53006      -931.530 6        38.084                                                                    23402751.446 7  91837426.91907      -695.397 7        44.519    23402750.262 6  94233184.43806      -713.561 6        41.783
G19        16.000    25481799.878 4 133907786.09304      2868.853 4        25.248
E30        17.000    28654939.975 5 150583003.97505      -356.165 5        35.833                                                                    28654946.735 4 112448270.22804      -265.430 4        26.216    28654947.223 4 115381535.10804      -272.836 4        28.351
E36        20.000    25312735.411 5 133019307.01005      1243.243 5        33.539                                                                    25312734.369 6  99332593.79606       928.529 6        36.836    25312736.441 6 101923905.96606       952.608 6        41.440
G08        21.000    23777736.591 6 124952894.87006     -4449.195 6        40.872                                    23777791.690 1  97366103.02201     -3466.928 1         8.762    23777738.187 4                     -3466.796 4        28.237
G17        22.000    23352752.583 7 122719745.11807      1477.565 7        44.447                                    23352745.768 5  95625691.19605      1151.349 5        35.733    23352745.438 6  95625600.20606      1151.439 6        38.366
S23        24.000    38311434.811 6 201327901.56706      -824.054 6        40.965
S36        25.000    38359147.923 6 201578486.26906      -826.640 6        36.987
R20        27.000    19366266.848 5 103560143.14705      -226.214 5        33.527                                                                    19366271.392 6  80546746.32806      -175.873 6        39.901
R04        28.000    20640258.822 7 110527794.80107     -3795.611 7        42.559                                                                    20640256.943 7  85965952.90307     -2952.003 7        42.654
R12        32.000    23998353.262 4 128194363.79504     -1560.645 4        25.805                                                                    23998281.789 5  99706911.11005     -1214.213 5        35.529
C19        33.000                                                                                                                                    26166371.012 5 136255170.38605      2390.631 5        33.293
R21        34.000    22198496.673 7 118788672.75107      2936.768 7        46.546                                                                    22198490.332 5  92391284.33705      2284.160 5        32.952
R19        35.000    22057586.872 4                     -4406.542 4        26.024                                                                    22057580.375 4                     -3427.656 4        26.156
R05        36.000    19318480.713 8 103268454.44408        42.634 8        51.267                                                                    19318478.859 7  80319805.96807        33.186 7        47.189
C39        38.000                                                                                                                                    39350874.490 5 204910306.48105       -14.632 5        33.012
C29        43.000                                                                                                                                    22012736.983 6                       -96.117 6        38.814                                                                    22012738.218 6  93143142.47206       -77.940 6        41.664
C16        45.000                                                                                                                                                                                                    39640838.105 4                       291.475 4        26.731
C09        46.000                                                                                                                                    40288713.464 4                       801.253 4        27.892
C32        47.000                                                                                                                                    22734121.776 8 118382611.12408     -2494.664 8        50.373                                                                    22734121.108 7  96195555.32807     -2027.064 7        43.596
C35        51.000                                                                                                                                    26007316.315 6 135426921.80506      2314.734 6        40.529                                                                    26007336.194 5 110045466.86405      1880.995 5        34.614
I09        54.000    37286486.563 6 146320179.91206      -544.503 6        40.899
C20        55.000                                                                                                                                    22531417.463 8 117326998.09408       824.337 8        48.580                                                                    22531412.675 7  95337874.49507       669.793 7        45.866
C30        58.000                                                                                                                                    23077462.508 8 120170610.31808     -3316.876 8        48.979                                                                    23077459.205 6  97648334.37106     -2695.063 6        41.659
> 2025 01 01 00 01 35.0000000  0 35
E19         1.000    25869832.163 4                     -2911.535 4        29.232                                                                    25869829.180 5 101518761.81805     -2174.317 5        32.904    25869848.484 4                     -2230.896 4        25.338
G32         2.000    22882214.955 5 120247099.96005     -3077.689 5        34.529                                    22882210.489 4  93698824.99704     -2398.209 4        25.053    22882210.361 6  93698874.02706     -2398.335 6        38.051
G21         3.000    21176013.410 7 111280691.06207     -2095.695 7        43.481                                    21176007.774 4  86712255.52204     -1633.010 4        24.436
G14         4.000    24831699.913 4                     -2858.569 4        27.174                                                                                                    24831665.231 4 101681552.95404     -2227.799 4        28.919
G02         5.000    20836631.450 7 109497415.48807      -625.333 7        47.007                                    20836623.165 5  85322524.48405      -487.274 5        34.386
E04         7.000    24075030.532 6 126515439.08506       108.861 6        41.306                                                                    24075028.823 7  94475619.59707        81.249 7        42.861    24075026.443 5  96940151.68705        83.201 5        34.024
G03         8.000    21185039.762 8 111328186.45608      1306.461 8        48.055                                    21185034.715 6  86749245.98806      1018.023 6        41.921    21185039.402 6  86749245.99506      1017.958 6        39.793
E02         9.000    27591855.485 5 144996600.88405     -2547.441 5        35.414                                                                    27591852.489 4 108276466.02604     -1901.584 4        24.195    27591857.175 5 111101056.05105     -1951.794 5        34.138
E12        10.000    26358170.028 4 138513070.08804     -3048.075 4        24.241                                                                    26358151.144 6 103435056.85306     -2275.774 6        36.801    26358150.432 6 106133432.99506     -2334.899 6        38.135
E09        12.000    26380351.489 6 138629723.94206      2181.157 6        37.021                                                                    26380352.799 6 103522218.40906      1628.832 6        38.532    26380352.416 6 106222755.48606      1671.150 6        39.865
E10        13.000    24462266.329 6 128550060.59906     -2249.113 6        41.211                                                                    24462262.634 7  95995176.37607     -1679.515 7        47.721    24462262.197 7  98499421.92907     -1723.371 7        44.367
E06        14.000    24754841.919 4 130087585.90504      1416.286 4        27.904                                                                    24754844.593 6  97143351.46406      1058.096 6        41.704    24754854.004 5  99677548.43605      1085.662 5        34.562
E11        15.000    23403642.616 6 122986967.30306      -932.609 6        38.450                                                                    23403638.382 7  91840907.38007      -696.604 7        44.767    23403637.230 6  94236755.70006      -714.833 6        41.621
E30        17.000    28655276.128 5 150584791.43205      -358.705 5        34.895                                                                    28655284.416 4 112449605.08304      -267.875 4        24.195    28655288.405 4 115382904.69104      -274.386 4        29.573
E36        20.000    25311553.303 5 133013092.93005      1242.590 5        32.078                                                                    25311551.567 6  99327953.44706       927.848 6        36.715    25311553.952 7 101919144.53907       952.155 7        42.013
G08        21.000    23781970.601 6 124975143.42706     -4449.851 6        40.057                                    23782025.431 1  97383439.58701     -3467.446 1         9.333    23781971.790 5                     -3467.606 5        30.241
G17        22.000    23351348.086 7 122712363.21607      1475.490 7        43.695                                    23351341.128 5  95619939.06305      1149.733 5        35.638    23351340.881 6  95619848.08006      1149.467 6        38.033
S23        24.000    38312220.614 6 201332022.47006      -824.031 6        40.760
S36        25.000    38359935.876 6 201582620.21006      -826.702 6        36.541
R20        27.000    19366481.582 5 103561283.10005      -229.515 5        33.964                                                                    19366485.086 6  80547632.95906      -178.664 6        41.421
R04        28.000    20643803.542 7 110546779.43307     -3797.895 7        42.025                                                                    20643801.756 6  85980718.73206     -2954.035 6        41.809
R12        32.000                                                                                                                                    23999743.633 5  99712991.19715     -1217.581 5        33.593
C19        33.000                                                                                                                                    26164078.402 5 136243219.93205      2389.971 5        34.267
R21        34.000    22195751.401 7 118773992.35807      2935.662 7        45.896                                                                    22195747.886 5  92379866.28005      2283.329 5        33.245
R19        35.000    22061710.392 4                     -4408.600 4        29.043                                                                    22061703.193 5                     -3428.885 5        30.830
R05        36.000    19318442.735 8 103268251.71308        38.691 8        51.734                                                                    19318440.585 7  80319648.29607        30.084 7        47.152
C39        38.000                                                                                                                                    39350889.720 5 204910383.67405       -16.074 5        33.096
C29        43.000                                                                                                                                    22012835.086 6 114626504.94616       -98.618 6        40.725                                                                    22012831.567 6  93143538.18506       -80.445 6        41.456
C16        45.000                                                                                                                                                                                                    39640475.058 4                       290.365 4        27.102
C09        46.000                                                                                                                                    40287947.202 4                       800.025 4        28.284
C32        47.000                                                                                                                                    22736518.000 8 118395089.69408     -2496.504 8        50.812                                                                    22736517.693 7  96205695.20807     -2028.970 7        43.608
C35        51.000                                                                                                                                    26005094.522 6 135415349.92406      2314.218 6        40.834                                                                    26005112.173 5 110036063.72905      1880.141 5        34.505
I09        54.000    37287180.818 6 146322903.86406      -544.819 6        40.934
C20        55.000                                                                                                                                    22530626.847 8 117322882.48408       822.192 8        48.559                                                                    22530622.576 7  95334530.23107       667.659 7        46.329
C30        58.000                                                                                                                                    23080647.744 8 120187199.42908     -3318.554 8        48.944                                                                    23080644.904 6  97661814.41806     -2697.056 6        41.404
> 2025 01 01 00 01 40.0000000  0 34
E19         1.000    25872602.919 4                     -2912.476 4        28.199                                                                    25872600.408 5 101529635.64205     -2175.440 5        32.994    25872621.373 4                     -2231.949 4        26.060
G32         2.000    22885144.904 5 120262494.49605     -3080.083 5        35.681                                    22885140.403 4  93710820.75304     -2400.086 4        25.293    22885140.332 6  93710869.73106     -2400.043 6        36.344
G21         3.000    21178008.861 7 111291174.94607     -2097.705 7        44.358                                    21178002.896 4  86720424.77204     -1634.575 4        25.504
G14         4.000    24834412.596 4                     -2860.591 4        27.174                                                                                                    24834390.493 4 101692695.54804     -2229.437 4        28.057
G02         5.000    20837227.375 7 109500548.17207      -627.514 7        47.152                                    20837219.648 5  85324965.53405      -488.973 5        34.967
E04         7.000    24074928.546 6 126514901.56606       106.314 6        40.603                                                                    24074926.510 7  94475218.19107        79.422 7        42.963    24074924.433 5  96939739.81805        81.631 5        34.005
G03         8.000    21183797.472 8 111321659.27808      1304.520 8        48.161                                    21183792.964 7  86744159.87407      1016.510 7        42.339    21183796.487 6  86744159.88506      1016.510 6        40.539
E02         9.000    27594280.257 5 145009342.75805     -2549.081 5        35.048                                                                    27594272.117 3                     -1904.892 3        21.095    27594284.063 5 111110819.30705     -1953.202 5        34.248
E12        10.000    26361066.069 4 138528310.90904     -3048.612 4        25.203                                                                    26361051.749 6 103446437.99006     -2276.481 6        37.584    26361049.580 6 106145111.06306     -2335.921 6        38.183
E09        12.000    26378275.992 5 138618821.83605      2180.099 5        34.414                                                                    26378277.616 6 103514077.26006      1627.855 6        37.592    26378277.516 6 106214401.91206      1670.486 6        40.060
E10        13.000    24464407.048 6 128561310.12006     -2250.521 6        41.726                                                                    24464403.277 7  96003577.00107     -1680.640 7        47.568    24464402.651 7  98508041.69907     -1724.495 7        44.632
E06        14.000    24753496.088 4 130080507.23804      1414.486 4        28.749                                                                    24753497.520 6  97138065.45306      1056.558 6        41.971    24753515.414 5  99672124.41705      1084.260 5        33.521
E11        15.000    23404531.391 6 122991635.54106      -934.600 6        38.934                                                                    23404526.927 7  91844393.40107      -697.782 7        44.919    23404525.579 6  94240332.64406      -715.997 6        41.621
E30        17.000    28655617.323 5 150586590.87905      -361.102 5        32.862                                                                                                                                    28655630.799 4 115384283.39604      -276.320 4        29.299
E36        20.000    25310371.270 5 133006882.36505      1241.725 5        31.638                                                                    25310369.691 6  99323315.65206       927.265 6        36.522    25310372.099 7 101914385.76807       951.559 7        42.427
G08        21.000    23786204.643 6 124997395.46306     -4450.702 6        39.396                                    23786259.848 1  97400778.92001     -3468.077 1         8.000    23786208.156 5                     -3468.024 5        31.321
G17        22.000    23349945.751 7 122704992.36207      1473.132 7        44.235                                    23349938.599 6  95614195.54306      1147.902 6        36.038    23349937.667 6  95614104.55406      1147.636 6        37.452
S23        24.000    38313005.200 6 201336143.85406      -824.398 6        40.532
S36        25.000    38360720.825 6 201586754.42006      -827.188 6        36.696
R20        27.000    19366699.654 5 103562440.90505      -233.431 5        34.052                                                                    19366701.327 6  80548533.45306      -181.604 6        41.695
R04        28.000    20647351.177 6 110565776.75106     -3800.664 6        41.046                                                                    20647349.680 6  85995494.41806     -2956.101 6        41.159
R12        32.000                                                                                                                                    24001206.352 4  99719086.86304     -1220.974 4        29.877
R21        34.000    22193006.865 7 118759317.62307      2934.451 7        44.600                                                                    22193006.204 5  92368452.61505      2282.275 5        35.029
R19        35.000    22065839.734 5                     -4410.773 5        32.174                                                                    22065826.629 5                     -3430.560 5        33.665
R05        36.000    19318408.375 8 103268069.11708        34.563 8        51.789                                                                    19318406.463 7  80319506.28907        26.764 7        46.979
C39        38.000                                                                                                                                    39350905.306 5 204910466.15105       -17.311 5        34.271
C29        43.000                                                                                                                                    22012933.123 6 114627004.76706      -101.209 6        41.819                                                                    22012927.671 6  93143944.33306       -82.129 6        41.375
C16        45.000                                                                                                                                                                                                    39640115.352 4                       289.510 4        26.946
C09        46.000                                                                                                                                    40287183.212 4                       799.653 4        28.483
C32        47.000                                                                                                                                    22738916.224 8 118407577.65808     -2498.507 8        51.232                                                                    22738916.096 7  96215842.69107     -2030.137 7        43.424
C35        51.000                                                                                                                                    26002872.316 6 135403781.54806      2313.373 6        40.615                                                                    26002886.987 5 110026663.42105      1879.702 5        34.876
I09        54.000    37287875.553 6 146325629.18806      -545.204 6        41.058
C20        55.000                                                                                                                                    22529838.692 8 117318777.71208       819.944 8        48.883                                                                    22529834.546 7  95331194.77207       666.428 7        46.687
C30        58.000                                                                                                                                    23083833.997 8 120203797.84908     -3320.536 8        48.488                                                                    23083832.617 6  97675301.98006     -2698.081 6        41.135
> 2025 01 01 00 01 45.0000000  0 34
E19         1.000    25875376.586 4                     -2914.557 4        26.814                                                                    25875372.996 5 101540515.53005     -2176.416 5        32.874    25875397.579 4                     -2233.700 4        25.985
G32         2.000    22888076.876 5 120277900.43305     -3082.188 5        35.433                                    22888072.388 4  93722825.36004     -2401.697 4        24.887    22888072.266 5  93722874.33105     -2401.741 5        34.967
G21         3.000    21180005.560 7 111301668.04807     -2099.347 7        44.232                                    21180000.043 4  86728601.21604     -1635.857 4        25.835
G14         4.000    24837133.494 4                     -2862.747 4        28.209                                                                                                    24837116.523 4 101703845.31604     -2230.581 4        28.910
G02         5.000    20837825.290 7 109503691.40507      -629.485 7        46.557                                    20837818.143 5  85327414.80605      -490.508 5        35.548
E04         7.000    24074829.213 6 126514375.63506       104.154 6        40.436                                                                    24074826.333 7  94474825.43407        77.749 7        43.272    24074824.525 5  96939336.84005        79.862 5        33.808
G03         8.000    21182556.698 8 111315141.37208      1302.845 8        48.132                                    21182553.063 7  86739080.98307      1015.203 7        42.633    21182555.625 6  86739080.97606      1015.199 6        40.534
E02         9.000    27596706.431 5 145022093.44505     -2550.820 5        34.429                                                                                                                                    27596715.461 5 111120589.31205     -1954.617 5        34.281
E12        10.000    26363962.247 4 138543556.25104     -3049.683 4        26.036                                                                    26363953.021 6 103457822.52206     -2277.161 6        38.285    26363950.205 6 106156792.58106     -2336.539 6        38.405
E09        12.000    26376203.465 5 138607924.32305      2179.304 5        32.449                                                                    26376203.011 6 103505939.53606      1627.176 6        36.435    26376203.661 6 106206051.88206      1669.712 6        40.207
E10        13.000    24466548.754 6 128572566.12106     -2251.630 6        41.938                                                                    24466545.237 7  96011982.46107     -1681.506 7        47.527    24466544.207 7  98516666.43207     -1725.349 7        44.608
E06        14.000    24752148.710 4 130073437.11004      1412.806 4        29.697                                                                    24752152.401 7  97132785.78807      1055.310 7        42.201    24752179.529 5  99666706.92005      1082.817 5        32.653
E11        15.000    23405420.798 6 122996310.99106      -935.755 6        39.589                                                                    23405416.635 7  91847884.79907      -698.759 7        45.130    23405415.298 6  94243915.12806      -716.910 6        41.812
E30        17.000    28655962.254 5 150588402.20305      -363.544 5        31.947                                                                    28655970.050 3                      -272.345 3        21.976    28655976.455 4 115385671.26704      -278.766 4        29.488
E36        20.000    25309191.614 5 133000674.98305      1241.265 5        33.485                                                                    25309188.618 6  99318680.28806       927.076 6        36.612    25309191.001 7 101909629.48307       951.071 7        42.777
G08        21.000    23790439.277 6 125019650.69206     -4451.159 6        38.601                                    23790494.908 1  97418120.70401     -3468.453 1         8.381    23790442.152 5                     -3468.664 5        31.751
G17        22.000    23348545.202 7 122697632.32407      1471.109 7        45.175                                    23348538.199 6  95608460.45406      1146.314 6        36.189    23348537.337 6  95608369.46106      1146.313 6        37.123
S23        24.000    38313788.383 6 201340265.26306      -824.021 6        40.658
S36        25.000    38361508.559 6 201590889.52006      -826.984 6        36.484
R20        27.000    19366915.911 5 103563616.23905      -236.645 5        32.802                                                                    19366920.666 6  80549447.60406      -184.082 6        40.794
R04        28.000    20650900.752 6 110584786.42706     -3803.014 6        40.384                                                                    20650899.709 6  86010279.72806     -2957.982 6        41.178
R12        32.000                                                                                                                                    24002673.252 4  99725198.24304     -1223.721 4        24.977
R21        34.000    22190262.887 6 118744648.23506      2933.482 6        41.638                                                                    22190265.363 6  92357043.15006      2281.505 6        36.291
R19        35.000    22069969.228 5                     -4412.873 5        32.569                                                                    22069950.060 5  91823939.99215     -3432.051 5        34.738
R05        36.000    19318377.496 8 103267906.45908        30.713 8        51.447                                                                    19318375.932 7  80319379.78207        23.918 7        46.674
C39        38.000                                                                                                                                    39350922.226 5 204910553.65605       -17.979 5        34.476
C29        43.000                                                                                                                                    22013031.687 7 114627517.22107      -103.629 7        42.053                                                                    22013026.144 6  93144360.73506       -84.265 6        41.108
C16        45.000                                                                                                                                                                                                    39639756.880 4                       288.502 4        26.683
C09        46.000                                                                                                                                    40286422.374 4                       798.473 4        28.389
C32        47.000                                                                                                                                    22741316.278 8 118420074.73108     -2500.167 8        51.666                                                                    22741316.010 7  96225997.59807     -2031.734 7        43.460
C35        51.000                                                                                                                                    26000651.418 6 135392216.39506      2312.936 6        40.353                                                                    26000662.040 5 110017265.68505      1879.380 5        34.838
I09        54.000    37288570.240 6 146328355.68206      -545.344 6        40.968
C20        55.000                                                                                                                                    22529052.574 8 117314683.52908       817.890 8        49.451                                                                    22529048.585 7  95327867.91707       664.550 7        46.985
C30        58.000                                                                                                                                    23087021.805 7 120220405.28607     -3322.204 7        47.975                                                                    23087022.277 6  97688796.89406     -2699.702 6        40.837
> 2025 01 01 00 01 50.0000000  0 34
E19         1.000    25878151.425 4                     -2915.874 4        24.481                                                                    25878147.651 5 101551401.69705     -2177.869 5        33.317    25878175.933 4                     -2234.582 4        26.479
G32         2.000    22891010.304 5 120293317.92205     -3084.796 5        35.148                                    22891006.264 4  93734838.98804     -2403.721 4        24.226    22891005.778 5  93734887.91705     -2403.602 5        33.006
G21         3.000    21182003.576 7 111312170.58607     -2101.478 7        43.926                                    21181999.020 4  86736785.00304     -1637.512 4        25.880
G14         4.000    24839861.376 5                     -2864.408 5        31.540                                                                                                    24839842.669 4 101715002.30604     -2232.629 4        28.550
G02         5.000    20838425.525 7 109506845.38907      -631.904 7        46.998                                    20838418.700 6  85329872.45306      -492.391 6        36.076
E04         7.000    24074731.221 6 126513861.53706       101.611 6        40.319                                                                    24074728.709 7  94474441.50607        75.857 7        43.515    24074727.079 5  96938942.94605        77.686 5        34.210
G03         8.000    21181318.119 8 111308632.91508      1300.701 8        48.060                                    21181314.965 7  86734009.45707      1013.534 7        42.904    21181317.019 6  86734009.46406      1013.653 6        41.390
E02         9.000    27599133.210 5 145034853.15105     -2552.940 5        33.335                                                                                                                                    27599150.522 5 111130366.16805     -1955.968 5        34.019
E12        10.000    26366861.716 4 138558806.36004     -3050.469 4        26.491                                                                    26366855.077 6 103469210.60406     -2277.920 6        38.817    26366852.505 6 106168477.76606     -2337.443 6        38.357
E09        12.000    26374130.520 5 138597031.62305      2178.496 5        31.441                                                                    26374129.112 6 103497805.37106      1626.611 6        36.042    26374130.608 6 106197705.52206      1668.791 6        39.856
E10        13.000    24468690.862 6 128583828.82106     -2253.225 6        41.266                                                                    24468688.444 7  96020392.92707     -1682.625 7        47.470    24468687.131 7  98525296.30807     -1726.455 7        44.418
E06        14.000    24750804.646 4 130066375.65604      1411.313 4        29.526                                                                    24750809.050 7  97127512.63407      1053.898 7        42.652    24750838.004 5  99661296.15305      1081.189 5        30.521
E11        15.000    23406311.937 6 123000993.82506      -937.259 6        39.787                                                                    23406307.723 7  91851381.72407      -699.919 7        45.279    23406306.324 6  94247503.28606      -718.297 6        41.545
E30        17.000    28656310.083 4 150590225.81904      -365.792 4        29.289                                                                    28656316.820 3                      -273.488 3        22.095    28656323.972 4 115387068.61304      -280.673 4        29.564
E36        20.000    25308012.469 5 132994471.06305      1240.328 5        35.100                                                                    25308007.914 6  99314047.49506       926.397 6        36.839    25308010.373 7 101904875.82807       950.382 7        42.815
G08        21.000    23794674.760 6 125041909.32106     -4452.067 6        37.516                                    23794730.679 1  97435465.10501     -3469.181 1         8.762    23794678.223 5                     -3469.112 5        32.245
G17        22.000    23347146.794 7 122690283.26607      1468.773 7        46.373                                    23347139.949 6  95602733.92906      1144.502 6        36.359    23347138.970 6  95602642.94206      1144.350 6        37.259
S23        24.000    38314573.336 6 201344386.89706      -824.346 6        40.739
S36        25.000    38362295.256 6 201595025.54006      -827.216 6        36.873
R20        27.000    19367139.756 5 103564809.40805      -240.400 5        33.521                                                                    19367142.952 6  80550375.60506      -187.064 6        40.489
R04        28.000    20654453.139 6 110603808.65406     -3805.727 6        40.865                                                                    20654451.695 6  86025074.79306     -2960.029 6        41.383
R12        32.000    24004118.564 5                     -1577.352 5        31.789
C19        33.000                                                                                                                                    26157224.072 5 136207390.37405      2387.636 5        33.431
R21        34.000    22187521.005 6 118729984.55406      2932.186 6        39.129                                                                    22187523.872 6  92345638.09306      2280.595 6        37.070
R19        35.000    22074094.018 5                     -4414.583 5        32.491                                                                    22074076.439 5  91841104.62105     -3433.621 5        34.262
R05        36.000    19318350.272 8 103267763.87808        26.421 8        51.289                                                                    19318349.194 7  80319268.89307        20.480 7        46.290
C39        38.000                                                                                                                                    39350940.654 5 204910646.39505       -19.075 5        35.000
C29        43.000                                                                                                                                    22013132.640 7 114628042.47607      -106.445 7        42.214                                                                    22013127.020 6  93144787.53706       -86.312 6        41.456
C16        45.000                                                                                                                                                                                                    39639399.007 4                       287.940 4        26.707
C32        47.000                                                                                                                                    22743718.183 8 118432581.12008     -2502.219 8        51.760                                                                    22743717.941 7  96236160.05007     -2033.305 7        43.835
C35        51.000                                                                                                                                    25998431.273 6 135380654.71106      2311.948 6        40.720                                                                    25998437.882 5 110007870.80405      1878.564 5        35.667
I09        54.000    37289264.922 6 146331083.50306      -545.702 6        41.156
C20        55.000                                                                                                                                    22528268.708 8 117310600.14908       815.614 8        49.943                                                                    22528264.644 7  95324549.83007       662.784 7        47.595
C30        58.000                                                                                                                                    23090212.251 7 120237021.95207     -3324.269 7        47.351                                                                    23090213.878 6  97702299.27606     -2701.089 6        41.013
> 2025 01 01 00 01 55.0000000  0 34
E19         1.000    25880929.993 3                     -2917.393 3        23.924                                                                    25880923.971 5 101562293.79705     -2178.957 5        33.198    25880951.876 4                     -2235.858 4        26.347
G32         2.000    22893947.042 5 120308746.51605     -3086.696 5        35.248                                    22893942.126 3  93746861.24203     -2405.196 3        22.990    22893940.395 5  93746910.18705     -2405.394 5        30.189
G21         3.000    21184003.798 7 111322682.07207     -2103.112 7        43.420                                    21183999.632 4  86744975.76704     -1638.777 4        25.504
G14         4.000    24842588.601 5                     -2866.094 5        32.078                                                                                                    24842569.757 4 101726166.22904     -2233.213 4        28.502
G02         5.000    20839028.483 7 109510009.65807      -633.829 7        47.342                                    20839021.153 6  85332338.11106      -493.893 6        36.730
E04         7.000    24074635.309 6 126513358.79906        99.425 6        40.560                                                                    24074633.548 7  94474066.07207        74.236 7        43.778    24074631.708 5  96938557.72805        76.295 5        35.405
G03         8.000    21180081.231 7 111302133.49507      1298.939 7        47.192                                    21180078.552 7  86728944.97007      1012.154 7        43.026    21180080.265 6  86728944.99506      1012.186 6        41.671
E02         9.000    27601562.627 5 145047621.36605     -2554.206 5        31.275                                                                                                                                    27601581.763 5 111140149.64305     -1957.526 5        32.772
E12        10.000    26369761.724 4 138574060.85504     -3051.520 4        26.180                                                                    26369758.178 6 103480601.92806     -2278.613 6        39.345    26369755.419 6 106180166.25906     -2338.082 6        38.685
E09        12.000    26372060.324 5 138586143.33105      2177.298 5        32.844                                                                    26372057.218 5 103489674.51005      1625.925 5        35.595    26372058.201 6 106189362.52706      1668.238 6        39.886
E10        13.000    24470833.943 6 128595097.77406     -2254.314 6        40.396                                                                    24470832.860 7  96028808.05907     -1683.378 7        47.394    24470831.297 7  98533930.98007     -1727.364 7        44.272
E06        14.000    24749463.285 4 130059322.49504      1409.785 4        29.507                                                                    24749466.891 7  97122245.66707      1052.842 7        42.817    24749495.279 4  99655891.67404      1080.272 4        28.995
E11        15.000    23407204.572 6 123005683.61206      -938.513 6        39.748                                                                    23407199.977 7  91854883.84907      -700.900 7        45.332    23407198.734 7  94251096.75307      -718.970 7        42.006
E30        17.000    28656659.033 4 150592060.95104      -368.749 4        27.030                                                                    28656664.502 3                      -274.187 3        19.970    28656672.794 4 115388474.55704      -281.519 4        26.874
E36        20.000    25306832.991 5 132988270.12905      1239.870 5        35.729                                                                    25306827.724 6  99309416.94606       925.935 6        36.832    25306830.511 7 101900124.47607       949.946 7        43.264
G08        21.000    23798911.499 6 125064170.86706     -4452.299 6        36.401                                    23798967.166 1  97452811.79801     -3469.328 1         7.750    23798914.508 5                     -3469.465 5        32.719
G17        22.000    23345750.084 7 122682944.81407      1466.746 7        47.614                                    23345743.690 6  95597015.65906      1142.914 6        36.809    23345743.196 6  95596924.67206      1142.859 6        37.255
S23        24.000    38315355.937 6 201348508.53206      -824.298 6        40.880
S36        25.000    38363081.435 6 201599161.08606      -827.070 6        36.752
R20        27.000    19367369.048 5 103566020.08005      -243.918 5        35.005                                                                    19367370.055 6  80551317.20806      -189.546 6        40.508
R04        28.000    20658007.666 7 110622843.00007     -3808.114 7        42.349                                                                    20658007.360 6  86039879.29706     -2961.809 6        41.933
R12        32.000                                                                                                                                    24005625.665 3                     -1229.321 3        19.552
R21        34.000    22184783.935 6 118715326.08106      2931.125 6        38.252                                                                    22184784.262 6  92334237.07106      2279.755 6        36.681
R19        35.000                                                                                                                                    22078202.933 5  91858276.65215     -3435.284 5        32.461
R05        36.000    19318327.501 8 103267641.00908        22.631 8        51.685                                                                    19318326.220 7  80319173.33307        17.591 7        46.008
C39        38.000                                                                                                                                    39350959.097 5 204910743.93405       -19.826 5        35.319
C29        43.000                                                                                                                                    22013236.999 7 114628580.13007      -108.824 7        42.563                                                                    22013230.402 6  93145224.43906       -88.252 6        41.931
C16        45.000                                                                                                                                                                                                    39639044.394 4                       287.832 4        27.102
C09        46.000                                                                                                                                    40284906.449 4                       797.919 4        27.629
C32        47.000                                                                                                                                    22746121.746 8 118445096.37708     -2503.899 8        51.498                                                                    22746121.502 7  96246329.71907     -2034.425 7        44.209
C35        51.000                                                                                                                                    25996211.845 6 135369096.05506      2311.425 6        40.269                                                                    25996214.890 6 109998478.42906      1878.444 6        36.204
I09        54.000    37289960.367 6 146333812.34506      -545.879 6        41.130
C20        55.000                                                                                                                                    22527486.684 8 117306527.13808       813.596 8        50.601                                                                    22527482.606 8  95321240.19308       661.219 8        48.006
C30        58.000                                                                                                                                    23093404.320 7 120253647.39907     -3325.905 7        46.422                                                                    23093406.576 6  97715808.82206     -2702.448 6        40.431
> 2025 01 01 00 02  0.0000000  0 34
E19         1.000    25883710.291 4                     -2920.417 4        24.226                                                                    25883701.414 5 101573191.53305     -2180.079 5        32.952    25883728.463 4                     -2237.041 4        25.128
G32         2.000    22896884.724 5 120324185.89005     -3089.052 5        34.419                                    22896879.088 3  93758891.90803     -2407.043 3        21.976    22896879.243 4  93758940.81804     -2406.273 4        29.479
G21         3.000    21186006.065 7 111333202.17407     -2104.885 7        43.253                                    21186001.636 4  86753173.24904     -1640.177 4        24.977
G14         4.000    24845312.829 5                     -2867.975 5        31.238                                                                                                    24845298.080 4 101737336.75204     -2234.067 4        28.028
G02         5.000    20839632.575 7 109513183.86307      -635.838 7        47.912                                    20839625.475 6  85334811.52306      -495.454 6        37.459
E04         7.000    24074541.896 6 126512867.04206        97.320 6        40.717                                                                    24074540.344 7  94473698.82807        72.767 7        44.397    24074538.833 6  96938180.92906        74.611 6        36.238
G03         8.000    21178846.111 7 111295642.71107      1297.378 7        45.791                                    21178843.633 7  86723887.22207      1010.940 7        43.067    21178844.709 6  86723887.24206      1010.839 6        41.726
E02         9.000    27603993.638 4 145060397.77704     -2555.933 4        28.834                                                                    27604002.507 3                     -1907.463 3        21.405    27604009.956 5 111149939.36605     -1958.504 5        31.532
E12        10.000    26372664.604 4 138589319.15104     -3051.338 4        25.008                                                                    26372661.741 6 103491996.14106     -2279.119 6        39.676    26372659.425 6 106191857.70906     -2338.524 6        38.967
E09        12.000    26369990.875 5 138575259.02305      2176.581 5        34.867                                                                    26369986.991 6 103481546.62206      1625.134 6        36.261    26369986.785 6 106181022.58906      1667.737 6        39.556
E10        13.000    24472979.109 6 128606372.61506     -2255.499 6        39.342                                                                    24472978.457 7  96037227.59607     -1684.376 7        47.360    24472976.574 7  98542570.14607     -1728.328 7        44.244
E06        14.000    24748122.473 5 130052277.27505      1408.526 5        30.302                                                                    24748126.067 7  97116984.60407      1051.613 7        43.187    24748151.321 5  99650493.21205      1079.191 5        30.732
E11        15.000    23408098.028 6 123010380.01806      -939.913 6        40.305                                                                    23408093.663 7  91858390.88807      -701.868 7        45.378    23408092.469 7  94254695.29007      -720.131 7        42.085
E30        17.000    28657007.362 4 150593907.34204      -370.033 4        27.222                                                                    28657017.617 3                      -276.379 3        21.738    28657022.621 4 115389889.33604      -283.746 4        26.958
E36        20.000    25305656.476 5 132982071.82905      1239.378 5        35.986                                                                    25305648.296 6  99304788.34006       925.487 6        37.202    25305651.020 7 101895375.12307       949.683 7        43.424
G08        21.000    23803148.160 5 125086434.99605     -4452.824 5        34.590                                    23803204.096 1  97470160.47001     -3469.776 1         7.250    23803150.615 5                     -3469.809 5        32.964
G17        22.000    23344355.630 8 122675616.58408      1464.638 8        48.028                                    23344349.438 6  95591305.36306      1141.271 6        37.285    23344348.214 6  95591214.36906      1141.386 6        36.779
S23        24.000    38316140.045 6 201352629.74306      -824.168 6        40.956
S36        25.000    38363868.753 6 201603295.63406      -826.890 6        36.673
R20        27.000    19367600.030 5 103567247.79405      -247.155 5        35.486                                                                    19367599.548 6  80552272.13406      -192.231 6        40.248
R04        28.000    20661564.182 7 110641888.98207     -3810.325 7        42.176                                                                    20661563.908 7  86054692.83407     -2963.562 7        42.070
R12        32.000                                                                                                                                    24007104.484 4                     -1232.841 4        24.677
R21        34.000    22182047.511 6 118700672.46406      2930.111 6        38.423                                                                    22182046.366 6  92322839.83906      2279.083 6        36.843
R19        35.000    22082330.546 4                     -4418.186 4        28.768                                                                    22082332.247 5  91875455.88715     -3436.542 5        30.596
R05        36.000    19318309.097 8 103267537.32708        18.835 8        51.856                                                                    19318306.783 7  80319092.69507        14.609 7        45.752
C39        38.000                                                                                                                                    39350979.167 5 204910845.94005       -20.817 5        35.452
C29        43.000                                                                                                                                    22013343.547 7 114629129.81307      -111.145 7        42.646                                                                    22013336.159 7  93145671.07307       -90.277 7        42.263
C16        45.000                                                                                                                                                                                                    39638685.913 4                       286.944 4        26.503
C09        46.000                                                                                                                                    40284140.116 4                       797.042 4        27.329
C32        47.000                                                                                                                                    22748526.302 8 118457620.11608     -2505.570 8        50.518                                                                    22748526.596 7  96256506.26907     -2035.966 7        44.287
C35        51.000                                                                                                                                    25993992.282 6 135357540.11706      2310.847 6        40.176                                                                    25993993.995 6 109989088.25606      1877.863 6        36.658
I09        54.000    37290656.006 6 146336541.89506      -545.949 6        41.161
C20        55.000                                                                                                                                    22526706.867 8 117302464.11608       811.584 8        51.464                                                                    22526702.348 8  95317938.64108       659.619 8        48.145
C30        58.000                                                                                                                                    23096598.612 7 120270281.24207     -3327.560 7        45.555                                                                    23096600.105 6  97729325.16806     -2703.865 6        39.336
> 2025 01 01 00 02  5.0000000  0 34
E19         1.000    25886489.145 4                     -2921.391 4        25.038                                                                    25886480.606 5 101584094.96905     -2181.163 5        33.359    25886509.570 3                     -2238.088 3        23.505
G32         2.000    22899824.766 5 120339636.14705     -3091.232 5        35.205                                    22899817.579 3  93770931.01303     -2408.740 3        21.214    22899820.356 4  93770979.95904     -2408.852 4        29.839
G21         3.000    21188009.763 7 111343731.00707     -2106.543 7        43.621                                    21188004.878 3  86761377.53103     -1641.466 3        23.771
G14         4.000    24848042.755 5                     -2869.767 5        31.887                                                                                                    24848027.818 4 101748514.02704     -2235.601 4        26.311
G02         5.000    20840238.632 8 109516368.16308      -637.797 8        49.323                                    20840231.701 6  85337292.79506      -496.991 6        38.105
E04         7.000    24074450.522 6 126512386.40606        95.161 6        40.055                                                                    24074449.292 7  94473339.91607        71.023 7        44.930    24074447.889 6  96937812.65706        72.832 6        37.422
G03         8.000    21177613.067 7 111289160.75407      1295.557 7        45.494                                    21177610.306 7  86718836.35007      1009.517 7        42.650    21177611.231 6  86718836.36806      1009.529 6        41.788
E02         9.000    27606425.216 4 145073182.48004     -2557.642 4        27.677                                                                    27606432.914 3                     -1910.144 3        23.448    27606438.500 5 111159735.46605     -1959.891 5        31.102
E12        10.000                                                                                                                                    26375566.160 6 103503393.38206     -2279.590 6        40.169    26375563.841 6 106203552.28806     -2339.275 6        38.814
E09        12.000    26367920.873 6 138564378.86806      2175.741 6        37.183                                                                    26367917.644 6 103473421.83206      1624.655 6        37.202    26367916.405 6 106172685.86006      1667.109 6        38.976
E10        13.000    24475126.109 6 128617653.50106     -2256.711 6        38.550                                                                    24475125.235 7  96045651.62507     -1685.262 7        47.560    24475123.313 7  98551213.93907     -1729.173 7        43.953
E06        14.000    24746783.171 5 130045240.08105      1407.122 5        32.790                                                                    24746786.887 7  97111729.57607      1050.387 7        43.367    24746806.537 5  99645101.02705      1077.823 5        32.581
E11        15.000    23408992.793 6 123015083.16006      -941.191 6        40.796                                                                    23408988.562 7  91861902.96407      -702.857 7        45.618    23408987.326 7  94258298.98207      -721.094 7        42.336
E30        17.000    28657361.774 4 150595765.07404      -372.435 4        26.048                                                                    28657372.914 3                      -278.221 3        21.071    28657375.419 4 115391312.84204      -286.217 4        24.211
E36        20.000    25304485.247 5 132975876.33505      1238.737 5        35.971                                                                    25304469.168 6  99300161.83706       925.172 6        37.686    25304471.923 7 101890627.89207       949.253 7        43.306
G08        21.000    23807385.464 5 125108701.81805     -4453.446 5        34.510                                    23807441.647 1  97487511.25701     -3470.182 1         5.429    23807387.339 5                     -3470.369 5        32.701
G17        22.000    23342962.559 8 122668298.82108      1462.555 8        48.501                                    23342957.189 6  95585603.22506      1139.646 6        37.403    23342955.288 6  95585512.24706      1139.704 6        36.268
S23        24.000    38316926.585 6 201356750.70806      -824.160 6        40.641
S36        25.000    38364655.996 6 201607429.82906      -827.078 6        36.790
R20        27.000    19367831.997 5 103568492.59705      -250.654 5        35.843                                                                    19367831.497 6  80553240.30706      -194.946 6        40.496
R04        28.000    20665123.455 7 110660946.90307     -3812.732 7        43.234                                                                    20665122.562 6  86069515.66106     -2965.329 6        41.926
R12        32.000    24008610.081 5                     -1589.458 5        33.275                                                                    24008600.666 4                     -1236.141 4        24.962
R21        34.000    22179310.316 6 118686023.93206      2929.361 6        41.890                                                                    22179308.576 6  92311446.54906      2278.334 6        37.875
R19        35.000    22086463.054 4                     -4420.248 4        28.389                                                                    22086460.732 5  91892642.33405     -3437.627 5        30.309
R05        36.000    19318293.523 8 103267453.15708        14.949 8        51.416                                                                    19318290.643 7  80319027.23407        11.603 7        45.038
C39        38.000                                                                                                                                    39351001.512 6 204910952.52806       -21.766 6        36.193
C29        43.000                                                                                                                                    22013451.776 7 114629691.68307      -113.596 7        42.356                                                                    22013444.248 7  93146127.63807       -92.211 7        42.552
C16        45.000                                                                                                                                                                                                    39638332.417 4                       286.757 4        26.515
C09        46.000                                                                                                                                    40283372.759 4                       796.488 4        27.234
C32        47.000                                                                                                                                    22750932.496 8 118470152.50508     -2507.255 8        49.346                                                                    22750933.039 7  96266689.85207     -2037.309 7        44.295
C35        51.000                                                                                                                                    25991773.886 6 135345986.99606      2310.350 6        39.949                                                                    25991774.314 6 109979700.41206      1877.284 6        36.851
I09        54.000    37291352.034 6 146339272.28606      -546.146 6        41.359
C20        55.000                                                                                                                                    22525928.903 8 117298411.23808       809.627 8        52.364                                                                    22525923.870 8  95314645.36008       657.873 8        48.152
C30        58.000                                                                                                                                    23099795.045 7 120286923.63607     -3329.291 7        44.942                                                                    23099795.026 6  97742848.47306     -2705.293 6        37.758
> 2025 01 01 00 02 10.0000000  0 35
E19         1.000    25889270.249 4                     -2922.938 4        24.902                                                                    25889261.444 5 101595004.47905     -2182.430 5        33.000    25889290.057 3                     -2240.107 3        21.214
G32         2.000    22902766.817 6 120355097.62906     -3093.419 6        36.431                                    22902758.274 3  93782978.87003     -2410.448 3        21.381    22902762.621 4  93783027.86904     -2410.436 4        29.403
G21         3.000    21190014.852 7 111354268.96907     -2108.483 7        43.060                                    21190009.601 3  86769588.94103     -1642.982 3        22.705
G14         4.000    24850779.518 5                     -2871.527 5        30.732
G02         5.000    20840846.577 8 109519562.94108      -640.012 8        49.501                                    20840839.851 6  85339782.23406      -498.712 6        38.865
E04         7.000    24074360.600 6 126511917.32206        92.641 6        38.856                                                                    24074360.383 7  94472989.62907        69.206 7        45.458    24074359.427 6  96937453.23506        71.225 6        38.333
G03         8.000    21176381.889 7 111282687.99807      1293.658 7        45.270                                    21176378.624 7  86713792.65407      1008.043 7        42.554    21176379.327 6  86713792.66306      1008.014 6        41.750
E02         9.000    27608862.103 4 145085975.82904     -2559.425 4        27.269                                                                    27608867.319 3                     -1910.866 3        23.886    27608872.856 5 111169538.17605     -1961.057 5        32.198
E12        10.000    26378476.289 3 138619848.41803     -3053.230 3        22.933                                                                    26378471.433 6 103514793.96406     -2280.394 6        40.184    26378469.367 6 106215250.27406     -2340.107 6        38.808
E09        12.000    26365850.553 6 138553503.29106      2174.693 6        38.510                                                                    26365848.796 6 103465300.46506      1623.882 6        38.574    26365846.638 6 106164352.62206      1666.315 6        38.201
E10        13.000    24477273.955 6 128628940.78606     -2257.993 6        38.159                                                                    24477273.224 7  96054080.44107     -1686.196 7        47.619    24477271.059 7  98559862.65307     -1730.246 7        43.661
E06        14.000    24745446.045 5 130038211.38905      1405.065 5        34.405                                                                    24745449.176 7  97106480.85007      1049.186 7        43.577
E11        15.000    23409889.550 6 123019793.39906      -942.630 6        41.449                                                                    23409884.927 7  91865420.35507      -703.940 7        45.482    23409883.624 7  94261908.13107      -722.279 7        42.356
E30        17.000    28657718.448 4 150597634.78304      -375.342 4        24.301                                                                    28657728.404 3                      -279.312 3        22.743    28657728.548 3                      -288.462 3        21.190
E36        20.000    25303308.360 5 132969683.96505      1238.051 5        34.900                                                                    25303290.708 6  99295537.68706       924.696 6        37.679    25303293.500 7 101885883.10507       948.631 7        43.361
G08        21.000    23811624.228 5 125130971.68905     -4454.161 5        34.500                                    23811679.654 1  97504864.39801     -3470.822 1         4.571    23811624.420 5                     -3470.776 5        32.671
G17        22.000    23341571.733 7 122660991.87707      1460.314 7        47.964                                    23341566.903 6  95579909.51806      1137.907 6        37.512    23341564.924 5  95579818.54605      1137.936 5        35.919
S23        24.000    38317710.081 6 201360871.87306      -824.282 6        40.567
S36        25.000    38365438.570 6 201611564.64706      -826.908 6        36.416
R20        27.000    19368067.761 6 103569754.81106      -254.182 6        36.212                                                                    19368067.236 6  80554222.00106      -197.674 6        40.508
R04        28.000    20668685.312 7 110680016.96007     -3815.230 7        43.928                                                                    20668683.552 6  86084347.92106     -2967.427 6        41.242
R12        32.000    24010096.180 5                     -1593.348 5        35.157
C19        33.000                                                                                                                                    26148018.780 3                      2386.281 3        19.851
R21        34.000    22176574.967 7 118671380.79407      2927.990 7        44.843                                                                    22176573.027 6  92300057.41506      2277.423 6        39.069
R19        35.000    22090596.412 4                     -4422.387 4        29.213                                                                    22090593.537 5  91909836.38405     -3439.591 5        30.958
R05        36.000    19318280.487 8 103267388.72708        10.880 8        50.278                                                                    19318278.341 7  80318977.12607         8.485 7        44.420
C39        38.000                                                                                                                                    39351026.473 6 204911064.10206       -22.852 6        36.684
C29        43.000                                                                                                                                    22013560.668 6 114630266.09906      -116.029 6        41.917                                                                    22013554.611 7  93146594.40307       -94.484 7        42.891
C16        45.000                                                                                                                                                                                                    39637978.068 4                       285.764 4        26.144
C09        46.000                                                                                                                                    40282607.382 4                       796.353 4        26.455
C32        47.000                                                                                                                                    22753341.305 8 118482693.89908     -2509.148 8        48.276                                                                    22753341.289 7  96276880.76607     -2039.023 7        43.854
C35        51.000                                                                                                                                    25989555.905 6 135334437.09906      2309.666 6        39.306                                                                    25989555.389 6 109970315.19206      1876.611 6        36.696
I09        54.000    37292048.040 6 146342003.79506      -546.355 6        41.180
C20        55.000                                                                                                                                    22525152.615 8 117294368.88908       807.433 8        52.531                                                                    22525147.404 7  95311360.64207       655.975 7        47.969
C30        58.000                                                                                                                                    23102993.487 7 120303574.93207     -3331.064 7        43.992                                                                    23102991.667 6  97756379.02106     -2706.763 6        36.476
> 2025 01 01 00 02 15.0000000  0 34
E19         1.000    25892052.005 4                     -2924.714 4        24.376                                                                    25892043.894 5 101605919.99005     -2183.620 5        32.772
G32         2.000    22905710.576 6 120370570.53306     -3095.367 6        37.698                                    22905701.823 3  93795035.62603     -2411.957 3        22.762    22905707.569 5  93795084.64905     -2412.205 5        30.400
G21         3.000    21192021.904 7 111364816.18507     -2110.176 7        42.580                                    21192015.977 3  86777807.56103     -1644.302 3        21.619
G02         5.000    20841456.449 8 109522768.34108      -641.899 8        49.777                                    20841449.973 6  85342279.95206      -500.182 6        39.510
E04         7.000    24074273.086 6 126511459.92206        90.386 6        37.588                                                                    24074273.211 7  94472648.04807        67.672 7        45.722    24074273.236 6  96937102.77406        69.398 6        39.252
G03         8.000    21175152.563 7 111276224.58707      1291.959 7        45.490                                    21175148.579 7  86708756.24207      1006.721 7        42.614    21175149.539 6  86708756.25706      1006.752 6        41.442
E02         9.000    27611304.533 4 145098778.00704     -2561.092 4        29.128                                                                    27611302.341 3                     -1912.571 3        22.343    27611314.514 5 111179347.67305     -1962.493 5        33.647
E12        10.000    26381379.748 3                     -3054.409 3        21.405                                                                    26381377.414 6 103526197.94106     -2280.891 6        40.255    26381375.243 6 106226951.74006     -2340.357 6        38.709
E09        12.000    26363781.187 6 138542632.41906      2173.851 6        39.471                                                                    26363780.731 6 103457182.61506      1623.560 6        39.967    26363778.005 6 106156022.98606      1665.976 6        37.856
E10        13.000    24479423.167 6 128640234.63806     -2259.133 6        38.459                                                                    24479422.543 7  96062514.17107     -1687.042 7        47.507    24479420.398 7  98568516.38607     -1730.998 7        43.784
E06        14.000    24744110.577 5 130031191.29505      1403.276 5        35.105                                                                    24744113.181 7  97101238.57607      1047.959 7        43.592    24744108.091 6  99634336.13806      1075.411 6        36.934
E11        15.000    23410787.552 6 123024510.96406      -944.010 6        41.816                                                                    23410782.693 7  91868943.20607      -704.907 7        45.332    23410781.428 7  94265522.90007      -723.336 7        42.669
G19        16.000    25457274.269 3                      2859.535 3        22.609
E30        17.000    28658076.795 4 150599516.42104      -377.687 4        26.671                                                                    28658086.017 4                      -281.862 4        24.977    28658091.416 3                      -289.691 3        19.642
E36        20.000    25302127.048 5 132963494.86805      1237.775 5        33.892                                                                    25302112.972 6  99290916.03306       924.273 6        37.939    25302115.691 7 101881140.85107       948.373 7        43.513
G08        21.000    23815862.532 5 125153244.77905     -4454.679 5        35.000                                    23815918.350 1  97522220.15301     -3471.407 1         3.400    23815861.573 5                     -3471.280 5        32.150
G17        22.000    23340183.531 7 122653695.82107      1458.346 7        47.559                                    23340178.626 6  95574224.28706      1136.372 6        37.444    23340176.406 5  95574133.31705      1136.525 5        35.633
S23        24.000    38318495.727 6 201364993.23806      -824.044 6        40.644
S36        25.000    38366229.895 6 201615699.30106      -826.782 6        36.650
R20        27.000    19368305.619 5 103571034.85205      -257.475 5        35.824                                                                    19368306.039 6  80555217.57506      -200.351 6        40.172
R04        28.000    20672247.693 7 110699099.34407     -3817.422 7        43.162                                                                    20672246.459 6  86099189.77506     -2969.052 6        41.237
R12        32.000    24011586.979 6 128265616.51016     -1597.304 6        37.626
R21        34.000    22173842.033 7 118656743.20707      2927.185 7        46.304                                                                    22173838.000 6  92288672.64006      2276.719 6        40.093
R19        35.000    22094730.838 5                     -4424.248 5        30.370                                                                    22094730.662 5  91927037.98005     -3440.712 5        31.781
R05        36.000    19318271.778 8 103267344.26908         7.092 8        50.009                                                                    19318269.974 7  80318942.57707         5.523 7        44.277
C39        38.000                                                                                                                                    39351053.381 6 204911180.78806       -23.717 6        36.938
C29        43.000                                                                                                                                    22013672.240 6 114630853.22406      -118.528 6        41.466                                                                    22013667.395 7  93147071.46107       -96.296 7        43.228
C16        45.000                                                                                                                                                                                                    39637625.145 4                       284.765 4        26.599
C09        46.000                                                                                                                                    40281842.462 4                       796.422 4        26.120
C32        47.000                                                                                                                                    22755751.844 7 118495244.43507     -2510.803 7        47.475                                                                    22755751.426 7  96287079.07907     -2040.269 7        43.589
C35        51.000                                                                                                                                    25987338.543 6 135322890.61106      2309.115 6        39.060                                                                    25987336.517 6 109960932.68706      1876.345 6        37.096
I09        54.000    37292744.553 6 146344736.54606      -546.453 6        41.428
C20        55.000                                                                                                                                    22524378.313 8 117290337.22808       805.528 8        52.578                                                                    22524372.944 7  95308084.57307       654.487 7        47.901
C30        58.000                                                                                                                                    23106193.638 7 120320235.31307     -3332.870 7        43.640                                                                    23106190.590 5  97769916.90405     -2708.048 5        35.214
> 2025 01 01 00 02 20.0000000  0 35
E19         1.000    25894835.487 3                     -2926.251 3        23.276                                                                    25894827.788 5 101616841.57905     -2185.225 5        32.132    25894875.404 3                     -2241.731 3        22.629
G32         2.000    22908657.629 6 120386054.62306     -3098.203 6        38.910                                    22908648.617 4  93807101.10904     -2414.177 4        24.541    22908655.745 5  93807150.12905     -2414.023 5        32.623
G21         3.000    21194030.797 7 111375372.50107     -2112.440 7        42.231                                    21194023.955 3  86786033.26803     -1646.052 3        20.690
G02         5.000    20842068.340 8 109525984.22608      -644.397 8        50.059                                    20842062.071 6  85344785.83706      -502.129 6        40.021
E04         7.000    24074187.924 6 126511014.04106        87.859 6        36.454                                                                    24074187.977 7  94472315.09607        65.606 7        45.752    24074188.839 6  96936761.11506        67.365 6        39.988
G03         8.000    21173924.213 7 111269770.36707      1289.756 7        45.016                                    21173920.144 7  86703726.99807      1005.005 7        42.677    21173921.373 6  86703727.00806      1004.991 6        40.939
E02         9.000    27613741.170 4 145111588.83004     -2563.146 4        29.545                                                                    27613740.574 3                     -1913.479 3        23.733    27613755.084 5 111189163.75905     -1964.027 5        33.455
E12        10.000    26384286.911 3                     -3056.366 3        20.238                                                                    26384284.362 6 103537605.26406     -2281.948 6        40.303    26384282.038 6 106238656.63206     -2341.278 6        38.535
E09        12.000    26361712.908 6 138531766.09506      2172.549 6        40.091                                                                    26361713.800 6 103449068.17606      1622.443 6        41.209    26361710.353 6 106147696.88706      1664.280 6        36.272
E10        13.000    24481573.492 6 128651534.91006     -2260.819 6        38.787                                                                    24481573.006 7  96070952.69107     -1688.334 7        47.541    24481570.960 7  98577175.04607     -1732.449 7        43.515
E06        14.000    24742777.238 5 130024179.64405      1401.395 5        33.545                                                                    24742778.832 7  97096002.61907      1046.393 7        43.587    24742778.152 6  99628963.62606      1073.700 6        38.132
E11        15.000    23411686.489 6 123029235.64306      -945.956 6        41.571                                                                    23411681.743 7  91872471.36807      -706.306 7        45.281    23411680.410 7  94269143.10107      -724.861 7        42.790
G19        16.000    25454556.506 4                      2860.812 4        26.156
E30        17.000    28658438.397 4 150601409.80704      -379.798 4        28.114                                                                    28658445.961 4                      -283.789 4        25.323
E36        20.000    25300950.029 5 132957308.99005      1236.761 5        32.946                                                                    25300935.651 6  99286296.73806       923.411 6        37.974    25300938.276 7 101876401.04307       947.573 7        43.407
G08        21.000    23820101.374 5 125175520.86005     -4455.664 5        35.786                                    23820157.439 1  97539578.12601     -3471.589 1         3.600    23820100.770 5                     -3471.839 5        31.585
G17        22.000    23338797.425 7 122646410.52007      1455.801 7        47.364                                    23338792.297 6  95568547.44106      1134.387 6        37.236    23338789.748 5  95568456.47905      1134.547 5        35.700
S23        24.000    38319277.684 6 201369114.63506      -824.503 6        40.529
S36        25.000    38367014.710 6 201619833.43706      -827.136 6        36.359
R20        27.000    19368548.492 5 103572332.48005      -261.503 5        35.871                                                                    19368548.636 6  80556226.84706      -203.301 6        40.226
R04        28.000    20675813.047 7 110718193.90407     -3820.354 7        44.810                                                                    20675812.951 7  86114041.10807     -2971.440 7        42.237
R12        32.000    24013089.709 6 128273613.60116     -1601.756 6        38.249
C19        33.000                                                                                                                                    26143492.621 4                      2383.410 4        28.398
R21        34.000    22171107.680 7 118642111.06807      2925.687 7        46.684                                                                    22171103.799 6  92277292.09506      2275.505 6        39.859
R19        35.000    22098865.077 5                     -4426.339 5        31.374                                                                    22098868.177 5  91944247.17805     -3442.716 5        33.683
R05        36.000    19318267.329 8 103267319.62908         2.713 8        50.030                                                                    19318264.810 7  80318923.41207         2.077 7        44.208
C39        38.000                                                                                                                                    39351079.835 6 204911302.41406       -25.087 6        37.119
C29        43.000                                                                                                                                    22013786.392 6 114631452.91206      -121.400 6        41.020                                                                    22013782.634 7  93147558.74507       -98.643 7        43.475
C16        45.000                                                                                                                                                                                                    39637271.324 4                       284.180 4        26.419
C09        46.000                                                                                                                                    40281079.984 4                       794.347 4        25.970
C32        47.000                                                                                                                                    22758164.492 7 118507803.93807     -2513.008 7        46.770                                                                    22758163.621 7  96297284.71707     -2042.044 7        43.009
C35        51.000                                                                                                                                    25985121.285 6 135311347.31206      2308.067 6        38.039                                                                    25985119.132 6 109951552.77806      1875.461 6        36.688
I09        54.000    37293441.517 6 146347470.39706      -547.039 6        41.490
C20        55.000                                                                                                                                    22523606.145 8 117286316.09108       802.961 8        52.231                                                                    22523600.754 7  95304817.06607       652.476 7        47.781
C30        58.000                                                                                                                                    23109395.669 7 120336904.57407     -3334.946 7        43.731                                                                    23109391.026 5  97783462.04905     -2710.004 5        34.462
> 2025 01 01 00 02 25.0000000  0 36
E19         1.000    25897621.827 3                     -2926.604 3        22.419                                                                    25897613.523 5 101627769.19605     -2186.380 5        31.389    25897655.036 3                     -2242.333 3        23.029
G32         2.000    22911607.037 6 120401549.97806     -3100.284 6        39.336                                    22911598.292 4  93819175.36804     -2415.798 4        27.162    22911603.510 5  93819224.38605     -2415.676 5        34.614
G21         3.000    21196041.096 7 111385937.94707     -2114.067 7        42.313                                    21196033.909 3  86794266.07803     -1647.336 3        20.619
G14         4.000                                                                                                                                                                    24858948.357 4                     -2242.013 4        25.023
G02         5.000    20842682.139 8 109529210.64608      -646.465 8        50.609                                    20842676.118 6  85347299.93106      -503.738 6        40.393
E04         7.000    24074105.979 6 126510579.71306        85.676 6        36.261                                                                    24074104.924 7  94471990.76307        63.920 7        45.553    24074106.575 6  96936428.31106        65.661 6        40.546
G03         8.000    21172697.890 7 111263325.38007      1287.940 7        43.843                                    21172693.341 7  86698704.94307      1003.587 7        42.832    21172695.556 6  86698704.95906      1003.627 6        40.789
E02         9.000    27616178.723 5 145124408.32805     -2564.834 5        30.000                                                                    27616181.262 3                     -1914.664 3        22.457    27616192.387 5 111198986.48905     -1965.354 5        32.527
E12        10.000                                                                                                                                    26387191.887 6 103549015.91206     -2282.532 6        39.784    26387189.940 6 106250364.96806     -2341.990 6        38.195
E09        12.000    26359646.182 6 138520904.36606      2171.776 6        40.844                                                                    26359647.431 7 103440957.17907      1621.698 7        42.159    26359643.613 5 106139374.25405      1664.175 5        34.743
E10        13.000    24483725.074 6 128662841.63706     -2262.220 6        38.991                                                                    24483724.659 7  96079396.01207     -1689.246 7        47.374    24483722.574 7  98585838.63407     -1733.330 7        43.427
E06        14.000    24741444.915 5 130017176.52605      1399.750 5        33.473                                                                    24741446.282 7  97090773.01007      1045.192 7        43.200    24741448.361 6  99623597.60306      1072.456 6        38.601
E11        15.000    23412586.804 6 123033967.48206      -947.266 6        41.521                                                                    23412582.198 7  91876004.88007      -707.352 7        44.873    23412580.943 7  94272768.79507      -725.846 7        43.111
G19        16.000    25451835.868 4                      2859.517 4        26.371
E30        17.000    28658801.337 5 150603315.17705      -382.632 5        30.030                                                                    28658808.793 4                      -285.751 4        25.353    28658845.179 4                      -292.798 4        26.180
E36        20.000    25299775.896 5 132951126.34905      1236.074 5        30.513                                                                    25299759.041 6  99281679.83806       923.006 6        38.006    25299761.591 7 101871663.68007       947.228 7        43.505
G08        21.000    23824340.268 6 125197800.01006     -4456.165 6        36.238                                    23824397.060 1  97556938.46701     -3472.314 1         4.429    23824338.647 5                     -3472.398 5        31.102
G17        22.000    23337413.515 7 122639136.05007      1453.752 7        46.638                                    23337407.973 6  95562879.03706      1132.789 6        37.153    23337405.753 5  95562788.06005      1132.859 5        35.876
S23        24.000    38320060.468 6 201373236.18006      -824.526 6        40.758
S36        25.000    38367803.441 6 201623967.16006      -826.963 6        36.575
R20        27.000    19368796.286 5 103573647.74705      -265.032 5        35.529                                                                    19368794.967 6  80557249.83006      -206.106 6        40.439
R04        28.000    20679383.045 7 110737300.66607     -3822.680 7        46.472                                                                    20679381.625 7  86128901.91307     -2973.097 7        42.808
R12        32.000    24014596.019 6 128281631.11606     -1605.602 6        37.032
C19        33.000                                                                                                                                    26141197.257 4                      2382.968 4        28.427
R21        34.000    22168372.202 7 118627484.30207      2924.651 7        46.537                                                                    22168369.140 6  92265915.74106      2274.696 6        39.384
R19        35.000    22103002.875 5                     -4428.152 5        32.162                                                                    22103006.466 5  91961463.99515     -3444.192 5        35.281
R05        36.000    19318266.994 8 103267314.85508        -1.098 8        50.299                                                                    19318264.600 7  80318919.68507        -0.829 7        44.847
C39        38.000                                                                                                                                    39351103.329 6 204911429.05706       -25.979 6        37.187
C29        43.000                                                                                                                                    22013903.873 6 114632065.20406      -123.896 6        40.830                                                                    22013900.159 7  93148056.26907      -100.611 7        43.661
C16        45.000                                                                                                                                                                                                    39636915.807 4                       283.405 4        26.048
C09        46.000                                                                                                                                    40280311.459 4                       794.458 4        25.639
C32        47.000                                                                                                                                    22760578.734 7 118520372.46007     -2514.729 7        46.402                                                                    22760577.534 7  96307497.65807     -2043.386 7        42.591
C35        51.000                                                                                                                                    25982903.678 6 135299807.34406      2307.604 6        37.236                                                                    25982902.345 6 109942175.61706      1875.040 6        36.975
I09        54.000    37294138.383 6 146350205.38106      -547.262 6        41.468
C20        55.000                                                                                                                                    22522836.040 8 117282305.50708       800.968 8        51.868                                                                    22522830.558 7  95301558.13607       650.802 7        47.868
C30        58.000                                                                                                                                    23112599.510 7 120353582.76407     -3336.598 7        43.943                                                                    23112593.995 5  97797014.43605     -2711.346 5        34.400
> 2025 01 01 00 02 30.0000000  0 34
E19         1.000    25900403.516 3                     -2927.781 3        21.310                                                                    25900401.209 5 101638702.70305     -2187.333 5        31.026    25900441.537 3                     -2243.528 3        22.000
G32         2.000    22914556.284 6 120417056.49906     -3102.152 6        39.520                                    22914550.395 4  93831258.32704     -2417.255 4        28.834    22914555.111 6  93831307.35506     -2417.248 6        36.873
G21         3.000    21198053.170 7 111396512.46707     -2115.610 7        42.785                                    21198045.750 3  86802505.94303     -1648.515 3        19.821
G14         4.000                                                                                                                                                                    24861688.460 4                     -2241.944 4        25.729
G02         5.000    20843298.352 8 109532447.47708      -648.149 8        51.169                                    20843292.098 6  85349822.14006      -505.053 6        40.582
E04         7.000    24074026.310 5 126510156.88805        83.685 5        35.700                                                                    24074023.891 7  94471675.01207        62.502 7        45.281    24074025.914 6  96936104.32506        64.048 6        40.992
G03         8.000    21171473.372 7 111256889.53607      1286.585 7        43.710                                    21171468.260 7  86693690.01707      1002.532 7        42.591    21171471.217 6  86693690.01606      1002.412 6        41.075
E02         9.000    27618616.803 4 145137236.38604     -2566.560 4        29.706                                                                    27618626.452 3                     -1916.431 3        22.800    27618633.158 5 111208815.81705     -1966.561 5        31.645
E12        10.000                                                                                                                                    26390100.321 6 103560429.84806     -2282.907 6        39.538    26390098.551 6 106262076.65506     -2342.370 6        37.747
E09        12.000    26357580.269 6 138510047.17706      2171.195 6        40.927                                                                    26357581.324 7 103432849.54307      1621.437 7        43.130    26357577.649 5 106131055.14905      1663.597 5        32.910
E10        13.000    24485877.419 6 128674154.70006     -2262.980 6        39.535                                                                    24485877.566 7  96087844.09807     -1689.902 7        47.351    24485875.210 7  98594507.09807     -1734.003 7        43.225
E06        14.000    24740114.386 5 130010181.83705      1398.129 5        33.964                                                                    24740115.087 7  97085549.70507      1044.224 7        43.062    24740117.027 6  99618238.03206      1071.442 6        39.243
E11        15.000    23413488.247 6 123038706.41906      -948.356 6        41.144                                                                    23413484.013 7  91879543.69507      -708.141 7        44.674    23413482.771 7  94276399.92407      -726.736 7        43.276
G19        16.000    25449117.148 4                      2859.078 4        26.970
E30        17.000    28659165.702 4 150605232.25404      -384.576 4        29.573                                                                    28659174.473 4                      -287.120 4        28.370    28659203.745 4                      -294.518 4        24.526
E36        20.000    25298601.401 4 132944946.78804      1235.714 4        26.635                                                                    25298583.213 6  99277065.27506       922.717 6        38.075    25298585.595 7 101866928.73107       947.020 7        43.511
G08        21.000    23828578.807 6 125220082.13406     -4456.572 6        36.888                                    23828637.227 1  97574301.12301     -3472.851 1         4.143    23828579.275 5                     -3472.589 5        30.460
G17        22.000    23336031.178 7 122631872.34207      1451.973 7        45.794                                    23336025.687 6  95557219.01906      1131.400 6        36.798    23336023.593 6  95557128.03506      1131.468 6        36.386
S23        24.000    38320847.232 6 201377357.69106      -824.037 6        40.615
S36        25.000    38368587.536 6 201628101.17706      -826.677 6        36.522
R20        27.000    19369046.074 5 103574980.49905      -267.912 5        35.624                                                                    19369044.154 6  80558286.40506      -208.419 6        40.553
R04        28.000    20682958.166 7 110756419.67307     -3824.770 7        47.148                                                                    20682951.995 7  86143772.23407     -2974.784 7        43.346
R21        34.000    22165637.216 7 118612863.14307      2923.998 7        46.960                                                                    22165636.751 6  92254543.74906      2274.107 6        39.054
R19        35.000    22107146.334 5                     -4429.954 5        33.317                                                                    22107148.525 6  91978688.36506     -3445.494 6        36.329
R05        36.000    19318270.432 8 103267329.78408        -4.718 8        50.252                                                                    19318267.372 7  80318931.29807        -3.651 7        45.222
C39        38.000                                                                                                                                    39351126.872 6 204911560.62906       -26.778 6        37.267                                                                    39351110.917 5                       -21.705 5        34.829
C29        43.000                                                                                                                                    22014024.817 6 114632690.03806      -125.869 6        40.067                                                                    22014019.826 7  93148563.98707      -102.399 7        43.672
C16        45.000                                                                                                                                                                                                    39636560.063 4                       283.345 4        25.699
C09        46.000                                                                                                                                    40279548.811 4                       794.035 4        25.940
C32        47.000                                                                                                                                    22762994.733 7 118532949.89607     -2516.112 7        46.424                                                                    22762993.118 7  96317717.87807     -2044.683 7        42.176
C35        51.000                                                                                                                                    25980687.620 6 135288270.51506      2307.330 6        36.200                                                                    25980686.594 6 109932800.98806      1874.842 6        36.745
I09        54.000    37294835.202 6 146352941.44806      -547.157 6        41.602
C20        55.000                                                                                                                                    22522068.090 8 117278305.41708       799.259 8        51.774                                                                    22522062.455 7  95298307.73807       649.395 7        47.854
C30        58.000                                                                                                                                    23115804.099 7 120370269.80607     -3338.087 7        44.138                                                                    23115799.556 5  97810574.02705     -2712.616 5        35.190
> 2025 01 01 00 02 35.0000000  0 35
E19         1.000    25903183.966 3                     -2932.053 3        20.952                                                                    25903190.462 5 101649642.15505     -2188.531 5        30.181    25903228.663 3                     -2244.955 3        23.752
G32         2.000    22917510.890 6 120432574.05506     -3104.343 6        39.291                                    22917504.639 4  93843349.90104     -2418.959 4        29.744    22917509.321 6  93843398.91506     -2419.203 6        38.733
G21         3.000    21200067.623 7 111407095.91707     -2117.368 7        42.091                                    21200059.022 3  86810752.78103     -1649.867 3        18.985
G14         4.000                                                                                                                                                                    24864428.634 3                     -2244.888 3        23.581
G02         5.000    20843916.241 8 109535694.64208      -650.319 8        51.080                                    20843909.973 6  85352352.40206      -506.744 6        40.584
E04         7.000    24073948.963 6 126509745.42406        81.428 6        36.121                                                                    24073945.207 7  94471367.75807        60.700 7        44.987    24073947.224 6  96935789.04406        62.260 6        41.197
G03         8.000    21170250.558 7 111250462.76207      1284.563 7        43.678                                    21170245.016 7  86688682.16007      1000.960 7        42.438    21170248.234 6  86688682.13506      1001.016 6        41.435
E02         9.000    27621055.844 4 145150072.95304     -2567.460 4        29.242                                                                    27621073.154 3                     -1918.151 3        23.486    27621079.553 5 111218651.64605     -1967.552 5        31.321
E12        10.000                                                                                                                                    26393009.618 6 103571846.96906     -2283.638 6        39.147    26393007.531 6 106273791.62906     -2343.181 6        37.372
E09        12.000    26355515.006 6 138499194.39606      2170.246 6        40.946                                                                    26355516.222 7 103424745.22307      1620.631 7        43.879    26355512.666 5 106122739.42105      1662.763 5        31.283
E10        13.000    24488031.037 6 128685474.03606     -2264.386 6        40.524                                                                    24488031.536 7  96096296.83807     -1690.880 7        47.114    24488029.105 7  98603180.35007     -1735.120 7        42.950
E06        14.000    24738785.310 5 130003195.43805      1396.917 5        33.228                                                                    24738784.943 7  97080332.61507      1042.846 7        42.561    24738787.576 6  99612884.82806      1070.135 6        40.000
E11        15.000    23414391.378 6 123043452.30506      -949.656 6        40.694                                                                    23414387.127 7  91883087.70507      -709.236 7        44.540    23414386.016 7  94280036.37907      -727.701 7        43.331
G19        16.000    25446399.846 4                      2857.881 4        26.766
E30        17.000    28659531.566 5 150607160.88705      -386.982 5        30.392                                                                    28659542.049 4                      -288.907 4        28.749
E36        20.000    25297423.003 3                      1238.198 3        19.254                                                                    25297408.070 6  99272452.94106       922.279 6        38.090    25297410.011 7 101862196.08207       946.462 7        43.289
G08        21.000    23832820.360 6 125242367.07306     -4456.933 6        36.756                                    23832878.118 1  97591666.11401     -3472.837 1         1.778    23832818.753 4                     -3473.317 4        29.735
G17        22.000    23334651.232 7 122624619.28707      1449.708 7        45.038                                    23334645.351 6  95551567.30606      1129.644 6        36.575    23334643.644 6  95551476.30806      1129.732 6        36.646
S23        24.000    38321630.549 6 201381478.98906      -824.150 6        40.827
S36        25.000    38369377.868 6 201632235.90606      -827.156 6        36.420
R20        27.000    19369297.616 5 103576330.56105      -271.832 5        35.905                                                                    19369296.684 6  80559336.45106      -211.290 6        39.745
R04        28.000    20686536.171 7 110775550.48807     -3827.283 7        46.198                                                                    20686524.693 7  86158651.74507     -2976.746 7        43.763
R12        32.000    24017585.236 5 128297725.43015     -1613.080 5        32.641
C19        33.000                                                                                                                                    26136588.914 5                      2381.727 5        30.453
R21        34.000    22162906.286 7 118598247.25807      2922.779 7        47.864                                                                    22162905.159 6  92243175.84706      2273.232 6        38.700
R19        35.000    22111285.912 5                     -4432.081 5        31.230                                                                    22111291.012 6  91995920.02216     -3446.995 6        36.189
R05        36.000    19318276.518 8 103267364.47408        -8.724 8        50.005                                                                    19318274.486 7  80318958.30007        -6.861 7        46.018
C39        38.000                                                                                                                                    39351153.132 6 204911696.99106       -27.521 6        37.520                                                                    39351138.297 5 166507536.86315       -22.113 5        34.724
C29        43.000                                                                                                                                    22014146.515 6 114633327.29006      -128.574 6        39.303                                                                    22014142.148 7  93149081.79207      -104.475 7        43.681
C09        46.000                                                                                                                                    40278786.229 4                       793.121 4        25.534
C32        47.000                                                                                                                                    22765412.047 7 118545536.13507     -2517.973 7        46.950                                                                    22765410.341 6  96327945.25106     -2046.159 6        41.840
C35        51.000                                                                                                                                    25978471.635 5 135276736.79405      2306.545 5        35.486                                                                    25978471.657 6 109923428.88506      1874.356 6        36.839
I09        54.000    37295532.723 6 146355678.52106      -547.425 6        41.576
C20        55.000                                                                                                                                    22521301.908 8 117274315.69608       797.027 8        51.524                                                                    22521296.201 8  95295065.76508       647.643 8        48.150
C30        58.000                                                                                                                                    23119009.158 7 120386965.55407     -3339.829 7        44.566                                                                    23119006.299 6  97824140.70906     -2713.964 6        36.185
> 2025 01 01 00 02 40.0000000  0 35
E19         1.000    25905968.101 3                     -2935.568 3        20.429                                                                    25905982.446 5 101660587.84705     -2189.907 5        30.521    25906016.514 3                     -2246.901 3        23.619
G32         2.000    22920466.341 6 120448103.17806     -3107.311 6        38.700                                    22920460.945 4  93855450.48904     -2421.268 4        29.839    22920464.932 6  93855499.50506     -2421.231 6        40.279
G21         3.000    21202082.588 6 111417688.84006     -2119.688 6        40.570                                    21202074.436 3  86819007.01103     -1651.688 3        18.269
G02         5.000    20844535.892 8 109538952.65508      -652.869 8        50.900                                    20844529.843 6  85354891.11306      -508.731 6        40.577
E04         7.000    24073873.201 6 126509345.87006        78.481 6        38.060                                                                    24073869.058 7  94471069.39907        58.606 7        45.087    24073870.937 6  96935482.88806        60.167 6        41.623
G03         8.000    21169029.429 7 111244045.56407      1282.322 7        43.454                                    21169023.749 7  86683681.75007       999.213 7        42.263    21169027.282 7  86683681.72807       999.131 7        42.042
E02         9.000    27623499.707 4 145162918.55704     -2570.119 4        27.665                                                                    27623520.746 4                     -1919.724 4        24.992    27623526.784 5 111228494.38305     -1969.703 5        30.528
E12        10.000                                                                                                                                    26395920.065 6 103583267.70406     -2284.688 6        38.883    26395917.944 6 106285510.29306     -2344.176 6        36.964
E09        12.000    26353450.941 6 138488346.59506      2169.035 6        40.756                                                                    26353452.150 7 103416644.60707      1619.581 7        44.549    26353450.519 5 106114427.50705      1661.796 5        30.483
E10        13.000    24490186.134 6 128696800.15406     -2266.173 6        40.741                                                                    24490186.768 7  96104754.66007     -1692.229 7        47.093    24490184.017 7  98611858.80107     -1736.403 7        42.607
E06        14.000    24737457.315 5 129996217.98505      1394.443 5        31.713                                                                    24737456.544 6  97075122.13306      1041.331 6        41.948    24737461.066 6  99607538.42506      1068.372 6        40.658
E11        15.000    23415296.128 6 123048205.71506      -951.510 6        40.689                                                                    23415291.587 7  91886637.32707      -710.598 7        44.576    23415290.654 7  94283678.59907      -729.076 7        43.422
G19        16.000    25443684.950 4                      2855.870 4        26.000
E30        17.000    28659902.621 5 150609101.88605      -389.561 5        30.664                                                                    28659912.487 4                      -290.781 4        29.744    28659930.845 3                      -297.825 3        20.810
E36        20.000                                                                                                                                    25296233.692 6  99267843.27706       921.695 6        38.381    25296235.111 7 101857466.16607       945.545 7        42.976
G08        21.000    23837061.417 6 125264655.35206     -4458.116 6        36.397                                                                                                    23837059.828 4                     -3473.948 4        29.393
G17        22.000    23333272.944 7 122617377.42507      1447.103 7        44.974                                    23333267.111 6  95545924.31206      1127.617 6        36.246    23333265.749 6  95545833.30206      1127.831 6        36.783
S23        24.000    38322412.171 6 201385600.69806      -824.467 6        40.598
S36        25.000    38370160.934 6 201636371.30806      -827.193 6        36.646
R20        27.000    19369552.497 5 103577698.50705      -275.468 5        35.052                                                                    19369552.578 6  80560400.40406      -214.347 6        39.339
R04        28.000    20690109.134 7 110794693.77307     -3830.104 7        44.041                                                                    20690099.214 7  86173540.98707     -2979.037 7        43.704
R12        32.000    24019092.130 4 128305802.99004     -1617.806 4        26.383
C19        33.000                                                                                                                                    26134305.109 5                      2380.706 5        31.140
R21        34.000    22160177.129 7 118583637.27807      2921.218 7        47.533                                                                    22160174.941 6  92231812.53306      2271.914 6        37.607
R19        35.000    22115428.065 5                     -4434.143 5        30.189                                                                    22115431.039 5  92013159.39015     -3448.714 5        34.943
R05        36.000    19318286.043 8 103267419.27408       -13.218 8        49.199                                                                    19318285.118 7  80319000.92907       -10.269 7        46.322
C39        38.000                                                                                                                                    39351180.420 6 204911838.70406       -29.025 6        37.157                                                                    39351165.514 5 166507652.01005       -23.307 5        35.181
C29        43.000                                                                                                                                    22014270.624 6 114633977.46206      -131.507 6        39.411                                                                    22014267.093 7  93149610.11407      -106.822 7        43.670
C16        45.000                                                                                                                                    39635861.598 5 206394332.42615       364.227 5        34.914    39635825.103 4                       279.969 4        24.256
C09        46.000                                                                                                                                    40278026.004 4                       792.493 4        24.737
C32        47.000                                                                                                                                    22767830.412 7 118558131.68507     -2520.211 7        47.669                                                                    22767829.255 6  96338180.17406     -2047.919 6        41.592
C35        51.000                                                                                                                                    25976257.720 5 135265206.69305      2305.732 5        35.638                                                                    25976257.623 6 109914059.74706      1873.106 6        36.333
I09        54.000    37296230.929 6 146358416.98906      -547.882 6        41.726
C20        55.000                                                                                                                                    22520537.889 8 117270336.86708       794.491 8        51.392                                                                    22520531.983 8  95291832.64108       645.585 8        48.085
C30        58.000                                                                                                                                    23122216.455 7 120403670.57107     -3342.052 7        44.895                                                                    23122214.982 6  97837714.90106     -2715.692 6        37.055
> 2025 01 01 00 02 45.0000000  0 34
E19         1.000    25908760.844 3                     -2933.672 3        21.524                                                                    25908774.727 4 101671539.85504     -2190.802 4        29.772    25908804.562 4                     -2248.989 4        24.015
G32         2.000    22923424.382 6 120463643.96306     -3109.294 6        37.543                                    22923419.402 4  93867560.17604     -2422.821 4        29.223    22923421.548 6  93867609.16206     -2422.661 6        41.302
G21         3.000    21204100.039 6 111428291.34306     -2121.153 6        40.265                                    21204091.549 2  86827268.65502     -1652.816 2        16.755
G02         5.000    20845157.984 8 109542221.68208      -654.717 8        50.982                                    20845151.743 6  85357438.40906      -510.170 6        40.574
E04         7.000    24073799.828 6 126508958.35206        76.364 6        39.850                                                                    24073795.200 7  94470780.02807        57.062 7        44.913    24073796.774 6  96935185.96606        58.586 6        41.940
G03         8.000    21167809.629 7 111237638.08907      1280.731 7        43.566                                    21167804.454 7  86678688.92007       997.974 7        42.243    21167807.718 7  86678688.88907       997.921 7        42.914
E02         9.000    27625948.254 4 145175773.33904     -2571.286 4        24.752                                                                    27625969.111 4                     -1920.193 4        27.353    27625976.579 4 111238344.09004     -1970.306 4        29.782
E12        10.000                                                                                                                                    26398831.221 6 103594692.10906     -2285.094 6        38.520    26398829.306 6 106297232.75606     -2344.794 6        36.495
E09        12.000    26351387.594 6 138477503.91906      2168.265 6        40.934                                                                    26351389.038 7 103408547.81107      1619.125 7        44.628
E10        13.000    24492343.719 6 128708133.19906     -2267.084 6        41.111                                                                    24492343.480 7  96113217.65207     -1693.011 7        46.836    24492340.571 7  98620542.55307     -1737.080 7        42.049
E06        14.000    24736129.628 5 129989249.51205      1393.139 5        31.185                                                                    24736130.352 6  97069918.37806      1040.283 6        41.178    24736136.659 6  99602198.92606      1067.349 6        40.799
E11        15.000    23416202.303 6 123052966.78906      -952.710 6        40.956                                                                    23416197.572 7  91890192.67107      -711.511 7        44.379    23416196.548 7  94287326.67607      -729.988 7        43.372
G19        16.000    25440969.897 4                      2855.701 4        25.459
E30        17.000    28660275.188 5 150611055.09505      -391.928 5        30.845                                                                    28660284.133 5                      -292.492 5        30.460
E36        20.000                                                                                                                                    25295060.061 6  99263236.39806       921.183 6        38.568    25295060.866 7 101852739.11507       945.129 7        42.603
G08        21.000    23841303.301 5 125286947.12905     -4458.429 5        35.843                                                                                                    23841302.311 4                     -3474.246 4        29.090
G17        22.000    23331897.358 7 122610146.86507      1445.128 7        46.208                                    23331890.916 6  95540290.12606      1126.072 6        36.181    23331889.553 6  95540199.13406      1126.041 6        37.323
S23        24.000    38323199.404 6 201389722.88906      -824.283 6        40.641
S36        25.000    38370949.384 6 201640507.52206      -827.011 6        36.563
R20        27.000    19369813.002 5 103579084.64105      -278.905 5        34.871                                                                    19369812.694 6  80561478.51906      -216.936 6        39.853
R04        28.000    20693675.879 7 110813849.61407     -3832.258 7        42.391                                                                    20693676.378 7  86188440.01607     -2980.660 7        43.318
R12        32.000    24020607.647 4 128313900.73704     -1621.402 4        28.559
C19        33.000                                                                                                                                    26132022.587 5                      2380.131 5        31.441
R21        34.000    22157446.596 7 118569033.29907      2920.374 7        47.087                                                                    22157445.338 6  92220453.88206      2271.464 6        36.370
R19        35.000    22119573.751 5                     -4436.115 5        32.096                                                                    22119572.952 5  92030406.71105     -3450.414 5        34.405
R05        36.000    19318299.250 8 103267494.45008       -16.808 8        49.037                                                                    19318298.970 7  80319059.39407       -13.099 7        46.163
C39        38.000                                                                                                                                    39351208.241 6 204911985.88706       -29.664 6        36.972                                                                    39351193.352 5 166507771.60305       -24.434 5        34.962
C29        43.000                                                                                                                                    22014399.375 6 114634640.72906      -133.804 6        40.684                                                                    22014394.656 7  93150149.07907      -108.887 7        43.568
C16        45.000                                                                                                                                    39635511.574 5 206392513.43205       363.387 5        35.643    39635483.435 3                       279.106 3        23.200
C32        47.000                                                                                                                                    22770250.483 8 118570736.68608     -2521.796 8        48.222                                                                    22770250.020 6  96348422.78706     -2049.218 6        41.375
C35        51.000                                                                                                                                    25974045.089 6 135253680.39306      2305.204 6        36.291                                                                    25974044.150 5 109904693.68105      1872.945 5        35.933
I09        54.000    37296929.230 6 146361156.94006      -548.029 6        41.905
C20        55.000                                                                                                                                    22519775.925 8 117266369.09808       792.613 8        51.718                                                                    22519769.889 7  95288608.49107       644.058 7        47.950
C30        58.000                                                                                                                                    23125426.145 7 120420384.96307     -3343.612 7        45.357                                                                    23125424.977 6  97851296.66306     -2716.842 6        37.837
> 2025 01 01 00 02 50.0000000  0 35
E19         1.000    25911556.055 3                     -2935.495 3        21.500                                                                    25911567.949 4 101682498.08704     -2192.827 4        29.185    25911590.915 4                     -2250.486 4        25.684
G32         2.000    22926382.625 5 120479196.22305     -3111.437 5        34.795                                    22926379.822 4  93879678.81104     -2424.494 4        28.806    22926380.258 6  93879727.82906     -2424.764 6        41.449
G21         3.000    21206120.954 6 111438903.28506     -2123.532 6        40.484                                    21206110.465 2  86835537.72102     -1654.704 2        16.189
G14         4.000    24872630.146 4                     -2885.961 4        29.204
G02         5.000    20845782.265 8 109545501.56108      -657.135 8        51.014                                    20845775.668 6  85359994.16206      -512.052 6        40.374
E04         7.000    24073728.351 6 126508582.70406        73.873 6        41.013                                                                    24073723.771 7  94470499.53107        55.181 7        44.894    24073725.015 7  96934898.15607        56.536 7        42.290
G03         8.000    21166591.510 7 111231240.16207      1278.595 7        44.135                                    21166587.099 7  86673703.52307       996.312 7        42.212    21166590.012 7  86673703.49107       996.280 7        43.206
E02         9.000                                                                                                                                    27628418.760 5                     -1921.901 5        30.121    27628427.736 4 111248200.74404     -1972.086 4        29.848
E12        10.000                                                                                                                                    26401743.477 6 103606120.10506     -2286.068 6        38.300    26401741.553 5 106308958.86105     -2345.542 5        35.800
E09        12.000    26349325.120 6 138466666.21806      2167.048 6        40.551                                                                    26349326.705 7 103400454.72107      1618.175 7        44.724    26349338.175 5 106097815.52305      1660.400 5        34.938
E10        13.000    24494502.250 6 128719472.99206     -2268.799 6        41.328                                                                    24494501.293 7  96121685.68607     -1694.176 7        46.625    24494498.358 6  98629231.49106     -1738.358 6        41.669
E06        14.000    24734804.628 5 129982289.87505      1390.729 5        30.815                                                                    24734805.987 6  97064721.25406      1038.662 6        40.274    24734813.096 6  99596866.19906      1065.768 6        40.582
E11        15.000    23417109.733 6 123057735.35206      -954.501 6        40.918                                                                    23417104.891 7  91893753.60707      -712.896 7        44.203    23417103.910 7  94290980.51207      -731.322 7        43.245
G19        16.000    25438250.546 4                      2855.144 4        26.982
E30        17.000    28660649.725 5 150613020.32905      -394.730 5        31.660                                                                    28660658.394 4                      -294.143 4        29.810    28660688.458 4                      -302.041 4        24.842
E36        20.000                                                                                                                                    25293887.051 6  99258632.18206       920.258 6        38.823    25293887.221 7 101848014.77207       944.539 7        42.093
G08        21.000    23845544.304 5 125309242.23105     -4459.311 5        34.724                                                                                                    23845544.396 5                     -3474.632 5        30.008
G17        22.000    23330523.793 7 122602927.49507      1442.639 7        47.118                                    23330516.746 6  95534664.66106      1124.128 6        36.333    23330515.523 6  95534573.65806      1124.407 6        37.244
S23        24.000    38323984.259 6 201393845.49806      -824.671 6        40.722
S36        25.000    38371735.893 6 201644643.62406      -826.998 6        36.650
R20        27.000    19370075.575 5 103580488.87205      -282.951 5        34.976                                                                    19370075.872 6  80562570.67406      -219.861 6        40.973
R04        28.000    20697254.387 7 110833018.00807     -3835.053 7        42.356                                                                    20697256.431 7  86203348.75707     -2982.852 7        43.318
R12        32.000                                                                                                                                    24022143.785 5                     -1264.630 5        30.196
C19        33.000                                                                                                                                    26129736.130 5                      2379.092 5        31.042
R21        34.000    22154717.616 7 118554435.21807      2918.949 7        47.016                                                                    22154717.147 5  92209099.85005      2270.225 5        35.176
R19        35.000    22123722.791 5                     -4438.107 5        32.234                                                                    22123723.365 5  92047661.87605     -3452.204 5        35.905
R05        36.000    19318317.289 8 103267589.76208       -21.170 8        48.445                                                                    19318316.621 7  80319133.52807       -16.443 7        46.022
C39        38.000                                                                                                                                    39351236.127 6 204912138.39806       -30.919 6        36.526                                                                    39351222.673 5 166507895.51005       -25.106 5        35.214
C29        43.000                                                                                                                                    22014530.101 6 114635316.93206      -136.614 6        41.044                                                                    22014524.668 7  93150698.56907      -111.041 7        43.852
C16        45.000                                                                                                                                    39635162.863 5 206390699.06205       362.477 5        35.829    39635139.549 3                       280.774 3        23.505
C32        47.000                                                                                                                                    22772672.448 8 118583350.98308     -2523.899 8        48.266                                                                    22772672.865 6  96358672.96806     -2050.885 6        41.492
C35        51.000                                                                                                                                    25971833.305 6 135242157.74206      2304.080 6        36.616                                                                    25971831.529 5 109895330.63505      1872.221 5        35.443
I09        54.000    37297627.536 6 146363898.27406      -548.464 6        41.728
C20        55.000                                                                                                                                    22519016.119 8 117262412.19408       790.212 8        51.810                                                                    22519010.061 7  95285393.21207       642.139 7        47.842
C30        58.000                                                                                                                                    23128638.846 7 120437108.55407     -3345.724 7        45.541                                                                    23128637.080 6  97864885.99106     -2718.770 6        38.679
