     3.04           OBSERVATION DATA    M                   RINEX VERSION / TYPE
ssrcrin-15.6.1x                         20250101 020000 UTC PGM / RUN BY / DATE 
(00000000023479385599111004) Septentrio proprietary         COMMENT             
ract                                                        MARKER NAME         
01                                                          MARKER NUMBER       
geodetic                                                    MARKER TYPE         
NFB                 CLIMERS@TUW                             OBSERVER / AGENCY   
3296359             SEPT ASTERX SB3 PROB4.14.4              REC # / TYPE / VERS 
Unknown             Unknown                                 ANT # / TYPE        
  4127446.4176  1206914.2361  4695543.2089                  APPROX POSITION XYZ 
        0.0000        0.0000        0.0000                  ANTENNA: DELTA H/E/N
G   23 X1  C1C L1C D1C S1C C1W S1W C2W L2W D2W S2W C2L L2L  SYS / # / OBS TYPES 
       D2L S2L C5Q L5Q D5Q S5Q C1L L1L D1L S1L              SYS / # / OBS TYPES 
E   21 X1  C1C L1C D1C S1C C6C L6C D6C S6C C5Q L5Q D5Q S5Q  SYS / # / OBS TYPES 
       C7Q L7Q D7Q S7Q C8Q L8Q D8Q S8Q                      SYS / # / OBS TYPES 
S    9 X1  C1C L1C D1C S1C C5I L5I D5I S5I                  SYS / # / OBS TYPES 
R   17 X1  C1C L1C D1C S1C C2P L2P D2P S2P C2C L2C D2C S2C  SYS / # / OBS TYPES 
       C3Q L3Q D3Q S3Q                                      SYS / # / OBS TYPES 
C   25 X1  C1P L1P D1P S1P C5P L5P D5P S5P C2I L2I D2I S2I  SYS / # / OBS TYPES 
       C7I L7I D7I S7I C6I L6I D6I S6I C7D L7D D7D S7D      SYS / # / OBS TYPES 
J   17 X1  C1C L1C D1C S1C C2L L2L D2L S2L C5Q L5Q D5Q S5Q  SYS / # / OBS TYPES 
       C1L L1L D1L S1L                                      SYS / # / OBS TYPES 
I    5 X1  C5A L5A D5A S5A                                  SYS / # / OBS TYPES 
SEPTENTRIO RECEIVERS OUTPUT ALIGNED CARRIER PHASES.         COMMENT             
NO FURTHER PHASE SHIFT APPLIED IN THE RINEX ENCODER.        COMMENT             
G L1C                                                       SYS / PHASE SHIFT   
G L2W                                                       SYS / PHASE SHIFT   
G L2L  0.00000                                              SYS / PHASE SHIFT   
G L5Q  0.00000                                              SYS / PHASE SHIFT   
G L1L  0.00000                                              SYS / PHASE SHIFT   
E L1C  0.00000                                              SYS / PHASE SHIFT   
E L6C  0.00000                                              SYS / PHASE SHIFT   
E L5Q  0.00000                                              SYS / PHASE SHIFT   
E L7Q  0.00000                                              SYS / PHASE SHIFT   
E L8Q  0.00000                                              SYS / PHASE SHIFT   
S L1C                                                       SYS / PHASE SHIFT   
S L5I                                                       SYS / PHASE SHIFT   
R L1C                                                       SYS / PHASE SHIFT   
R L2P  0.00000                                              SYS / PHASE SHIFT   
R L2C                                                       SYS / PHASE SHIFT   
R L3Q  0.00000                                              SYS / PHASE SHIFT   
C L1P  0.00000                                              SYS / PHASE SHIFT   
C L5P  0.00000                                              SYS / PHASE SHIFT   
C L2I                                                       SYS / PHASE SHIFT   
C L7I                                                       SYS / PHASE SHIFT   
C L6I                                                       SYS / PHASE SHIFT   
C L7D                                                       SYS / PHASE SHIFT   
J L1C                                                       SYS / PHASE SHIFT   
J L2L  0.00000                                              SYS / PHASE SHIFT   
J L5Q  0.00000                                              SYS / PHASE SHIFT   
J L1L  0.00000                                              SYS / PHASE SHIFT   
I L5A                                                       SYS / PHASE SHIFT   
  2025     1     1     2     0    0.0000000     GPS         TIME OF FIRST OBS   
 C1C    0.000 C2C    0.000 C2P    0.000                     GLONASS COD/PHS/BIS 
DBHZ                                                        SIGNAL STRENGTH UNIT
    18                                                      LEAP SECONDS        
 24 R01  1 R02 -4 R03  5 R04  6 R05  1 R06 -4 R07  5 R08  6 GLONASS SLOT / FRQ #
    R09 -2 R10 -7 R11  0 R12 -1 R13 -2 R14 -7 R15  0 R16 -1 GLONASS SLOT / FRQ #
    R17  4 R18 -3 R19  3 R20  2 R21  4 R22 -3 R23  3 R24  2 GLONASS SLOT / FRQ #
                                                            END OF HEADER       
> 2025 01 01 02 00  0.0000000  0 39
G02         1.000    22603171.271 7 118780520.78507     -3656.561 7        42.573                                    22603166.447 4  92556195.82704     -2849.271 4        27.377
G21         3.000    24317304.882 4                     -4038.049 4        28.171
G31         4.000    22279591.936 7 117079929.08107      -897.502 7        46.911                                    22279584.693 6  91231079.52006      -699.353 6        40.114    22279587.401 6  91231202.52706      -699.342 6        40.625
E34         6.000    26144578.814 7 137390692.22807      1706.155 7        44.265                                                                    26144577.907 7 102596992.67907      1274.047 7        42.438    26144576.263 6 105273404.23306      1307.277 6        40.236
E04         7.000    24816564.648 7 130412005.75107     -2723.154 7        43.530                                                                    24816561.610 6  97385508.94206     -2033.556 6        41.840    24816562.228 6  99926000.49706     -2086.564 6        41.356
G03         8.000    20111973.512 7 105689137.93107     -1527.535 7        43.367                                    20111971.352 7  82355207.11207     -1190.285 7        43.403    20111973.061 7  82355197.10207     -1190.250 7        44.020
G09         9.000    22199433.573 5 116658768.43205      2217.922 5        33.269                                    22199433.628 4  90902963.40004      1728.233 4        27.737    22199434.628 6  90902970.44606      1728.375 6        39.444
G04        11.000    20599357.037 5 108250364.78805       795.783 5        35.990                                    20599355.452 2  84350879.97602       620.084 2        17.208    20599351.910 5  84350898.06905       619.988 5        34.590
E09        12.000    23615584.038 8 124100824.92208      -126.080 8        50.371                                                                    23615580.495 6  92672686.23706       -94.129 6        38.048    23615582.072 7  95090211.45307       -96.597 7        47.322
E10        13.000                                                                                                                                    27446805.144 4                     -2833.517 4        25.534    27446801.201 4                     -2908.219 4        27.976
E06        14.000    23552804.713 7 123770843.55807     -1453.635 7        44.617                                                                    23552803.586 7  92426277.84807     -1085.553 7        46.399    23552804.072 8  94837366.38308     -1113.862 8        48.970
E11        15.000    24961657.924 7 131174443.22907     -3153.338 7        42.140                                                                    24961654.128 7  97954901.02907     -2354.766 7        45.199    24961653.728 7 100510212.75807     -2416.226 7        45.970
G19        16.000    22358743.820 4 117496168.60104      -725.496 4        28.919                                    22358739.557 3  91555289.52403      -565.350 3        19.970
G28        17.000    23694729.572 4                     -2622.751 4        27.796
C23        18.000                                                                                                                                    26202509.502 4                      -951.644 4        24.617
G06        19.000    23631172.344 6 124182736.24706      2426.802 6        40.639                                    23631170.541 6  96765663.05206      1891.016 6        36.798    23631169.580 6  96765736.04106      1891.138 6        40.198
E36        20.000    23472977.662 7 123351470.46707      -645.876 7        42.665                                                                    23472976.707 6  92112992.87906      -482.328 6        36.892    23472977.092 6  94515971.56506      -494.790 6        38.351
E05        21.000    24965926.211 4 131196844.54604      1942.093 4        28.720                                                                    24965935.173 3                      1449.827 3        23.067    24965937.188 5 100527493.41905      1487.729 5        34.148
G17        22.000    22773349.168 7 119674736.31607     -2483.346 7        43.299                                    22773346.313 5  93253109.66805     -1935.070 5        30.279    22773347.068 6  93253034.68006     -1934.923 6        36.843
R07        23.000                                                                                                                                    22616892.969 5  94165572.92205      1928.474 5        30.038
S23        24.000    38227422.906 7 200886411.71307      -824.838 7        42.074
S36        25.000    38279629.381 6 201160781.64306      -828.423 6        36.484
R20        27.000    21895812.279 5                     -4979.210 5        30.981                                                                    21895813.461 6  91067460.55506     -3872.745 6        38.508
R06        29.000    19673003.044 5 104978900.49105       183.873 5        33.168
R14        30.000    23293630.086 3                     -1287.343 3        20.929                                                                    23293641.274 4                     -1000.594 4        24.556
C19        33.000                                                                                                                                    22725587.877 8 118338212.96308       701.541 8        48.505                                                                    22725583.610 8  96159372.43808       570.135 8        48.380
R21        34.000    19502686.165 8 104362921.95108     -1601.946 8        52.649                                                                    19502684.065 7  81171064.55707     -1245.960 7        43.918
R05        36.000    21176554.966 6 113200799.06506     -3908.222 6        38.117                                                                    21176555.752 6  88045309.05206     -3039.828 6        39.946
R22        37.000    21734345.301 8 116019380.26108      2546.273 8        48.623                                                                    21734342.674 6  90237334.77206      1980.479 6        41.759
C39        38.000                                                                                                                                    39111867.167 3                     -1336.416 3        21.738                                                                    39111889.845 5                     -1086.872 5        30.294
C06        41.000                                                                                                                                    38334180.192 6 199616140.38606      -800.324 6        39.237    38334171.224 5 154355827.55405      -618.528 5        33.275    38334173.479 6 162204429.46506      -650.151 6        36.355
C29        43.000                                                                                                                                    23459662.762 6 122160581.54506     -3569.692 6        38.949                                                                    23459658.017 6  99265525.55206     -2900.590 6        41.101
C16        45.000                                                                                                                                    38806640.236 5 202076370.13505      -909.213 5        32.341    38806623.306 5 156258160.47005      -702.892 5        34.629    38806622.907 4                      -738.351 4        26.240
C09        46.000                                                                                                                                    38698109.325 6 201511223.55806      -290.817 6        39.823    38698107.091 7 155821259.12507      -224.761 7        47.192    38698103.180 6 163744335.73206      -236.003 6        39.420
C32        47.000                                                                                                                                    26030750.335 4                     -3679.444 4        25.083
C44        48.000                                                                                                                                    25722667.934 4 133944638.38504      1857.135 4        24.722                                                                    25722680.938 5 108840979.64205      1509.468 5        30.091
C35        51.000                                                                                                                                    23070213.577 6 120132704.49506      -324.204 6        39.523                                                                    23070210.843 6  97617632.58006      -263.415 6        36.620
I09        54.000    37317608.732 6 146442307.00906      -795.681 6        39.871
C20        55.000                                                                                                                                    22190507.288 8 115551786.64108     -1914.950 8        51.572                                                                    22190501.008 7  93895370.54307     -1556.004 7        46.984
> 2025 01 01 02 00  5.0000000  0 38
G02         1.000    22606650.655 6 118798806.72706     -3657.951 6        41.576                                    22606646.014 4  92570444.60204     -2850.360 4        26.587
G21         3.000    24321143.564 4                     -4038.575 4        24.947
G31         4.000    22280447.545 7 117084424.61307      -900.823 7        46.251                                    22280440.557 6  91234582.53006      -701.942 6        40.725    22280443.294 6  91234705.55606      -701.988 6        41.495
E34         6.000    26142955.944 7 137382162.35507      1705.722 7        44.593                                                                    26142954.971 7 102590622.96307      1273.733 7        42.559    26142952.938 6 105266868.35206      1306.962 6        39.354
E04         7.000    24819156.337 7 130425624.12107     -2724.188 7        43.695                                                                    24819153.608 6  97395678.50906     -2034.299 6        41.993    24819153.716 6  99936435.36806     -2087.442 6        41.151
G03         8.000    20113427.655 7 105696779.15807     -1529.072 7        44.606                                    20113425.341 7  82361161.30707     -1191.478 7        43.507    20113427.086 7  82361151.30207     -1191.632 7        44.536
G09         9.000    22197323.031 5 116647681.53905      2216.576 5        33.359                                    22197324.006 4  90894324.26004      1727.197 4        26.671    22197325.354 6  90894331.31106      1727.267 6        39.613
G04        11.000    20598599.821 6 108246391.26406       793.596 6        36.684                                    20598599.529 2  84347783.65802       618.623 2        14.476    20598591.202 4  84347801.91404       617.808 4        25.068
E09        12.000    23615704.830 8 124101459.21608      -127.762 8        50.563                                                                    23615701.729 6  92673159.90106       -95.258 6        38.198    23615702.743 7  95090697.48007       -97.870 7        47.079
E10        13.000                                                                                                                                    27450417.424 4                     -2834.643 4        24.812    27450414.129 4                     -2908.307 4        27.269
E06        14.000    23554188.646 7 123778115.44107     -1455.231 7        44.196                                                                    23554187.358 7  92431708.15607     -1086.659 7        46.316    23554187.748 8  94842938.34508     -1115.029 8        49.263
E11        15.000    24964658.639 7 131190212.23507     -3154.425 7        42.296                                                                    24964654.884 7  97966676.58407     -2355.586 7        45.403    24964654.422 7 100522295.50107     -2417.050 7        45.834
G19        16.000    22359431.283 4                      -728.267 4        24.180
G28        17.000    23697216.541 4                     -2625.473 4        25.880
C23        18.000                                                                                                                                    26203424.704 4                      -952.503 4        25.459
G06        19.000    23628863.768 6 124170603.98906      2426.007 6        41.416                                    23628862.039 6  96756209.35506      1890.397 6        36.563    23628860.575 6  96756282.34406      1890.449 6        39.231
E36        20.000    23473592.776 7 123354703.58307      -647.494 7        42.262                                                                    23473591.887 6  92115407.23106      -483.552 6        36.794    23473592.557 6  94518448.91506      -496.306 6        38.916
E05        21.000    24964072.727 3                      1939.707 3        19.940                                                                    24964082.852 4                      1449.730 4        24.316    24964089.374 5 100520054.80105      1487.403 5        34.405
G17        22.000    22775712.966 7 119687158.37207     -2485.600 7        43.363                                    22775710.848 5  93262789.17705     -1936.826 5        31.525    22775710.887 6  93262714.20306     -1936.858 6        36.370
R07        23.000    22614569.748 5 121057735.48815      2478.490 5        35.243                                                                    22614576.468 4  94155932.10104      1927.893 4        29.156
S23        24.000    38228209.048 7 200890534.73207      -824.550 7        42.245
S36        25.000    38280432.104 6 201164923.40306      -828.313 6        36.631
R20        27.000    21900464.787 4                     -4980.760 4        28.607                                                                    21900468.947 6  91086827.57216     -3873.941 6        37.187
R06        29.000    19672832.449 5 104977987.16405       181.233 5        32.569
C19        33.000                                                                                                                                    22724915.115 7 118334707.80107       700.376 7        47.678                                                                    22724910.508 8  96156524.22008       569.128 8        48.330
R21        34.000    19504184.666 8 104370941.85908     -1606.146 8        52.538                                                                    19504183.049 7  81177302.26307     -1249.256 7        44.501
R05        36.000    21180211.990 6 113220342.39206     -3909.268 6        38.688                                                                    21180210.565 6  88060509.40206     -3040.575 6        38.252
R22        37.000    21731960.739 7 116006654.20107      2544.027 7        47.327                                                                    21731958.106 6  90227436.73506      1978.837 6        41.945
C39        38.000                                                                                                                                    39113155.196 3                     -1337.270 3        20.143                                                                    39113174.837 5                     -1087.471 5        31.313
C06        41.000                                                                                                                                    38334948.272 6 199620142.63406      -800.830 6        39.135    38334940.492 5 154358922.34705      -619.347 5        32.946    38334942.217 6 162207681.64706      -650.757 6        36.767
C29        43.000                                                                                                                                    23463085.024 6 122178433.39906     -3570.999 6        38.153                                                                    23463085.877 6  99280031.64506     -2901.849 6        40.880
C16        45.000                                                                                                                                    38807510.996 5 202080916.80605      -909.412 5        34.667    38807496.976 5 156261676.27805      -703.725 5        35.109    38807498.066 4                      -739.212 4        27.341
C09        46.000                                                                                                                                    38698388.358 6 201512677.81606      -291.222 6        39.712    38698386.205 7 155822383.66007      -225.158 7        46.619    38698382.591 6 163745517.46206      -236.698 6        39.577
C32        47.000                                                                                                                                    26034281.946 3                     -3678.642 3        22.990
C44        48.000                                                                                                                                                                                                                                                                    25720892.794 4 108833435.76604      1508.109 4        27.305
C35        51.000                                                                                                                                    23070526.692 6 120134331.16606      -326.682 6        39.925                                                                    23070523.214 6  97618954.43306      -265.518 6        36.480
I09        54.000    37318621.962 6 146446284.83606      -795.538 6        40.129
C20        55.000                                                                                                                                    22192346.547 8 115561364.15108     -1916.093 8        51.262                                                                    22192340.270 7  93903153.06507     -1557.024 7        46.941
> 2025 01 01 02 00 10.0000000  0 36
G02         1.000    22610132.140 7 118817100.62307     -3659.582 7        42.188                                    22610126.997 4  92584699.58504     -2851.631 4        25.820
G31         4.000    22281306.479 7 117088938.11507      -904.509 7        46.066                                    22281299.940 6  91238099.54506      -704.812 6        41.230    22281301.719 6  91238222.56406      -704.839 6        41.886
E34         6.000    26141333.154 7 137373636.36207      1704.869 7        44.405                                                                    26141332.452 6 102584256.16106      1273.090 6        41.681    26141330.680 6 105260335.46106      1306.271 6        39.180
E04         7.000    24821748.483 7 130439248.73007     -2725.471 7        42.946                                                                    24821746.708 7  97405852.72107     -2035.338 7        42.248    24821746.238 6  99946875.00606     -2088.368 6        40.610
G03         8.000    20114884.502 7 105704430.13607     -1531.120 7        44.948                                    20114881.328 7  82367123.09907     -1193.079 7        44.009    20114882.858 7  82367113.09907     -1193.130 7        44.659
G09         9.000    22195215.808 5 116636602.52805      2215.048 5        35.276                                    22195215.860 4  90885691.26204      1725.990 4        25.549    22195216.992 6  90885698.31206      1725.986 6        39.477
G04        11.000    20597845.839 6 108242430.43106       791.072 6        36.299                                    20597845.944 1  84344697.27701       616.584 1        10.815
E09        12.000    23615827.286 8 124102103.11708      -129.688 8        50.883                                                                    23615823.892 6  92673640.75306       -96.888 6        37.989    23615825.285 7  95091190.87407       -99.398 7        46.968
E10        13.000                                                                                                                                    27454026.367 4                     -2835.145 4        25.143    27454028.859 4                     -2908.654 4        25.263
E06        14.000    23555574.831 7 123785396.42707     -1457.072 7        44.280                                                                    23555573.009 7  92437145.25307     -1088.009 7        46.489    23555573.156 8  94848517.28308     -1116.437 8        49.100
E11        15.000    24967660.786 7 131205988.12307     -3155.907 7        42.643                                                                    24967656.863 7  97978457.28407     -2356.642 7        45.356    24967656.461 7 100534383.52207     -2418.057 7        45.713
G19        16.000    22360125.399 4                      -732.211 4        29.431
G28        17.000    23699711.340 4                     -2628.974 4        25.880
G06        19.000    23626555.989 6 124158477.02606      2424.823 6        41.282                                    23626554.396 6  96746759.77006      1889.474 6        36.439    23626553.922 6  96746832.74906      1889.539 6        39.267
E36        20.000    23474209.748 7 123357946.64507      -649.610 7        42.182                                                                    23474209.901 6  92117828.97206      -485.042 6        37.244    23474209.664 6  94520933.81806      -497.550 6        39.517
E05        21.000                                                                                                                                    24962239.090 4                      1448.493 4        25.549    24962243.458 6 100512619.35606      1486.831 6        36.401
G17        22.000    22778079.127 7 119699592.47907     -2488.026 7        44.041                                    22778077.455 5  93272478.06805     -1938.714 5        32.126    22778077.033 5  93272403.09105     -1938.915 5        34.281
R07        23.000    22612260.312 6 121045346.51006      2477.132 6        37.474                                                                    22612267.159 4  94146296.25704      1926.751 4        29.052
S23        24.000    38228992.360 6 200894657.74506      -824.669 6        41.535
S36        25.000    38281205.932 6 201169065.58006      -828.551 6        36.711
R20        27.000    21905123.914 4                     -4982.271 4        27.090                                                                    21905128.512 6                     -3875.577 6        37.338
R06        29.000    19672661.481 5 104977087.16905       178.714 5        32.036
R14        30.000    23296070.389 4                     -1294.308 4        26.970                                                                    23296084.193 3                     -1006.889 3        22.990
C19        33.000                                                                                                                                    22724243.051 7 118331209.80807       698.855 7        47.827                                                                    22724238.815 8  96153681.82708       567.906 8        48.300
R21        34.000    19505687.667 8 104378984.29508     -1610.727 8        53.027                                                                    19505686.192 7  81183557.50207     -1252.782 7        45.336
R05        36.000    21183870.731 6 113239891.14306     -3910.268 6        39.375                                                                    21183868.226 6  88075713.93806     -3041.339 6        37.384
R22        37.000    21729578.084 7 115993940.42707      2541.576 7        46.562                                                                    21729576.953 7  90217548.25207      1976.722 7        43.227
C39        38.000                                                                                                                                    39114446.113 4                     -1340.040 4        24.421                                                                    39114462.575 4                     -1088.484 4        29.972
C06        41.000                                                                                                                                    38335717.658 6 199624149.05806      -801.551 6        40.012    38335710.530 5 154362020.37205      -619.579 5        34.429    38335710.962 6 162210937.19206      -651.441 6        36.280
C29        43.000                                                                                                                                    23466512.522 6 122196293.27806     -3572.630 6        36.681                                                                    23466515.289 6  99294544.24306     -2903.165 6        40.779
C16        45.000                                                                                                                                    38808388.788 5 202085467.51305      -910.406 5        34.290    38808371.814 5 156265195.12705      -703.966 5        35.019    38808372.335 4                      -739.969 4        27.916
C09        46.000                                                                                                                                    38698668.757 6 201514136.13706      -292.013 6        38.946    38698666.206 7 155823511.32807      -225.846 7        46.406    38698662.610 6 163746702.45906      -237.234 6        39.553
C32        47.000                                                                                                                                    26037821.754 3                     -3679.174 3        20.762
C35        51.000                                                                                                                                    23070841.834 6 120135971.83406      -329.392 6        39.628                                                                    23070838.336 6  97620287.59906      -267.719 6        36.189
I09        54.000    37319635.560 6 146450263.19406      -795.580 6        40.072
C20        55.000                                                                                                                                    22194186.638 8 115570948.76108     -1917.550 8        51.610                                                                    22194180.712 7  93910941.35007     -1558.185 7        46.790
> 2025 01 01 02 00 15.0000000  0 37
G02         1.000    22613614.657 7 118835402.32607     -3661.244 7        42.085                                    22613609.381 4  92598960.66104     -2852.924 4        24.436
G21         3.000    24328811.851 5                     -4039.463 5        30.264
G31         4.000    22282169.050 7 117093469.45207      -908.104 7        45.704                                    22282162.682 6  91241630.46906      -707.612 6        41.321    22282164.038 6  91241753.48806      -707.656 6        41.747
E34         6.000    26139711.359 7 137365114.16607      1703.964 7        44.029                                                                    26139710.553 6 102577892.18306      1272.403 6        41.347    26139709.361 6 105253805.46706      1305.587 6        38.952
E04         7.000    24824342.114 7 130452879.45707     -2726.920 7        42.152                                                                    24824340.575 7  97416031.51307     -2036.379 7        42.633    24824340.217 6  99957319.34006     -2089.570 6        40.246
G03         8.000    20116342.292 7 105712090.73807     -1533.075 7        45.630                                    20116339.184 7  82373092.39607     -1194.603 7        44.588    20116340.904 7  82373082.40107     -1194.701 7        44.855
G09         9.000    22193109.473 5 116625531.27205      2213.347 5        33.383                                    22193109.109 4  90877064.27404      1724.674 4        25.459    22193110.531 6  90877071.34906      1724.750 6        39.153
G04        11.000    20597095.639 6 108238482.17706       788.189 6        38.715                                    20597095.146 1  84341620.49101       614.122 1         6.250
E09        12.000    23615951.630 8 124102756.52408      -131.734 8        50.996                                                                    23615948.313 6  92674128.70306       -98.322 6        37.682    23615949.502 7  95091691.53507      -100.972 7        46.692
E10        13.000                                                                                                                                    27457639.371 4                     -2835.777 4        25.008    27457641.859 4                     -2909.419 4        28.057
E06        14.000    23556961.963 7 123792686.39407     -1459.062 7        44.489                                                                    23556960.269 7  92442589.05107     -1089.496 7        46.796    23556960.373 8  94854103.10008     -1117.985 8        48.919
E11        15.000    24970663.780 7 131221770.79107     -3157.245 7        43.107                                                                    24970660.391 7  97990243.03307     -2357.708 7        45.446    24970659.745 7 100546476.73007     -2419.250 7        45.287
G19        16.000    22360822.767 5                      -735.752 5        30.143
G28        17.000    23702217.845 5                     -2630.809 5        30.332                                                                                                    23702260.064 5                     -2049.944 5        33.120
G06        19.000    23624249.628 6 124146355.20506      2423.759 6        41.695                                    23624247.553 6  96737314.19306      1888.636 6        36.257    23624247.164 6  96737387.20906      1888.614 6        39.565
E36        20.000    23474828.814 7 123361199.52607      -651.732 7        42.027                                                                    23474829.049 6  92120258.06306      -486.804 6        37.728    23474829.384 6  94523426.28706      -499.341 6        40.021
E05        21.000    24960409.587 4                      1940.062 4        26.275                                                                    24960392.207 4                      1449.476 4        24.556    24960398.688 6 100505187.00006      1486.121 6        36.178
G17        22.000    22780447.306 7 119712038.57507     -2490.563 7        43.407                                    22780446.069 5  93282176.29705     -1940.692 5        31.630    22780443.456 5  93282101.33305     -1940.682 5        32.677
R07        23.000    22609947.744 5 121032963.87105      2475.612 5        33.581                                                                    22609956.654 4  94136665.36104      1925.318 4        25.729
S23        24.000    38229780.188 6 200898780.52006      -824.719 6        41.845
S36        25.000    38282005.798 6 201173207.60606      -828.530 6        37.728
R20        27.000    21909784.333 4                     -4984.836 4        29.175                                                                    21909788.421 6  91125583.30616     -3877.203 6        38.108
R06        29.000    19672493.470 4 104976200.22004       176.101 4        29.649
R14        30.000    23297283.773 3                     -1299.998 3        22.400                                                                    23297296.991 4                     -1008.894 4        26.287
C19        33.000                                                                                                                                    22723572.247 8 118327718.90308       697.300 8        48.135                                                                    22723568.375 8  96150845.16608       566.681 8        48.493
R21        34.000    19507194.689 8 104387049.23008     -1615.396 8        53.379                                                                    19507193.303 7  81189830.21407     -1256.420 7        45.407
R05        36.000    21187529.656 6 113259445.19606     -3911.469 6        38.156                                                                    21187528.792 5  88090922.71505     -3042.504 5        35.748
R22        37.000    21727198.876 7 115981238.82807      2538.984 7        45.400                                                                    21727198.663 7  90207669.23507      1974.790 7        43.941
C39        38.000                                                                                                                                    39115733.015 4                     -1339.717 4        26.096                                                                    39115752.692 5                     -1088.961 5        30.257
C06        41.000                                                                                                                                    38336488.599 6 199628159.58506      -802.493 6        40.553    38336480.651 5 154365121.61505      -620.906 5        32.880    38336481.164 6 162214196.06106      -652.170 6        36.246
C29        43.000                                                                                                                                    23469945.364 5 122214161.08305     -3574.735 5        30.898                                                                    23469946.434 6  99309063.26006     -2904.521 6        40.920
C16        45.000                                                                                                                                    38809264.029 5 202090022.10205      -911.459 5        34.414    38809246.853 5 156268717.03405      -704.665 5        33.772    38809247.257 4                      -740.111 4        27.748
C09        46.000                                                                                                                                    38698949.066 6 201515598.36906      -293.016 6        38.697    38698946.629 7 155824642.02407      -226.674 7        46.210    38698943.494 6 163747890.63306      -238.022 6        39.598
C44        48.000                                                                                                                                    25717308.261 3                      1854.188 3        23.943                                                                    25717308.703 5 108818366.16505      1505.807 5        33.461
C35        51.000                                                                                                                                    23071160.002 6 120137626.36706      -332.423 6        38.979                                                                    23071155.973 5  97621632.01505      -270.228 5        35.910
I09        54.000    37320649.950 6 146454242.04706      -796.083 6        39.973
C20        55.000                                                                                                                                    22196028.093 8 115580540.35808     -1919.135 8        51.462                                                                    22196022.753 7  93918735.28107     -1559.401 7        46.854
> 2025 01 01 02 00 20.0000000  0 39
G02         1.000    22617098.073 7 118853712.80907     -3663.265 7        42.370                                    22617093.544 3  92613228.57903     -2854.473 3        23.638
G21         3.000    24332658.118 4                     -4040.455 4        28.986
G31         4.000    22283035.230 7 117098019.64007      -912.136 7        44.998                                    22283028.929 6  91245176.07406      -710.757 6        41.104    22283030.013 6  91245299.09006      -710.795 6        41.795
E34         6.000    26138090.734 7 137356596.74307      1702.748 7        44.178                                                                    26138089.796 6 102571531.78006      1271.568 6        41.063    26138088.543 6 105247279.14106      1304.755 6        38.709
E04         7.000    24826937.444 6 130466517.27806     -2728.546 6        41.626                                                                    24826936.025 7  97426215.59507     -2037.627 7        42.660    24826935.862 6  99967769.10606     -2090.666 6        40.079
G03         8.000    20117801.991 7 105719761.98607     -1535.643 7        47.238                                    20117799.106 7  82379069.98707     -1196.608 7        45.543    20117800.592 7  82379060.00007     -1196.577 7        45.255
G09         9.000    22191002.837 5 116614468.78805      2211.414 5        32.695                                    22191003.981 4  90868444.16204      1723.176 4        26.251    22191004.203 6  90868451.22506      1723.152 6        38.117
G04        11.000    20596348.478 6 108234547.54606       785.392 6        41.411                                    20596347.222 2  84338554.41302       611.987 2        12.788
E09        12.000    23616077.919 8 124103420.41608      -134.111 8        51.483                                                                    23616074.961 6  92674624.48806      -100.181 6        38.132    23616075.894 7  95092200.24407      -102.747 7        46.489
E10        13.000                                                                                                                                    27461251.718 4                     -2836.215 4        25.053    27461255.954 4                     -2910.248 4        28.863
E06        14.000    23558350.747 7 123799986.33007     -1461.216 7        44.113                                                                    23558349.480 7  92448040.31107     -1091.163 7        46.729    23558349.487 8  94859696.56008     -1119.614 8        48.742
E11        15.000    24973668.899 7 131237561.21707     -3159.151 7        43.215                                                                    24973665.304 7  98002034.57807     -2358.996 7        45.437    24973664.283 7 100558575.88607     -2420.604 7        44.992
G19        16.000    22361525.867 4                      -739.748 4        28.635
G28        17.000    23704720.196 4                     -2634.516 4        29.972                                                                                                    23704760.047 5  97067049.90415     -2052.819 5        33.772
C23        18.000                                                                                                                                    26206229.937 4                      -962.164 4        29.100
G06        19.000    23621944.039 7 124134239.57707      2422.243 7        42.315                                    23621941.823 5  96727873.44905      1887.458 5        35.771    23621941.024 6  96727946.45506      1887.552 6        39.871
E36        20.000    23475450.049 6 123364463.21606      -654.090 6        41.914                                                                    23475449.967 6  92122695.24606      -488.377 6        37.675    23475450.392 6  94525927.04806      -501.064 6        40.737
E05        21.000    24958555.782 5                      1938.145 5        30.823                                                                    24958544.868 4                      1447.608 4        25.368    24958554.546 6 100497758.49906      1485.119 6        36.261
G17        22.000    22782816.647 6 119724497.53606     -2493.397 6        41.554                                    22782816.842 5  93291884.56305     -1942.910 5        30.151    22782814.988 5  93291809.58205     -1942.912 5        33.617
R07        23.000    22607633.129 4 121020588.56404      2473.786 4        27.701
S23        24.000    38230563.657 6 200902903.91206      -824.938 6        41.845
S36        25.000    38282791.019 6 201177350.61806      -829.141 6        36.616
R20        27.000    21914444.417 4                     -4987.066 4        29.877                                                                    21914451.563 6  91144972.63316     -3878.972 6        38.312
R06        29.000    19672331.852 4 104975327.58604       173.305 4        28.853
R14        30.000                                                                                                                                    23298521.469 4                     -1013.691 4        24.481
C19        33.000                                                                                                                                    22722903.206 8 118324236.04008       695.549 8        48.246                                                                    22722899.517 8  96148015.06008       565.134 8        48.182
R21        34.000    19508705.818 8 104395137.72608     -1620.276 8        53.490                                                                    19508704.309 7  81196121.25207     -1260.276 7        45.145
R05        36.000    21191186.438 6 113279005.61106     -3913.078 6        37.440                                                                    21191190.458 5  88106136.34905     -3043.510 5        35.652
R22        37.000    21724821.145 7 115968550.42107      2536.097 7        45.022                                                                    21724821.807 7  90197800.47507      1972.552 7        45.091
C39        38.000                                                                                                                                    39117017.385 4                     -1341.248 4        26.419                                                                    39117041.359 5                     -1089.532 5        30.000
C06        41.000                                                                                                                                    38337259.948 6 199632175.18706      -803.847 6        40.775    38337251.664 5 154368226.70805      -621.641 5        33.557    38337252.716 6 162217459.07306      -653.349 6        36.688
C29        43.000                                                                                                                                    23473375.218 4 122232037.69104     -3577.216 4        25.744                                                                    23473379.454 6  99323589.48906     -2906.217 6        40.696
C16        45.000                                                                                                                                    38810132.626 5 202094581.48705      -912.479 5        35.119    38810121.206 5 156272242.74305      -705.826 5        32.545    38810124.429 4                      -741.644 4        28.199
C09        46.000                                                                                                                                    38699230.379 6 201517065.50106      -294.063 6        37.595    38699228.296 7 155825776.48707      -227.407 7        46.105    38699225.375 6 163749082.80006      -239.107 6        39.754
C32        47.000                                                                                                                                    26044860.495 3                     -3681.509 3        22.095
C44        48.000                                                                                                                                    25715533.469 4                      1851.055 4        28.730                                                                    25715535.949 5 108810841.34205      1503.940 5        34.881
C35        51.000                                                                                                                                    23071481.897 6 120139295.70706      -335.516 6        39.688                                                                    23071476.323 5  97622988.50705      -272.558 5        35.124
I09        54.000    37321663.744 6 146458222.13206      -796.252 6        39.724
C20        55.000                                                                                                                                    22197871.343 8 115590139.90208     -1920.941 8        50.784                                                                    22197866.221 7  93926535.69707     -1560.991 7        47.066
> 2025 01 01 02 00 25.0000000  0 36
G02         1.000    22620583.306 7 118872032.02507     -3664.747 7        42.394                                    22620579.455 3  92627503.29203     -2855.651 3        23.524
G21         3.000    24336502.658 4                     -4040.779 4        28.938
G31         4.000    22283904.856 7 117102588.67607      -915.661 7        44.575                                    22283898.615 6  91248736.36506      -713.501 6        40.927    22283898.988 6  91248859.37206      -713.421 6        40.870
E34         6.000    26136470.958 7 137348084.08907      1702.064 7        43.991                                                                    26136469.843 6 102565174.92506      1271.101 6        40.930    26136468.736 6 105240756.46106      1304.190 6        38.709
E04         7.000    24829534.017 6 130480162.19006     -2729.599 6        41.189                                                                    24829532.747 7  97436404.97107     -2038.330 7        43.092    24829532.605 6  99978224.32106     -2091.655 6        40.169
G03         8.000    20119264.049 7 105727443.83107     -1537.402 7        47.944                                    20119261.085 7  82385055.83407     -1197.977 7        46.574    20119262.561 7  82385045.84107     -1197.913 7        45.353
G09         9.000    22188901.166 5 116603415.02305      2209.892 5        33.970                                    22188900.060 4  90859830.82404      1721.983 4        26.563    22188898.120 5  90859837.88705      1722.104 5        35.943
G04        11.000    20595601.743 7 108230626.49007       782.909 7        43.772                                    20595602.402 2  84335499.04302       610.082 2        17.245    20595601.613 5  84335517.82305       609.980 5        31.245
E09        12.000    23616205.902 8 124104094.77208      -135.944 8        51.144                                                                    23616203.235 6  92675128.07306      -101.309 6        38.835    23616204.308 7  95092716.97007      -104.117 7        46.395
E10        13.000                                                                                                                                    27464867.315 4                     -2836.548 4        25.519    27464872.083 4                     -2910.630 4        28.825
E06        14.000    23559741.757 7 123807296.20607     -1462.899 7        43.873                                                                    23559740.548 7  92453498.99207     -1092.506 7        47.034    23559740.561 8  94865297.64608     -1120.984 8        48.725
E11        15.000    24976675.017 7 131253359.37407     -3160.213 7        43.403                                                                    24976671.664 7  98013831.90907     -2359.989 7        45.565    24976670.416 7 100570680.96707     -2421.508 7        44.661
G28        17.000    23707220.974 4                     -2637.097 4        26.192                                                                                                    23707262.229 5  97077318.14405     -2054.594 5        34.310
G06        19.000    23619638.676 7 124122130.12907      2421.156 7        42.167                                    23619637.238 5  96718437.51905      1886.617 5        35.495    23619636.627 6  96718510.53206      1886.604 6        39.444
E36        20.000    23476073.112 7 123367737.73907      -655.967 7        42.110                                                                    23476073.204 6  92125140.48406      -489.860 6        38.754    23476073.446 6  94528436.07506      -502.535 6        41.979
E05        21.000    24956704.360 5                      1937.562 5        32.144                                                                    24956700.257 4                      1446.932 4        29.270    24956711.006 6 100490333.85506      1484.427 6        36.798
G17        22.000    22785189.895 6 119736969.37206     -2495.590 6        37.792                                    22785189.830 4  93301602.88204     -1944.632 4        28.095    22785188.913 5  93301527.91405     -1944.761 5        32.958
R07        23.000    22605324.000 3                      2473.809 3        20.143                                                                    22605319.493 4  94117420.42204      1923.036 4        28.209
S23        24.000    38231346.804 6 200907027.87006      -824.823 6        41.144
S36        25.000    38283582.031 6 201181494.27106      -828.750 6        36.359
R20        27.000    21919109.043 5                     -4988.712 5        32.814                                                                    21919115.068 6  91164369.78406     -3880.153 6        39.682
R06        29.000    19672166.161 4 104974469.09804       170.625 4        28.464
C19        33.000                                                                                                                                    22722235.900 8 118320761.21408       694.165 8        48.354                                                                    22722232.134 7  96145191.49307       563.984 7        47.889
R21        34.000    19510221.713 8 104403249.59008     -1624.697 8        53.773                                                                    19510220.126 7  81202430.46707     -1263.671 7        44.420
R05        36.000    21194847.440 6 113298572.41806     -3913.884 6        38.372                                                                    21194852.633 5  88121354.95905     -3043.993 5        33.413
R22        37.000    21722445.683 7 115955875.22107      2533.777 7        42.639                                                                    21722447.375 7  90187942.00407      1970.744 7        46.172
C39        38.000                                                                                                                                    39118302.516 4                     -1341.191 4        27.353                                                                    39118328.905 4                     -1090.045 4        29.014
C06        41.000                                                                                                                                    38338032.461 6 199636195.80406      -804.656 6        40.865    38338024.076 5 154371335.68705      -622.265 5        34.295    38338024.870 6 162220726.12906      -653.641 6        36.348
C29        43.000                                                                                                                                    23476804.653 3                     -3578.575 3        21.167                                                                    23476813.822 6  99338122.93406     -2907.452 6        40.267
C16        45.000                                                                                                                                                                                                    38811000.478 5 156275772.16905      -706.312 5        31.955    38811002.619 4                      -742.303 4        28.275
C09        46.000                                                                                                                                    38699512.651 6 201518537.52106      -295.038 6        37.868    38699511.210 7 155826914.73807      -228.020 7        46.190    38699508.095 6 163750278.93506      -239.737 6        39.778
C32        47.000                                                                                                                                    26048418.547 3                     -3677.463 3        21.190
C44        48.000                                                                                                                                    25713756.156 4                      1849.605 4        29.488                                                                    25713760.544 5 108803323.27005      1502.805 5        35.210
C35        51.000                                                                                                                                    23071805.958 6 120140979.89306      -338.503 6        39.468                                                                    23071799.619 5  97624357.07105      -274.772 5        35.276
I09        54.000    37322678.696 6 146462203.44806      -796.370 6        39.781
C20        55.000                                                                                                                                    22199716.480 8 115599747.39108     -1922.306 8        50.502                                                                    22199711.360 7  93934342.56907     -1562.100 7        46.964
> 2025 01 01 02 00 30.0000000  0 38
G02         1.000    22624072.595 7 118890359.12707     -3666.426 7        43.147                                    22624066.315 3  92641784.14203     -2856.951 3        23.143
G21         3.000    24340347.779 5                     -4041.470 5        30.174
G31         4.000    22284778.408 7 117107175.63107      -919.442 7        45.234                                    22284771.511 6  91252310.61906      -716.448 6        40.660    22284772.083 6  91252433.63006      -716.535 6        40.062
E34         6.000    26134851.825 7 137339575.34707      1701.066 7        43.613                                                                    26134850.765 6 102558820.98906      1270.293 6        40.727    26134849.906 6 105234236.77806      1303.289 6        39.363
E04         7.000    24832131.775 6 130493813.27306     -2731.094 6        41.111                                                                    24832130.389 7  97446598.96807     -2039.492 7        43.137    24832130.816 6  99988684.25306     -2092.665 6        40.119
G03         8.000    20120727.491 8 105735135.41308     -1539.612 8        48.344                                    20120724.938 7  82391049.27307     -1199.695 7        47.555    20120726.391 7  82391039.28007     -1199.704 7        45.514
G09         9.000    22186801.578 6 116592369.12506      2208.018 6        37.119                                    22186796.752 4  90851223.62804      1720.528 4        25.940    22186793.492 5  90851230.73605      1720.449 5        32.192
G04        11.000    20594857.405 7 108226718.12107       780.142 7        44.656                                    20594860.318 3  84332453.56603       607.904 3        19.701    20594861.560 5  84332472.34105       607.648 5        30.045
E09        12.000    23616335.888 8 124104778.71808      -138.018 8        50.726                                                                    23616333.420 6  92675638.81906      -103.046 6        39.351    23616334.623 7  95093241.03607      -105.731 7        46.271
E10        13.000                                                                                                                                    27468481.773 4                     -2837.136 4        26.036    27468487.779 4                     -2911.178 4        28.844
E06        14.000    23561134.279 7 123814615.14907     -1464.985 7        43.575                                                                    23561133.228 7  92458964.43707     -1094.026 7        47.028    23561133.287 8  94870905.66608     -1122.451 8        48.789
E11        15.000    24979682.266 7 131269164.42107     -3161.958 7        43.755                                                                    24979679.495 7  98025634.35807     -2361.170 7        45.470    24979678.034 7 100582791.30407     -2422.786 7        44.185
G19        16.000    22362967.321 4                      -746.540 4        25.263
G28        17.000    23709734.473 4                     -2640.004 4        29.062                                                                                                    23709768.924 5  97087597.41505     -2057.211 5        34.019
G06        19.000    23617334.722 7 124110025.95007      2420.030 7        42.222                                    23617333.695 5  96709005.70005      1885.737 5        34.957    23617333.172 6  96709078.70206      1885.749 6        40.296
E36        20.000    23476697.964 7 123371022.17707      -658.206 7        42.796                                                                    23476697.954 6  92127593.15306      -491.420 6        39.396    23476698.546 7  94530952.73307      -504.215 7        42.679
E05        21.000    24954861.757 5                      1936.472 5        31.653                                                                    24954858.391 5                      1446.298 5        30.483    24954868.967 5 100482912.32205      1484.042 5        33.910
G17        22.000    22787565.220 5 119749453.24205     -2498.356 5        34.576                                    22787564.655 4  93311330.59004     -1946.777 4        25.474    22787561.017 5  93311255.59405     -1946.596 5        30.083
R07        23.000                                                                                                                                    22603012.166 4  94107806.06814      1922.050 4        27.102
S23        24.000    38232131.122 6 200911151.51406      -825.046 6        41.425
S36        25.000    38284372.619 6 201185638.26306      -828.812 6        36.620
R20        27.000    21923775.472 5                     -4990.598 5        33.305                                                                    21923781.131 6  91183774.07606     -3881.709 6        39.916
R06        29.000    19672010.751 4 104973623.83504       167.903 4        26.467
R14        30.000                                                                                                                                    23300985.579 3                     -1018.422 3        21.095
C19        33.000                                                                                                                                    22721569.670 8 118317293.54208       692.527 8        48.239                                                                    22721566.033 7  96142373.72107       562.908 7        47.880
R21        34.000    19511741.741 8 104411384.14508     -1629.359 8        53.548                                                                    19511739.614 7  81208757.32207     -1267.260 7        43.448
R05        36.000    21198509.470 6 113318144.56406     -3915.166 6        36.495                                                                    21198510.663 4  88136577.72004     -3045.295 4        27.162
R22        37.000    21720072.315 6 115943212.36006      2530.997 6        40.832                                                                    21720074.830 7  90178093.09807      1968.632 7        46.484
C39        38.000                                                                                                                                    39119597.051 4                     -1342.489 4        28.863                                                                    39119613.482 4                     -1090.856 4        29.592
C06        41.000                                                                                                                                    38338805.599 6 199640220.59506      -805.814 6        40.141    38338797.831 5 154374447.91005      -622.885 5        35.019    38338797.555 6 162223996.62806      -654.694 6        36.499
C29        43.000                                                                                                                                    23480247.655 5                     -3579.501 5        31.826                                                                    23480250.278 6  99352662.83106     -2908.666 6        39.979
C16        45.000                                                                                                                                    38811869.952 5 202103714.19805      -914.308 5        34.971    38811881.504 5 156279304.72605      -706.826 5        30.898    38811880.779 4                      -742.963 4        27.772
C09        46.000                                                                                                                                    38699797.179 6 201520013.60006      -295.856 6        37.248    38699794.614 7 155828056.11907      -228.782 7        45.856    38699791.664 6 163751478.34706      -240.198 6        39.934
C32        47.000                                                                                                                                    26051959.375 3                     -3679.558 3        22.076
C44        48.000                                                                                                                                    25711982.388 5                      1848.353 5        32.042                                                                    25711984.060 6 108795811.35506      1501.633 6        36.348
C35        51.000                                                                                                                                    23072133.396 6 120142678.05006      -341.393 6        38.616                                                                    23072126.159 5  97625736.98605      -277.224 5        34.900
I09        54.000    37323693.186 6 146466185.29606      -796.624 6        39.462
C20        55.000                                                                                                                                    22201562.997 8 115609361.92708     -1923.905 8        50.023                                                                    22201557.752 7  93942155.15507     -1563.199 7        47.197
> 2025 01 01 02 00 35.0000000  0 36
G02         1.000    22627562.255 7 118908693.90007     -3667.729 7        42.525                                    22627554.784 3  92656070.98203     -2857.968 3        22.781
G21         3.000    24344191.979 4                     -4042.010 4        29.479
G31         4.000    22285654.467 7 117111780.34907      -922.701 7        45.865                                    22285647.663 6  91255898.71506      -718.990 6        40.288    22285648.974 6  91256021.71606      -718.936 6        40.107
E34         6.000    26133233.145 7 137331070.33507      1700.572 7        43.319                                                                    26133231.975 6 102552469.82606      1270.064 6        40.691    26133231.497 6 105227719.94006      1303.017 6        39.766
E04         7.000    24834730.370 6 130507470.40906     -2732.176 6        39.811                                                                    24834729.377 7  97456797.46007     -2040.190 7        43.807    24834730.170 6  99999148.79706     -2093.242 6        40.088
G03         8.000    20122193.081 7 105742836.56107     -1541.168 7        47.886                                    20122190.651 8  82397050.16208     -1200.908 8        48.135    20122191.827 7  82397040.17007     -1200.923 7        46.197
G09         9.000    22184701.995 6 116581330.93806      2206.851 6        39.042                                    22184694.441 4  90842622.46004      1719.630 4        25.233    22184692.034 4  90842629.45104      1720.583 4        27.281
G04        11.000    20594115.557 7 108222822.30407       777.925 7        45.130                                    20594120.104 3  84329417.84103       606.162 3        19.433    20594118.957 5  84329436.57605       606.048 5        32.904
E09        12.000    23616467.898 8 124105472.09108      -139.625 8        50.719                                                                    23616465.328 6  92676156.61006      -104.198 6        40.205    23616466.717 7  95093772.32307      -106.918 7        46.176
E10        13.000                                                                                                                                    27472097.697 4                     -2837.241 4        24.962    27472102.487 4                     -2911.404 4        28.806
E06        14.000    23562528.585 7 123821942.98407     -1466.470 7        43.500                                                                    23562527.734 7  92464436.51007     -1095.063 7        47.469    23562527.847 8  94876520.50108     -1123.624 8        48.728
E11        15.000    24982691.545 7 131284976.12007     -3162.952 7        44.567                                                                    24982688.365 7  98037441.79007     -2361.964 7        45.776    24982686.942 7 100594906.75807     -2423.549 7        44.020
G28        17.000    23712251.554 5                     -2642.592 5        32.515                                                                                                    23712276.406 5  97097887.54205     -2059.060 5        33.162
G06        19.000    23615032.612 6 124097926.91606      2419.332 6        40.310                                    23615031.091 5  96699577.88005      1885.193 5        34.295    23615031.180 6  96699650.88506      1885.243 6        40.782
E36        20.000    23477324.930 7 123374316.38907      -659.844 7        43.194                                                                    23477324.890 6  92130053.10806      -492.608 6        40.377    23477325.184 7  94533476.86407      -505.562 7        43.712
E05        21.000    24953018.921 5                      1935.922 5        32.689                                                                    24953015.922 5                      1445.635 5        31.887    24953027.591 5 100475493.87605      1483.410 5        33.455
G17        22.000    22789941.614 5 119761948.87605     -2500.072 5        31.577                                    22789941.157 3  93321067.45203     -1948.106 3        22.609    22789938.401 4  93320992.52404     -1948.296 4        28.701
R07        23.000    22600730.919 5                      2470.470 5        30.928                                                                    22600707.628 4  94098196.53414      1921.238 4        26.790
S23        24.000    38232911.514 6 200915274.90806      -824.759 6        40.341
S36        25.000    38285151.835 5 201189781.56505      -828.573 5        35.605
R20        27.000    21928445.630 5 117261237.30715     -4992.334 5        34.386                                                                    21928449.044 6  91203185.39406     -3882.900 6        40.944
R06        29.000    19671857.865 4 104972791.70004       165.238 4        27.892
R14        30.000    23302221.504 3                     -1314.709 3        23.467                                                                    23302216.697 4                     -1024.170 4        26.012
C19        33.000                                                                                                                                    22720904.496 7 118313832.87607       691.444 7        47.738                                                                    22720901.344 7  96139561.66607       561.852 7        47.652
R21        34.000    19513266.011 8 104419541.11308     -1633.621 8        53.495                                                                    19513264.606 7  81215101.62207     -1270.630 7        43.520
R05        36.000    21202167.408 5 113337721.92205     -3916.069 5        34.833
R22        37.000    21717703.331 6 115930561.67406      2528.932 6        40.717                                                                    21717704.783 7  90168253.66407      1966.957 7        46.626
C39        38.000                                                                                                                                    39120892.887 4                     -1342.820 4        26.287                                                                    39120898.380 4                     -1091.231 4        29.403
C06        41.000                                                                                                                                    38339578.714 6 199644249.41506      -806.132 6        39.892    38339571.736 6 154377563.26706      -623.302 6        36.125    38339570.983 6 162227270.35206      -654.944 6        36.151
C29        43.000                                                                                                                                    23483687.191 6                     -3580.947 6        37.611                                                                    23483688.063 6  99367209.09206     -2909.741 6        39.408
C16        45.000                                                                                                                                    38812751.599 5 202108286.33005      -914.557 5        35.576    38812763.692 5 156282840.20505      -707.316 5        33.192    38812758.907 4                      -742.762 4        26.934
C09        46.000                                                                                                                                    38700081.554 6 201521493.49806      -296.422 6        36.246    38700078.353 7 155829200.48707      -229.131 7        45.210    38700075.513 6 163752680.89006      -240.672 6        39.967
C44        48.000                                                                                                                                    25710205.352 5                      1846.687 5        32.569                                                                    25710210.159 6 108788305.41106      1500.567 6        36.212
C35        51.000                                                                                                                                    23072463.381 5 120144390.11305      -343.969 5        33.299                                                                    23072455.006 5  97627128.11605      -279.380 5        34.243
I09        54.000    37324707.695 6 146470167.59906      -796.443 6        40.143
C20        55.000                                                                                                                                    22203411.027 8 115618983.36708     -1924.944 8        49.430                                                                    22203405.594 7  93949973.35607     -1564.073 7        47.547
> 2025 01 01 02 00 40.0000000  0 38
G02         1.000    22631051.593 6 118927036.34406     -3669.076 6        39.051                                    22631044.617 3  92670363.79003     -2859.013 3        21.833
G21         3.000    24348038.791 4                     -4042.388 4        29.754
G31         4.000    22286534.161 7 117116402.81707      -926.250 7        46.612                                    22286527.075 6  91259500.64506      -721.752 6        39.772    22286528.123 6  91259623.66006      -721.811 6        38.850
E34         6.000    26131615.338 7 137322569.03907      1699.856 7        42.188                                                                    26131614.716 6 102546121.44306      1269.534 6        41.251    26131614.409 6 105221205.94106      1302.490 6        40.269
E04         7.000    24837330.225 6 130521133.50906     -2733.083 6        38.820                                                                    24837329.495 7  97467000.43007     -2040.993 7        44.247    24837330.209 6 100009617.94006     -2094.432 6        38.778
G03         8.000    20123660.625 8 105750547.23408     -1543.057 8        48.528                                    20123658.215 8  82403058.47008     -1202.379 8        48.824    20123659.578 7  82403048.48007     -1202.392 7        46.750
G09         9.000    22182602.552 6 116570300.45206      2205.176 6        38.670                                    22182592.841 4  90834027.29204      1718.349 4        24.150    22182594.799 4  90834034.36604      1717.202 4        24.602
G04        11.000    20593376.167 7 108218938.98307       775.429 7        44.813                                    20593380.555 3  84326391.81003       604.245 3        19.881    20593375.400 5  84326410.56805       604.422 5        35.286
E09        12.000    23616601.693 8 124106174.85108      -141.507 8        50.699                                                                    23616599.056 6  92676681.42206      -105.739 6        41.135    23616600.517 7  95094310.81407      -108.349 7        46.189
E10        13.000                                                                                                                                    27475712.681 3                     -2838.041 3        22.419    27475717.110 5                     -2911.868 5        30.287
E06        14.000    23563924.646 7 123829279.67807     -1468.122 7        42.736                                                                    23563923.846 7  92469915.21007     -1096.409 7        47.779    23563923.984 8  94882142.13308     -1124.986 8        48.507
E11        15.000    24985701.841 7 131300794.50107     -3164.330 7        44.975                                                                    24985698.568 7  98049254.20607     -2362.993 7        45.919    24985697.294 7 100607027.33207     -2424.625 7        43.937
G19        16.000    22364366.930 5                      -754.145 5        34.157
G28        17.000    23714766.018 5 124621945.43215     -2645.523 5        34.424
C23        18.000                                                                                                                                    26209870.437 4                      -972.299 4        25.188
G06        19.000    23612730.398 6 124085833.04206      2418.125 6        39.520                                    23612729.230 5  96690154.08405      1884.257 5        32.820    23612728.266 6  96690227.07706      1884.430 6        39.823
E36        20.000    23477953.645 7 123377620.39307      -661.872 7        42.995                                                                    23477953.636 6  92132520.35906      -494.251 6        41.361    23477954.010 7  94536008.48007      -507.207 7        45.052
E05        21.000    24951176.652 5                      1935.164 5        31.517                                                                    24951174.807 5                      1445.180 5        32.521    24951187.871 5 100468078.44305      1482.696 5        34.067
G17        22.000    22792323.567 6 119774456.50206     -2502.758 6        37.214                                    22792320.749 3  93330813.69303     -1950.191 3        22.648    22792319.415 5  93330738.62605     -1950.154 5        30.355
R07        23.000    22598424.246 4                      2469.561 4        28.227                                                                    22598393.007 3                      1920.415 3        23.867
S23        24.000    38233699.016 6 200919397.98206      -824.557 6        39.078
S36        25.000    38285944.524 6 201193923.92906      -828.427 6        36.798
R20        27.000    21933114.640 5 117286203.85805     -4994.193 5        34.638                                                                    21933117.934 6  91222603.76706     -3884.274 6        40.646
R06        29.000    19671702.830 4 104971972.69404       162.185 4        27.557
R14        30.000    23303451.616 3                     -1322.490 3        20.976
C19        33.000                                                                                                                                    22720241.349 7 118310379.20507       690.014 7        47.452                                                                    22720237.812 7  96136755.25007       560.656 7        47.347
R21        34.000    19514793.974 8 104427720.48208     -1638.101 8        52.830                                                                    19514793.492 7  81221463.33507     -1274.036 7        43.738
R05        36.000    21205832.224 6 113357304.48816     -3917.131 6        37.917
R22        37.000    21715337.510 6 115917923.16706      2526.450 6        41.664                                                                    21715336.804 7  90158423.69407      1965.037 7        45.758
C39        38.000                                                                                                                                    39122186.523 4                     -1343.641 4        28.199                                                                    39122186.198 5                     -1091.847 5        30.513
C06        41.000                                                                                                                                    38340352.316 6 199648282.21006      -807.017 6        40.136    38340345.108 5 154380681.69305      -623.948 5        34.557    38340345.902 6 162230547.32606      -655.811 6        36.026
C29        43.000                                                                                                                                    23487128.767 6 122303622.92716     -3582.425 6        40.827                                                                    23487127.206 6  99381761.63406     -2911.166 6        39.877
C16        45.000                                                                                                                                    38813636.551 6 202112862.29306      -915.549 6        37.807    38813648.694 5 156286378.61505      -708.397 5        31.751    38813637.827 4                      -744.146 4        27.605
C09        46.000                                                                                                                                    38700366.011 6 201522977.21606      -297.189 6        37.459    38700363.182 7 155830347.78407      -229.732 7        44.682    38700360.823 6 163753886.52706      -241.455 6        40.048
C44        48.000                                                                                                                                    25708435.877 5                      1845.284 5        33.335                                                                    25708438.320 6 108780805.47206      1499.129 6        36.423
C35        51.000                                                                                                                                    23072789.125 4 120146116.04204      -346.537 4        24.030                                                                    23072786.855 5  97628530.43605      -281.620 5        34.310
I09        54.000    37325723.211 6 146474150.29806      -796.573 6        40.033
C20        55.000                                                                                                                                    22205260.378 8 115628611.68708     -1926.334 8        49.345                                                                    22205254.819 7  93957797.13607     -1565.406 7        47.890
> 2025 01 01 02 00 45.0000000  0 37
G02         1.000    22634542.798 5 118945387.00805     -3670.959 5        35.143                                    22634535.729 3  92684662.99403     -2860.471 3        21.000
G21         3.000    24351885.911 4                     -4043.229 4        28.910
G31         4.000    22287416.883 7 117121043.58607      -930.054 7        47.271                                    22287410.010 6  91263116.82506      -724.720 6        39.333    22287411.419 6  91263239.83606      -724.690 6        40.908
E34         6.000    26129998.303 6 137314072.03906      1698.973 6        40.145                                                                    26129998.534 7 102539776.28007      1268.659 7        42.451    26129997.550 6 105214695.26006      1301.682 6        41.356
E04         7.000    24839930.556 6 130534803.17106     -2734.854 6        39.141                                                                    24839930.370 7  97477208.27507     -2042.049 7        43.977    24839930.989 6 100020092.06506     -2095.316 6        38.526
G03         8.000    20125129.795 8 105758267.98508     -1545.169 8        49.095                                    20125127.707 8  82409074.63308     -1204.028 8        49.075    20125128.308 7  82409064.65607     -1204.063 7        46.632
G09         9.000    22180504.137 6 116559278.22806      2203.585 6        40.501                                    22180493.262 4  90825438.55104      1717.066 4        25.083
G04        11.000    20592639.645 7 108215068.72507       772.636 7        44.107                                    20592642.523 3  84323375.96403       602.064 3        21.762    20592635.705 6  84323394.82406       601.982 6        36.276
E09        12.000    23616737.494 8 124106887.56308      -143.605 8        50.766                                                                    23616735.214 7  92677213.63907      -107.228 7        42.889    23616736.321 7  95094856.91707      -110.065 7        46.620
E10        13.000                                                                                                                                    27479328.087 3                     -2838.574 3        21.214    27479334.125 4                     -2912.866 4        29.754
E06        14.000    23565322.450 6 123836625.78106     -1470.179 6        40.884                                                                    23565322.020 8  92475400.92908     -1097.873 8        48.095    23565321.589 8  94887770.95708     -1126.479 8        48.115
E11        15.000    24988713.536 7 131316620.06807     -3165.907 7        45.147                                                                    24988710.066 7  98061071.99107     -2364.175 7        45.055    24988708.837 7 100619153.41507     -2425.796 7        43.445
G19        16.000    22365091.563 6 117529318.17416      -757.452 6        37.051                                    22365078.927 3  91581258.55513      -590.216 3        18.269
G28        17.000    23717286.996 5 124635179.57105     -2648.350 5        34.243
G06        19.000    23610429.064 5 124073744.83805      2417.172 5        35.976                                    23610427.927 5  96680734.67805      1883.519 5        30.657    23610427.226 6  96680807.68106      1883.191 6        37.875
E36        20.000    23478584.146 7 123380934.66207      -663.951 7        43.517                                                                    23478584.672 6  92134995.28206      -495.852 6        41.604    23478584.875 7  94538547.96107      -508.718 7        45.809
E05        21.000    24949337.648 5                      1934.075 5        31.887                                                                    24949335.208 4                      1444.155 4        29.441    24949348.384 4 100460666.44404      1481.995 4        29.194
G17        22.000    22794708.476 6 119786976.27906     -2505.187 6        37.769                                    22794702.961 3  93340569.32003     -1952.066 3        22.038    22794700.706 4  93340494.26604     -1952.397 4        26.323
R07        23.000    22596122.219 4                      2467.462 4        28.720                                                                    22596094.150 4                      1919.306 4        28.834
S23        24.000    38234489.201 6 200923521.23906      -824.791 6        38.363
S36        25.000    38286741.210 6 201198067.19906      -828.882 6        36.851
R20        27.000    21937785.399 5 117311179.91605     -4996.148 5        34.210                                                                    21937787.570 6  91242029.57006     -3885.995 6        39.189
R06        29.000    19671547.816 4 104971167.22804       159.901 4        27.521
R14        30.000    23304658.270 6 124226954.31016     -1324.251 6        36.582                                                                    23304668.644 5                     -1029.872 5        31.109
C19        33.000                                                                                                                                    22719580.158 7 118306933.05807       688.440 7        47.288                                                                    22719575.728 7  96133954.97207       559.444 7        46.784
R21        34.000    19516326.744 8 104435922.72308     -1642.859 8        52.469                                                                    19516325.871 7  81227842.84307     -1277.727 7        43.270
R05        36.000    21209500.932 6 113376892.91106     -3918.338 6        38.426
R22        37.000    21712975.513 7 115905297.37207      2523.843 7        45.925                                                                    21712970.107 7  90148603.59907      1963.091 7        43.450
C39        38.000                                                                                                                                    39123481.237 4                     -1344.602 4        27.102                                                                    39123475.313 4                     -1092.811 4        28.635
C06        41.000                                                                                                                                    38341127.188 6 199652319.52906      -807.888 6        38.844    38341120.203 5 154383803.61505      -624.799 5        34.624    38341120.773 6 162233827.97806      -656.300 6        36.113
C29        43.000                                                                                                                                    23490570.662 7 122321540.24307     -3584.298 7        42.500                                                                    23490567.768 6  99396320.92706     -2912.460 6        38.817
C16        45.000                                                                                                                                    38814520.245 5 202117442.53805      -916.614 5        35.814    38814530.131 3 156289920.33903      -707.939 3        22.952    38814519.653 4                      -744.475 4        28.540
C09        46.000                                                                                                                                    38700652.375 5 201524465.30105      -298.078 5        35.781    38700649.342 7 155831498.47107      -230.516 7        44.972    38700646.764 6 163755095.72706      -242.057 6        39.790
C44        48.000                                                                                                                                    25706665.929 6 133861351.88916      1843.490 6        36.095                                                                    25706667.616 6 108773311.99106      1497.935 6        38.291
C35        51.000                                                                                                                                    23073124.282 3                      -349.436 3        22.438                                                                    23073120.849 5  97629944.46205      -284.195 5        35.100
I09        54.000    37326737.575 6 146478133.84506      -796.785 6        39.964
C20        55.000                                                                                                                                    22207111.224 8 115638247.37608     -1927.935 8        48.976                                                                    22207105.197 7  93965626.93207     -1566.529 7        47.663
> 2025 01 01 02 00 50.0000000  0 39
G02         1.000    22638036.985 5 118963745.74605     -3672.531 5        35.486                                    22638028.710 3  92698968.48903     -2861.731 3        19.910
G21         3.000    24355732.580 4                     -4042.921 4        24.511
G31         4.000    22288302.756 7 117125702.58207      -933.683 7        46.887                                    22288296.599 6  91266747.20906      -727.543 6        38.940    22288297.751 6  91266870.22606      -727.662 6        41.244
E34         6.000    26128382.354 6 137305579.27906      1698.027 6        41.080                                                                    26128382.121 7 102533434.26007      1268.216 7        42.337    26128381.807 7 105208187.81507      1301.151 7        42.106
E04         7.000    24842533.232 6 130548479.24906     -2735.884 6        39.042                                                                    24842532.481 7  97487420.96607     -2043.106 7        43.564    24842533.671 6 100030571.15006     -2096.299 6        37.849
G03         8.000    20126601.191 8 105765998.78308     -1547.237 8        49.334                                    20126599.090 8  82415098.64108     -1205.645 8        49.458    20126599.222 7  82415088.66007     -1205.555 7        46.261
G09         9.000    22178407.980 5 116548264.17305      2202.146 5        35.338                                    22178396.151 3  90816856.21903      1715.998 3        23.219    22178398.293 3                      1714.020 3        20.476
G04        11.000    20591905.737 7 108211211.50307       770.100 7        44.915                                    20591906.776 3  84320370.30503       600.087 3        23.410    20591902.189 6  84320389.20806       600.140 6        38.523
E09        12.000    23616874.922 8 124107610.17008      -145.594 8        51.010                                                                    23616873.957 7  92677753.28807      -108.774 7        43.570    23616873.885 7  95095410.60707      -111.505 7        46.210
E10        13.000                                                                                                                                                                                                    27482950.701 4                     -2913.125 4        28.313
E06        14.000    23566722.812 7 123843981.23707     -1472.067 7        44.074                                                                    23566721.401 8  92480893.62808     -1099.258 8        48.304    23566721.098 7  94893406.96607     -1127.967 7        47.580
E11        15.000    24991725.841 7 131332452.79907     -3167.439 7        44.492                                                                    24991722.426 7  98072895.12807     -2365.240 7        45.285    24991721.769 7 100631284.98007     -2426.940 7        43.255
G19        16.000    22365814.643 6 117533113.82806      -760.988 6        40.033                                    22365802.489 3  91584216.22603      -592.967 3        18.687
G28        17.000    23719807.854 5 124648428.19805     -2650.995 5        35.867
C23        18.000                                                                                                                                    26211773.443 3                      -978.029 3        20.881
G06        19.000    23608129.363 5 124061662.26305      2415.883 5        33.485                                    23608127.809 5  96671319.67805      1882.511 5        30.083    23608128.647 6  96671392.69606      1882.511 6        37.516
E36        20.000    23479216.838 7 123384259.19007      -665.966 7        44.593                                                                    23479217.196 7  92137477.86907      -497.221 7        42.504    23479217.282 7  94541095.32107      -510.279 7        45.529
E05        21.000    24947503.192 4                      1933.159 4        29.422                                                                    24947502.983 5                      1443.803 5        32.611    24947508.212 4 100453257.97704      1481.330 4        26.826
G17        22.000    22797093.309 6 119799508.41306     -2507.704 6        36.034                                    22797085.705 3  93350334.55903     -1954.026 3        22.038    22797086.544 5  93350259.55305     -1953.946 5        31.494
R07        23.000    22593816.364 3                      2466.219 3        19.582                                                                    22593798.169 5                      1918.315 5        30.641
S23        24.000    38235253.226 6 200927644.46306      -824.615 6        37.263
S36        25.000    38287528.448 6 201202210.66806      -828.738 6        39.351
R20        27.000    21942457.741 5 117336165.54805     -4998.025 5        34.514                                                                    21942457.914 5  91261462.82705     -3887.216 5        34.933
R06        29.000    19671401.745 5 104970375.37705       157.383 5        30.883
R14        30.000    23305899.002 5 124233585.69315     -1328.693 5        31.109                                                                    23305912.373 5                     -1033.359 5        31.147
C19        33.000                                                                                                                                    22718918.615 7 118303494.36607       686.889 7        47.280                                                                    22718915.733 7  96131160.76507       558.210 7        47.057
R21        34.000    19517864.431 8 104444147.85608     -1647.388 8        52.708                                                                    19517862.407 7  81234240.17707     -1281.367 7        42.870
R05        36.000    21213167.940 5 113396487.08305     -3919.296 5        34.557                                                                    21213193.411 4                     -3048.690 4        29.829
R22        37.000    21710614.519 7 115892684.24507      2521.419 7        46.854                                                                    21710605.883 6  90138793.40606      1961.079 6        40.398
C39        38.000                                                                                                                                    39124769.440 5                     -1345.163 5        33.814
C06        41.000                                                                                                                                    38341903.340 6 199656361.31406      -808.817 6        37.467    38341897.827 5 154386928.98105      -625.372 5        35.767    38341897.707 6 162237112.28506      -657.300 6        36.597
C29        43.000                                                                                                                                    23494014.133 7 122339465.79407     -3585.947 7        44.014                                                                    23494010.569 6  99410886.93506     -2913.997 6        39.877
C16        45.000                                                                                                                                                                                                                                                                    38815404.167 4                      -745.346 4        28.142
C09        46.000                                                                                                                                    38700938.903 5 201525957.68005      -298.976 5        35.071    38700936.364 7 155832652.50207      -231.170 7        45.771    38700932.938 6 163756308.44106      -242.896 6        40.069
C32        47.000                                                                                                                                    26066100.903 3                     -3678.940 3        20.905
C44        48.000                                                                                                                                    25704896.418 6 133852137.96706      1841.721 6        37.781                                                                    25704897.059 6 108765824.95606      1496.657 6        37.006
C35        51.000                                                                                                                                                                                                                                                                    23073455.303 5  97631369.99405      -286.561 5        30.189
I09        54.000    37327752.891 6 146482118.15606      -796.830 6        39.459
C20        55.000                                                                                                                                    22208962.649 8 115647890.45408     -1929.443 8        49.598                                                                    22208956.992 7  93973462.71207     -1567.834 7        47.407
> 2025 01 01 02 00 55.0000000  0 37
G02         1.000    22641534.461 6 118982112.44606     -3674.391 6        36.922                                    22641523.637 3  92713280.17703     -2863.151 3        19.104
G21         3.000    24359579.369 4                     -4045.210 4        24.301
G31         4.000    22289192.296 6 117130379.51206      -937.417 6        41.900                                    22289186.702 6  91270391.59106      -730.459 6        38.453    22289186.908 6  91270514.61306      -730.660 6        41.037
E34         6.000    26126766.532 6 137297090.39206      1697.025 6        40.980                                                                    26126765.937 7 102527095.18807      1267.235 7        42.863    26126766.698 7 105201683.34207      1300.365 7        42.313
E04         7.000    24845135.012 6 130562161.52006     -2737.591 6        39.643                                                                    24845136.493 7  97497638.23307     -2044.246 7        44.120    24845138.140 6 100041054.99306     -2097.499 6        41.106
G03         8.000    20128073.349 7 105773739.28307     -1549.387 7        47.819                                    20128072.136 7  82421130.19907     -1207.312 7        47.980    20128071.386 7  82421120.20107     -1207.406 7        45.261
G09         9.000    22176311.254 5                      2200.238 5        35.814                                    22176299.475 3                      1714.325 3        20.738    22176302.354 3                      1713.917 3        21.881
G04        11.000    20591173.843 7 108207366.96107       767.280 7        43.005                                    20591174.404 3  84317374.56503       597.845 3        23.619    20591172.798 6  84317393.53506       597.839 6        39.943
E09        12.000    23617014.477 8 124108342.34108      -147.785 8        51.129                                                                    23617013.846 7  92678299.99807      -110.395 7        44.786    23617013.351 7  95095971.61707      -113.215 7        45.914
E10        13.000                                                                                                                                                                                                    27486571.280 4                     -2913.731 4        28.872
E06        14.000    23568124.413 7 123851345.69807     -1474.062 7        44.561                                                                    23568122.760 8  92486393.06108     -1100.842 8        48.156    23568123.396 8  94899049.88308     -1129.625 8        48.148
E11        15.000    24994739.398 7 131348292.34107     -3168.973 7        44.339                                                                    24994737.028 7  98084723.34507     -2366.414 7        45.868    24994736.442 7 100643421.77107     -2428.082 7        43.803
G19        16.000    22366539.256 6 117536927.15606      -764.754 6        40.720                                    22366529.799 3  91587187.69803      -595.884 3        21.024
G28        17.000    23722329.347 5 124661690.93105     -2654.584 5        31.034                                                                                                    23722337.972 4                     -2068.123 4        24.632
G06        19.000    23605832.366 5 124049585.13905      2414.585 5        35.581                                    23605829.029 5  96661908.95805      1881.521 5        30.008    23605830.789 6  96661981.88906      1881.540 6        37.955
E36        20.000    23479851.520 7 123387593.65507      -668.206 7        45.022                                                                    23479851.659 7  92139967.83207      -498.983 7        43.100    23479852.222 7  94543650.26707      -512.033 7        46.781
E05        21.000                                                                                                                                    24945655.993 5  97892136.72615      1442.828 5        35.024
G17        22.000    22799479.957 6 119812052.41606     -2510.309 6        39.643                                    22799471.732 3  93360109.07903     -1956.081 3        22.210    22799476.241 5  93360034.10105     -1956.203 5        33.820
R07        23.000    22591513.854 5                      2464.539 5        30.030                                                                    22591501.302 5                      1917.124 5        31.743
S23        24.000    38236048.464 6 200931767.48106      -825.107 6        40.081
S36        25.000    38288323.919 6 201206354.57806      -829.168 6        36.416
R20        27.000    21947130.296 5 117361160.24505     -5000.053 5        32.084                                                                    21947132.539 5  91280903.19805     -3889.115 5        34.738
R06        29.000    19671258.298 4 104969596.86704       153.907 4        29.194
R14        30.000    23307147.195 4 124240237.66714     -1333.528 4        28.720                                                                    23307160.469 3                     -1036.803 3        23.657
C19        33.000                                                                                                                                    22718259.225 7 118300062.79007       685.186 7        45.779                                                                    22718256.318 7  96128372.35307       556.871 7        46.537
R21        34.000    19519405.649 8 104452395.60908     -1652.178 8        52.854                                                                    19519403.939 7  81240655.06107     -1285.008 7        42.969
R05        36.000    21216826.959 6                     -3920.764 6        37.826
R22        37.000    21708252.359 7 115880083.60407      2518.408 7        46.065                                                                    21708246.778 7  90128992.85707      1958.889 7        42.021
C39        38.000                                                                                                                                    39126061.349 5                     -1346.502 5        33.000                                                                    39126045.660 5                     -1093.599 5        31.328
C06        41.000                                                                                                                                    38342679.953 6 199660407.30406      -810.009 6        37.924    38342675.055 6 154390057.57606      -626.218 6        37.652    38342675.522 6 162240399.92606      -657.911 6        36.877
C29        43.000                                                                                                                                    23497455.054 7 122357399.26707     -3587.914 7        42.061                                                                    23497456.295 6  99425459.33606     -2915.491 6        40.777
C16        45.000                                                                                                                                    38816269.471 5 202126615.72505      -918.684 5        32.964    38816280.145 4                      -710.384 4        28.076    38816281.692 4                      -746.720 4        27.784
C09        46.000                                                                                                                                    38701227.481 6 201527454.09406      -300.031 6        36.442    38701223.913 7 155833809.65207      -232.084 7        44.712    38701221.636 6 163757524.39006      -243.805 6        40.603
C44        48.000                                                                                                                                    25703132.502 6 133842931.60506      1840.029 6        40.625                                                                    25703128.353 6 108758344.04406      1495.168 6        36.386
C35        51.000                                                                                                                                    23073836.272 4                      -355.167 4        29.318                                                                    23073795.120 5  97632806.87205      -288.978 5        35.081
I09        54.000    37328767.938 6 146486103.03806      -797.335 6        38.102
C20        55.000                                                                                                                                    22210816.216 8 115657540.47608     -1931.024 8        50.312                                                                    22210809.936 7  93981304.17607     -1569.142 7        47.276
> 2025 01 01 02 01  0.0000000  0 37
G02         1.000    22645028.955 6 119000487.50206     -3676.357 6        38.204                                    22645020.079 2  92727598.41802     -2864.654 2        17.472
G21         3.000    24363427.867 4                     -4044.771 4        25.218
G31         4.000    22290084.204 6 117135074.92306      -941.533 6        41.421                                    22290080.231 6  91274050.33306      -733.668 6        37.025    22290080.181 6  91274173.34406      -733.536 6        40.901
E34         6.000    26125152.654 6 137288605.98706      1696.044 6        41.921                                                                    26125152.756 7 102520759.43807      1266.502 7        42.895    26125151.231 7 105195182.30507      1299.563 7        42.516
E04         7.000    24847741.702 6 130575850.38706     -2739.170 6        36.019                                                                    24847741.324 7  97507860.46507     -2045.165 7        44.521    24847741.965 6 100051543.88906     -2098.611 6        39.868
G03         8.000    20129548.281 8 105781489.99208     -1551.527 8        48.435                                    20129547.159 8  82427169.71908     -1208.976 8        48.141    20129546.636 7  82427159.72107     -1209.088 7        45.386
G09         9.000    22174219.463 5 116526304.12015      2198.491 5        33.102                                    22174207.019 3  90799669.25313      1713.117 3        20.405    22174211.562 4                      1714.194 4        26.240
G04        11.000    20590444.240 7 108203535.63107       764.443 7        42.038                                    20590444.940 4  84314389.13404       595.665 4        24.541    20590444.043 6  84314408.07306       595.758 6        41.781
E09        12.000    23617155.467 8 124109084.59108      -149.906 8        51.007                                                                    23617154.379 7  92678854.30007      -111.919 7        44.093    23617154.198 7  95096540.37007      -114.891 7        46.134
E10        13.000                                                                                                                                                                                                    27490184.959 4                     -2914.043 4        26.695
E06        14.000    23569527.418 7 123858719.69107     -1476.214 7        44.670                                                                    23569526.270 8  92491899.61708     -1102.356 8        48.726    23569526.182 8  94904700.10608     -1131.094 8        48.500
E11        15.000    24997755.325 7 131364139.18707     -3170.431 7        42.777                                                                    24997752.273 7  98096557.03707     -2367.566 7        46.228    24997751.219 7 100655564.15007     -2429.397 7        43.619
G19        16.000    22367269.431 7 117540758.68407      -768.550 7        42.999                                    22367260.069 3  91590173.29803      -598.874 3        21.095
C23        18.000                                                                                                                                    26213645.246 4                      -982.967 4        29.109
G06        19.000    23603533.594 5 124037513.69205      2413.170 5        31.713                                    23603531.759 5  96652502.57705      1880.336 5        30.438    23603534.267 6  96652575.62806      1880.444 6        39.658
E36        20.000    23480488.472 7 123390938.53707      -670.581 7        46.230                                                                    23480488.832 7  92142465.68307      -500.640 7        42.821    23480488.949 7  94546213.27307      -513.822 7        46.778
E05        21.000    24943818.070 5                      1931.641 5        32.569                                                                    24943817.327 5  97884923.15305      1442.181 5        35.852    24943825.178 4                      1480.022 4        24.722
G17        22.000    22801870.673 7 119824608.90107     -2513.087 7        42.267                                    22801861.398 4  93369893.34204     -1958.250 4        27.341    22801864.595 5  93369818.32805     -1957.810 5        33.527
R07        23.000                                                                                                                                    22589192.804 5                      1914.554 5        34.062
S23        24.000    38236834.102 7 200935890.75007      -825.105 7        42.421
S36        25.000    38289117.015 6 201210498.38806      -829.227 6        39.796
R20        27.000    21951806.922 5 117386164.53405     -5002.126 5        30.340                                                                    21951809.396 5  91300350.95505     -3890.435 5        33.964
R06        29.000    19671115.189 5 104968832.02305       151.247 5        30.030
R14        30.000                                                                                                                                    23308413.034 3                     -1041.426 3        20.524
C19        33.000                                                                                                                                    22717602.417 8 118296638.88608       683.576 8        48.371                                                                    22717598.002 7  96125590.14507       555.573 7        46.153
R21        34.000    19520951.405 8 104460666.38208     -1656.925 8        52.276                                                                    19520949.593 7  81247087.88007     -1288.718 7        43.082
R05        36.000    21220499.051 4                     -3921.830 4        29.071
R22        37.000    21705890.981 7 115867495.82107      2515.868 7        46.597                                                                    21705888.044 6  90119202.44506      1956.561 6        39.135
C39        38.000                                                                                                                                    39127355.033 5 203746400.83215     -1347.308 5        32.144                                                                    39127340.852 5                     -1094.395 5        32.425
C06        41.000                                                                                                                                    38343460.088 6 199664457.95406      -811.016 6        40.150    38343453.019 5 154393189.79405      -627.091 5        32.647    38343452.492 6 162243691.39106      -658.828 6        36.495
C29        43.000                                                                                                                                    23500899.536 6 122375341.19106     -3589.606 6        41.101                                                                    23500902.197 6  99440038.59506     -2916.652 6        38.024
C16        45.000                                                                                                                                    38817148.934 5 202131208.65505      -919.266 5        34.314                                                                    38817159.713 4                      -746.505 4        28.294
C09        46.000                                                                                                                                    38701517.623 6 201528955.06806      -301.192 6        37.543    38701511.923 7 155834970.25707      -232.759 7        44.087    38701508.882 6 163758744.01406      -244.529 6        39.489
C44        48.000                                                                                                                                    25701371.170 6 133833733.32806      1838.331 6        40.255                                                                    25701361.302 5 108750869.66205      1494.078 5        34.329
C35        51.000                                                                                                                                    23074177.742 5                      -358.452 5        32.347                                                                    23074140.797 6  97634255.59606      -291.372 6        37.077
I09        54.000    37329782.867 6 146490088.80606      -797.553 6        40.098
C20        55.000                                                                                                                                    22212670.837 8 115667198.09608     -1932.757 8        50.742                                                                    22212664.411 7  93989151.74207     -1570.329 7        47.201
> 2025 01 01 02 01  5.0000000  0 39
G02         1.000    22648527.162 6 119018871.48906     -3676.822 6        38.601                                    22648518.448 2  92741923.55302     -2865.028 2        17.057
G21         3.000    24367280.447 3                     -4046.569 3        21.048
G31         4.000    22290983.453 6 117139789.46406      -944.211 6        41.754                                    22290977.345 6  91277723.99606      -735.746 6        36.488    22290977.339 6  91277846.99806      -735.708 6        40.708
E34         6.000    26123538.553 6 137280126.76606      1695.822 6        40.996                                                                    26123539.582 7 102514427.52107      1266.436 7        42.643    26123539.267 7 105188685.25207      1299.360 7        43.591
E04         7.000    24850347.308 6 130589546.73706     -2739.475 6        36.272                                                                    24850348.675 7  97518088.23907     -2045.720 7        45.062    24850346.015 5 100062038.43305     -2099.014 5        34.824
G03         8.000    20131025.333 8 105789251.66608     -1552.787 8        48.045                                    20131024.172 8  82433217.77308     -1209.958 8        48.216    20131023.398 7  82433207.78307     -1209.997 7        45.180
G09         9.000    22172128.337 6 116515315.62506      2197.299 6        36.646                                    22172116.741 3  90791106.79603      1712.206 3        22.362    22172123.091 4                      1712.524 4        24.647
G04        11.000    20589718.057 7 108199718.26507       762.732 7        43.991                                    20589718.010 4  84311414.56504       594.342 4        25.940    20589715.154 6  84311433.49006       594.270 6        39.880
E09        12.000    23617298.112 8 124109837.63808      -151.136 8        50.287                                                                    23617297.112 7  92679416.66007      -112.818 7        45.828    23617297.033 7  95097117.41607      -115.779 7        45.643
E10        13.000                                                                                                                                    27493799.201 3                     -2840.417 3        21.500    27493804.076 4                     -2914.725 4        29.194
E06        14.000    23570931.827 7 123866103.99807     -1477.268 7        43.503                                                                    23570931.690 8  92497413.88308     -1103.220 8        49.361    23570931.048 7  94910358.23007     -1131.941 7        47.736
E11        15.000    25000772.496 6 131379994.10806     -3171.195 6        39.366                                                                    25000769.483 7  98108396.76607     -2368.103 7        45.994    25000768.298 7 100667712.74107     -2429.798 7        43.409
G19        16.000    22368002.892 6 117544609.08106      -771.417 6        38.838                                    22367993.942 3  91593173.61303      -601.077 3        22.057
G28        17.000                                                                                                                                                                    23727390.637 4                     -2072.690 4        26.515
C23        18.000                                                                                                                                    26214593.959 5                      -985.747 5        32.042
G06        19.000    23601238.592 5 124025448.98005      2412.762 5        35.210                                    23601235.854 4  96643101.55104      1880.064 4        29.318    23601237.327 6  96643174.57206      1880.047 6        37.490
E36        20.000    23481127.244 7 123394294.63907      -671.775 7        46.002                                                                    23481127.915 7  92144971.88607      -501.651 7        43.617    23481127.331 7  94548784.83807      -514.789 7        47.219
E05        21.000    24941979.307 4                      1930.446 4        28.569                                                                    24941980.512 6  97877713.54106      1442.179 6        37.161    24941988.575 4                      1479.044 4        29.782
G17        22.000    22804261.300 7 119837178.56607     -2514.519 7        42.227                                    22804252.782 4  93379687.85204     -1959.349 4        27.521    22804256.318 5  93379612.88605     -1959.351 5        35.819
R07        23.000    22586916.224 6 120909519.46316      2462.759 6        37.822                                                                    22586891.186 4  94040646.58514      1915.140 4        25.744
S23        24.000    38237617.145 6 200940015.18906      -824.413 6        41.950
S36        25.000    38289899.696 6 201214643.17106      -828.401 6        38.345
R20        27.000    21956484.805 5 117411179.17805     -5003.548 5        30.498                                                                    21956486.874 6  91319806.72206     -3891.521 6        37.588
R06        29.000    19670973.433 4 104968081.71704       149.461 4        27.653
R14        30.000    23309665.969 4                     -1341.313 4        25.519
C19        33.000                                                                                                                                    22716947.599 7 118293223.39707       682.867 7        47.842                                                                    22716942.903 7  96122814.78507       554.758 7        46.656
R21        34.000    19522500.795 8 104468961.08408     -1660.719 8        51.975                                                                    19522500.297 7  81253539.31707     -1291.659 7        43.994
R05        36.000    21224163.874 5 113455347.19415     -3922.305 5        30.038
R22        37.000    21703535.653 7 115854921.76907      2514.051 7        47.901                                                                    21703532.944 6  90109422.63406      1955.317 6        36.125
C39        38.000                                                                                                                                                                                                                                                                    39128632.883 5                     -1095.233 5        31.464
C06        41.000                                                                                                                                    38344239.775 6 199668513.97506      -811.020 6        37.312    38344231.673 5 154396326.15105      -627.300 5        35.271    38344231.626 6 162246987.24006      -659.169 6        37.036
C29        43.000                                                                                                                                    23504346.477 6 122393292.20506     -3590.515 6        40.865                                                                    23504349.991 5  99454625.23505     -2917.855 5        31.826
C16        45.000                                                                                                                                    38818037.578 5 202135807.04805      -920.236 5        32.251                                                                    38818042.138 5                      -747.796 5        31.374
C09        46.000                                                                                                                                    38701802.154 6 201530461.25206      -301.280 6        36.113    38701801.044 7 155836134.90207      -232.774 7        43.498    38701798.169 6 163759967.88306      -244.921 6        40.212
C32        47.000                                                                                                                                    26076682.752 3                     -3680.027 3        20.476
C44        48.000                                                                                                                                    25699611.719 6 133824543.85706      1837.454 6        40.832                                                                    25699594.678 5 108743402.42605      1493.132 5        34.390
C35        51.000                                                                                                                                    23074523.553 6 120155129.89616      -360.687 6        36.098                                                                    23074485.513 6  97635716.58406      -293.197 6        37.225
I09        54.000    37330800.589 6 146494076.09506      -797.270 6        37.871
C20        55.000                                                                                                                                    22214526.867 8 115676863.97408     -1933.401 8        50.371                                                                    22214521.132 7  93997006.07107     -1571.171 7        47.335
> 2025 01 01 02 01 10.0000000  0 38
G02         1.000    22652028.203 6 119037263.35606     -3679.270 6        37.913                                    22652018.231 2  92756254.82302     -2866.978 2        16.528
G21         3.000    24371134.739 4                     -4047.348 4        24.902
G31         4.000    22291884.508 7 117144521.92407      -948.273 7        42.011                                    22291877.662 5  91281411.62205      -738.927 5        35.452    22291877.264 6  91281534.65706      -738.985 6        38.336
E34         6.000    26121926.432 6 137271651.45006      1694.661 6        41.354                                                                    26121925.040 7 102508098.58307      1265.422 7        42.027    26121926.440 7 105182191.18807      1298.500 7        43.839
E04         7.000    24852955.434 5 130603249.18005     -2741.171 5        34.700                                                                    24852955.855 7  97528320.58307     -2046.906 7        44.950    24852953.838 5 100072537.66605     -2100.230 5        34.533
G03         8.000    20132504.025 7 105797023.08107     -1555.235 7        46.797                                    20132503.040 7  82439273.41607     -1211.872 7        47.952    20132502.503 7  82439263.43707     -1211.890 7        46.053
G09         9.000    22170038.154 6 116504334.84706      2195.453 6        40.646                                    22170029.343 4  90782550.41804      1710.745 4        24.241    22170038.868 5                      1710.766 5        32.299
G04        11.000    20588993.460 7 108195913.66307       759.709 7        43.689                                    20588993.317 4  84308449.90604       591.980 4        26.611    20588991.094 6  84308468.83706       591.899 6        39.640
E09        12.000    23617443.339 8 124110600.28708      -153.436 8        50.422                                                                    23617442.898 7  92679986.16907      -114.589 7        45.883    23617442.356 7  95097701.78307      -117.674 7        45.108
E10        13.000                                                                                                                                                                                                    27497425.621 4                     -2915.500 4        29.697
E06        14.000    23572338.403 6 123873497.30606     -1479.521 6        41.721                                                                    23572338.540 8  92502934.86208     -1104.795 8        49.085    23572338.503 8  94916023.20508     -1133.690 8        48.322
E11        15.000    25003790.997 6 131395855.88906     -3172.927 6        41.144                                                                    25003788.347 7  98120241.59207     -2369.415 7        46.289    25003786.932 7 100679866.56707     -2431.236 7        43.738
G19        16.000    22368737.699 7 117548477.15407      -775.385 7        42.845                                    22368730.656 3  91596187.65103      -604.197 3        20.952
G28        17.000                                                                                                                                                                    23729921.155 3                     -2073.742 3        23.714
C23        18.000                                                                                                                                    26215537.981 4                      -988.770 4        29.972
G06        19.000    23598944.256 5 124013389.56305      2411.141 5        33.377                                    23598940.789 5  96633704.61505      1878.806 5        30.068    23598942.770 6  96633777.63206      1878.988 6        36.068
E36        20.000    23481767.275 7 123397660.75007      -674.200 7        46.776                                                                    23481767.820 7  92147485.49907      -503.397 7        44.212    23481767.422 7  94551364.04107      -516.547 7        47.150
E05        21.000    24940143.907 4                      1929.387 4        26.204                                                                    24940142.145 5  97870507.08905      1441.143 5        34.981    24940150.814 5 100423661.55015      1477.995 5        31.132
G17        22.000    22806654.294 7 119849760.15807     -2517.547 7        42.349                                    22806647.206 4  93389491.66504     -1961.731 4        26.359
R07        23.000    22584609.224 5 120897211.91605      2460.970 5        34.686                                                                    22584587.658 5  94031074.07905      1914.283 5        32.305
S23        24.000    38238400.408 7 200944139.60507      -824.930 7        42.709
S36        25.000    38290683.563 6 201218787.58606      -828.827 6        37.713
R20        27.000    21961163.634 5 117436202.88305     -5005.661 5        32.012                                                                    21961166.114 6  91339269.63406     -3893.284 6        39.075
R06        29.000    19670835.894 4 104967344.63404       146.494 4        27.940
R14        30.000                                                                                                                                    23310942.304 4                     -1046.293 4        25.714
C19        33.000                                                                                                                                    22716293.262 8 118289815.08708       680.947 8        48.170                                                                    22716287.496 7  96120045.28407       553.391 7        44.950
R21        34.000    19524055.542 8 104477278.28508     -1665.657 8        51.646                                                                    19524054.534 7  81260008.26607     -1295.608 7        43.920
R05        36.000    21227834.976 5                     -3923.968 5        34.724
R22        37.000    21701184.600 8 115842360.15808      2511.157 8        48.292                                                                    21701182.159 7  90099652.55207      1953.135 7        42.112
C39        38.000                                                                                                                                    39129944.837 5                     -1348.392 5        35.948                                                                    39129928.084 5                     -1095.916 5        32.204
C06        41.000                                                                                                                                    38345017.856 6 199672574.13506      -812.483 6        37.754    38345011.242 6 154399465.78006      -628.195 6        39.991    38345010.436 6 162250286.52606      -660.116 6        36.159
C29        43.000                                                                                                                                    23507798.174 7 122411251.12607     -3592.625 7        43.710                                                                    23507797.667 5  99469218.34805     -2919.227 5        35.348
C16        45.000                                                                                                                                    38818923.128 6 202140409.17306      -920.964 6        38.504    38818944.168 3                      -712.082 3        22.800    38818925.722 4                      -748.289 4        28.493
C09        46.000                                                                                                                                    38702092.677 6 201531971.38206      -302.595 6        37.493    38702091.386 7 155837302.65507      -233.783 7        43.473    38702088.207 6 163761195.05106      -245.672 6        40.067
C44        48.000                                                                                                                                    25697846.380 6 133815361.95306      1835.489 6        38.952                                                                    25697832.048 6 108735941.47106      1491.674 6        36.473
C35        51.000                                                                                                                                    23074866.953 5 120156941.87805      -363.659 5        35.838                                                                    23074831.819 6  97637189.03606      -295.731 6        36.836
I09        54.000    37331816.375 6 146498063.91406      -797.568 6        38.787
C20        55.000                                                                                                                                    22216383.914 8 115686536.85908     -1935.274 8        49.409                                                                    22216379.052 7  94004866.10607     -1572.548 7        47.857
> 2025 01 01 02 01 15.0000000  0 38
G02         1.000    22655527.485 6 119055662.54806     -3680.726 6        39.838                                    22655519.815 2  92770591.83402     -2868.087 2        16.943
G21         3.000    24374979.807 3                     -4047.177 3        23.600
G31         4.000    22292787.974 6 117149271.90206      -951.916 6        39.952                                    22292781.171 5  91285112.90105      -741.762 5        34.705    22292782.209 6  91285235.93206      -741.752 6        37.206
E34         6.000    26120315.038 6 137263179.67806      1693.825 6        41.919                                                                    26120313.149 6 102501772.28006      1264.804 6        41.492    26120313.972 7 105175699.84107      1297.930 7        44.251
E04         7.000    24855562.324 5 130616957.38505     -2742.532 5        32.593                                                                    24855564.210 7  97538557.18607     -2047.932 7        45.722    24855556.113 4 100083041.21204     -2101.430 4        29.991
G03         8.000    20133984.654 7 105804803.75407     -1557.199 7        47.175                                    20133983.670 8  82445336.28908     -1213.402 8        48.275    20133983.524 7  82445326.29307     -1213.386 7        46.552
G09         9.000    22167951.930 6 116493361.63106      2193.753 6        39.520                                    22167943.295 4  90773999.85304      1709.400 4        26.754    22167950.124 5  90774039.86315      1709.728 5        35.157
G04        11.000    20588271.999 7 108192121.32807       757.095 7        42.603                                    20588270.913 4  84305494.80104       589.952 4        26.707    20588269.759 6  84305513.74606       589.888 6        41.383
E09        12.000    23617590.617 8 124111372.06408      -155.395 8        50.899                                                                    23617589.670 7  92680562.50107      -116.043 7        46.516    23617588.571 7  95098293.14007      -119.031 7        45.397
E10        13.000                                                                                                                                                                                                    27501040.722 4                     -2915.707 4        28.332
E06        14.000    23573746.945 6 123880899.16506     -1481.383 6        40.341                                                                    23573747.208 8  92508462.24208     -1106.201 8        48.939    23573746.866 8  94921694.78308     -1135.129 8        49.340
E11        15.000    25006810.675 6 131411724.01406     -3174.371 6        40.198                                                                    25006807.923 7  98132091.17407     -2370.530 7        46.213    25006806.433 7 100692025.23707     -2432.220 7        43.767
G19        16.000    22369477.512 6 117552362.38206      -779.017 6        40.758                                    22369470.320 3  91599215.09803      -606.987 3        20.905
G28        17.000    23732493.905 5                     -2665.767 5        30.143                                                                                                    23732466.438 4                     -2077.018 4        28.227
C23        18.000                                                                                                                                    26216480.121 4                      -991.290 4        29.763
G06        19.000    23596650.958 6 124001335.17206      2410.050 6        36.189                                    23596646.874 4  96624311.57304      1877.942 4        29.526    23596649.552 5  96624384.57705      1878.321 5        33.838
E36        20.000    23482410.084 7 123401036.31407      -676.216 7        46.292                                                                    23482409.868 7  92150006.23407      -505.026 7        45.413    23482409.861 7  94553950.53607      -518.105 7        46.845
E05        21.000    24938309.089 4                      1928.880 4        27.329                                                                    24938305.166 5  97863303.38105      1440.771 5        33.653    24938315.480 5 100416269.75205      1478.019 5        33.635
G17        22.000    22809050.427 7 119862353.21807     -2519.916 7        44.325                                    22809044.009 4  93399304.43204     -1963.571 4        26.000    22809057.970 6  93399229.47306     -1963.600 6        36.000
R07        23.000    22582312.313 6 120884910.39506      2459.516 6        38.483                                                                    22582288.643 5  94021506.40005      1912.875 5        33.593
S23        24.000    38239192.382 7 200948263.40607      -824.832 7        42.990
S36        25.000    38291483.505 6 201222930.71506      -828.633 6        38.414
R20        27.000    21965846.161 5 117461235.07305     -5007.348 5        33.503                                                                    21965846.718 6  91358739.11906     -3894.599 6        39.697
R06        29.000    19670697.106 4                       143.690 4        26.180
R14        30.000    23312196.751 4                     -1350.926 4        25.639
C19        33.000                                                                                                                                    22715641.005 8 118286413.44508       679.552 8        48.541                                                                    22715635.184 7  96117281.19807       552.220 7        42.802
R21        34.000    19525615.106 8 104485617.68708     -1670.232 8        52.813                                                                    19525612.478 7  81266494.45207     -1298.979 7        43.697
R05        36.000    21231508.633 6 113494550.32916     -3924.760 6        36.892                                                                    21231505.827 6  88273479.72516     -3052.674 6        36.405
R22        37.000    21698835.204 7 115829810.70707      2508.579 7        45.375                                                                    21698829.750 7  90089891.74807      1951.138 7        43.115
C39        38.000                                                                                                                                    39131242.661 5 203766625.25515     -1349.153 5        31.819                                                                    39131224.251 5                     -1096.279 5        31.155
C06        41.000                                                                                                                                    38345795.693 5 199676638.01705      -813.208 5        35.929    38345791.333 6 154402608.25406      -628.847 6        40.694    38345790.566 6 162253588.72706      -660.807 6        36.389
C29        43.000                                                                                                                                    23511249.779 7 122429217.45307     -3594.146 7        44.367                                                                    23511249.872 5  99483817.44905     -2920.600 5        35.333
C16        45.000                                                                                                                                    38819806.511 6 202145014.86206      -921.967 6        36.011    38819823.029 4                      -712.541 4        24.752    38819812.123 4                      -749.049 4        28.474
C09        46.000                                                                                                                                    38702384.328 6 201533485.07306      -303.193 6        39.685    38702381.847 7 155838473.15707      -234.438 7        42.821    38702378.243 6 163762425.03206      -246.307 6        39.805
C44        48.000                                                                                                                                    25696076.981 6 133806187.26806      1834.165 6        39.438                                                                    25696070.046 5 108728486.27405      1490.295 5        35.429
C35        51.000                                                                                                                                    23075211.043 5 120158767.24405      -366.566 5        33.479                                                                    23075182.739 5  97638672.39205      -297.811 5        35.514
I09        54.000    37332832.268 6 146502051.95506      -797.716 6        37.047
C20        55.000                                                                                                                                    22218242.883 8 115696216.29908     -1936.616 8        51.044                                                                    22218237.784 8  94012731.43508     -1573.671 8        48.443
> 2025 01 01 02 01 20.0000000  0 39
G02         1.000    22659031.460 6 119074069.85806     -3682.401 6        36.749                                    22659022.907 2  92784935.19902     -2869.415 2        17.849
G21         3.000    24378832.159 4                     -4047.136 4        25.865
G31         4.000    22293694.864 6 117154040.13006      -955.333 6        39.829                                    22293688.195 5  91288828.39705      -744.414 5        34.529    22293690.125 6  91288951.38906      -744.676 6        38.006
E34         6.000    26118704.031 7 137254712.19107      1693.033 7        43.177                                                                    26118702.831 7 102495449.16107      1264.257 7        42.057    26118702.846 7 105169211.75807      1297.318 7        45.096
E04         7.000    24858172.364 5 130630671.84805     -2743.260 5        32.551                                                                    24858174.458 7  97548798.57607     -2048.792 7        44.924    24858167.707 5 100093549.70205     -2102.215 5        35.276
G03         8.000    20135467.540 7 105812594.41307     -1559.169 7        46.879                                    20135466.268 8  82451406.93608     -1214.944 8        48.764    20135466.411 7  82451396.94907     -1214.906 7        46.207
G09         9.000    22165864.881 6 116482396.67306      2192.126 6        41.392                                    22165858.786 4  90765455.71104      1708.154 4        28.663    22165861.377 6  90765495.66906      1708.028 6        37.531
G04        11.000    20587554.152 7 108188341.97107       754.521 7        42.749                                    20587550.870 4  84302549.79704       587.939 4        27.269    20587550.240 7  84302568.79007       587.977 7        42.952
E09        12.000    23617739.684 8 124112153.70008      -157.363 8        51.177                                                                    23617738.557 7  92681146.20307      -117.482 7        47.151    23617737.353 7  95098892.08907      -120.566 7        45.335
E10        13.000                                                                                                                                    27504681.498 4                     -2841.861 4        28.758    27504661.636 4                     -2916.134 4        27.018
E06        14.000    23575157.561 6 123888310.33506     -1483.172 6        40.102                                                                    23575157.367 8  92513996.58008     -1107.607 8        48.889    23575157.397 8  94927373.49908     -1136.451 8        49.594
E11        15.000    25009831.839 6 131427599.27506     -3175.770 6        39.976                                                                    25009828.551 7  98143946.06807     -2371.550 7        46.178    25009827.222 7 100704189.39007     -2433.498 7        43.583
G19        16.000    22370219.960 6 117556265.66406      -782.504 6        39.297                                    22370212.435 3  91602256.61703      -609.693 3        20.190
G28        17.000                                                                                                                                                                    23735007.711 4                     -2079.594 4        25.609
C23        18.000                                                                                                                                    26217436.856 4                      -993.928 4        29.725
G06        19.000    23594355.652 5 123989286.45205      2409.029 5        32.695                                    23594353.987 4  96614922.95604      1877.150 4        29.725    23594359.798 6  96614995.98106      1877.420 6        38.766
E36        20.000    23483054.261 7 123404422.14307      -678.243 7        46.099                                                                    23483054.698 7  92152534.64307      -506.477 7        46.002    23483054.209 7  94556544.89007      -519.725 7        45.294
E05        21.000    24936479.198 4                      1927.997 4        28.853                                                                    24936470.462 5  97856103.07505      1439.703 5        35.676    24936479.387 5 100408881.45705      1477.264 5        34.733
G17        22.000    22811448.530 6 119874958.55606     -2522.175 6        40.143                                    22811443.012 4  93409126.76904     -1965.326 4        25.459    22811461.588 5  93409051.72605     -1965.464 5        35.533
R07        23.000                                                                                                                                    22580001.250 5  94011944.18805      1911.960 5        32.790
S23        24.000    38239974.571 7 200952387.28107      -824.756 7        42.017
S36        25.000    38292271.624 6 201227074.24906      -828.890 6        36.960
R20        27.000    21970527.753 5 117486276.54705     -5009.239 5        35.995                                                                    21970528.964 6  91378215.78706     -3895.972 6        39.838
R06        29.000    19670562.528 4                       140.316 4        26.946
R14        30.000    23313478.644 5                     -1353.010 5        34.014                                                                    23313507.222 4                     -1053.218 4        26.731
C19        33.000                                                                                                                                    22714989.242 7 118283019.27107       678.090 7        47.022                                                                    22714983.538 7  96114523.17707       550.918 7        42.923
R21        34.000    19527178.158 8 104493979.84308     -1674.809 8        53.387                                                                    19527175.228 7  81272998.35607     -1302.632 7        44.138
R05        36.000    21235183.339 6 113514177.97706     -3926.113 6        40.141                                                                    21235179.390 6  88288745.69006     -3053.647 6        38.273
R22        37.000                                                                                                                                    21696480.542 7  90080140.92307      1949.121 7        44.631
C39        38.000                                                                                                                                    39132538.952 5 203773372.81205     -1349.703 5        31.940                                                                    39132518.571 5                     -1097.000 5        30.438
C06        41.000                                                                                                                                    38346577.161 6 199680706.35406      -814.132 6        36.227    38346571.506 6 154405754.16506      -629.648 6        39.309    38346572.052 6 162256894.61306      -661.439 6        37.187
C29        43.000                                                                                                                                    23514701.579 7 122447191.96507     -3595.805 7        44.889
C16        45.000                                                                                                                                    38820688.375 6 202149624.83406      -922.399 6        38.231    38820700.840 3                      -713.744 3        23.543    38820696.207 4                      -749.482 4        27.018
C09        46.000                                                                                                                                    38702677.138 6 201535003.14006      -303.998 6        41.037    38702673.097 6 155839647.00506      -235.058 6        41.566    38702669.654 6 163763658.58406      -246.948 6        40.429
C32        47.000                                                                                                                                    26087279.264 3                     -3680.941 3        19.463
C44        48.000                                                                                                                                    25694310.496 6 133797020.50506      1832.630 6        37.796                                                                    25694308.712 5 108721037.52405      1488.976 5        34.329
C35        51.000                                                                                                                                                                                                                                                                    23075535.705 5  97640167.43505      -300.334 5        32.114
I09        54.000    37333848.840 6 146506040.74606      -797.742 6        37.214
C20        55.000                                                                                                                                    22220103.938 8 115705903.05208     -1938.109 8        50.470                                                                    22220098.178 8  94020602.74808     -1574.865 8        49.051
> 2025 01 01 02 01 25.0000000  0 38
G02         1.000    22662535.276 6 119092485.42806     -3683.983 6        37.856                                    22662527.657 3  92799284.96303     -2870.639 3        19.194
G21         3.000    24382684.668 4                     -4047.285 4        25.609
G31         4.000    22294605.988 7 117158826.66307      -958.944 7        42.032                                    22294598.993 5  91292558.17605      -747.225 5        34.767    22294601.876 6  91292681.19306      -747.322 6        39.802
E34         6.000    26117093.206 7 137246249.10607      1692.266 7        43.141                                                                    26117092.077 7 102489129.31107      1263.816 7        42.154    26117091.988 7 105162727.06207      1296.609 7        44.504
E04         7.000    24860781.516 4                     -2744.955 4        28.872                                                                    24860785.352 7  97559044.84607     -2049.594 7        44.563    24860780.284 6 100104063.25206     -2103.084 6        38.003
G03         8.000    20136952.038 8 105820395.24708     -1560.983 8        48.429                                    20136950.815 8  82457485.51608     -1216.359 8        49.203    20136951.053 7  82457475.50907     -1216.343 7        46.750
G09         9.000    22163780.077 6 116471440.03706      2190.735 6        39.586                                    22163775.913 4  90756918.07304      1707.079 4        29.763    22163778.253 6  90756958.04006      1707.116 6        38.532
G04        11.000    20586837.773 7 108184575.78307       751.994 7        42.457                                    20586833.622 4  84299615.06004       585.959 4        28.976    20586833.913 7  84299634.10607       586.010 7        43.710
E09        12.000    23617889.956 8 124112945.35408      -159.225 8        50.717                                                                    23617889.390 7  92681737.36807      -118.855 7        47.726    23617887.873 7  95099498.70507      -121.972 7        45.860
E10        13.000                                                                                                                                    27508302.184 4                     -2842.629 4        29.403    27508284.379 4                     -2916.238 4        24.722
E06        14.000    23576570.448 6 123895730.96006     -1484.928 6        41.278                                                                    23576569.450 8  92519537.96908     -1108.845 8        48.605    23576569.662 8  94933059.45508     -1137.825 8        50.014
E11        15.000    25012854.671 6 131443481.78306     -3177.178 6        39.757                                                                    25012850.846 7  98155806.38107     -2372.523 7        45.663    25012849.244 7 100716359.10107     -2434.471 7        43.012
G19        16.000    22370966.604 6 117560186.95806      -785.799 6        39.826                                    22370957.564 3  91605312.13803      -612.280 3        18.030
G28        17.000                                                                                                                                                                    23737548.862 4  97201283.56414     -2081.870 4        27.581
C23        18.000                                                                                                                                    26218395.142 5                      -996.749 5        30.317
G06        19.000    23592061.253 4 123977243.49304      2408.472 4        27.485                                    23592062.316 4  96605538.83004      1876.670 4        29.005    23592067.422 6  96605611.91006      1876.427 6        40.553
E36        20.000    23483701.030 7 123407818.37807      -680.140 7        45.350                                                                    23483700.494 7  92155070.79907      -507.883 7        45.133    23483700.065 7  94559147.21307      -521.161 7        44.928
E05        21.000                                                                                                                                    24934637.516 6  97848906.21206      1439.016 6        36.911    24934641.818 6 100401496.77206      1476.551 6        36.552
G17        22.000    22813849.409 6 119887576.24306     -2524.364 6        38.961                                    22813843.773 4  93418958.78304     -1966.998 4        24.511    22813865.849 5  93418883.61505     -1967.203 5        32.605
S23        24.000    38240760.852 7 200956511.24907      -824.564 7        42.025
S36        25.000    38293055.678 6 201231217.84106      -828.349 6        37.251
R20        27.000    21975213.568 5 117511327.57405     -5010.754 5        35.543                                                                    21975213.395 6  91397699.95806     -3897.366 6        39.823
R06        29.000    19670430.230 4                       139.211 4        24.571
R14        30.000    23314742.991 5 124280736.70415     -1357.552 5        34.929                                                                    23314728.087 4                     -1055.573 4        27.162
C19        33.000                                                                                                                                    22714338.160 7 118279632.71007       676.662 7        45.822                                                                    22714333.196 7  96111771.38407       549.904 7        43.323
R21        34.000    19528745.172 8 104502365.08808     -1679.166 8        53.340                                                                    19528740.972 7  81279520.19307     -1306.050 7        42.474
R05        36.000    21238855.365 6 113533811.57506     -3927.380 6        39.495                                                                    21238851.357 6  88304016.27706     -3054.463 6        37.508
R22        37.000    21694134.425 6 115804750.12406      2503.679 6        41.058                                                                    21694134.228 7  90070400.20907      1947.211 7        45.044
C39        38.000                                                                                                                                    39133835.967 5 203780124.45005     -1350.789 5        32.509                                                                    39133811.084 5                     -1097.690 5        31.298
C06        41.000                                                                                                                                    38347361.013 6 199684779.27806      -814.713 6        36.957    38347353.709 6 154408903.59806      -630.122 6        39.504    38347355.274 6 162260204.23906      -662.167 6        36.318
C29        43.000                                                                                                                                    23518155.460 7 122465174.74407     -3597.247 7        46.025                                                                    23518149.524 5  99513035.75805     -2922.943 5        31.321
C16        45.000                                                                                                                                    38821572.979 6 202154239.22906      -923.253 6        37.698                                                                    38821582.197 4                      -750.703 4        27.964
C09        46.000                                                                                                                                    38702970.360 6 201536525.64206      -304.788 6        39.228    38702965.457 6 155840824.29106      -235.583 6        40.739    38702962.111 6 163764895.78206      -247.681 6        39.922
C32        47.000                                                                                                                                    26090815.056 3                     -3680.332 3        21.714
C44        48.000                                                                                                                                    25692552.911 5 133787861.81905      1831.211 5        35.314                                                                    25692550.673 5 108713595.37605      1487.998 5        35.871
C35        51.000                                                                                                                                    23075875.242 5 120162461.11105      -372.489 5        34.543                                                                    23075891.815 5  97641674.19805      -302.565 5        33.150
I09        54.000    37334866.555 6 146510030.46906      -797.853 6        39.204
C20        55.000                                                                                                                                    22221965.747 8 115715597.26608     -1939.434 8        51.771                                                                    22221959.795 8  94028480.12308     -1575.884 8        48.769
> 2025 01 01 02 01 30.0000000  0 37
G02         1.000    22666042.081 6 119110908.86106     -3685.309 6        37.255                                    22666034.125 3  92813640.87403     -2871.639 3        19.493
G21         3.000    24386540.230 3                     -4047.193 3        22.609
G31         4.000    22295519.912 7 117163631.28407      -962.437 7        42.273                                    22295513.436 5  91296302.04005      -749.945 5        35.690    22295515.282 6  91296425.05906      -750.145 6        40.932
E34         6.000    26115482.921 7 137237790.09807      1691.702 7        42.882                                                                    26115481.556 7 102482812.52907      1263.119 7        43.291    26115482.122 7 105156245.49407      1296.055 7        44.074
E04         7.000                                                                                                                                    24863397.479 7  97569295.78207     -2050.514 7        44.840    24863394.885 6 100114581.58506     -2104.029 6        40.296
G03         8.000    20138438.542 8 105828205.90008     -1562.934 8        49.000                                    20138437.192 8  82463571.75008     -1217.872 8        49.754    20138437.107 7  82463561.75507     -1217.946 7        46.396
G09         9.000    22161697.260 6 116460491.49906      2189.113 6        37.686                                    22161694.574 4  90748386.72004      1705.796 4        29.858    22161696.912 6  90748426.72106      1706.024 6        37.871
G04        11.000    20586123.038 7 108180822.47707       749.600 7        43.583                                    20586119.150 5  84296690.40205       584.108 5        30.083    20586119.280 7  84296709.43407       584.090 7        44.494
E09        12.000    23618042.212 8 124113746.71308      -161.053 8        50.815                                                                    23618041.949 8  92682335.77408      -120.299 8        48.242    23618039.990 7  95100112.72707      -123.470 7        45.419
E10        13.000                                                                                                                                    27511922.405 4                     -2843.147 4        28.322    27511907.069 4                     -2916.359 4        26.527
E06        14.000    23577983.809 7 123903160.69907     -1486.737 7        42.009                                                                    23577983.426 8  92525086.15908     -1110.169 8        49.134    23577983.310 8  94938752.39008     -1139.160 8        50.194
E11        15.000    25015877.788 6 131459371.20006     -3178.272 6        40.122                                                                    25015874.312 7  98167671.86907     -2373.527 7        45.446    25015872.981 7 100728534.12307     -2435.440 7        43.012
G19        16.000    22371717.085 7 117564126.08807      -789.460 7        42.203                                    22371706.498 2  91608381.55102      -615.137 2        16.830
G28        17.000                                                                                                                                                                    23740088.830 4  97211696.64504     -2083.624 4        27.605
C23        18.000                                                                                                                                    26219351.350 5                      -998.888 5        30.430
G06        19.000    23589774.684 5 123965206.29405      2406.845 5        32.832                                    23589772.192 4  96596159.21504      1875.472 4        29.071    23589776.253 6  96596232.18806      1875.724 6        41.206
E36        20.000    23484349.546 7 123411224.70707      -682.068 7        45.234                                                                    23484348.482 7  92157614.47307      -509.285 7        44.840    23484348.048 7  94561757.24907      -522.635 7        44.819
E05        21.000    24932796.549 4                      1926.041 4        26.754                                                                    24932803.440 6  97841712.49706      1438.553 6        36.344    24932808.720 6 100394115.42006      1476.045 6        36.405
G17        22.000    22816252.012 6 119900205.84706     -2526.866 6        40.739                                    22816245.705 4  93428800.06304     -1968.986 4        24.000    22816268.340 5  93428724.94305     -1968.896 5        30.362
R07        23.000    22575397.267 5 120848047.29605      2455.510 5        34.095
S23        24.000    38241546.034 7 200960635.24507      -824.674 7        42.982
S36        25.000    38293838.668 6 201235361.04006      -828.604 6        37.724
R20        27.000    21979900.973 5 117536387.87305     -5012.831 5        35.219                                                                    21979900.014 6  91417191.25406     -3898.793 6        39.943
R06        29.000    19670304.479 4                       135.565 4        28.152
C19        33.000                                                                                                                                    22713688.553 7 118276253.44007       675.285 7        45.818                                                                    22713684.859 7  96109025.45507       548.513 7        44.293
R21        34.000    19530315.839 8 104510772.98608     -1683.683 8        52.620                                                                    19530312.582 6  81286059.67206     -1309.561 6        41.309
R05        36.000    21242526.244 6 113553450.40006     -3928.201 6        41.480                                                                    21242524.807 6  88319290.91506     -3055.102 6        37.422
R22        37.000    21691795.267 7 115792238.96307      2501.164 7        43.613                                                                    21691790.454 7  90060669.32107      1945.308 7        45.044
C39        38.000                                                                                                                                    39135134.252 5 203786879.87105     -1351.253 5        35.595                                                                    39135108.758 5                     -1098.152 5        31.177
C06        41.000                                                                                                                                    38348146.784 6 199688856.50806      -815.638 6        38.360    38348138.016 6 154412056.35406      -630.517 6        38.712    38348138.049 6 162263517.28206      -662.907 6        36.495
C29        43.000                                                                                                                                    23521611.225 7 122483165.49507     -3598.678 7        44.634                                                                    23521605.197 5  99527654.66305     -2924.322 5        32.401
C16        45.000                                                                                                                                    38822460.970 6 202158857.71706      -923.921 6        38.925                                                                    38822468.387 4                      -750.605 4        26.359
C09        46.000                                                                                                                                    38703262.864 6 201538052.22406      -305.578 6        38.078    38703258.630 6 155842004.75606      -236.354 6        40.942    38703255.453 6 163766136.25206      -248.589 6        39.012
C44        48.000                                                                                                                                    25690797.214 5 133778710.87705      1829.582 5        34.290                                                                    25690794.215 6 108706159.46906      1486.611 6        37.255
C35        51.000                                                                                                                                                                                                                                                                    23076251.851 5  97643192.30705      -304.754 5        34.781
I09        54.000    37335882.836 6 146514020.80506      -797.999 6        37.750
C20        55.000                                                                                                                                    22223829.087 8 115725298.60408     -1940.770 8        52.110                                                                    22223822.861 8  94036363.22408     -1577.238 8        48.755
> 2025 01 01 02 01 35.0000000  0 37
G02         1.000    22669550.642 6 119129340.34406     -3687.343 6        38.922                                    22669541.862 3  92828003.07303     -2873.234 3        20.381
G31         4.000    22296437.481 6 117168454.06006      -966.506 6        41.897                                    22296431.451 6  91300060.05906      -753.118 6        36.049    22296432.329 6  91300183.07106      -753.184 6        41.409
E34         6.000    26113873.915 7 137229335.34107      1690.441 7        43.143                                                                    26113872.574 7 102476498.90007      1262.342 7        43.403    26113873.151 7 105149767.16007      1295.296 7        44.036
E04         7.000    24866008.158 5                     -2747.005 5        30.755                                                                    24866011.042 7  97579551.46207     -2051.749 7        45.020    24866009.834 6 100125104.79306     -2105.250 6        41.597
G03         8.000    20139926.691 8 105836026.50908     -1565.238 8        49.325                                    20139925.468 8  82469665.73408     -1219.665 8        50.081    20139925.659 7  82469655.73407     -1219.691 7        46.555
G09         9.000    22159613.552 6 116449551.14206      2187.282 6        39.084                                    22159614.317 4  90739861.76104      1704.381 4        29.251    22159614.730 6  90739901.76406      1704.504 6        38.510
G04        11.000    20585411.511 7 108177082.13607       746.663 7        44.631                                    20585407.147 5  84293775.85905       581.818 5        30.098    20585406.935 7  84293794.88607       581.851 7        43.958
E09        12.000    23618196.730 8 124114557.88308      -163.324 8        51.319                                                                    23618196.449 8  92682941.51508      -122.023 8        48.160    23618194.136 7  95100734.25207      -125.161 7        45.448
E10        13.000                                                                                                                                    27515543.355 4                     -2843.435 4        28.199    27515528.877 4                     -2917.863 4        24.045
E06        14.000    23579399.107 6 123910599.69906     -1488.836 6        41.123                                                                    23579398.914 8  92530641.26908     -1111.781 8        49.206    23579398.798 8  94944452.41308     -1140.826 8        50.067
E11        15.000    25018902.384 6 131475267.68806     -3180.134 6        40.408                                                                    25018899.038 7  98179542.62507     -2374.839 7        45.061    25018898.021 7 100740714.54207     -2436.721 7        42.806
G19        16.000    22372470.722 6 117568083.09306      -793.321 6        41.302                                    22372458.893 2  91611465.00102      -618.173 2        16.075
G28        17.000    23742619.214 5                     -2676.634 5        31.011                                                                                                    23742640.118 5                     -2085.633 5        30.023
C23        18.000                                                                                                                                    26220312.073 3                     -1001.966 3        23.448
G06        19.000    23587488.026 5 123953174.50905      2405.629 5        35.543                                    23587483.075 5  96586783.83505      1874.507 5        30.000    23587485.744 6  96586856.86806      1874.371 6        41.008
E36        20.000    23484999.697 7 123414641.26207      -684.419 7        45.651                                                                    23484998.600 7  92160165.80007      -511.176 7        44.694    23484998.465 7  94564375.11907      -524.479 7        44.302
E05        21.000    24930971.827 4                      1925.442 4        25.008                                                                    24930969.522 5  97834522.13205      1437.600 5        34.719    24930976.358 5 100386737.41705      1475.204 5        35.833
G17        22.000    22818658.371 6 119912847.54706     -2529.685 6        40.505                                    22818650.150 4  93438650.76904     -1971.180 4        24.737    22818674.012 5  93438575.75305     -1971.199 5        30.332
R07        23.000    22573102.371 4 120835773.11404      2454.329 4        28.682
S23        24.000    38242331.192 6 200964759.37206      -824.951 6        41.292
S36        25.000    38294628.745 6 201239504.68306      -828.883 6        38.778
R20        27.000    21984587.898 5 117561457.33805     -5015.027 5        34.167                                                                    21984588.404 6  91436689.75106     -3900.508 6        40.634
R06        29.000    19670181.912 5                       132.465 5        30.143
R14        30.000                                                                                                                                    23317271.537 3                     -1060.283 3        22.705
C19        33.000                                                                                                                                    22713040.655 7 118272881.54307       673.548 7        45.026                                                                    22713037.403 7  96106285.54407       547.296 7        44.996
R21        34.000    19531890.917 8 104519203.62408     -1688.577 8        52.249                                                                    19531889.042 7  81292616.83607     -1313.314 7        42.343
R05        36.000    21246200.861 6 113573094.71006     -3929.533 6        40.625                                                                    21246200.569 6  88334569.84906     -3056.147 6        37.248
R22        37.000    21689454.531 7 115779740.65707      2498.377 7        45.178                                                                    21689449.710 7  90050948.38907      1943.094 7        45.127
C39        38.000                                                                                                                                    39136431.897 5 203793638.93105     -1352.390 5        32.545                                                                    39136407.832 5                     -1098.827 5        31.691
C06        41.000                                                                                                                                    38348929.795 6 199692938.11506      -816.744 6        38.486    38348921.900 6 154415212.54306      -631.727 6        38.024    38348921.826 6 162266833.92506      -663.669 6        36.783
C29        43.000                                                                                                                                    23525066.742 7 122501164.33507     -3600.698 7        42.180                                                                    23525061.563 5  99542280.25605     -2925.805 5        32.886
C16        45.000                                                                                                                                    38823351.382 6 202163480.37006      -925.121 6        38.676    38823364.166 3                      -715.418 3        22.076    38823356.622 3                      -751.911 3        23.067
C09        46.000                                                                                                                                    38703556.744 6 201539583.06306      -306.465 6        38.616    38703553.050 6 155843188.51506      -237.160 6        41.256    38703549.299 6 163767380.18606      -249.192 6        38.946
C44        48.000                                                                                                                                    25689039.785 5 133769567.78605      1827.765 5        35.724                                                                    25689038.372 6 108698730.02006      1485.250 6        37.240
C35        51.000                                                                                                                                    23076616.677 6 120166211.99806      -378.144 6        39.796                                                                    23076613.675 6  97644722.05706      -307.050 6        36.340
I09        54.000    37336899.384 6 146518011.89406      -798.332 6        38.438
C20        55.000                                                                                                                                    22225693.569 8 115735007.16608     -1942.588 8        51.643                                                                    22225687.249 8  94044252.23708     -1578.430 8        48.543
> 2025 01 01 02 01 40.0000000  0 37
G02         1.000    22673060.141 6 119147780.37306     -3688.729 6        38.486                                    22673050.789 3  92842371.90703     -2874.315 3        20.786
G21         3.000    24394246.133 3                     -4049.755 3        20.738
G31         4.000    22297359.203 6 117173295.61806      -970.097 6        41.168                                    22297352.972 6  91303832.71506      -755.907 6        36.136    22297353.989 6  91303955.71506      -755.980 6        40.622
E34         6.000    26112265.593 7 137220885.40707      1689.598 7        43.458                                                                    26112265.216 7 102470188.88807      1261.760 7        43.740    26112265.004 7 105143292.54307      1294.575 7        44.060
E04         7.000    24868624.956 4                     -2748.787 4        29.100                                                                    24868626.544 7  97589812.30307     -2052.612 7        44.694    24868626.458 7 100135633.30307     -2106.159 7        43.185
G03         8.000    20141416.844 8 105843857.68008     -1567.258 8        50.125                                    20141415.722 8  82475767.95208     -1221.238 8        50.468    20141415.758 7  82475757.93107     -1221.201 7        46.323
G09         9.000    22157531.858 6 116438619.58806      2185.314 6        36.110                                    22157535.527 4  90731343.64504      1702.816 4        27.904    22157534.384 6  90731383.70306      1702.969 6        38.456
G04        11.000    20584701.860 7 108173355.36107       744.040 7        43.809                                    20584697.689 5  84290871.88605       579.771 5        30.347    20584697.785 7  84290890.91307       579.748 7        43.429
E09        12.000    23618352.917 8 124115379.46208      -165.264 8        51.159                                                                    23618352.724 8  92683555.03108      -123.486 8        48.618    23618350.624 7  95101363.78107      -126.647 7        45.642
E10        13.000                                                                                                                                    27519165.978 4                     -2843.882 4        28.209    27519155.032 3                     -2917.950 3        22.667
E06        14.000    23580817.221 7 123918048.55007     -1490.732 7        42.643                                                                    23580816.137 8  92536203.72708     -1113.185 8        48.938    23580816.331 8  94950159.97008     -1142.197 8        50.138
E11        15.000    25021928.469 6 131491171.82206     -3181.443 6        39.994                                                                    25021925.488 7  98191419.07207     -2375.727 7        44.360    25021924.825 7 100752900.81407     -2437.788 7        43.264
G19        16.000    22373225.429 6 117572058.58506      -796.776 6        38.925                                    22373214.875 2  91614562.79802      -620.880 2        15.190
G28        17.000    23745160.518 4                     -2679.861 4        25.474                                                                                                    23745187.377 4                     -2088.161 4        29.090
C23        18.000                                                                                                                                    26221260.715 4                     -1004.614 4        28.483
G06        19.000    23585199.618 6 123941149.15806      2404.763 6        37.425                                    23585195.129 5  96577413.42605      1873.836 5        32.120    23585196.901 6  96577486.45206      1873.657 6        39.432
E36        20.000    23485651.334 7 123418068.65207      -686.523 7        45.443                                                                    23485650.733 7  92162725.19507      -512.628 7        43.668    23485650.599 7  94567001.28107      -526.005 7        43.685
E05        21.000    24929144.914 4                      1924.288 4        29.611                                                                    24929137.601 5  97827335.50305      1436.889 5        34.200    24929144.895 5 100379363.33405      1474.647 5        35.800
G17        22.000    22821067.892 6 119925502.01006     -2531.909 6        41.006                                    22821058.423 4  93448511.39504     -1972.914 4        26.707
R07        23.000    22570812.333 5 120823506.36005      2452.894 5        34.095
S23        24.000    38243114.598 6 200968883.96506      -824.991 6        39.997
S36        25.000    38295417.808 6 201243649.54106      -828.887 6        38.646
R20        27.000    21989277.922 5 117586536.62405     -5016.907 5        35.752                                                                    21989278.686 6  91456195.87006     -3901.977 6        41.058
R06        29.000    19670059.202 5                       130.075 5        31.751
C19        33.000                                                                                                                                    22712394.360 7 118269517.70207       672.059 7        44.457                                                                    22712391.396 7  96103552.13507       546.076 7        44.712
R21        34.000    19533470.847 8 104527657.72208     -1693.140 8        52.384                                                                    19533468.997 7  81299192.23307     -1316.969 7        43.225
R05        36.000    21249876.989 6 113592745.20006     -3930.600 6        41.249                                                                    21249876.718 5  88349853.60905     -3057.187 5        34.957
R22        37.000    21687115.475 7 115767255.81307      2495.727 7        47.345                                                                    21687110.640 7  90041237.93407      1941.178 7        45.001
C39        38.000                                                                                                                                    39137728.776 5 203800402.50605     -1353.021 5        33.898                                                                    39137707.737 5                     -1099.601 5        32.647
C06        41.000                                                                                                                                    38349714.626 6 199697024.73806      -817.840 6        37.414    38349706.103 6 154418372.56306      -632.290 6        38.255    38349706.963 6 162270154.65206      -664.649 6        36.877
C29        43.000                                                                                                                                    23528523.349 6 122519171.88006     -3602.243 6        41.576                                                                    23528519.888 5  99556912.81805     -2926.976 5        31.653
C16        45.000                                                                                                                                    38824242.865 6 202168107.85206      -926.124 6        37.803    38824254.112 3                      -716.268 3        22.895    38824251.407 3                      -751.072 3        22.019
C09        46.000                                                                                                                                    38703851.188 6 201541118.79106      -307.646 6        39.204    38703847.435 6 155844376.04906      -238.016 6        40.918    38703844.270 6 163768628.09106      -249.953 6        39.159
C44        48.000                                                                                                                                    25687285.579 5 133760433.22505      1826.242 5        35.167                                                                    25687284.025 6 108691307.42606      1484.009 6        38.177
C35        51.000                                                                                                                                    23076982.154 6 120168109.36906      -380.938 6        40.996                                                                    23076977.614 6  97646263.87906      -309.535 6        36.242
I09        54.000    37337916.837 6 146522004.14206      -798.544 6        37.875
C20        55.000                                                                                                                                    22227559.091 8 115744723.55508     -1944.014 8        51.436                                                                    22227553.161 8  94052147.60908     -1579.598 8        48.492
> 2025 01 01 02 01 45.0000000  0 38
G02         1.000    22676569.851 6 119166228.10406     -3690.459 6        38.856                                    22676561.067 3  92856746.73903     -2875.684 3        21.238
G21         3.000    24398101.029 4                     -4050.906 4        24.045
G31         4.000    22298284.416 6 117178155.05206      -973.811 6        39.312                                    22298277.784 6  91307619.30506      -758.803 6        36.113    22298278.389 6  91307742.28206      -758.890 6        41.151
E34         6.000    26110658.113 7 137212439.37007      1688.718 7        42.601                                                                    26110658.002 7 102463881.80107      1261.012 7        43.602    26110657.803 7 105136820.90707      1293.976 7        44.254
E04         7.000    24871245.966 5                     -2749.895 5        31.691                                                                    24871242.361 7  97600077.65107     -2053.622 7        44.268    24871242.377 7 100146166.42407     -2107.142 7        43.900
G03         8.000    20142908.930 8 105851698.45308     -1569.270 8        51.048                                    20142907.790 8  82481877.64708     -1222.810 8        50.917    20142907.753 7  82481867.64307     -1222.853 7        46.430
G09         9.000    22155453.342 5 116427695.94005      2183.933 5        31.155                                    22155457.783 4  90722831.70804      1701.762 4        27.305    22155454.118 6  90722871.75406      1701.545 6        37.879
G04        11.000    20583994.595 7 108169641.24607       741.427 7        43.181                                    20583990.595 5  84287977.79505       577.722 5        30.053    20583990.808 7  84287996.82207       577.792 7        42.878
E09        12.000    23618511.030 8 124116210.53208      -167.322 8        50.247                                                                    23618510.739 8  92684175.62908      -124.963 8        48.707    23618508.594 7  95102000.57407      -128.164 7        45.357
E10        13.000                                                                                                                                    27522786.226 4                     -2844.700 4        25.338    27522785.802 3                     -2917.551 3        22.876
E06        14.000    23582236.018 7 123925506.31107     -1492.673 7        42.815                                                                    23582235.211 8  92541772.82408     -1114.626 8        48.991    23582235.590 8  94955874.36308     -1143.676 8        50.310
E11        15.000    25024955.902 6 131507082.64506     -3182.850 6        40.267                                                                    25024953.193 7  98203300.52307     -2376.759 7        44.144    25024952.554 7 100765092.22707     -2438.808 7        43.245
G19        16.000    22373982.393 5 117576051.73905      -800.534 5        34.133                                    22373974.595 2  91617674.33002      -623.771 2        14.667
G28        17.000    23747712.656 4                     -2682.655 4        26.671                                                                                                    23747742.489 3                     -2090.049 3        21.476
C23        18.000                                                                                                                                    26222219.806 4                     -1007.381 4        28.047
G06        19.000    23582910.938 6 123929129.23406      2403.240 6        39.486                                    23582908.189 5  96568047.24305      1872.656 5        34.533    23582910.325 6  96568120.22606      1872.841 6        41.225
E36        20.000    23486305.893 7 123421505.92107      -688.634 7        45.544                                                                    23486304.922 7  92165291.97907      -514.206 7        43.393    23486304.663 7  94569635.02807      -527.675 7        43.295
E05        21.000    24927313.208 5                      1923.402 5        30.657                                                                    24927306.237 5  97820151.97305      1436.118 5        32.341    24927313.910 5 100371992.37805      1473.777 5        34.105
G17        22.000    22823478.648 6 119938168.30006     -2534.562 6        39.357                                    22823469.794 4  93458381.24504     -1974.988 4        28.588    22823468.617 6  93458306.26306     -1975.052 6        37.909
R07        23.000                                                                                                                                    22568567.351 3                      1909.909 3        20.071
S23        24.000    38243899.355 6 200973008.50606      -825.048 6        40.133
S36        25.000    38296205.095 6 201247793.77106      -829.116 6        39.036
R20        27.000    21993969.653 5 117611624.80005     -5018.664 5        34.262                                                                    21993971.588 6  91475708.91106     -3903.519 6        40.949
R06        29.000    19669939.233 5 104962560.91315       126.916 5        34.495
R14        30.000                                                                                                                                    23319890.862 3                     -1069.556 3        23.829
C19        33.000                                                                                                                                    22711747.933 7 118266160.92107       670.529 7        43.537                                                                    22711746.015 7  96100824.46207       544.869 7        44.567
R21        34.000    19535054.463 8 104536134.29808     -1697.706 8        51.252                                                                    19535052.938 7  81305785.13707     -1320.541 7        44.271
R05        36.000    21253554.660 7 113612400.95607     -3931.841 7        43.803                                                                    21253552.642 6  88365141.34206     -3058.252 6        36.257
R22        37.000    21684779.387 8 115754783.41608      2493.089 8        48.691                                                                    21684773.106 7  90031537.20207      1938.947 7        45.148
C39        38.000                                                                                                                                    39139028.403 5 203807169.44105     -1353.787 5        34.105                                                                    39139007.087 5                     -1100.035 5        32.856
C06        41.000                                                                                                                                    38350500.526 6 199701115.39806      -818.592 6        37.013    38350491.049 6 154421535.73906      -633.130 6        38.571    38350491.947 6 162273478.60406      -665.179 6        37.074
C29        43.000                                                                                                                                    23531981.747 6 122537187.11906     -3604.008 6        39.643                                                                    23531979.411 5  99571551.63505     -2928.639 5        31.834
C16        45.000                                                                                                                                    38825130.627 6 202172739.20306      -926.829 6        37.928    38825146.179 5                      -716.716 5        30.091    38825147.891 3                      -752.814 3        23.943
C09        46.000                                                                                                                                    38704147.645 6 201542658.41206      -308.411 6        39.093    38704143.421 6 155845566.57106      -238.639 6        41.268    38704140.010 6 163769879.13906      -250.611 6        39.090
C44        48.000                                                                                                                                    25685533.063 6 133751306.28006      1824.482 6        36.968                                                                    25685531.346 6 108683890.98106      1482.569 6        38.351
C35        51.000                                                                                                                                    23077345.733 7 120170020.71107      -383.826 7        42.514                                                                    23077344.762 5  97647816.96505      -311.845 5        34.490
I09        54.000    37338934.576 6 146525996.86506      -798.516 6        37.754
C20        55.000                                                                                                                                    22229426.215 8 115754446.87608     -1945.531 8        51.167                                                                    22229420.384 8  94060048.57108     -1580.922 8        48.649
> 2025 01 01 02 01 50.0000000  0 38
G02         1.000    22680081.190 6 119184683.63006     -3691.825 6        40.236                                    22680073.133 3  92871127.66303     -2876.737 3        21.762
G21         3.000    24401955.054 4                     -4051.595 4        26.048
G31         4.000    22299211.676 6 117183032.38506      -977.431 6        40.846                                    22299205.842 5  91311419.83505      -761.640 5        35.867    22299206.249 6  91311542.83906      -761.582 6        41.061
E34         6.000    26109051.493 7 137203997.37507      1687.945 7        42.019                                                                    26109051.302 7 102457577.71007      1260.476 7        43.536    26109051.206 7 105130352.36907      1293.380 7        43.953
E04         7.000    24873867.607 5 130713049.81415     -2751.171 5        34.681                                                                    24873859.525 7  97610347.55007     -2054.445 7        44.471    24873859.715 7 100156704.22707     -2107.990 7        44.068
G03         8.000    20144403.010 8 105859548.96408     -1571.105 8        51.765                                    20144401.648 8  82487994.92408     -1224.237 8        51.224    20144401.151 7  82487984.91607     -1224.243 7        46.109
G09         9.000    22153374.127 5 116416780.36005      2182.455 5        31.117                                    22153381.144 4  90714326.02104      1700.654 4        25.805    22153377.736 6  90714365.99706      1700.491 6        38.339
G04        11.000    20583290.756 7 108165939.89807       738.957 7        43.043                                    20583285.886 4  84285093.63804       575.801 4        29.649    20583287.420 7  84285112.66707       575.878 7        42.402
E09        12.000    23618670.818 8 124117051.18908      -169.120 8        49.946                                                                    23618670.628 8  92684803.38508      -126.301 8        48.326    23618668.892 7  95102644.71307      -129.591 7        45.693
E10        13.000                                                                                                                                                                                                    27526420.011 4                     -2919.037 4        25.429
E06        14.000    23583656.744 7 123932973.05107     -1494.276 7        42.135                                                                    23583656.151 8  92547348.65508     -1115.915 8        49.405    23583656.619 8  94961595.64508     -1145.020 8        50.113
E11        15.000    25027985.368 6 131523000.29006     -3184.148 6        40.255                                                                    25027982.288 7  98215187.07807     -2377.887 7        43.755    25027981.470 7 100777288.86307     -2439.876 7        43.077
G19        16.000    22374746.716 5 117580062.50505      -804.243 5        31.721                                    22374737.708 2  91620799.61302      -626.664 2        13.333
G28        17.000    23750279.023 5                     -2685.896 5        34.467
C23        18.000                                                                                                                                    26223190.144 4                     -1009.711 4        27.964
G06        19.000    23580624.162 6 123917114.70906      2402.276 6        40.191                                    23580622.331 6  96558685.28006      1871.897 6        36.019    23580624.329 6  96558758.28706      1871.957 6        41.964
E36        20.000    23486961.916 7 123424953.18907      -690.559 7        45.989                                                                    23486960.937 7  92167866.21807      -515.583 7        44.156    23486960.482 7  94572276.42707      -529.071 7        44.316
E05        21.000    24925482.937 5 130984288.76815      1922.266 5        32.635                                                                    24925477.331 5  97812971.54705      1435.504 5        33.485    24925484.329 5 100364624.65105      1473.347 5        34.552
G17        22.000    22825890.077 6 119950846.49306     -2536.796 6        39.063                                    22825883.831 4  93468260.36204     -1976.738 4        29.583    22825887.374 6  93468185.41306     -1976.781 6        40.267
R07        23.000    22566260.442 6 120798992.22806      2450.109 6        36.567                                                                    22566278.449 3                      1905.322 3        19.642
S23        24.000    38244680.158 6 200977132.65306      -824.954 6        37.263
S36        25.000    38296997.458 6 201251938.33806      -828.980 6        38.685
R20        27.000    21998663.329 5 117636721.90605     -5020.288 5        32.431                                                                    21998664.432 6  91495228.86906     -3904.761 6        40.153
R06        29.000    19669820.351 5 104961931.28205       124.542 5        33.850
R14        30.000    23321121.609 5                     -1378.831 5        30.340
C19        33.000                                                                                                                                    22711103.972 7 118262811.30307       669.143 7        42.669                                                                    22711102.629 7  96098102.66007       543.700 7        44.828
R21        34.000    19536641.753 8 104544633.37708     -1702.137 8        50.762                                                                    19536640.509 7  81312395.53207     -1323.904 7        45.029
R05        36.000    21257232.481 7 113632061.82607     -3932.572 7        44.038                                                                    21257230.411 5  88380433.19805     -3058.710 5        33.707
R22        37.000    21682445.955 8 115742323.64008      2490.606 8        48.815                                                                    21682438.846 7  90021846.26107      1937.228 7        44.767
C39        38.000                                                                                                                                    39140326.859 5 203813940.05305     -1354.519 5        32.988                                                                    39140307.011 5                     -1100.732 5        32.742
C06        41.000                                                                                                                                    38351286.087 6 199705210.22506      -819.514 6        36.223    38351278.165 6 154424702.09706      -633.717 6        37.146    38351278.167 6 162276806.03106      -666.129 6        36.586
C29        43.000                                                                                                                                    23535442.680 6 122555210.14006     -3605.318 6        37.149                                                                    23535441.237 5  99586196.88505     -2929.799 5        33.587
C16        45.000                                                                                                                                    38826018.989 6 202177374.54806      -927.425 6        38.309    38826036.550 5                      -717.346 5        33.192
C09        46.000                                                                                                                                    38704444.406 6 201544202.05806      -309.139 6        39.604    38704440.694 7 155846760.22307      -239.109 7        42.009    38704436.413 6 163771133.50106      -251.332 6        39.811
C44        48.000                                                                                                                                    25683784.006 6 133742186.91206      1823.183 6        38.099                                                                    25683780.068 6 108676480.81006      1481.283 6        38.009
C35        51.000                                                                                                                                    23077716.135 7 120171946.03207      -386.595 7        42.480                                                                    23077715.731 5  97649381.44605      -314.113 5        35.652
I09        54.000    37339952.042 6 146529990.19006      -798.810 6        38.102
C20        55.000                                                                                                                                    22231295.136 8 115764177.17408     -1946.821 8        51.058                                                                    22231288.873 8  94067955.26608     -1581.986 8        48.563
> 2025 01 01 02 01 55.0000000  0 37
G02         1.000    22683594.524 6 119203146.74106     -3693.456 6        37.758                                    22683586.554 3  92885514.49503     -2878.033 3        22.076
G31         4.000    22300143.371 7 117187927.62807      -980.887 7        42.792                                    22300137.151 5  91315234.32005      -764.334 5        35.900    22300138.465 6  91315357.30906      -764.371 6        40.598
E34         6.000    26107445.943 6 137195559.30106      1687.129 6        41.554                                                                    26107445.368 7 102451276.56307      1259.875 7        43.154    26107445.537 7 105123886.84207      1292.812 7        44.071
E04         7.000    24876483.703 5 130726808.60905     -2752.443 5        35.114                                                                    24876477.748 7  97620621.92607     -2055.334 7        43.530    24876476.857 7 100167246.62807     -2108.889 7        43.769
G03         8.000    20145898.690 8 105867409.08508     -1572.962 8        52.286                                    20145897.133 8  82494119.69708     -1225.683 8        51.283    20145896.759 7  82494109.68707     -1225.775 7        45.962
G09         9.000    22151300.063 5 116405872.50205      2180.833 5        32.760                                    22151305.483 4  90705826.38004      1699.350 4        25.669    22151301.891 6  90705866.45206      1699.272 6        37.690
G04        11.000    20582588.898 6 108162251.20906       736.279 6        41.497                                    20582583.707 4  84282219.34704       573.722 4        28.398    20582584.589 7  84282238.37307       573.862 7        42.317
E09        12.000    23618832.875 8 124117901.32208      -171.057 8        50.416                                                                    23618832.389 8  92685438.22208      -127.752 8        48.726    23618830.718 7  95103296.11907      -131.035 7        45.938
E10        13.000                                                                                                                                    27530028.126 4                     -2845.107 4        25.414    27530050.132 4                     -2919.708 4        25.835
E06        14.000    23585079.913 7 123940448.71407     -1496.084 7        43.748                                                                    23585078.882 8  92552931.13508     -1117.190 8        49.983    23585079.178 8  94967323.74808     -1146.354 8        50.005
E11        15.000    25031014.991 6 131538924.64206     -3185.526 6        39.192                                                                    25031012.177 7  98227078.64207     -2378.927 7        43.367    25031011.990 7 100789490.64607     -2440.899 7        43.293
G19        16.000    22375513.675 5 117584090.83405      -807.457 5        30.875                                    22375504.386 2  91623938.62802      -629.133 2        12.909
G28        17.000    23752836.322 6 124821992.69216     -2688.299 6        37.527                                                                                                    23752872.451 5                     -2094.874 5        32.228
C23        18.000                                                                                                                                    26224171.312 4                     -1011.647 4        25.113
G06        19.000    23578337.337 6 123905105.62406      2401.269 6        40.539                                    23578337.525 5  96549327.54605      1871.109 5        35.776    23578339.438 7  96549400.54507      1871.105 7        42.125
E36        20.000    23487619.535 7 123428410.34807      -692.465 7        46.279                                                                    23487618.760 7  92170447.87107      -517.102 7        43.289    23487618.276 7  94574925.42707      -530.533 7        44.369
E05        21.000    24923653.776 5 130974677.45605      1921.786 5        32.659                                                                    24923649.145 5  97805794.20005      1435.102 5        33.497    24923653.520 5 100357260.05505      1472.495 5        35.843
G17        22.000    22828305.259 6 119963536.49606     -2539.208 6        36.873                                    22828300.108 4  93478148.71304     -1978.602 4        29.100    22828304.840 6  93478073.71106     -1978.658 6        40.820
R07        23.000    22563966.067 6 120786744.81206      2448.754 6        36.465
S23        24.000    38245468.957 6 200981256.76306      -824.869 6        37.074
S36        25.000    38297794.833 6 201256082.73506      -828.824 6        36.212
R20        27.000    22003358.520 5 117661827.93705     -5022.428 5        30.151                                                                    22003360.091 6  91514755.78106     -3906.192 6        39.949
R06        29.000    19669703.611 5 104961314.82105       121.969 5        32.892
R14        30.000    23322421.487 5                     -1382.942 5        33.371                                                                    23322439.830 3                     -1075.518 3        23.562
C19        33.000                                                                                                                                    22710462.583 7 118259468.77907       667.674 7        44.494                                                                    22710460.727 7  96095386.58307       542.507 7        44.704
R21        34.000    19538234.626 8 104553154.91908     -1706.616 8        51.105                                                                    19538233.287 7  81319023.38707     -1327.338 7        45.637
R05        36.000    21260910.138 7 113651727.92707     -3933.732 7        44.417                                                                    21260909.092 5  88395729.03805     -3059.640 5        33.695
R22        37.000    21680113.939 8 115729876.42308      2488.063 8        49.085                                                                    21680106.790 7  90012165.10607      1935.147 7        45.273
C39        38.000                                                                                                                                    39141624.847 5 203820714.16505     -1355.161 5        33.078                                                                    39141609.478 5                     -1101.151 5        33.677
C06        41.000                                                                                                                                    38352072.050 6 199709309.13206      -820.049 6        36.786    38352065.794 6 154427871.65806      -634.299 6        36.628    38352064.859 6 162280136.71806      -666.485 6        37.478
C29        43.000                                                                                                                                    23538904.212 5 122573240.92705     -3606.777 5        34.752                                                                    23538903.990 5  99600848.36605     -2930.586 5        32.138
C16        45.000                                                                                                                                    38826911.030 6 202182013.78706      -928.299 6        37.611    38826924.821 5 156339941.53515      -717.779 5        34.167    38826956.372 3                      -750.511 3        20.381
C09        46.000                                                                                                                                    38704742.583 6 201545749.63206      -309.903 6        39.718    38704738.096 7 155847956.91307      -239.690 7        42.899    38704734.298 6 163772391.04006      -251.892 6        39.682
C44        48.000                                                                                                                                    25682039.044 6 133733075.24006      1821.488 6        39.327                                                                    25682030.462 6 108669076.83606      1480.186 6        38.297
C35        51.000                                                                                                                                    23078089.990 7 120173885.26907      -389.331 7        42.817                                                                    23078088.147 5  97650957.19305      -316.328 5        34.667
I09        54.000    37340969.252 6 146533983.96506      -798.800 6        37.395
C20        55.000                                                                                                                                    22233165.463 8 115773914.38108     -1948.199 8        51.674                                                                    22233158.848 8  94075867.57508     -1583.123 8        48.856
> 2025 01 01 02 02  0.0000000  0 37
G02         1.000    22687108.700 6 119221617.55406     -3695.062 6        38.066                                    22687101.647 3  92899907.33403     -2879.268 3        23.162
G31         4.000    22301078.754 7 117192840.68207      -984.539 7        42.197                                    22301071.774 5  91319062.68405      -767.171 5        35.567    22301072.642 6  91319185.68206      -767.249 6        39.655
E34         6.000    26105841.817 7 137187125.20107      1686.152 7        42.722                                                                    26105841.007 7 102444978.34307      1259.137 7        43.628    26105840.459 7 105117424.31607      1292.037 7        44.232
E04         7.000                                                                                                                                    24879096.722 7  97630900.77507     -2056.308 7        44.176    24879096.657 7 100177793.59807     -2110.005 7        44.075
G03         8.000    20147396.144 8 105875278.81208     -1575.077 8        52.493                                    20147394.411 8  82500251.95708     -1227.338 8        51.144    20147394.093 7  82500241.95207     -1227.342 7        44.403
G09         9.000    22149227.701 5 116394972.65905      2178.968 5        34.424                                    22149231.429 4  90697333.01204      1697.901 4        25.338    22149227.631 6  90697373.03506      1697.867 6        37.040
G04        11.000    20581888.953 6 108158575.22406       733.682 6        41.364                                    20581884.121 4  84279354.92904       571.712 4        27.425    20581885.155 7  84279373.91407       571.699 7        43.426
E09        12.000    23618996.660 8 124118760.93308      -173.065 8        50.414                                                                    23618996.005 8  92686080.13608      -129.234 8        49.093    23618994.137 7  95103954.78307      -132.561 7        45.655
E10        13.000                                                                                                                                    27533658.140 4                     -2845.945 4        25.444    27533674.512 4                     -2919.624 4        26.790
E06        14.000    23586503.150 7 123947933.27607     -1497.907 7        43.681                                                                    23586503.300 8  92558520.24608     -1118.623 8        50.065    23586503.257 8  94973058.65408     -1147.780 8        50.380
E11        15.000    25034046.951 6 131554855.71206     -3187.095 6        40.682                                                                    25034043.730 7  98238975.19507     -2379.881 7        43.067    25034043.820 7 100801697.55007     -2442.028 7        43.973
G28        17.000    23755396.335 5 124835441.11205     -2691.478 5        35.333                                                                                                    23755433.770 4                     -2097.187 4        29.412
C23        18.000                                                                                                                                    26225142.986 4                     -1014.896 4        28.730
G06        19.000    23576054.146 6 123893101.92306      2400.053 6        40.155                                    23576053.728 6  96539974.01906      1870.168 6        36.212    23576054.781 7  96540047.04107      1870.189 7        43.477
E36        20.000    23488278.991 7 123431877.43007      -694.615 7        46.170                                                                    23488278.463 7  92173036.89907      -518.636 7        43.077    23488278.151 7  94577582.00907      -532.191 7        44.160
E05        21.000    24921827.121 5 130965070.14305      1920.904 5        32.928                                                                    24921819.986 5  97798619.93305      1434.530 5        31.940    24921826.271 6 100349898.65006      1471.973 6        36.306
G17        22.000    22830721.611 5 119976238.19105     -2541.882 5        32.988                                    22830718.321 4  93488046.13204     -1980.699 4        28.408    22830719.600 6  93487971.15106     -1980.554 6        40.493
R07        23.000    22561681.471 6 120774503.91106      2447.458 6        37.202
S23        24.000    38246239.838 5 200985380.57105      -824.718 5        35.633
S36        25.000    38298570.879 5 201260226.61505      -829.039 5        35.233
R20        27.000    22008054.106 5 117686942.77605     -5024.338 5        32.138                                                                    22008056.699 6  91534289.56106     -3907.608 6        40.091
R06        29.000    19669590.832 5 104960711.53205       119.362 5        32.407
R14        30.000    23323723.140 5 124328560.42315     -1387.087 5        33.156
C19        33.000                                                                                                                                    22709823.269 7 118256133.33707       666.194 7        44.378                                                                    22709820.102 7  96092676.28607       541.334 7        44.011
R21        34.000    19539831.558 8 104561698.90408     -1711.231 8        49.841                                                                    19539830.267 7  81325668.70907     -1330.943 7        45.768
R05        36.000    21264591.602 7 113671399.15907     -3934.917 7        45.401                                                                    21264589.536 5  88411028.87305     -3060.564 5        32.695
R22        37.000    21677783.836 8 115717441.76008      2485.437 8        48.480                                                                    21677776.993 7  90002493.71307      1933.146 7        43.575
C39        38.000                                                                                                                                    39142926.445 5 203827491.73605     -1356.014 5        35.643                                                                    39142910.248 5                     -1101.777 5        34.595
C06        41.000                                                                                                                                    38352860.589 5 199713412.15205      -821.207 5        35.905    38352854.311 6 154431044.32606      -634.934 6        38.559    38352854.340 6 162283470.71806      -667.141 6        37.558
C29        43.000                                                                                                                                    23542368.698 5 122591279.42805     -3608.730 5        34.252                                                                    23542366.044 4  99615506.16004     -2932.630 4        29.213
C16        45.000                                                                                                                                    38827799.978 5 202186656.88005      -929.243 5        35.981    38827816.535 5 156343531.91605      -718.520 5        32.539
C09        46.000                                                                                                                                    38705041.278 6 201547301.16606      -310.904 6        39.583    38705035.975 7 155849156.62307      -240.381 7        43.465    38705031.867 6 163773651.72306      -252.376 6        39.757
C32        47.000                                                                                                                                    26115556.405 3                     -3676.534 3        19.224
C44        48.000                                                                                                                                                                                                                                                                    25680282.453 6 108661679.05706      1478.927 6        38.955
C35        51.000                                                                                                                                    23078464.567 6 120175838.42306      -392.158 6        41.511                                                                    23078460.238 5  97652544.25605      -318.433 5        32.000
I09        54.000    37341986.820 6 146537978.25306      -799.205 6        36.805
C20        55.000                                                                                                                                    22235036.736 8 115783658.50408     -1949.687 8        51.280                                                                    22235030.270 8  94083785.42908     -1584.163 8        48.677
> 2025 01 01 02 02  5.0000000  0 36
G02         1.000    22690627.232 6 119240096.47406     -3696.532 6        40.257                                    22690618.690 4  92914306.48004     -2880.409 4        24.541
G31         4.000    22302016.344 7 117197772.09307      -988.053 7        42.646                                    22302009.907 6  91322905.33906      -769.914 6        36.238    22302011.140 6  91323028.34006      -769.994 6        39.883
E34         6.000    26104236.953 7 137178695.48307      1685.532 7        42.859                                                                    26104237.314 7 102438683.42507      1258.642 7        44.190    26104236.047 7 105110965.18807      1291.523 7        44.120
E04         7.000    24881710.809 5 130754344.47805     -2754.909 5        32.605                                                                    24881716.977 7  97641184.43707     -2057.232 7        43.340    24881717.767 7 100188345.50607     -2110.859 7        43.547
G03         8.000    20148895.659 8 105883158.64108     -1576.976 8        53.078                                    20148893.495 8  82506392.08308     -1228.813 8        50.945    20148893.838 7  82506382.08207     -1228.805 7        44.330
G09         9.000    22147156.599 5 116384081.13805      2177.212 5        34.400                                    22147158.921 4  90688846.09004      1696.517 4        25.579    22147155.971 6  90688886.14206      1697.030 6        36.711
G04        11.000    20581192.745 6 108154912.33106       731.204 6        41.237                                    20581187.054 4  84276500.74504       569.778 4        27.042    20581188.427 7  84276519.73607       569.794 7        44.379
E09        12.000    23619162.071 8 124119630.49308      -174.925 8        50.632                                                                    23619161.573 8  92686729.49308      -130.605 8        48.963    23619159.556 7  95104621.07307      -134.043 7        45.451
E10        13.000                                                                                                                                    27537285.462 4                     -2846.688 4        24.180    27537297.036 4                     -2921.236 4        24.331
E06        14.000    23587929.993 7 123955427.20107     -1499.709 7        43.992                                                                    23587929.488 8  92564116.34808     -1119.909 8        50.787    23587929.195 8  94978800.74308     -1149.164 8        49.953
E11        15.000    25037080.214 6 131570793.93706     -3188.444 6        41.189                                                                    25037076.048 7  98250877.10707     -2380.923 7        42.603    25037077.165 7 100813909.95307     -2443.051 7        44.476
G19        16.000    22377063.852 7 117592200.72707      -814.554 7        42.110                                    22377048.325 2  91630258.00302      -634.710 2        17.057
G06        19.000    23573772.578 6 123881104.10906      2398.974 6        41.361                                    23573771.059 6  96530625.08506      1869.323 6        37.297    23573772.205 7  96530698.08607      1869.386 7        44.310
E36        20.000    23488940.375 7 123435354.90007      -696.595 7        45.758                                                                    23488940.436 7  92175633.68007      -520.167 7        44.582    23488940.081 7  94580246.53207      -533.725 7        44.439
E05        21.000    24919998.648 5 130955467.50105      1920.186 5        34.243                                                                    24919994.075 5  97791449.19105      1434.227 5        31.630    24919999.788 5 100342540.80305      1471.352 5        34.600
G17        22.000    22833140.670 6 119988952.11806     -2544.089 6        37.535                                    22833138.489 4  93497953.09104     -1982.417 4        27.365    22833137.824 6  93497878.11306     -1982.272 6        39.093
R07        23.000    22559396.020 5 120762270.30705      2445.995 5        34.114                                                                    22559396.362 4                      1902.042 4        29.024
S23        24.000    38247027.004 6 200989504.59906      -824.964 6        37.607
S36        25.000    38299367.789 6 201264370.84806      -828.851 6        36.541
R20        27.000    22012751.394 5 117712066.89005     -5025.636 5        33.461                                                                    22012753.786 6  91553830.50706     -3908.837 6        38.601
R06        29.000    19669480.326 5 104960121.75605       116.713 5        32.317
R14        30.000    23325025.135 5 124335505.81305     -1391.005 5        31.585                                                                    23325049.710 4                     -1083.414 4        26.168
C19        33.000                                                                                                                                    22709185.142 7 118252805.45407       664.759 7        43.879                                                                    22709181.193 7  96089972.10707       540.153 7        44.411
R21        34.000    19541432.102 8 104570265.78808     -1715.663 8        48.679                                                                    19541431.098 7  81332331.84407     -1334.393 7        46.490
R05        36.000    21268273.084 7 113691075.95207     -3935.889 7        44.972                                                                    21268271.552 6  88426333.08306     -3061.332 6        37.127
R22        37.000    21675455.250 7 115705020.14807      2483.049 7        44.734                                                                    21675450.345 7  89992832.44707      1931.226 7        42.834
C39        38.000                                                                                                                                    39144227.430 5 203834273.20505     -1356.656 5        32.251                                                                    39144213.447 5 165631977.79315     -1102.302 5        35.390
C06        41.000                                                                                                                                    38353650.372 6 199717519.61306      -821.855 6        36.219    38353642.046 6 154434220.49906      -635.683 6        38.766    38353643.501 6 162286808.42306      -667.935 6        38.745
C29        43.000                                                                                                                                    23545837.415 5 122609326.06805     -3609.799 5        32.838                                                                    23545828.096 4  99630170.47604     -2933.152 4        24.737
C16        45.000                                                                                                                                    38828692.654 6 202191304.32406      -930.031 6        37.414    38828711.562 5 156347125.58105      -719.118 5        30.875
C09        46.000                                                                                                                                    38705338.572 6 201548857.02906      -311.632 6        41.220    38705334.697 7 155850359.72307      -240.914 7        44.063    38705330.687 6 163774916.02906      -253.272 6        39.751
C32        47.000                                                                                                                                    26119091.334 3                     -3681.849 3        20.429
C44        48.000                                                                                                                                    25678567.862 6 133714875.26806      1818.291 6        37.584                                                                    25678535.191 6 108654287.91206      1477.662 6        38.300
C35        51.000                                                                                                                                    23078844.479 6 120177805.98106      -394.851 6        41.402                                                                    23078839.535 5  97654143.10505      -320.899 5        31.358
I09        54.000    37343005.775 6 146541973.35506      -799.156 6        37.301
C20        55.000                                                                                                                                    22236909.179 8 115793409.96608     -1951.023 8        50.232                                                                    22236903.135 8  94091709.32408     -1585.328 8        48.835
> 2025 01 01 02 02 10.0000000  0 35
G02         1.000    22694145.435 7 119258583.06907     -3698.183 7        42.919                                    22694137.132 4  92928711.61904     -2881.702 4        26.299
G31         4.000    22302957.791 7 117202721.44707      -991.755 7        42.129                                    22302951.564 6  91326761.97806      -772.783 6        36.442    22302953.202 6  91326884.94806      -772.822 6        39.874
E34         6.000    26102632.455 6 137170269.80906      1684.575 6        40.896                                                                    26102633.990 7 102432391.50707      1258.030 7        44.578    26102632.489 7 105104509.13207      1290.933 7        42.974
E04         7.000    24884334.224 5 130768121.69805     -2756.082 5        30.506                                                                    24884338.333 7  97651472.61607     -2058.130 7        44.316    24884339.623 7 100198902.08907     -2111.792 7        43.009
G03         8.000    20150397.017 8 105891048.16508     -1579.013 8        53.174                                    20150394.449 8  82512539.77408     -1230.399 8        50.832    20150395.495 7  82512529.74607     -1230.391 7        44.072
G09         9.000    22145085.257 5 116373197.67805      2175.582 5        35.952                                    22145087.777 4  90680365.44404      1695.238 4        28.123    22145084.707 6  90680405.50906      1695.378 6        36.038
G04        11.000    20580498.508 6 108151262.14206       728.734 6        39.565                                    20580492.517 4  84273656.45004       567.831 4        27.832    20580493.602 7  84273675.46207       567.846 7        44.787
E09        12.000    23619329.179 8 124120509.61008      -176.874 8        50.353                                                                    23619328.939 8  92687385.97508      -132.072 8        48.802    23619326.573 7  95105294.67407      -135.504 7        44.912
E10        13.000                                                                                                                                    27540913.634 4                     -2847.048 4        24.226    27540922.529 4                     -2920.902 4        28.009
E06        14.000    23589358.361 7 123962930.08407     -1501.600 7        44.438                                                                    23589357.128 8  92569719.14408     -1121.265 8        50.720    23589356.854 8  94984549.69008     -1150.481 8        50.001
E11        15.000    25040115.089 6 131586738.91706     -3189.674 6        40.551                                                                    25040110.454 7  98262784.07607     -2382.008 7        42.227    25040111.770 7 100826127.54707     -2444.134 7        44.843
G19        16.000    22377837.569 6 117596282.36806      -818.258 6        39.775                                    22377825.091 2  91633438.46602      -637.584 2        17.170
G28        17.000    23760509.178 5 124862380.64105     -2696.893 5        32.120                                                                                                    23760538.243 5  97295441.35015     -2101.245 5        33.701
G06        19.000    23571490.091 6 123869111.79606      2397.830 6        41.464                                    23571489.476 6  96521280.43306      1868.436 6        38.333    23571489.783 7  96521353.44307      1868.364 7        44.290
E36        20.000    23489603.507 7 123438842.34107      -698.591 7        43.989                                                                    23489604.644 7  92178237.92907      -521.658 7        45.508    23489603.840 7  94582918.74507      -535.268 7        45.439
E05        21.000    24918170.115 4 130945869.05904      1919.219 4        27.868                                                                    24918166.112 5  97784281.40805      1433.149 5        31.019    24918175.752 5 100335186.11505      1470.639 5        35.638
G17        22.000    22835564.497 5 120001677.81905     -2545.937 5        33.066                                    22835560.592 4  93507869.27504     -1983.878 4        27.856    22835560.228 6  93507794.29706     -1984.181 6        40.365
R07        23.000    22557104.446 4 120750042.98714      2444.507 4        28.701
S23        24.000    38247814.922 6 200993628.36406      -824.806 6        38.562
S36        25.000    38300159.552 5 201268514.05105      -828.540 5        34.943
R20        27.000    22017452.274 5 117737199.80305     -5027.567 5        32.844                                                                    22017453.350 6  91573378.33106     -3910.203 6        37.414
R06        29.000    19669373.130 5 104959545.24705       114.098 5        31.826
C19        33.000                                                                                                                                    22708547.768 7 118249484.69807       663.440 7        44.658                                                                    22708542.418 7  96087273.74107       539.033 7        43.369
R21        34.000    19543036.726 8 104578855.27208     -1720.189 8        49.046                                                                    19543036.167 7  81339012.56507     -1337.906 7        46.750
R05        36.000    21271954.608 7 113710757.92007     -3937.005 7        45.920                                                                    21271952.525 6  88441641.27306     -3062.205 6        36.246
R22        37.000    21673125.449 6 115692611.15706      2480.432 6        40.439                                                                    21673127.294 7  89983180.99807      1929.237 7        43.416
C39        38.000                                                                                                                                    39145529.025 5 203841058.11105     -1357.271 5        34.519                                                                    39145516.648 5 165637491.13605     -1102.981 5        32.988
C06        41.000                                                                                                                                    38354438.819 6 199721631.28006      -822.916 6        36.873    38354431.642 6 154437399.89706      -636.209 6        38.739    38354432.787 6 162290149.42906      -668.415 6        38.408
C29        43.000                                                                                                                                    23549303.027 6 122627380.37806     -3611.671 6        36.151                                                                    23549301.104 5  99644841.13105     -2934.671 5        30.883
C16        45.000                                                                                                                                    38829586.980 6 202195955.73706      -930.956 6        36.163    38829603.358 4 156350722.38504      -720.568 4        27.760
C09        46.000                                                                                                                                    38705638.118 6 201550416.89806      -312.552 6        41.619    38705633.656 7 155851565.92707      -241.554 7        42.764    38705630.475 6 163776183.54106      -253.863 6        40.024
C44        48.000                                                                                                                                    25676828.373 6 133705787.02806      1816.840 6        39.697                                                                    25676789.116 6 108646902.98606      1476.275 6        38.000
C35        51.000                                                                                                                                    23079225.155 7 120179787.49207      -397.832 7        42.411                                                                    23079222.199 5  97655753.22305      -323.269 5        32.599
I09        54.000    37344023.992 6 146545969.02606      -799.288 6        38.393
C20        55.000                                                                                                                                    22238783.243 8 115803168.40508     -1952.433 8        50.585                                                                    22238777.113 8  94099638.84308     -1586.494 8        48.841
> 2025 01 01 02 02 15.0000000  0 37
G02         1.000    22697664.751 7 119277077.91507     -3699.803 7        45.238                                    22697657.350 4  92943123.17804     -2882.972 4        28.057
G21         3.000    24421230.470 4                     -4054.088 4        27.545
G31         4.000    22303903.594 6 117207689.20106      -995.392 6        41.912                                    22303896.695 6  91330632.95406      -775.624 6        36.132    22303897.934 6  91330755.94206      -775.594 6        38.874
E34         6.000    26101029.487 6 137161848.62606      1683.735 6        40.508                                                                    26101030.850 7 102426102.98207      1257.253 7        44.482    26101029.770 7 105098056.56607      1290.181 7        43.228
E04         7.000    24886960.860 6 130781905.46806     -2757.411 6        36.597                                                                    24886962.268 7  97661765.71607     -2059.130 7        43.807    24886961.280 7 100209463.69507     -2112.791 7        44.751
G03         8.000    20151900.251 8 105898947.89108     -1581.067 8        52.838                                    20151897.496 8  82518695.40708     -1232.000 8        51.050    20151898.482 7  82518685.39207     -1231.954 7        43.719
G09         9.000    22143015.347 5 116362322.66005      2173.748 5        34.690                                    22143018.118 4  90671891.43404      1693.834 4        29.062    22143013.289 6  90671931.45906      1694.065 6        36.378
G04        11.000    20579805.745 6 108147625.24706       726.065 6        39.039                                    20579800.725 4  84270822.48204       565.768 4        27.018    20579801.085 7  84270841.50107       565.763 7        44.910
E09        12.000    23619498.416 8 124121398.77808      -178.892 8        50.188                                                                    23619498.239 8  92688049.96508      -133.613 8        49.768    23619495.402 7  95105976.00507      -137.090 7        46.085
E10        13.000                                                                                                                                    27544542.811 3                     -2847.705 3        22.648    27544548.438 4                     -2921.758 4        26.192
E06        14.000    23590788.108 7 123970442.41407     -1503.516 7        44.239                                                                    23590786.627 8  92575329.00308     -1122.726 8        50.261    23590786.452 8  94990305.91208     -1152.045 8        50.600
E11        15.000    25043151.448 6 131602691.19806     -3191.366 6        41.421                                                                    25043146.212 7  98274696.48907     -2383.099 7        42.112    25043147.411 7 100838350.72107     -2445.180 7        45.157
G19        16.000    22378612.043 6 117600382.22206      -821.780 6        40.882                                    22378605.894 3  91636633.18003      -640.377 3        18.567
G28        17.000                                                                                                                                                                    23763103.393 5  97305953.97305     -2103.679 5        33.012
C23        18.000                                                                                                                                    26228115.046 4                     -1023.337 4        28.408
G06        19.000    23569208.572 6 123857125.48806      2396.641 6        40.801                                    23569208.850 6  96511940.45806      1867.502 6        37.739    23569208.237 7  96512013.46607      1867.439 7        44.348
E36        20.000    23490269.448 7 123442340.26307      -700.599 7        42.322                                                                    23490270.563 7  92180850.00907      -523.135 7        44.640    23490269.481 7  94585598.97907      -536.888 7        45.243
E05        21.000    24916340.667 4 130936275.21004      1918.551 4        28.768                                                                    24916339.609 5  97777117.26105      1432.145 5        32.713    24916348.004 6 100327834.96406      1469.878 6        37.985
G17        22.000    22837989.660 5 120014415.82205     -2549.026 5        35.262                                    22837985.128 4  93517795.06104     -1986.241 4        26.910    22837984.692 6  93517719.99706     -1986.212 6        38.808
R07        23.000                                                                                                                                    22554794.056 4                      1900.505 4        26.407
S23        24.000    38248606.202 6 200997752.30406      -824.743 6        39.508
S36        25.000    38300953.829 6 201272657.57506      -828.791 6        37.955
R20        27.000    22022153.497 5 117762342.16405     -5029.343 5        32.563                                                                    22022156.181 6  91592933.46306     -3911.740 6        36.775
R06        29.000    19669267.177 4 104958982.56404       111.116 4        29.687
C19        33.000                                                                                                                                    22707911.483 7 118246171.65907       661.785 7        42.961                                                                    22707906.335 7  96084581.63807       537.754 7        44.254
R21        34.000    19544647.070 8 104587467.80408     -1724.855 8        48.702                                                                    19544646.196 7  81345711.17507     -1341.586 7        46.605
R05        36.000    21275637.165 7 113730445.54507     -3938.164 7        44.485                                                                    21275634.374 6  88456953.87906     -3063.005 6        37.025
R22        37.000    21670804.196 6 115680215.45506      2477.753 6        40.517                                                                    21670805.008 7  89973539.87907      1927.169 7        44.247
C39        38.000                                                                                                                                    39146836.170 6 203847847.23306     -1358.192 6        36.839                                                                    39146817.643 5 165643007.80505     -1103.778 5        32.569
C06        41.000                                                                                                                                    38355228.153 5 199725747.54505      -823.837 5        34.143    38355222.659 6 154440582.87206      -636.935 6        38.664    38355222.386 6 162293494.26906      -669.440 6        37.652
C29        43.000                                                                                                                                    23552771.402 5 122645443.08305     -3613.119 5        33.401                                                                    23552772.967 5  99659518.55105     -2936.253 5        33.204
C16        45.000                                                                                                                                    38830482.280 6 202200611.51706      -931.907 6        36.147    38830497.338 4 156354322.39604      -720.053 4        27.521
C09        46.000                                                                                                                                    38705938.638 6 201551981.23406      -313.348 6        41.378    38705934.435 7 155852775.59007      -242.356 7        43.653    38705931.141 6 163777454.71306      -254.762 6        39.937
C44        48.000                                                                                                                                                                                                                                                                    25675045.686 6 108639524.75106      1474.689 6        38.021
C35        51.000                                                                                                                                    23079608.253 6 120181783.54606      -400.640 6        41.559                                                                    23079602.219 4  97657375.29504      -325.342 4        26.766
I09        54.000    37345042.912 6 146549965.60706      -799.371 6        38.438
C20        55.000                                                                                                                                    22240658.368 8 115812934.31708     -1953.984 8        49.229                                                                    22240652.853 8  94107574.44108     -1587.844 8        48.580
> 2025 01 01 02 02 20.0000000  0 37
G02         1.000    22701185.092 7 119295580.54207     -3701.148 7        45.592                                    22701178.941 4  92957540.80504     -2884.016 4        28.900
G21         3.000    24425091.873 4                     -4054.487 4        26.515
G31         4.000    22304852.367 7 117212674.98307      -998.887 7        43.767                                    22304845.296 5  91334517.98105      -778.339 5        35.338    22304846.547 6  91334640.94706      -778.107 6        36.877
E34         6.000    26099427.353 6 137153431.56106      1683.129 6        38.847                                                                    26099428.995 7 102419817.51907      1256.912 7        43.776    26099428.112 7 105091607.14007      1289.707 7        43.327
E04         7.000    24889591.648 5 130795695.37805     -2758.544 5        35.162                                                                    24889586.968 7  97672063.35107     -2059.968 7        42.523    24889586.109 7 100220029.97807     -2113.605 7        44.861
G03         8.000    20153405.370 8 105906857.37208     -1582.811 8        52.497                                    20153402.389 8  82524858.63608     -1233.359 8        50.775    20153403.222 7  82524848.62607     -1233.343 7        43.270
G09         9.000    22140948.851 6 116351455.68406      2172.638 6        40.117                                    22140949.823 5  90663423.64105      1692.960 5        30.219    22140945.351 5  90663463.70705      1693.100 5        35.886
G04        11.000    20579115.841 6 108144001.19606       723.592 6        39.757                                    20579111.241 4  84267998.56004       563.861 4        25.955    20579111.056 7  84268017.53107       563.876 7        44.349
E09        12.000    23619669.575 8 124122297.58408      -180.651 8        50.018                                                                    23619669.418 8  92688721.14808      -134.870 8        50.044    23619666.368 7  95106664.70207      -138.350 7        46.525
E10        13.000                                                                                                                                                                                                    27548169.790 4                     -2921.607 4        24.135
E06        14.000    23592219.143 7 123977963.78407     -1505.155 7        43.503                                                                    23592217.939 8  92580945.61408     -1123.918 8        50.057    23592218.208 8  94996069.04508     -1153.243 8        50.306
E11        15.000    25046188.631 7 131618650.30907     -3192.421 7        42.487                                                                    25046183.471 7  98286613.99007     -2383.931 7        42.819    25046184.505 7 100850579.11507     -2446.163 7        45.633
G19        16.000    22379397.705 6 117604499.77406      -825.102 6        39.339                                    22379390.284 3  91639841.66703      -642.959 3        19.731
G28        17.000    23765646.282 3                     -2697.476 3        18.478                                                                                                    23765669.889 5  97316477.57405     -2105.659 5        31.849
C23        18.000                                                                                                                                    26229091.063 4                     -1025.843 4        27.042
G06        19.000    23566929.257 6 123845144.82406      2395.518 6        41.671                                    23566929.114 6  96502604.88406      1866.637 6        38.084    23566928.877 7  96502677.87707      1866.677 7        44.507
E36        20.000    23490936.992 6 123445848.25306      -702.400 6        41.416                                                                    23490937.704 7  92183469.62607      -524.577 7        44.370    23490937.038 7  94588286.91207      -538.206 7        45.266
E05        21.000    24914520.904 4 130926685.70004      1917.618 4        28.739                                                                    24914515.824 5  97769956.29205      1431.911 5        32.838    24914520.065 6 100320487.15206      1469.281 6        38.447
G17        22.000    22840421.020 6 120027165.73506     -2551.126 6        36.771                                    22840411.748 4  93527730.05604     -1987.880 4        27.425    22840409.868 6  93527654.96506     -1987.951 6        38.850
S23        24.000    38249390.404 6 201001876.26006      -824.438 6        39.069
S36        25.000    38301728.108 6 201276801.36806      -828.580 6        36.284
R20        27.000    22026857.174 5 117787493.38505     -5031.376 5        32.671                                                                    22026859.980 5  91612495.51805     -3913.026 5        35.033
R06        29.000    19669161.364 4 104958433.11504       109.082 4        28.976
R14        30.000                                                                                                                                    23329019.116 5                     -1092.010 5        34.352
C19        33.000                                                                                                                                    22707276.187 7 118242865.82307       660.524 7        43.723                                                                    22707272.049 7  96081895.36407       536.857 7        44.895
R21        34.000    19546261.214 7 104596102.88507     -1729.165 7        46.967                                                                    19546259.767 7  81352427.34007     -1344.894 7        46.347
R05        36.000    21279319.393 7 113750138.44707     -3938.953 7        43.926                                                                    21279322.025 6  88472270.60006     -3063.633 6        37.720
R22        37.000    21668487.457 7 115667832.52207      2475.516 7        42.066                                                                    21668485.494 7  89963908.71707      1925.333 7        45.895
C39        38.000                                                                                                                                    39148147.149 5 203854639.87205     -1358.910 5        35.062                                                                    39148121.971 5 165648527.40405     -1104.343 5        31.683
C06        41.000                                                                                                                                    38356017.690 5 199729868.04005      -824.598 5        32.317    38356013.693 6 154443769.09706      -637.492 6        39.336    38356013.750 6 162296842.48506      -669.644 6        37.217
C29        43.000                                                                                                                                    23556241.173 5 122663513.48705     -3614.708 5        34.848                                                                    23556242.743 5  99674202.21305     -2936.899 5        32.527
C16        45.000                                                                                                                                    38831372.951 5 202205271.33605      -932.269 5        35.952    38831392.353 4 156357925.88004      -720.973 4        29.014
C09        46.000                                                                                                                                    38706238.917 6 201553549.69106      -314.007 6        41.063    38706236.697 7 155853988.42507      -242.767 7        44.309    38706231.471 6 163778729.19606      -255.141 6        39.898
C44        48.000                                                                                                                                    25673322.674 5 133687634.75305      1813.580 5        35.638                                                                    25673303.241 6 108632152.82106      1473.762 6        37.758
C35        51.000                                                                                                                                    23079994.461 6 120183793.66906      -403.409 6        41.056                                                                    23079984.926 4  97659008.65004      -327.815 4        24.692
I09        54.000    37346060.694 6 146553962.79106      -799.446 6        37.040
C20        55.000                                                                                                                                    22242534.737 8 115822707.22208     -1955.212 8        49.007                                                                    22242529.433 8  94115515.72608     -1588.634 8        48.057
> 2025 01 01 02 02 25.0000000  0 35
G02         1.000    22704707.464 7 119314090.08407     -3702.775 7        44.751                                    22704701.752 4  92971963.81804     -2885.280 4        28.701
G21         3.000    24428954.992 4                     -4054.676 4        28.313
G31         4.000    22305804.756 7 117217677.84407     -1002.404 7        43.363                                    22305796.871 5  91338416.29905      -781.090 5        35.162    22305799.435 6  91338539.28806      -780.985 6        36.454
E34         6.000    26097826.456 6 137145017.75806      1682.199 6        36.144                                                                    26097827.569 7 102413534.49407      1256.200 7        42.705    26097827.332 7 105085160.20107      1288.863 7        43.291
E04         7.000    24892217.555 5 130809490.43405     -2759.619 5        34.314                                                                    24892211.190 6  97682364.86506     -2060.723 6        39.622    24892211.003 7 100230600.27707     -2114.670 7        44.680
G03         8.000    20154912.365 8 105914775.77008     -1584.769 8        51.695                                    20154909.013 8  82531028.80408     -1234.886 8        50.365    20154910.116 7  82531018.80407     -1234.884 7        43.784
G09         9.000    22138882.412 6 116340595.96306      2170.983 6        40.815                                    22138882.091 4  90654961.53004      1691.674 4        28.445    22138875.740 5  90655001.59605      1691.637 5        31.955
G04        11.000    20578427.909 6 108140389.07806       720.854 6        37.002                                    20578423.971 4  84265183.91904       561.703 4        25.218    20578424.031 7  84265202.92307       561.840 7        44.275
E09        12.000    23619842.375 8 124123205.15308      -182.622 8        50.351                                                                    23619842.119 8  92689398.86708      -136.348 8        50.216    23619839.490 7  95107360.11807      -139.920 7        47.242
E10        13.000                                                                                                                                                                                                    27551799.026 4                     -2921.453 4        24.391
E06        14.000    23593651.710 7 123985493.26707     -1506.943 7        42.292                                                                    23593650.381 8  92586568.31708     -1125.335 8        49.359    23593651.353 8  95001838.42508     -1154.699 8        50.072
E11        15.000    25049226.692 7 131634615.37207     -3193.762 7        44.107                                                                    25049221.684 7  98298535.94807     -2385.050 7        42.809    25049222.644 7 100862812.08907     -2447.176 7        45.731
G19        16.000    22380185.790 6 117608634.17506      -828.740 6        41.027                                    22380177.513 3  91643063.28403      -645.762 3        21.000
G06        19.000    23564650.162 6 123833168.90106      2394.480 6        41.628                                    23564650.085 6  96493272.99206      1865.824 6        38.417    23564649.356 7  96493345.98007      1865.783 7        43.911
E36        20.000    23491606.986 7 123449365.47207      -704.562 7        42.466                                                                    23491607.149 7  92186096.11307      -526.122 7        44.396    23491606.477 7  94590981.90807      -539.875 7        46.157
E05        21.000    24912707.167 4 130917099.50204      1917.267 4        28.929                                                                    24912692.244 5  97762797.88005      1430.859 5        34.200    24912697.920 6 100313141.96606      1468.603 6        37.819
G17        22.000    22842851.274 5 120039926.56005     -2553.626 5        35.533                                    22842840.273 4  93537673.52904     -1989.842 4        26.922    22842838.751 6  93537598.50906     -1989.569 6        38.339
R07        23.000    22550248.152 4                      2441.110 4        28.483                                                                    22550258.865 5                      1898.486 5        32.275
S23        24.000    38250179.386 6 201005999.21506      -824.734 6        39.285
S36        25.000    38302516.357 6 201280944.27806      -828.724 6        37.142
R20        27.000    22031562.594 5 117812652.63205     -5032.767 5        32.012                                                                    22031564.916 6  91632063.80706     -3914.516 6        36.476
R06        29.000    19669059.452 4 104957896.09804       105.866 4        29.270
C19        33.000                                                                                                                                    22706642.676 7 118239566.32907       659.075 7        43.352                                                                    22706638.725 7  96079214.27107       535.524 7        45.676
R21        34.000    19547877.398 7 104604759.65207     -1733.813 7        44.587                                                                    19547877.284 7  81359160.40507     -1348.528 7        46.213
R05        36.000    21283003.801 7 113769835.78707     -3940.048 7        43.064                                                                    21283007.452 6  88487590.76106     -3064.556 6        36.586
R22        37.000    21666171.478 6 115655461.51006      2472.735 6        41.852                                                                    21666168.128 7  89954286.80307      1923.359 7        46.288
C39        38.000                                                                                                                                                                                                                                                                    39149425.852 5 165654049.24205     -1104.999 5        32.114
C06        41.000                                                                                                                                    38356812.285 5 199733991.83105      -825.472 5        33.521    38356806.173 6 154446957.93006      -638.140 6        39.438    38356806.013 6 162300193.43206      -670.769 6        37.100
C29        43.000                                                                                                                                    23559713.134 4 122681590.99504     -3616.514 4        28.180                                                                    23559716.396 5  99688891.56505     -2938.553 5        33.150
C16        45.000                                                                                                                                    38832268.780 5 202209934.39505      -933.008 5        34.486
C09        46.000                                                                                                                                    38706541.925 7 201555121.32607      -314.884 7        42.341    38706538.514 7 155855203.70307      -243.419 7        43.613    38706533.308 6 163780006.28506      -255.957 6        39.426
C44        48.000                                                                                                                                    25671573.234 5 133678569.47705      1812.144 5        32.066                                                                    25671563.207 6 108624786.59706      1472.301 6        37.777
C35        51.000                                                                                                                                    23080382.216 6 120185817.01806      -406.199 6        40.768                                                                    23080371.594 4  97660652.70504      -330.104 4        24.150
I09        54.000    37347079.410 6 146557959.93906      -799.619 6        37.259
C20        55.000                                                                                                                                    22244412.101 8 115832486.30408     -1956.619 8        49.373                                                                    22244406.483 7  94123462.02507     -1589.864 7        46.960
> 2025 01 01 02 02 30.0000000  0 37
G02         1.000    22708230.446 7 119332606.92907     -3704.004 7        43.471                                    22708225.427 4  92986392.51704     -2886.225 4        28.493
G21         3.000    24432818.005 4                     -4054.843 4        25.008
G31         4.000    22306759.181 6 117222698.31606     -1005.785 6        41.928                                    22306752.018 5  91342328.34005      -783.738 5        35.324    22306755.019 6  91342451.35706      -783.763 6        38.135
E34         6.000    26096227.600 6 137136607.60606      1681.839 6        36.597                                                                    26096227.358 7 102407254.22207      1255.854 7        42.590    26096226.876 7 105078716.08307      1288.598 7        43.170
E04         7.000    24894842.268 5 130823291.21805     -2760.516 5        32.042                                                                    24894834.056 6  97692670.63706     -2061.465 6        38.619    24894836.636 7 100241174.91207     -2115.304 7        44.113
G03         8.000    20156421.123 8 105922703.47508     -1586.428 8        50.939                                    20156417.533 8  82537206.22908     -1236.176 8        50.252    20156419.052 7  82537196.23107     -1236.168 7        43.761
G09         9.000    22136815.705 6 116329743.86606      2169.628 6        41.733                                    22136815.012 4  90646505.40704      1690.612 4        27.102    22136810.383 5  90646545.39405      1690.873 5        30.340
G04        11.000    20577741.848 6 108136789.38306       718.522 6        37.531                                    20577739.182 4  84262378.95604       559.899 4        24.556    20577739.484 7  84262397.92707       560.042 7        44.731
E09        12.000    23620016.608 8 124124121.90908      -184.192 8        50.258                                                                    23620016.342 8  92690083.45308      -137.515 8        50.309    23620014.286 7  95108062.56807      -141.129 7        47.441
E10        13.000                                                                                                                                                                                                    27555427.301 4                     -2922.334 4        25.654
E06        14.000    23595086.181 6 123993031.35306     -1508.380 6        41.852                                                                    23595085.003 8  92592197.41708     -1126.417 8        49.278    23595085.601 8  95007614.37308     -1155.819 8        49.625
E11        15.000    25052265.652 7 131650586.82807     -3194.693 7        43.321                                                                    25052260.977 7  98310462.67907     -2385.673 7        43.534    25052261.816 7 100875049.95607     -2447.876 7        45.810
G19        16.000    22380976.210 7 117612785.80607      -831.851 7        44.223                                    22380968.025 3  91646298.33503      -648.201 3        21.929
G06        19.000    23562372.156 7 123821198.13107      2393.715 7        43.515                                    23562371.941 6  96483945.12406      1865.233 6        38.685    23562371.004 6  96484018.12306      1865.188 6        41.828
E36        20.000    23492277.857 7 123452892.32107      -706.266 7        42.713                                                                    23492277.975 7  92188729.78707      -527.373 7        43.809    23492277.337 7  94593684.30007      -541.205 7        46.253
E05        21.000    24910886.322 4 130907517.33404      1916.243 4        28.711                                                                    24910867.780 5  97755642.33605      1430.954 5        32.982    24910874.116 6 100305799.75706      1468.149 6        36.253
G17        22.000                                                                                                                                                                    22845268.406 6  93547550.95206     -1991.418 6        37.822
R07        23.000    22547970.030 5                      2439.630 5        31.713                                                                    22547976.889 5                      1897.582 5        31.819
S23        24.000    38250971.288 6 201010121.78106      -824.509 6        40.865
S36        25.000    38303304.310 6 201285087.02306      -828.420 6        39.447
R20        27.000    22036267.337 5 117837820.29405     -5034.290 5        31.147                                                                    22036269.714 6  91651638.69006     -3915.630 6        36.219
R06        29.000    19668964.848 4 104957371.91304       103.544 4        24.737
R14        30.000                                                                                                                                    23331640.880 5  96732909.28315     -1097.566 5        32.251
C19        33.000                                                                                                                                    22706010.577 6 118236273.69406       658.031 6        40.584                                                                    22706006.746 7  96076538.71507       534.525 7        46.453
R21        34.000    19549499.487 6 104613438.45006     -1737.953 6        40.136                                                                    19549499.248 7  81365910.61707     -1351.709 7        46.290
R05        36.000    21286689.603 7 113789537.89107     -3940.861 7        42.222                                                                    21286692.592 5  88502914.64205     -3065.066 5        35.614
R22        37.000    21663857.225 7 115643102.89907      2470.497 7        44.712                                                                    21663852.012 7  89944674.52807      1921.550 7        45.567
C39        38.000                                                                                                                                    39150772.770 5 203868233.90905     -1360.177 5        32.383                                                                    39150731.730 5 165659573.70105     -1105.020 5        31.502
C06        41.000                                                                                                                                    38357606.307 5 199738119.47605      -825.802 5        33.970    38357599.669 6 154450149.64906      -638.562 6        40.203    38357599.544 6 162303547.47306      -671.099 6        38.126
C29        43.000                                                                                                                                    23563183.854 5 122699675.68205     -3617.785 5        32.054                                                                    23563187.661 5  99703586.91205     -2939.724 5        35.005
C16        45.000                                                                                                                                    38833165.017 6 202214601.00706      -933.544 6        37.002    38833176.108 3                      -721.036 3        23.257
C09        46.000                                                                                                                                    38706845.551 6 201556696.61106      -315.331 6        40.953    38706840.639 7 155856421.80307      -243.992 7        43.075    38706835.737 6 163781286.34306      -256.469 6        38.805
C32        47.000                                                                                                                                    26136752.361 4                     -3682.273 4        25.233
C44        48.000                                                                                                                                                                                                                                                                    25669823.884 6 108617426.33606      1471.368 6        37.800
C35        51.000                                                                                                                                    23080772.270 6 120187854.01506      -408.702 6        40.360                                                                    23080761.064 3                      -330.980 3        21.405
I09        54.000    37348098.475 6 146561957.33006      -799.463 6        37.138
C20        55.000                                                                                                                                    22246291.645 8 115842271.96108     -1957.751 8        49.330                                                                    22246285.535 7  94131413.69107     -1590.875 7        47.546
> 2025 01 01 02 02 35.0000000  0 36
G02         1.000    22711755.245 7 119351131.85707     -3705.651 7        44.343                                    22711750.389 4  93000827.52504     -2887.504 4        27.222
G31         4.000    22307718.236 7 117227737.12507     -1009.549 7        43.069                                    22307710.560 5  91346254.66405      -786.675 5        35.262    22307712.950 6  91346377.69006      -786.483 6        38.781
E34         6.000    26094629.426 6 137128201.96406      1680.963 6        38.150                                                                    26094627.730 7 102400977.29107      1255.120 7        42.906    26094626.894 7 105072275.39607      1287.862 7        42.590
E04         7.000                                                                                                                                    24897460.434 6  97702981.14106     -2062.499 6        37.172    24897463.516 7 100251754.48207     -2116.354 7        44.358
G03         8.000    20157931.520 8 105930641.29808     -1588.509 8        51.672                                    20157928.042 8  82543391.54208     -1237.795 8        50.101    20157929.505 7  82543381.53307     -1237.774 7        44.691
G09         9.000    22134751.618 6 116318900.25606      2167.828 6        37.626                                    22134749.212 4  90638055.83404      1689.216 4        24.211    22134747.160 4  90638095.89504      1688.915 4        26.335
G04        11.000    20577061.474 6 108133202.84506       716.079 6        39.009                                    20577056.732 3  84259584.25803       558.007 3        23.276    20577056.991 7  84259603.21107       558.010 7        45.246
E09        12.000    23620192.603 8 124125048.63308      -186.279 8        49.800                                                                    23620192.484 8  92690775.47908      -139.105 8        50.184    23620190.807 7  95108772.65207      -142.684 7        47.766
E10        13.000                                                                                                                                                                                                    27559053.912 4                     -2923.536 4        24.060
E06        14.000    23596522.085 6 124000578.78706     -1510.253 6        39.447                                                                    23596521.294 8  92597833.49608     -1127.859 8        49.114    23596522.006 8  95013397.48608     -1157.280 8        49.165
E11        15.000    25055306.110 7 131666565.44907     -3196.303 7        43.206                                                                    25055301.864 7  98322394.76407     -2386.851 7        43.706    25055302.637 7 100887293.31307     -2449.115 7        45.550
G19        16.000    22381770.647 7 117616955.48407      -835.722 7        43.117                                    22381761.429 3  91649547.43603      -651.240 3        21.952
G28        17.000    23773389.098 4                     -2709.960 4        24.135                                                                                                    23773369.979 4  97348111.65804     -2112.493 4        28.246
G06        19.000    23560095.430 7 123809233.34707      2392.336 7        43.223                                    23560094.789 6  96474621.92006      1864.151 6        38.853    23560094.392 7  96474694.92107      1864.360 7        42.042
E36        20.000    23492950.148 7 123456429.57007      -708.357 7        42.368                                                                    23492950.602 7  92191371.24507      -528.942 7        43.058    23492950.133 7  94596394.63507      -542.710 7        45.813
E05        21.000                                                                                                                                    24909044.824 5  97748490.27905      1430.063 5        33.419    24909052.940 5 100298461.12705      1467.400 5        34.557
G17        22.000    22847705.879 4                     -2559.885 4        27.365                                                                                                    22847701.257 6  93557512.88206     -1993.283 6        36.851
R07        23.000    22545695.964 5 120688861.36115      2438.321 5        32.838
S23        24.000    38251760.413 6 201014244.32406      -824.378 6        41.161
S36        25.000    38304095.430 6 201289229.99106      -828.432 6        38.309
R20        27.000    22040975.752 5 117862997.21205     -5036.270 5        32.593                                                                    22040978.907 6  91671220.70306     -3917.187 6        36.204
R06        29.000    19668869.159 4 104956861.48904       101.220 4        24.496
C19        33.000                                                                                                                                    22705380.410 6 118232988.61306       656.293 6        40.939                                                                    22705376.048 7  96073869.30107       533.312 7        47.096
R21        34.000    19551125.970 6 104622140.32506     -1742.573 6        39.312                                                                    19551125.369 7  81372678.74407     -1355.404 7        45.779
R05        36.000    21290376.232 6 113809245.38706     -3941.989 6        41.645                                                                    21290379.467 5  88518242.78605     -3066.300 5        31.125
R22        37.000    21661544.024 7 115630757.43007      2467.879 7        46.874                                                                    21661539.367 7  89935072.50507      1919.464 7        45.454
C39        38.000                                                                                                                                    39152085.435 5 203875036.50905     -1360.515 5        31.208                                                                    39152037.954 5 165665101.30805     -1105.999 5        30.241
C06        41.000                                                                                                                                    38358398.144 5 199742251.64705      -826.887 5        34.267    38358392.805 6 154453344.89206      -639.388 6        39.363    38358393.355 6 162306905.19806      -672.070 6        37.497
C29        43.000                                                                                                                                    23566661.488 5 122717768.60805     -3619.335 5        34.514                                                                    23566660.401 5  99718288.86605     -2940.973 5        33.341
C16        45.000                                                                                                                                    38834064.588 6 202219271.94906      -934.478 6        37.531    38834071.238 4                      -722.529 4        29.118
C09        46.000                                                                                                                                    38707149.538 6 201558276.28406      -316.284 6        41.638    38707143.276 7 155857643.32007      -244.681 7        42.112    38707139.156 6 163782569.96206      -257.014 6        38.904
C32        47.000                                                                                                                                    26140304.292 3                     -3680.273 3        19.224
C44        48.000                                                                                                                                    25668086.254 4 133660462.07404      1809.453 4        27.796                                                                    25668085.753 6 108610072.67006      1470.055 6        37.671
C35        51.000                                                                                                                                    23081166.510 6 120189905.44506      -411.702 6        39.688                                                                    23081151.991 3                      -335.405 3        22.248
I09        54.000    37349116.953 6 146565955.55506      -799.754 6        38.159
C20        55.000                                                                                                                                    22248172.393 8 115852064.97508     -1959.233 8        49.655                                                                    22248166.500 7  94139371.30407     -1592.018 7        46.444
> 2025 01 01 02 02 40.0000000  0 34
G02         1.000    22715282.665 7 119369665.40707     -3707.593 7        42.419                                    22715276.961 4  93015269.24904     -2889.024 4        26.359
G21         3.000    24440544.946 3                     -4057.748 3        23.943
G31         4.000    22308681.095 7 117232794.84407     -1013.619 7        44.012                                    22308672.978 6  91350195.75206      -789.839 6        36.057    22308675.512 6  91350318.78506      -789.696 6        39.348
E34         6.000    26093030.696 6 137119801.36606      1679.402 6        37.251                                                                    26093029.409 7 102394704.10807      1254.043 7        42.675    26093028.242 7 105065838.55007      1286.984 7        42.307
E04         7.000    24900114.494 3 130850912.66903     -2763.582 3        23.162                                                                    24900089.050 6  97713296.93406     -2063.719 6        37.100    24900092.327 7 100262339.39807     -2117.613 7        44.202
G03         8.000    20159444.368 8 105938589.75908     -1590.947 8        51.880                                    20159440.662 8  82549585.14608     -1239.699 8        50.048    20159441.982 7  82549575.14207     -1239.695 7        44.688
G09         9.000    22132688.772 6 116308065.54306      2165.930 6        38.378                                    22132684.681 3  90629613.20903      1687.707 3        22.743    22132680.979 3                      1688.815 3        19.582
G04        11.000    20576383.732 6 108129630.01906       713.110 6        38.637                                    20576376.840 3  84256800.21903       555.657 3        23.200    20576377.356 7  84256819.20407       555.629 7        44.433
E09        12.000    23620371.151 8 124125985.85708      -188.637 8        49.169                                                                    23620370.778 8  92691475.35808      -140.893 8        50.029    23620369.549 8  95109490.79008      -144.563 8        48.596
E06        14.000    23597960.223 6 124008136.14906     -1512.627 6        39.336                                                                    23597959.234 8  92603476.97608     -1129.561 8        48.523    23597960.143 8  95019188.17408     -1158.955 8        49.273
E11        15.000    25058348.204 7 131682551.79107     -3198.119 7        44.030                                                                    25058343.890 7  98334332.63007     -2388.277 7        43.956    25058344.631 7 100899542.59507     -2450.532 7        45.694
G19        16.000    22382566.155 7 117621143.74007      -839.720 7        43.018                                    22382558.187 3  91652811.01703      -654.329 3        21.214
G28        17.000    23775969.989 3                     -2712.436 3        22.381                                                                                                    23775955.355 4  97358678.98104     -2115.041 4        26.419
G06        19.000    23557819.504 7 123797275.10907      2390.772 7        42.700                                    23557818.859 6  96465303.81406      1862.942 6        38.856    23557819.331 6  96465376.82206      1862.910 6        41.268
E36        20.000    23493625.382 7 123459977.79307      -710.811 7        42.874                                                                    23493626.296 7  92194020.89707      -530.807 7        43.556    23493625.679 7  94599113.40707      -544.624 7        46.154
E05        21.000                                                                                                                                    24907223.841 5  97741342.07005      1429.105 5        32.461    24907231.338 5 100291126.45205      1466.471 5        33.713
G17        22.000    22850134.077 4                     -2560.798 4        29.384                                                                                                    22850137.983 6  93567484.73506     -1995.441 6        36.851
S23        24.000    38252536.356 6 201018367.52206      -824.718 6        40.548
S36        25.000    38304872.660 6 201293373.16906      -828.838 6        36.386
R20        27.000    22045687.077 4 117888183.84904     -5038.259 4        29.962                                                                    22045688.722 6  91690810.33406     -3918.683 6        36.442
R06        29.000    19668775.806 4 104956365.01604        97.489 4        25.654
C19        33.000                                                                                                                                    22704750.399 6 118229711.67906       654.361 6        37.478                                                                    22704746.640 7  96071206.47107       531.739 7        46.831
R21        34.000    19552757.687 6 104630865.68606     -1747.515 6        41.273                                                                    19552756.067 7  81379465.12707     -1359.257 7        46.154
R05        36.000    21294062.775 6 113828959.20206     -3943.521 6        41.247                                                                    21294071.377 5  88533575.71805     -3067.269 5        30.664
R22        37.000    21659234.060 8 115618425.73508      2464.813 8        48.116                                                                    21659229.162 7  89925481.19207      1917.064 7        44.901
C39        38.000                                                                                                                                                                                                                                                                    39153344.266 5 165670632.56405     -1106.909 5        30.075
C06        41.000                                                                                                                                    38359193.223 5 199746388.85705      -828.174 5        33.323    38359186.536 6 154456544.06906      -640.370 6        38.898    38359187.032 6 162310267.01106      -672.859 6        37.671
C29        43.000                                                                                                                                                                                                                                                                    23570136.291 5  99732997.86705     -2942.908 5        34.152
C16        45.000                                                                                                                                    38834962.748 5 202223947.77905      -935.981 5        35.471    38834969.645 4                      -723.798 4        26.898
C09        46.000                                                                                                                                    38707454.613 6 201559860.92506      -317.538 6        41.540    38707448.139 7 155858868.66407      -245.570 7        42.874    38707443.829 6 163783857.59006      -258.037 6        39.988
C44        48.000                                                                                                                                                                                                                                                                    25666349.500 6 108602726.12806      1468.496 6        37.996
C35        51.000                                                                                                                                    23081561.663 6 120191971.83706      -414.859 6        38.985                                                                    23081545.221 3                      -336.806 3        22.495
I09        54.000    37350136.398 6 146569955.08606      -800.060 6        38.009
C20        55.000                                                                                                                                    22250054.284 8 115861865.87808     -1961.094 8        48.738                                                                    22250048.065 7  94147335.33007     -1593.636 7        45.418
