     3.04           OBSERVATION DATA    M                   RINEX VERSION / TYPE
ssrcrin-15.6.1x                         20250101 011500 UTC PGM / RUN BY / DATE 
(00000000023479385599111004) Septentrio proprietary         COMMENT             
ract                                                        MARKER NAME         
01                                                          MARKER NUMBER       
geodetic                                                    MARKER TYPE         
NFB                 CLIMERS@TUW                             OBSERVER / AGENCY   
3296359             SEPT ASTERX SB3 PROB4.14.4              REC # / TYPE / VERS 
Unknown             Unknown                                 ANT # / TYPE        
  4127446.3452  1206915.5102  4695543.5796                  APPROX POSITION XYZ 
        0.0000        0.0000        0.0000                  ANTENNA: DELTA H/E/N
G   23 X1  C1C L1C D1C S1C C1W S1W C2W L2W D2W S2W C2L L2L  SYS / # / OBS TYPES 
       D2L S2L C5Q L5Q D5Q S5Q C1L L1L D1L S1L              SYS / # / OBS TYPES 
E   21 X1  C1C L1C D1C S1C C6C L6C D6C S6C C5Q L5Q D5Q S5Q  SYS / # / OBS TYPES 
       C7Q L7Q D7Q S7Q C8Q L8Q D8Q S8Q                      SYS / # / OBS TYPES 
S    9 X1  C1C L1C D1C S1C C5I L5I D5I S5I                  SYS / # / OBS TYPES 
R   17 X1  C1C L1C D1C S1C C2P L2P D2P S2P C2C L2C D2C S2C  SYS / # / OBS TYPES 
       C3Q L3Q D3Q S3Q                                      SYS / # / OBS TYPES 
C   25 X1  C1P L1P D1P S1P C5P L5P D5P S5P C2I L2I D2I S2I  SYS / # / OBS TYPES 
       C7I L7I D7I S7I C6I L6I D6I S6I C7D L7D D7D S7D      SYS / # / OBS TYPES 
J   17 X1  C1C L1C D1C S1C C2L L2L D2L S2L C5Q L5Q D5Q S5Q  SYS / # / OBS TYPES 
       C1L L1L D1L S1L                                      SYS / # / OBS TYPES 
I    5 X1  C5A L5A D5A S5A                                  SYS / # / OBS TYPES 
SEPTENTRIO RECEIVERS OUTPUT ALIGNED CARRIER PHASES.         COMMENT             
NO FURTHER PHASE SHIFT APPLIED IN THE RINEX ENCODER.        COMMENT             
G L1C                                                       SYS / PHASE SHIFT   
G L2W                                                       SYS / PHASE SHIFT   
G L2L  0.00000                                              SYS / PHASE SHIFT   
G L5Q  0.00000                                              SYS / PHASE SHIFT   
G L1L  0.00000                                              SYS / PHASE SHIFT   
E L1C  0.00000                                              SYS / PHASE SHIFT   
E L6C  0.00000                                              SYS / PHASE SHIFT   
E L5Q  0.00000                                              SYS / PHASE SHIFT   
E L7Q  0.00000                                              SYS / PHASE SHIFT   
E L8Q  0.00000                                              SYS / PHASE SHIFT   
S L1C                                                       SYS / PHASE SHIFT   
S L5I                                                       SYS / PHASE SHIFT   
R L1C                                                       SYS / PHASE SHIFT   
R L2P  0.00000                                              SYS / PHASE SHIFT   
R L2C                                                       SYS / PHASE SHIFT   
R L3Q  0.00000                                              SYS / PHASE SHIFT   
C L1P  0.00000                                              SYS / PHASE SHIFT   
C L5P  0.00000                                              SYS / PHASE SHIFT   
C L2I                                                       SYS / PHASE SHIFT   
C L7I                                                       SYS / PHASE SHIFT   
C L6I                                                       SYS / PHASE SHIFT   
C L7D                                                       SYS / PHASE SHIFT   
J L1C                                                       SYS / PHASE SHIFT   
J L2L  0.00000                                              SYS / PHASE SHIFT   
J L5Q  0.00000                                              SYS / PHASE SHIFT   
J L1L  0.00000                                              SYS / PHASE SHIFT   
I L5A                                                       SYS / PHASE SHIFT   
  2025     1     1     1    15    0.0000000     GPS         TIME OF FIRST OBS   
 C1C    0.000 C2C    0.000 C2P    0.000                     GLONASS COD/PHS/BIS 
DBHZ                                                        SIGNAL STRENGTH UNIT
    18                                                      LEAP SECONDS        
 24 R01  1 R02 -4 R03  5 R04  6 R05  1 R06 -4 R07  5 R08  6 GLONASS SLOT / FRQ #
    R09 -2 R10 -7 R11  0 R12 -1 R13 -2 R14 -7 R15  0 R16 -1 GLONASS SLOT / FRQ #
    R17  4 R18 -3 R19  3 R20  2 R21  4 R22 -3 R23  3 R24  2 GLONASS SLOT / FRQ #
                                                            END OF HEADER       
> 2025 01 01 01 15  0.0000000  0 37
G21         3.000    22660979.509 7 119084257.27907     -3515.619 7        42.701                                    22660972.037 3  92792911.62403     -2739.448 3        20.738
G31         4.000    22602572.810 5 118777372.88605       924.347 5        32.886                                    22602564.396 3  92553732.87603       720.299 3        23.029    22602567.362 5  92553738.84305       720.281 5        35.971
G02         5.000    21281525.751 6 111835191.83806     -2602.209 6        41.395                                    21281521.770 4  87144248.89004     -2027.694 4        27.880
E34         6.000    27401175.252 5 143994185.76605      1960.169 5        32.245                                                                    27401173.394 6 107528132.81106      1463.531 6        36.896    27401171.877 6 110333182.99106      1501.688 6        38.006
E04         7.000    23926949.986 8 125737052.15208     -1847.281 8        48.844                                                                    23926947.336 8  93894472.82508     -1379.444 8        50.166    23926946.358 8  96343893.70608     -1415.410 8        49.264
G03         8.000    19906534.093 5 104609558.48605      -433.619 5        31.109                                    19906535.379 5  81513976.60605      -337.868 5        34.700    19906536.473 7  81513966.58307      -337.859 7        44.763
G09         9.000    23824680.798 4                      2865.131 4        27.748
G04        11.000    21642731.808 6 113733387.15106      2042.148 6        37.614                                    21642733.295 1  88623425.78101      1591.158 1         9.429    21642728.259 5  88623355.98205      1591.121 5        32.317
E09        12.000    24121799.512 8 126761005.88908       919.851 8        49.243                                                                    24121798.319 7  94659184.09007       686.991 7        47.002    24121799.180 8  97128531.14508       704.871 8        52.477
E10        13.000    25909221.293 6 136153836.23906     -3319.538 6        36.197                                                                    25909211.356 6 101673297.26306     -2478.922 6        36.987
E06        14.000    23380983.413 6 122867970.57306      -355.076 6        36.246                                                                    23380984.525 7  91752018.39307      -265.365 7        46.728    23380984.207 7  94145551.62707      -272.179 7        47.256
E11        15.000                                                                                                                                    23851330.466 7  93597745.30407     -1729.198 7        42.451    23851330.517 7  96039424.36507     -1774.253 7        43.481
E30        17.000    28906049.422 4                     -2307.100 4        24.030                                                                    28906032.351 4 113433519.14104     -1723.247 4        28.521    28906031.995 3                     -1768.781 3        21.833
G28        18.000    23078202.504 6 121276906.97906      -904.905 6        38.048                                    23078194.424 1  94501341.22801      -705.128 1         4.857    23078218.016 4                      -705.580 4        26.144
G06        19.000    25277367.756 5                      2721.704 5        33.892
E36        20.000    23700873.979 6 124548916.68306       320.489 6        37.195                                                                    23700872.816 7  93007302.72207       239.340 7        45.610    23700871.647 7  95433610.19307       245.581 7        44.653
G17        22.000    22175425.817 6 116532622.86806      -956.170 6        39.937                                    22175404.943 4  90804558.90204      -745.067 4        27.772    22175418.971 6  90804624.89806      -744.831 6        38.664
S23        24.000    38103579.942 6 200235625.00406      -824.118 6        41.342
S36        25.000    38153880.946 6 200499870.40606      -827.715 6        37.894
R20        27.000    20015760.774 4                     -3518.697 4        29.810                                                                    20015752.392 5  83248083.72505     -2736.703 5        35.524
R04        28.000                                                                                                                                    23422116.124 4                     -3717.516 4        24.812
R06        29.000    20434725.959 4 109043643.21504      1628.883 4        26.060
C19        33.000                                                                                                                                                                                                                                                                    23590979.351 5  99821072.92305      1193.230 5        35.071
R21        34.000    19603613.007 8 104902961.25408       751.418 8        48.595                                                                    19603608.674 6  81591288.75506       584.376 6        37.002
R05        36.000    19713725.909 6 105381272.22006     -2951.325 6        41.597                                                                    19713725.062 7  81963109.77107     -2295.380 7        43.788
R22        37.000                                                                                                                                    23573235.673 5  97872063.96005      2622.031 5        34.710
C39        38.000                                                                                                                                    38833204.081 5 202214469.71305      -878.292 5        34.714                                                                    38833167.386 4 164315808.47204      -713.525 4        29.251
C06        41.000                                                                                                                                    38346033.176 6 199677832.56506      -303.908 6        38.189    38346031.268 6 154403531.83906      -235.006 6        37.648    38346022.044 5 162254559.51905      -246.813 5        32.347
C29        43.000                                                                                                                                    22183554.749 8 115515477.69408     -2431.773 8        48.443                                                                    22183552.107 7  93865899.88007     -1975.905 7        47.425
C16        45.000                                                                                                                                    38757756.851 7 201821882.48807      -427.191 7        46.314    38757755.937 6 156061409.64406      -330.510 6        41.123    38757751.225 5 163996736.63805      -347.178 5        31.608
C09        46.000                                                                                                                                    38965512.259 5 202903660.82805       164.215 5        33.449    38965510.900 7 156897979.39307       127.055 7        43.793    38965508.037 6 164875804.55006       133.757 6        36.786
C32        47.000                                                                                                                                    24455393.941 7 127345662.90507     -3510.707 7        44.188                                                                    24455397.212 7 103478815.36107     -2852.645 7        44.260
C35        51.000                                                                                                                                    23576383.644 7 122768621.38907      1064.283 7        44.376                                                                    23576381.766 6  99759418.88706       864.871 6        41.128
I09        54.000    37097673.829 5 145579230.65705      -712.940 5        35.481
C20        55.000                                                                                                                                    21722384.950 8 113114148.77808     -1006.893 8        52.862                                                                    21722377.972 7  91914590.19407      -818.141 7        46.979
I01        56.000   331973197.736 5 999593331.38105     -2850.861 5        33.683
C30        58.000                                                                                                                                    25494349.565 4                     -4306.807 4        27.964
> 2025 01 01 01 15  5.0000000  0 38
G21         3.000    22664325.401 7 119101839.50907     -3516.871 7        42.811                                    22664318.519 3  92806612.04803     -2740.423 3        21.405
G31         4.000    22601695.940 5 118772759.21905       921.358 5        34.605                                    22601687.945 3  92550137.78003       717.953 3        23.467    22601690.059 6  92550143.74506       718.196 6        36.125
G02         5.000    21284003.255 6 111848208.89806     -2604.293 6        41.271                                    21283998.597 4  87154392.04904     -2029.313 4        28.427
E34         6.000    27399310.124 5 143984388.13705      1959.302 5        31.796                                                                    27399309.270 6 107520816.34306      1463.366 6        37.970    27399307.462 6 110325675.67306      1501.428 6        37.629
E04         7.000    23928708.379 8 125746294.02208     -1849.150 8        48.880                                                                    23928706.022 8  93901374.21208     -1380.865 8        50.214    23928705.113 8  96350975.13208     -1416.880 8        49.047
G03         8.000    19906952.051 6 104611732.32706      -435.620 6        36.904                                    19906949.277 6  81515670.51606      -339.451 6        36.423    19906950.125 7  81515660.52007      -339.449 7        45.139
G09         9.000    23821958.465 4                      2863.625 4        27.988
G04        11.000    21640789.737 6 113723183.17606      2039.985 6        36.147                                    21640791.797 1  88615474.72201      1589.605 1        10.370    21640791.705 5  88615404.84305      1589.618 5        32.329
E09        12.000    24120925.404 8 126756411.96108       918.045 8        49.643                                                                    24120924.022 7  94655753.57207       685.565 7        47.038    24120924.976 8  97125011.12408       703.409 8        52.318
E10        13.000    25912386.295 6 136170438.06006     -3320.909 6        36.181                                                                    25912370.717 6 101685694.70906     -2479.928 6        36.571
E06        14.000    23381322.696 6 122869752.94906      -357.281 6        36.597                                                                    23381323.780 7  91753349.38507      -266.927 7        46.695    23381323.243 7  94146917.34907      -273.823 7        47.023
E11        15.000    23853531.124 4                     -2317.477 4        27.940                                                                    23853534.808 7  93606394.71807     -1730.437 7        42.650    23853534.735 7  96048299.41507     -1775.484 7        43.073
G19        16.000    22770013.503 7 119657362.51317      1112.720 7        42.827                                    22770016.277 1  93239315.74411       866.946 1         8.476
E30        17.000    28908247.225 4                     -2308.617 4        24.135                                                                    28908228.262 4 113442138.50604     -1724.595 4        27.952    28908226.734 3                     -1768.399 3        20.762
G28        18.000    23079064.825 5 121281440.61205      -908.314 5        34.586                                    23079057.179 1  94504873.89901      -707.801 1         4.143    23079084.250 3                      -707.583 3        23.505
G06        19.000    25274777.558 5 132819851.27515      2721.549 5        34.000
E36        20.000    23700569.954 6 124547318.98106       318.930 6        36.189                                                                    23700568.828 7  93006109.65107       238.202 7        45.747    23700567.456 7  95432386.00507       244.366 7        44.500
G17        22.000    22176336.891 6 116537411.30006      -958.957 6        41.461                                    22176320.033 5  90808290.14105      -747.236 5        30.687    22176329.995 6  90808356.17106      -747.427 6        37.970
S23        24.000    38104363.374 6 200239745.75706      -823.994 6        41.182
S36        25.000    38154669.996 6 200504009.75206      -827.459 6        38.141
R20        27.000    20019053.967 4                     -3522.762 4        28.256                                                                    20019044.299 5  83261774.05315     -2739.236 5        34.410
R04        28.000                                                                                                                                    23426583.785 4                     -3718.600 4        24.842
R06        29.000    20433203.152 4 109035502.84804      1627.015 4        29.962
C19        33.000                                                                                                                                                                                                                                                                    23589571.075 5  99815111.02705      1191.928 5        33.162
R21        34.000    19602913.390 8 104899214.87308       747.499 8        48.511                                                                    19602907.479 5  81588374.90805       581.342 5        35.929
R05        36.000    19716496.715 7 105396035.20307     -2953.644 7        43.975                                                                    19716486.360 7  81974592.04907     -2297.172 7        43.264
R22        37.000                                                                                                                                    23570077.716 5  97858955.16205      2621.557 5        34.467
C39        38.000                                                                                                                                    38834049.453 5 202218864.23305      -879.164 5        34.505                                                                    38834013.064 4 164319379.35404      -714.802 4        28.787
C06        41.000                                                                                                                                    38346325.992 6 199679355.43006      -304.887 6        38.084    38346325.819 6 154404709.39806      -235.706 6        38.081    38346314.703 5 162255796.98005      -248.012 5        32.713
C29        43.000                                                                                                                                    22185890.744 8 115527643.23908     -2434.216 8        48.416                                                                    22185888.098 7  93875785.39107     -1978.103 7        47.338
C16        45.000                                                                                                                                    38758167.665 7 201824021.79207      -428.196 7        46.103    38758167.013 6 156063063.88306      -331.006 6        41.445    38758162.224 5 163998475.00905      -348.105 5        31.328
C09        46.000                                                                                                                                    38965354.542 5 202902842.47605       163.281 5        33.030    38965353.250 7 156897346.57907       126.443 7        43.699    38965350.662 6 164875139.60006       132.501 6        36.389
C32        47.000                                                                                                                                    24458765.019 7 127363218.71507     -3511.221 7        43.765                                                                    24458768.624 7 103493080.88907     -2853.267 7        44.676
C35        51.000                                                                                                                                    23575363.262 7 122763306.39707      1062.078 7        44.582                                                                    23575361.068 6  99755100.03306       863.006 6        41.211
I09        54.000    37098582.489 5 145582794.77705      -712.824 5        35.076
C20        55.000                                                                                                                                    21723352.792 8 113119188.58408     -1008.766 8        52.729                                                                    21723345.866 7  91918685.45907      -819.886 7        47.057
I01        56.000   331976829.837 5 999607587.54505     -2850.992 5        33.569
C30        58.000                                                                                                                                    25498482.426 4                     -4307.570 4        26.742
> 2025 01 01 01 15 10.0000000  0 37
G21         3.000    22667672.918 7 119119428.73607     -3518.618 7        42.726                                    22667666.146 3  92820317.91203     -2741.774 3        21.357
G31         4.000    22600822.867 5 118768160.72005       918.059 5        34.276                                    22600813.926 3  92546554.47003       715.355 3        23.429    22600813.978 5  92546560.49305       715.563 5        35.810
G02         5.000    21286482.785 6 111861237.50406     -2606.807 6        41.240                                    21286477.540 4  87164544.19904     -2031.276 4        28.806
E34         6.000    27397443.580 5 143974591.77105      1958.905 5        32.880                                                                    27397445.315 6 107513500.90106      1462.951 6        38.919    27397443.205 6 110318169.37406      1501.109 6        37.172
E04         7.000    23930468.804 8 125755546.09008     -1851.456 8        48.297                                                                    23930466.605 8  93908283.22408     -1382.605 8        50.100    23930465.701 8  96358064.37708     -1418.671 8        48.892
G03         8.000    19907368.475 6 104613916.96306      -438.064 6        40.198                                    19907365.133 6  81517372.82606      -341.358 6        38.174    19907365.525 7  81517362.83607      -341.414 7        44.987
G09         9.000    23819240.372 4                      2863.625 4        24.902
G04        11.000    21638850.937 6 113712989.48006      2037.701 6        36.314                                    21638852.213 1  88607531.54701      1587.796 1         9.524    21638854.491 5  88607461.68205      1587.682 5        32.275
E09        12.000    24120053.049 8 126751827.79608       915.792 8        49.783                                                                    24120051.703 7  94652330.34907       683.844 7        47.085    24120052.587 8  97121498.58408       701.666 8        52.174
E10        13.000    25915551.224 5 136187045.72605     -3322.045 5        34.686                                                                    25915531.587 6 101698096.51406     -2480.932 6        36.064    25915529.558 5 104351098.01615     -2545.564 5        34.490
E06        14.000    23381664.627 6 122871546.60806      -359.891 6        36.922                                                                    23381665.137 7  91754688.78907      -268.785 7        46.412    23381664.472 7  94148291.69207      -275.728 7        46.702
E11        15.000                                                                                                                                    23855740.684 7  93615050.63007     -1731.879 7        42.554    23855740.519 7  96057181.14007     -1777.120 7        43.179
E30        17.000    28910445.881 4                     -2311.236 4        26.850                                                                    28910426.674 4 113450765.06304     -1726.008 4        26.467
G28        18.000    23079927.935 5 121285991.37105      -912.055 5        33.054                                    23079923.265 1  94508419.86801      -710.658 1         3.200
G06        19.000    25272188.872 5 132806243.84405      2721.235 5        33.048
E36        20.000    23700265.759 5 124545729.42605       317.109 5        33.581                                                                    23700266.407 7  93004922.65307       236.714 7        45.798    23700265.049 7  95431168.04207       242.885 7        44.360
G17        22.000    22177251.784 7 116542215.54107      -962.486 7        42.017                                    22177237.194 5  90812033.70505      -749.990 5        32.257    22177243.687 6  90812099.74106      -750.045 6        36.284
S23        24.000    38105147.473 6 200243866.93306      -824.297 6        40.892
S36        25.000    38155457.797 6 200508148.87706      -827.764 6        37.531
R20        27.000    20022346.338 4                     -3525.209 4        25.068                                                                    20022340.718 5                     -2742.344 5        34.214
R04        28.000    23431059.762 3                     -4776.676 3        18.358                                                                    23431045.914 4                     -3717.711 4        24.135
R06        29.000    20431683.848 5 109027375.76205      1623.997 5        31.751
C19        33.000                                                                                                                                    23588139.649 6 122829732.07116      1465.147 6        37.641                                                                    23588163.456 5  99809154.99605      1190.651 5        30.898
R21        34.000    19602217.655 8 104895488.43908       743.275 8        49.046                                                                    19602211.920 5  81585476.57005       577.972 5        33.838
R05        36.000    19719263.053 7 105410810.95907     -2956.503 7        45.087                                                                    19719250.561 7  81986084.30207     -2299.391 7        43.335
R22        37.000                                                                                                                                    23566920.035 5  97845849.26705      2620.769 5        33.934
C39        38.000                                                                                                                                    38834893.909 5 202223263.90405      -880.561 5        34.114                                                                    38834856.924 4 164322954.40104      -715.372 4        28.787
C06        41.000                                                                                                                                    38346619.554 6 199680883.53806      -306.142 6        38.387    38346619.757 6 154405891.04706      -236.667 6        38.129    38346607.678 5 162257038.69705      -248.834 5        33.006
C29        43.000                                                                                                                                    22188229.269 8 115539821.74108     -2437.045 8        48.290                                                                    22188226.696 7  93885681.40107     -1980.176 7        47.016
C16        45.000                                                                                                                                    38758579.463 7 201826166.25407      -429.470 7        45.854    38758578.880 6 156064722.13106      -332.124 6        41.306    38758574.398 5 164000217.54705      -348.970 5        31.208
C09        46.000                                                                                                                                    38965198.791 5 202902028.72605       162.418 5        32.443    38965197.080 7 156896717.36407       125.365 7        43.475    38965194.324 6 164874478.35706       131.924 6        36.076
C32        47.000                                                                                                                                    24462136.640 7 127380777.89607     -3512.269 7        43.388                                                                    24462140.660 7 103507349.14007     -2853.944 7        44.767
C35        51.000                                                                                                                                    23574344.949 7 122758003.00307      1059.366 7        45.544                                                                    23574342.565 6  99750790.57606       860.819 6        41.182
I09        54.000    37099490.446 5 145586360.15205      -713.356 5        35.286
C20        55.000                                                                                                                                    21724322.401 8 113124238.37908     -1010.994 8        52.538                                                                    21724315.654 7  91922788.81207      -821.526 7        46.991
I01        56.000   331980463.517 5 999621844.78405     -2851.875 5        33.473
C30        58.000                                                                                                                                    25502613.544 4                     -4307.708 4        26.263
> 2025 01 01 01 15 15.0000000  0 38
G21         3.000    22671020.971 7 119137024.10807     -3519.674 7        42.373                                    22671014.948 3  92834028.57803     -2742.604 3        22.248
G31         4.000    22599950.503 5 118763576.64105       915.567 5        31.841                                    22599942.313 3  92542982.41003       713.425 3        22.267    22599942.014 5  92542988.44505       713.054 5        34.795
G02         5.000    21288964.640 6 111874276.91006     -2608.916 6        41.712                                    21288958.606 4  87174704.76604     -2032.921 4        29.716
E34         6.000    27395578.439 5 143964795.98905      1959.144 5        34.324                                                                    27395581.608 6 107506185.86206      1463.065 6        39.565    27395579.605 6 110310663.49806      1501.158 6        36.624
E04         7.000    23932231.052 7 125764807.60807     -1853.204 7        47.614                                                                    23932228.911 8  93915199.29008     -1383.851 8        49.702    23932228.270 8  96365160.86608     -1420.034 8        48.905
G03         8.000    19907785.659 6 104616111.61906      -439.998 6        41.425                                    19907782.877 6  81519082.94306      -342.856 6        39.568    19907783.425 7  81519072.93907      -342.818 7        45.090
G09         9.000    23816521.947 3                      2861.160 3        21.429
G04        11.000    21636913.127 6 113702805.28806      2035.904 6        37.096                                    21636914.386 2  88599595.85502      1586.426 2        12.182    21636911.721 5  88599525.99805      1586.205 5        30.815
E09        12.000    24119182.231 8 126747252.63208       914.177 8        49.606                                                                    24119181.190 7  94648913.82907       682.723 7        46.993    24119181.878 8  97117992.93708       700.451 8        52.175
E10        13.000    25918715.367 5 136203658.45905     -3322.571 5        31.464                                                                    25918693.283 5 101710502.11205     -2481.438 5        34.848    25918689.515 5 104363827.28805     -2546.259 5        35.338
E06        14.000    23382007.622 6 122873350.73606      -361.642 6        37.006                                                                    23382008.338 7  91756036.04707      -270.231 7        46.065    23382007.672 7  94149674.09507      -277.238 7        46.447
E11        15.000    23857961.858 5 125374436.45615     -2320.863 5        33.958                                                                    23857948.147 7  93623712.46707     -1733.089 7        42.389    23857947.962 7  96066068.94207     -1778.162 7        43.109
G19        16.000    22767878.216 6 119646268.44106      1106.431 6        37.380                                    22767904.866 1  93230670.97501       862.191 1         6.125
E30        17.000    28912644.873 4                     -2313.274 4        25.880
G28        18.000    23080799.645 5 121290558.36105      -914.998 5        35.381                                    23080792.392 1  94511978.50101      -712.901 1         2.800
G06        19.000    25269599.482 5 132792636.58605      2721.284 5        33.120
E36        20.000    23699963.368 5 124544147.23305       315.784 5        32.024                                                                    23699965.410 7  93003741.15007       235.831 7        45.794    23699963.931 7  95429955.72207       241.876 7        44.471
G17        22.000    22178168.258 6 116547034.82906      -965.267 6        39.847                                    22178156.372 5  90815788.99905      -752.152 5        32.742    22178160.415 5  90815855.03705      -752.146 5        34.281
S23        24.000    38105933.343 6 200247987.71206      -824.165 6        41.032
S36        25.000    38156242.366 6 200512287.46106      -827.666 6        37.319
R20        27.000    20025642.680 3                     -3528.753 3        22.419                                                                    20025640.122 5  83289194.94415     -2744.901 5        35.710
R04        28.000    23435550.563 3                     -4780.278 3        21.595                                                                    23435515.288 4                     -3718.194 4        25.865
R06        29.000    20430161.839 5 109019261.21005      1621.560 5        33.407
C19        33.000                                                                                                                                    23586741.140 6 122822408.74606      1464.043 6        38.195
R21        34.000    19601525.328 8 104891781.14308       739.592 8        49.109                                                                    19601521.850 5  81582593.14605       575.250 5        35.105
R05        36.000    19722023.326 7 105425598.72807     -2958.674 7        45.481                                                                    19722017.912 7  81997585.91007     -2301.219 7        43.928
R22        37.000                                                                                                                                    23563762.109 5                      2620.462 5        33.683
C39        38.000                                                                                                                                    38835736.531 5 202227667.97605      -881.044 5        34.419                                                                    38835701.795 4 164326533.02504      -715.850 4        28.123
C06        41.000                                                                                                                                    38346914.386 6 199682416.14006      -307.108 6        38.529    38346914.845 6 154407076.14906      -237.404 6        38.450    38346902.008 5 162258284.06705      -249.204 5        33.042
C29        43.000                                                                                                                                    22190569.827 7 115552012.45207     -2439.303 7        47.946                                                                    22190567.710 7  93895587.36507     -1982.086 7        46.763
C16        45.000                                                                                                                                    38758992.078 7 201828315.13007      -430.198 7        45.604    38758991.319 6 156066383.76806      -332.580 6        41.018    38758986.779 5 164001963.68305      -349.390 5        31.306
C09        46.000                                                                                                                                    38965042.469 5 202901218.89505       162.038 5        30.891    38965041.476 7 156896091.13307       124.966 7        43.153    38965038.499 5 164873820.30605       131.214 5        35.776
C32        47.000                                                                                                                                    24465509.320 7 127398339.67407     -3512.529 7        42.504                                                                    24465513.277 7 103521619.51707     -2854.228 7        44.781
C35        51.000                                                                                                                                    23573328.949 7 122752710.43007      1057.392 7        46.641                                                                    23573326.289 6  99746489.94706       859.302 6        41.197
I09        54.000    37100398.767 5 145589926.14805      -713.214 5        35.067
C20        55.000                                                                                                                                    21725293.879 8 113129297.41508     -1012.712 8        52.148                                                                    21725287.327 7  91926899.69607      -822.855 7        46.980
I01        56.000   331984096.691 5 999636102.49205     -2851.924 5        33.126
C30        58.000                                                                                                                                    25506750.519 4                     -4308.419 4        25.143
> 2025 01 01 01 15 20.0000000  0 37
G21         3.000    22674370.479 6 119154625.93806     -3520.869 6        41.681                                    22674364.940 3  92847744.28203     -2743.524 3        22.343
G31         4.000    22599079.984 5 118759007.29105       912.359 5        30.030                                    22599073.204 3  92539421.82303       710.934 3        20.119    22599071.762 5  92539427.83405       711.044 5        32.886
G02         5.000    21291448.751 7 111887327.34507     -2611.113 7        43.158                                    21291441.841 5  87184873.92605     -2034.633 5        30.808
E34         6.000    27393715.893 5 143955001.01805      1959.327 5        34.795                                                                    27393718.196 6 107498871.46906      1462.866 6        40.589    27393715.612 6 110303158.30906      1500.958 6        36.310
E04         7.000    23933995.132 7 125774078.80207     -1855.152 7        46.735                                                                    23933993.149 8  93922122.57708     -1385.322 8        49.429    23933992.445 8  96372264.76708     -1421.515 8        48.944
G03         8.000    19908204.043 6 104618316.50406      -441.929 6        41.659                                    19908202.521 6  81520801.03706      -344.358 6        40.899    19908202.731 7  81520791.03607      -344.477 7        44.733
G04        11.000    21634976.642 5 113692630.89205      2033.853 5        35.162                                    21634978.236 1  88591667.78101      1584.884 1        11.333    21634972.034 4  88591597.91804      1584.598 4        29.299
E09        12.000    24118313.320 8 126742686.73508       912.355 8        48.998                                                                    24118312.386 7  94645504.24307       681.213 7        47.438    24118313.016 8  97114494.39608       699.050 8        52.078
E10        13.000    25921880.273 4 136220276.60404     -3324.238 4        26.335                                                                    25921857.319 5 101722911.71405     -2482.016 5        33.737    25921852.411 6 104376560.59806     -2546.915 6        36.284
E06        14.000    23382352.906 6 122875165.64006      -364.085 6        37.104                                                                    23382353.623 7  91757391.33107      -271.791 7        45.688    23382352.729 7  94151064.74507      -278.938 7        46.194
E11        15.000    23860165.752 5 125386043.86905     -2322.063 5        35.090                                                                    23860156.998 7  93632380.41707     -1734.202 7        42.578    23860156.784 7  96074963.01007     -1779.364 7        43.090
G19        16.000    22766830.753 5 119640744.22305      1103.118 5        32.545                                    22766853.655 1  93226366.23801       859.614 1         7.000
E30        17.000    28914843.431 4                     -2315.191 4        24.436                                                                    28914826.865 4 113468038.31604     -1727.718 4        24.481    28914858.061 5                     -1774.095 5        30.687
G28        18.000    23081674.630 6 121295141.99206      -918.341 6        37.395                                                                                                    23081690.727 4                      -716.320 4        26.635
G06        19.000    25267009.244 5 132779029.60805      2721.325 5        32.671
E36        20.000    23699665.047 5 124542572.67205       314.470 5        30.438                                                                    23699665.855 7  93002565.35907       234.621 7        46.100    23699664.404 7  95428749.26007       240.691 7        44.445
G17        22.000    22179086.436 6 116551869.45106      -968.271 6        36.957                                    22179077.808 5  90819556.22605      -754.489 5        32.521    22179080.679 5  90819622.20605      -754.385 5        34.043
S23        24.000    38106717.670 6 200252108.50406      -824.129 6        41.323
S36        25.000    38157026.322 6 200516426.04906      -827.469 6        36.873
R20        27.000    20028934.165 4                     -3532.560 4        25.008                                                                    20028944.228 6  83302925.13606     -2747.453 6        39.165
R04        28.000    23440013.618 4                     -4780.815 4        25.504                                                                    23439989.589 4                     -3717.169 4        26.072
R06        29.000    20428643.255 5 109011159.46805      1619.542 5        35.376
C19        33.000                                                                                                                                    23585337.193 6 122815092.11806      1462.753 6        38.345                                                                    23585331.594 5  99797258.94905      1188.893 5        32.916
R21        34.000    19600835.833 8 104888093.30108       735.651 8        49.327                                                                    19600834.555 6  81579724.83406       572.193 6        38.420
R05        36.000    19724787.557 7 105440398.61707     -2961.196 7        46.194                                                                    19724786.945 7  82009096.95407     -2303.145 7        44.197
R22        37.000                                                                                                                                    23560607.683 5  97819644.40215      2619.988 5        33.443
C39        38.000                                                                                                                                    38836579.903 5 202232076.68305      -881.768 5        34.300                                                                    38836548.972 4 164330115.43204      -716.611 4        27.689
C06        41.000                                                                                                                                    38347209.082 6 199683953.45406      -307.848 6        38.417    38347211.208 6 154408264.89806      -238.104 6        38.610    38347197.630 5 162259533.27505      -249.880 5        32.719
C29        43.000                                                                                                                                    22192913.234 7 115564215.64107     -2441.799 7        47.418                                                                    22192911.096 7  93905503.45307     -1984.232 7        46.298
C16        45.000                                                                                                                                    38759405.678 7 201830468.67607      -431.148 7        45.288    38759404.756 6 156068049.04506      -333.459 6        41.046    38759400.164 5 164003713.63005      -350.583 5        30.777
C09        46.000                                                                                                                                    38964887.416 5 202900413.18005       161.209 5        30.860    38964886.819 7 156895468.12007       124.235 7        43.268    38964883.549 5 164873165.60705       130.709 5        35.114
C32        47.000                                                                                                                                    24468883.103 6 127415904.31506     -3513.296 6        41.836                                                                    24468886.495 7 103535892.21707     -2854.717 7        44.421
C35        51.000                                                                                                                                    23572314.760 7 122747428.95807      1055.323 7        47.352                                                                    23572312.160 6  99742198.33006       857.519 6        41.306
I09        54.000    37101308.771 5 145593493.01905      -713.386 5        35.776
C20        55.000                                                                                                                                    21726267.405 8 113134365.93908     -1014.578 8        51.924                                                                    21726260.839 7  91931018.29207      -824.402 7        46.722
I01        56.000   331987729.031 5 999650360.79805     -2851.567 5        33.659
C30        58.000                                                                                                                                    25510893.692 3                     -4309.250 3        23.981
> 2025 01 01 01 15 25.0000000  0 37
G21         3.000    22677721.336 6 119172234.02006     -3522.133 6        40.660                                    22677716.081 3  92861464.84403     -2744.517 3        22.781
G31         4.000    22598211.592 5 118754452.45205       909.523 5        31.623                                    22598206.889 3  92535872.52803       708.731 3        18.239    22598204.903 5  92535878.54605       709.050 5        32.042
G02         5.000    21293934.949 7 111900388.65707     -2613.338 7        44.438                                    21293927.254 5  87195051.57005     -2036.370 5        31.517
E34         6.000    27391855.548 5 143945206.78805      1958.921 5        35.052                                                                    27391854.955 6 107491557.60206      1462.724 6        40.906    27391851.736 5 110295653.63205      1500.958 5        35.657
E04         7.000    23935761.406 7 125783359.54007     -1857.026 7        46.306                                                                    23935759.102 8  93929053.00008     -1386.769 8        49.005    23935758.569 8  96379375.98408     -1422.921 8        48.842
G03         8.000    19908625.814 7 104620531.48707      -444.021 7        42.971                                    19908624.047 7  81522526.99307      -345.984 7        42.004    19908624.196 7  81522516.98207      -345.968 7        44.311
G09         9.000    23811032.923 4                      2861.072 4        26.132
G04        11.000    21633041.062 5 113682466.11005      2032.054 5        34.557                                    21633044.108 1  88583747.16401      1583.413 1        10.518    21633038.448 4  88583677.29704      1583.610 4        28.900
E09        12.000    24117446.103 8 126738129.95608       910.425 8        48.576                                                                    24117445.495 7  94642101.46107       679.849 7        47.851    24117445.749 8  97111002.83808       697.566 8        51.840
E10        13.000                                                                                                                                    25925022.070 5 101735325.25505     -2483.020 5        32.150    25925015.631 6 104389297.93306     -2547.866 6        36.378
E06        14.000    23382699.776 6 122876991.16606      -366.118 6        36.832                                                                    23382700.948 7  91758754.55207      -273.415 7        44.822    23382700.101 7  94152463.53207      -280.609 7        45.860
E11        15.000    23862372.216 5 125397659.41705     -2323.973 5        34.557                                                                    23862367.421 7  93641054.37607     -1735.357 7        42.483    23862367.236 7  96083863.25007     -1780.602 7        43.064
G19        16.000    22765781.464 5 119635235.21705      1100.406 5        30.989                                    22765805.489 1  93222073.39401       857.590 1         6.000
E30        17.000    28917047.785 4                     -2316.914 4        26.719                                                                                                                                    28917060.483 5                     -1775.086 5        30.460
G28        18.000    23082551.106 6 121299742.02506      -921.618 6        38.520                                                                                                    23082566.186 4                      -718.193 4        29.479
G06        19.000    25264420.199 5 132765422.88205      2721.657 5        32.431                                    25264435.858 1 103453640.81711      2120.690 1         7.875
E36        20.000    23699368.019 5 124541005.61105       312.631 5        30.928                                                                    23699367.683 7  93001395.15407       233.483 7        46.181    23699366.319 7  95427548.52607       239.715 7        44.436
G17        22.000    22180011.041 6 116556719.21106      -971.535 6        38.117                                    22180001.757 5  90823335.26605      -757.041 5        31.381    22180004.847 5  90823401.26905      -757.088 5        34.657
S23        24.000    38107502.225 6 200256229.19406      -824.190 6        41.216
S36        25.000    38157815.733 6 200520564.80606      -827.541 6        36.922
R20        27.000    20032243.036 4                     -3536.043 4        26.862                                                                    20032250.168 6                     -2749.942 6        41.602
R04        28.000    23444474.576 4                     -4780.051 4        26.551
R06        29.000    20427127.702 6 109003070.36906      1616.634 6        36.612
C19        33.000                                                                                                                                    23583931.619 6 122807782.05406      1461.318 6        38.997                                                                    23583931.162 5  99791318.95705      1187.454 5        34.314
R21        34.000    19600149.937 8 104884424.72208       731.788 8        49.507                                                                    19600149.717 6  81576871.52306       569.125 6        40.577
R05        36.000    19727559.097 7 105455210.74907     -2963.610 7        47.059                                                                    19727557.933 7  82020617.50107     -2305.005 7        44.420
R22        37.000                                                                                                                                    23557451.507 5  97806545.48005      2619.677 5        34.819
C39        38.000                                                                                                                                    38837425.827 5 202236489.88905      -882.927 5        34.343                                                                    38837395.456 4 164333701.53604      -717.456 4        27.689
C06        41.000                                                                                                                                    38347504.547 6 199685495.35906      -308.761 6        38.637    38347508.390 6 154409457.19706      -238.813 6        38.583    38347493.352 5 162260786.19505      -250.698 5        32.922
C29        43.000                                                                                                                                    22195258.830 7 115576431.14707     -2444.417 7        46.848                                                                    22195256.655 7  93915429.52107     -1986.208 7        46.230
C16        45.000                                                                                                                                    38759819.960 7 201832626.72207      -432.011 7        45.102    38759819.333 6 156069717.76906      -334.186 6        40.920    38759814.119 5 164005467.21505      -350.907 5        31.532
C09        46.000                                                                                                                                    38964734.140 5 202899611.51805       160.041 5        30.558    38964732.646 7 156894848.19607       123.759 7        42.851    38964728.882 5 164872514.18505       129.921 5        34.852
C32        47.000                                                                                                                                    24472257.708 6 127433471.62306     -3513.728 6        41.189                                                                    24472260.154 7 103550167.08707     -2855.261 7        44.516
C35        51.000                                                                                                                                    23571302.857 8 122742158.47808      1053.019 8        48.466                                                                    23571300.406 6  99737915.62906       855.645 6        41.938
I09        54.000    37102217.374 5 145597060.61905      -713.680 5        35.929
C20        55.000                                                                                                                                    21727242.448 8 113139443.80608     -1016.519 8        51.896                                                                    21727236.015 7  91935144.46307      -826.008 7        47.096
I01        56.000   331991363.844 5 999664619.77005     -2851.572 5        33.569
> 2025 01 01 01 15 30.0000000  0 37
G21         3.000    22681073.803 6 119189849.02606     -3523.677 6        39.279                                    22681068.774 3  92875190.80303     -2745.725 3        22.648
G31         4.000    22597348.542 5 118749912.89705       906.311 5        33.587                                    22597343.433 2  92532335.12402       706.223 2        17.472    22597340.625 4  92532341.23204       706.136 4        29.602
G02         5.000    21296422.766 7 111913461.50107     -2615.785 7        45.174                                    21296414.849 5  87205238.19305     -2038.268 5        32.126
E34         6.000    27389996.596 5 143935413.95105      1958.448 5        35.152                                                                    27389991.890 6 107484244.76906      1462.416 6        41.855    27389987.790 5 110288150.03705      1500.535 5        35.757
E04         7.000    23937529.567 7 125792650.48007     -1859.273 7        45.815                                                                    23937526.876 8  93935991.03308     -1388.461 8        48.770    23937526.682 8  96386495.01708     -1424.725 8        48.954
G03         8.000    19909049.836 7 104622757.23907      -446.203 7        44.545                                    19909047.563 7  81524261.33507      -347.687 7        43.247    19909047.997 7  81524251.32207      -347.763 7        44.260
G04        11.000    21631110.329 5 113672311.63605      2029.810 5        34.910                                    21631111.852 1  88575834.62701      1581.625 1         9.333    21631107.021 4  88575764.71604      1581.713 4        29.867
E09        12.000    24116580.710 8 126733582.94808       908.416 8        48.151                                                                    24116580.451 8  94638705.97108       678.331 8        48.472    24116580.303 8  97107518.76508       696.016 8        51.624
E10        13.000                                                                                                                                    25928188.923 4 101747743.10404     -2483.824 4        29.782    25928180.398 6 104402039.74906     -2548.805 6        36.310
E06        14.000    23383049.532 6 122878827.98306      -368.484 6        36.219                                                                    23383050.496 7  91760126.19307      -275.355 7        44.220    23383049.519 7  94153870.94607      -282.403 7        45.628
E11        15.000    23864580.515 5 125409283.70305     -2325.683 5        33.719                                                                    23864579.577 7  93649734.83907     -1736.666 7        42.705    23864579.194 7  96092770.18207     -1782.135 7        43.134
G19        16.000    22764736.191 5 119629742.00105      1097.482 5        30.513                                    22764760.372 1  93217792.95801       855.220 1         4.571
E30        17.000    28919257.464 4                     -2318.566 4        28.398                                                                    28919256.559 4 113485338.69704     -1731.361 4        28.882    28919265.610 5                     -1776.502 5        30.423
G28        18.000    23083429.363 6 121304359.16506      -925.313 6        38.021                                                                                                    23083446.635 5                      -720.676 5        31.660
G06        19.000    25261828.057 5 132751817.09205      2720.710 5        32.551                                    25261846.109 1 103443038.90701      2120.077 1         8.381
E36        20.000    23699073.752 5 124539446.65405       310.929 5        32.641                                                                    23699071.135 7  93000231.03807       232.169 7        46.363    23699069.873 7  95426354.05807       238.191 7        44.403
G17        22.000    22180937.500 6 116561584.77506      -974.606 6        38.685                                    22180928.443 5  90827126.62105      -759.439 5        31.208    22180931.484 5  90827192.63105      -759.478 5        35.257
S23        24.000    38108288.404 6 200260350.45806      -824.327 6        41.244
S36        25.000    38158600.744 6 200524704.46706      -828.011 6        37.104
R20        27.000    20035555.516 4                     -3539.148 4        29.507                                                                    20035559.002 7  83330425.36617     -2752.785 7        42.167
R04        28.000    23448935.069 4                     -4779.723 4        26.455
R06        29.000    20425614.923 6 108994994.53206      1613.870 6        36.824
C19        33.000                                                                                                                                    23582530.438 6 122800479.21406      1459.898 6        40.567                                                                    23582531.228 5  99785384.82805      1186.248 5        35.062
R21        34.000    19599467.698 8 104880776.19808       727.702 8        49.218                                                                    19599467.075 6  81574033.78906       565.920 6        40.505
R05        36.000    19730333.277 7 105470035.55507     -2966.264 7        46.932                                                                    19730330.943 7  82032147.89807     -2307.080 7        44.309
R22        37.000                                                                                                                                    23554298.226 5  97793449.59305      2618.988 5        35.362
C39        38.000                                                                                                                                    38838275.491 5 202240908.25105      -884.081 5        33.922                                                                    38838245.198 4 164337291.79904      -718.455 4        27.772
C06        41.000                                                                                                                                    38347801.971 6 199687042.54906      -310.026 6        38.562    38347806.735 6 154410653.56406      -239.703 6        39.123    38347790.641 5 162262043.42705      -251.968 5        33.204
C29        43.000                                                                                                                                    22197607.279 7 115588659.59407     -2446.985 7        46.577                                                                    22197604.630 7  93925366.13907     -1988.385 7        46.050
C16        45.000                                                                                                                                    38760235.154 7 201834789.95007      -433.160 7        44.825    38760234.179 6 156071390.52106      -335.064 6        40.698    38760229.926 5 164007225.02505      -351.749 5        31.396
C09        46.000                                                                                                                                    38964580.665 4 202898814.50304       158.771 4        29.772    38964579.571 7 156894231.88307       122.826 7        42.662    38964575.958 5 164871866.51305       129.434 5        34.381
C32        47.000                                                                                                                                    24475633.472 6 127451042.27006     -3514.505 6        40.451                                                                    24475634.390 7 103564444.67507     -2855.781 7        44.057
C35        51.000                                                                                                                                    23570292.941 8 122736899.62308      1050.527 8        49.527                                                                    23570290.920 7  99733642.39107       853.645 7        42.142
I09        54.000    37103127.294 6 145600629.46106      -714.009 6        36.045
C20        55.000                                                                                                                                    21728219.197 8 113144531.65408     -1018.612 8        51.611                                                                    21728213.172 7  91939278.75407      -827.691 7        46.926
I01        56.000   331994998.205 5 999678879.81805     -2852.536 5        34.038
C30        58.000                                                                                                                                    25519191.780 4                     -4309.054 4        24.526
> 2025 01 01 01 15 35.0000000  0 38
G21         3.000    22684427.800 6 119207471.15306     -3525.055 6        38.769                                    22684422.733 3  92888922.31003     -2746.794 3        22.876
G31         4.000    22596487.580 6 118745388.68206       903.415 6        36.854                                    22596483.007 2  92528809.68702       703.949 2        16.075    22596481.014 4  92528815.87304       703.615 4        28.692
G02         5.000    21298912.551 7 111926546.05007     -2617.945 7        45.422                                    21298904.751 5  87215433.93105     -2039.946 5        32.533
E34         6.000    27388140.569 5 143925622.58405      1958.193 5        34.395                                                                    27388128.938 7 107476933.02307      1462.362 7        42.123    27388124.554 5 110280647.56905      1500.339 5        34.876
E04         7.000    23939299.604 7 125801951.73807     -1861.109 7        45.508                                                                    23939296.669 8  93942936.77708     -1389.886 8        48.578    23939296.657 8  96393621.95708     -1426.105 8        48.912
G03         8.000    19909475.271 7 104624993.89707      -448.396 7        44.921                                    19909473.137 7  81526004.17507      -349.394 7        44.217    19909473.346 7  81525994.16007      -349.379 7        44.468
G09         9.000    23805620.968 5                      2859.076 5        31.260
G04        11.000    21629186.514 5 113662167.62705      2027.634 5        34.910                                    21629181.471 1  88567930.27201      1579.963 1         5.286    21629176.349 4  88567860.30904      1579.768 4        28.787
E09        12.000    24115717.357 7 126729045.89107       906.472 7        47.890                                                                    24115717.349 8  94635317.91208       676.940 8        49.300    24115716.750 8  97104042.31808       694.574 8        51.044
E10        13.000                                                                                                                                    25931359.252 4 101760165.49204     -2484.843 4        28.000    25931346.301 6 104414786.19806     -2549.883 6        36.212
E06        14.000    23383401.990 6 122880676.19106      -370.668 6        36.302                                                                    23383401.968 7  91761506.35607      -276.793 7        43.839    23383401.114 7  94155287.12207      -284.073 7        45.225
E11        15.000    23866794.800 5 125420916.87005     -2327.416 5        32.970                                                                    23866793.477 7  93658421.92407     -1737.986 7        42.910    23866792.990 7  96101683.88707     -1783.395 7        42.870
G19        16.000    22763696.762 5 119624264.79905      1093.860 5        34.095                                    22763718.417 1  93213524.93501       852.397 1         4.286
E30        17.000    28921466.825 4                     -2320.610 4        29.583                                                                    28921461.557 5 113493999.91905     -1733.249 5        30.113    28921471.327 4                     -1778.335 4        27.940
G28        18.000    23084310.081 5 121308993.55605      -928.623 5        34.419                                                                                                    23084325.568 5                      -723.589 5        31.713
G06        19.000    25259238.247 5 132738212.37505      2721.058 5        32.737                                    25259254.866 1 103432437.86101      2120.260 1         7.875
E36        20.000    23698787.133 5 124537895.99005       309.392 5        34.452                                                                    23698776.165 7  92999073.13807       231.017 7        46.887    23698774.981 7  95425165.95107       237.047 7        44.366
G17        22.000    22181866.117 6 116566466.31106      -977.725 6        38.958                                    22181858.125 5  90830930.40605      -761.872 5        31.268    22181859.001 5  90830996.43605      -762.095 5        35.233
S23        24.000    38109071.268 6 200264472.67906      -824.458 6        41.392
S36        25.000    38159391.305 6 200528844.59106      -828.187 6        37.312
R20        27.000    20038873.451 5                     -3542.766 5        31.026                                                                    20038867.652 6                     -2755.465 6        41.912
R04        28.000    23453399.264 4                     -4780.330 4        26.862                                                                    23453420.782 4                     -3716.770 4        24.451
R06        29.000    20424103.435 6 108986932.15206      1611.351 6        36.801
C19        33.000                                                                                                                                    23581131.417 7 122793183.76507      1458.400 7        42.091                                                                    23581130.462 6  99779456.68606      1185.096 6        36.004
R21        34.000    19598789.293 8 104877147.76108       723.791 8        49.057                                                                    19598787.861 6  81571211.65206       562.995 6        40.131
R05        36.000    19733108.132 7 105484873.30607     -2968.716 7        46.954                                                                    19733106.220 7  82043688.37107     -2309.027 7        44.307
R22        37.000                                                                                                                                    23551143.763 6  97780356.73906      2618.386 6        36.654
C39        38.000                                                                                                                                    38839125.975 5 202245331.96505      -885.560 5        33.808                                                                    38839095.271 4 164340886.41704      -719.413 4        28.294
C06        41.000                                                                                                                                    38348099.004 6 199688595.16606      -311.037 6        38.207    38348105.865 6 154411854.13406      -240.431 6        39.468    38348089.043 5 162263305.05805      -252.977 5        33.449
C29        43.000                                                                                                                                    22199958.354 7 115600901.16907     -2449.587 7        46.742                                                                    22199955.235 7  93935313.39807     -1990.505 7        45.797
C16        45.000                                                                                                                                    38760651.363 7 201836958.51007      -434.217 7        44.457    38760650.617 6 156073067.36706      -335.783 6        40.334    38760646.659 5 164008987.12305      -352.870 5        31.902
C09        46.000                                                                                                                                    38964427.537 4 202898022.23604       157.640 4        28.749    38964427.288 7 156893619.25307       122.223 7        42.567    38964423.758 5 164871222.75705       128.220 5        34.557
C32        47.000                                                                                                                                    24479009.340 6 127468616.41906     -3515.080 6        40.231                                                                    24479009.125 7 103578725.08307     -2856.267 7        43.594
C35        51.000                                                                                                                                    23569285.502 8 122731652.55108      1048.306 8        50.290                                                                    23569283.403 7  99729378.70807       851.940 7        42.423
I09        54.000    37104036.237 6 145604199.63906      -714.061 6        36.049
C20        55.000                                                                                                                                    21729197.760 8 113149629.63808     -1020.539 8        51.192                                                                    21729192.188 7  91943421.27207      -829.224 7        47.076
I01        56.000   331998631.692 5 999693140.99805     -2852.252 5        33.641
C30        58.000                                                                                                                                    25523325.245 4                     -4309.163 4        25.263
> 2025 01 01 01 15 40.0000000  0 38
G21         3.000    22687781.546 6 119225099.35506     -3526.507 6        38.432                                    22687777.715 3  92902658.56903     -2747.928 3        22.590
G31         4.000    22595631.420 6 118740878.88206       900.259 6        39.120                                    22595625.440 2  92525295.52802       701.493 2        13.939
G02         5.000    21301404.706 7 111939641.32607     -2620.310 7        46.332                                    21301396.661 5  87225638.03505     -2041.793 5        32.796
E34         6.000    27386283.935 5 143915831.76205      1957.739 5        32.689                                                                    27386265.909 7 107469621.69907      1462.030 7        42.362    27386261.654 5 110273145.49105      1500.252 5        35.057
E04         7.000    23941071.506 7 125811262.37707     -1863.194 7        45.421                                                                    23941068.274 8  93949889.52008     -1391.362 8        48.179    23941068.456 8  96400756.08208     -1427.666 8        49.047
G03         8.000    19909902.720 7 104627240.49807      -450.460 7        45.524                                    19909900.624 7  81527754.76207      -351.005 7        45.032    19909901.205 7  81527744.75807      -350.973 7        44.494
G09         9.000    23802899.963 5                      2858.371 5        33.413
G04        11.000    21627264.537 5 113652033.10605      2025.812 5        32.323                                    21627252.949 1  88560033.31201      1578.720 1         2.200    21627247.038 4  88559963.33204      1579.092 4        29.270
E09        12.000    24114855.893 7 126724517.80507       904.417 7        47.530                                                                    24114855.780 8  94631936.55008       675.418 8        49.774    24114854.739 8  97100572.74308       693.052 8        50.742
E10        13.000                                                                                                                                                                                                    25934512.751 6 104427536.46306     -2550.620 6        36.265
E06        14.000    23383754.600 6 122882534.87006      -372.995 6        36.008                                                                    23383755.505 7  91762894.34307      -278.549 7        42.732    23383754.765 7  94156711.31207      -285.831 7        45.142
E11        15.000    23869011.033 5 125432557.90205     -2329.614 5        32.623                                                                    23869008.685 7  93667114.89607     -1739.293 7        42.936    23869008.310 7  96110603.65007     -1784.851 7        42.938
G19        16.000    22762660.053 6 119618802.64106      1090.680 6        36.779                                    22762679.368 1  93209268.62201       849.901 1         5.857
E30        17.000    28923675.042 4                     -2322.194 4        28.844                                                                    28923668.049 5 113502667.64605     -1734.302 5        30.641    28923679.365 4                     -1779.436 4        26.766
G28        18.000    23085189.812 4 121313644.18804      -932.553 4        26.383                                                                                                    23085206.044 5                      -726.404 5        30.038
G06        19.000    25256649.097 5 132724607.68205      2720.876 5        31.479                                    25256664.911 1 103421836.83201      2120.195 1         7.000
E36        20.000    23698499.138 5 124536352.70405       307.682 5        34.971                                                                    23698482.603 7  92997920.72407       229.782 7        46.979    23698481.487 7  95423983.46407       235.848 7        44.378
G17        22.000    22182797.675 6 116571362.78206      -980.984 6        38.219                                    22182790.561 5  90834745.85405      -764.403 5        31.072    22182791.804 6  90834811.87806      -764.421 6        36.140
S23        24.000    38109853.158 6 200268594.62606      -824.483 6        41.354
S36        25.000    38160177.022 6 200532984.28206      -828.034 6        36.930
R20        27.000    20042187.616 5                     -3546.291 5        30.740                                                                    20042181.106 6  83357979.51116     -2758.211 6        41.793
R04        28.000    23457867.085 4                     -4780.198 4        25.639                                                                    23457885.850 3                     -3716.896 3        23.067
R06        29.000    20422594.620 6 108978882.29406      1608.616 6        37.142
C19        33.000                                                                                                                                    23579732.427 7 122785894.73107      1456.957 7        43.145                                                                    23579733.009 6  99773533.77406      1183.885 6        36.412
R21        34.000    19598114.622 8 104873538.61108       719.700 8        49.269                                                                    19598112.342 6  81568404.51606       559.852 6        40.746
R05        36.000    19735885.081 7 105499722.96507     -2971.344 7        46.704                                                                    19735884.203 7  82055238.12107     -2311.054 7        44.212
R22        37.000                                                                                                                                    23547992.713 6  97767266.18506      2617.726 6        36.805
C39        38.000                                                                                                                                    38839973.936 5 202249759.95905      -886.355 5        32.599                                                                    38839945.301 4 164344484.53504      -720.352 4        27.210
C06        41.000                                                                                                                                    38348396.978 6 199690152.18806      -312.007 6        37.966    38348405.082 6 154413058.13706      -241.246 6        39.544    38348387.634 5 162264570.26405      -253.776 5        33.323
C29        43.000                                                                                                                                    22202311.861 7 115613154.86207     -2452.189 7        47.099                                                                    22202308.236 7  93945270.52007     -1992.630 7        45.729
C16        45.000                                                                                                                                    38761068.408 7 201839131.42907      -435.128 7        44.018    38761068.312 6 156074747.62106      -336.620 6        40.210    38761063.932 5 164010752.82205      -353.341 5        32.072
C09        46.000                                                                                                                                    38964276.325 4 202897233.82704       157.296 4        29.128    38964275.944 7 156893009.60707       121.458 7        42.260    38964272.260 5 164870582.11305       127.530 5        34.290
C32        47.000                                                                                                                                    24482385.589 6 127486193.08706     -3515.747 6        40.605                                                                    24482384.317 7 103593007.56007     -2856.881 7        42.984
C35        51.000                                                                                                                                    23568280.139 8 122726416.32508      1045.998 8        50.628                                                                    23568278.075 7  99725123.85207       849.912 7        42.811
I09        54.000    37104946.037 5 145607770.43705      -714.384 5        35.924
C20        55.000                                                                                                                                    21730178.191 8 113154736.79408     -1022.560 8        51.020                                                                    21730172.948 7  91947571.25107      -830.912 7        46.948
I01        56.000   332002266.886 5 999707402.71905     -2852.583 5        33.940
C30        58.000                                                                                                                                    25527460.316 4                     -4310.708 4        25.564
> 2025 01 01 01 15 45.0000000  0 36
G21         3.000    22691137.817 6 119242734.20106     -3527.776 6        39.411                                    22691133.748 3  92916400.00003     -2748.911 3        22.324
G31         4.000    22594783.117 6 118736383.99206       897.377 6        39.556                                    22594770.787 1  92521792.99801       699.267 1         9.333
G02         5.000    21303898.640 7 111952747.84007     -2622.602 7        47.120                                    21303890.718 5  87235850.89105     -2043.583 5        32.856
E34         6.000    27384421.468 4 143906042.07104      1957.726 4        29.924                                                                    27384403.284 7 107462311.15507      1461.879 7        42.809    27384398.888 5 110265644.27505      1499.800 5        35.257
E04         7.000    23942844.984 7 125820582.86807     -1865.182 7        45.154                                                                    23942841.805 7  93956849.62107     -1392.786 7        47.802    23942842.064 8  96407897.75308     -1429.123 8        49.174
G03         8.000    19910332.397 7 104629497.54907      -452.659 7        46.536                                    19910330.141 7  81529513.49907      -352.719 7        45.490    19910330.401 7  81529503.50207      -352.747 7        44.498
G09         9.000    23800179.879 5 125070791.91015      2857.362 5        34.200
G04        11.000                                                                                                                                                                    21625321.937 5  88552074.12305      1577.061 5        32.329
E09        12.000    24113996.106 7 126719999.17007       902.604 7        47.188                                                                    24113995.999 8  94628562.25608       674.024 8        50.282    24113994.522 8  97097110.41708       691.629 8        50.392
E10        13.000                                                                                                                                    25937714.549 4 101785021.91004     -2486.639 4        25.789    25937680.062 6 104440290.98706     -2551.430 6        36.287
E06        14.000    23384110.658 5 122884404.49805      -375.107 5        35.876                                                                    23384111.242 7  91764290.49207      -280.181 7        42.068    23384110.588 7  94158143.88307      -287.498 7        45.378
E11        15.000    23871228.452 5 125444207.32005     -2330.932 5        32.275                                                                    23871225.627 7  93675814.14307     -1740.702 7        42.859    23871225.210 7  96119529.81907     -1786.075 7        42.940
G19        16.000    22761622.026 6 119613356.07506      1087.717 6        38.417                                    22761643.423 1  93205024.47101       847.506 1         5.286
E30        17.000    28925883.943 4                     -2324.140 4        28.891                                                                    28925879.566 5 113511342.33905     -1736.181 5        32.054    28925890.824 4                     -1780.534 4        26.012
G06        19.000    25254062.147 5 132711003.62705      2720.376 5        30.558                                    25254077.174 1 103411236.20501      2119.842 1         6.625
E36        20.000    23698204.767 5 124534817.33305       306.086 5        34.933                                                                    23698190.497 7  92996774.17407       228.658 7        47.279    23698189.535 7  95422807.02407       234.529 7        44.617
G17        22.000    22183731.097 6 116576274.76606      -984.186 6        36.291                                    22183725.836 5  90838573.36805      -766.896 5        30.475    22183726.680 6  90838639.34806      -766.802 6        37.686
S23        24.000    38110640.419 6 200272716.75206      -824.656 6        41.204
S36        25.000    38160967.905 6 200537123.87806      -828.170 6        37.289
R20        27.000    20045497.793 5                     -3549.302 5        30.453                                                                    20045499.717 7                     -2760.833 7        42.796
R06        29.000    20421088.453 6 108970845.45306      1605.831 6        37.539
C19        33.000                                                                                                                                    23578333.651 7 122778612.59507      1455.608 7        44.065                                                                    23578338.674 6  99767616.48406      1182.840 6        36.147
R21        34.000    19597444.719 8 104869949.18708       715.723 8        49.082                                                                    19597442.932 6  81565612.73806       556.671 6        40.255
R05        36.000    19738665.154 7 105514584.94707     -2973.759 7        46.203                                                                    19738663.984 7  82066797.43707     -2312.899 7        43.464
R22        37.000                                                                                                                                    23544837.220 5  97754178.29405      2617.104 5        35.390
C39        38.000                                                                                                                                    38840819.753 5 202254192.78605      -887.161 5        32.772                                                                    38840798.429 4 164348086.63704      -721.826 4        27.234
C06        41.000                                                                                                                                    38348695.222 6 199691714.16306      -313.100 6        36.994    38348705.239 6 154414265.95506      -242.065 6        39.577    38348687.593 5 162265839.51005      -254.534 5        34.029
C29        43.000                                                                                                                                    22204668.085 7 115625421.16207     -2454.698 7        47.370                                                                    22204664.162 7  93955237.90207     -1994.570 7        45.883
C16        45.000                                                                                                                                    38761486.181 7 201841309.20207      -436.197 7        43.536    38761486.365 6 156076431.60106      -337.441 6        39.889    38761482.740 5 164012522.48105      -354.474 5        32.060
C09        46.000                                                                                                                                    38964124.410 4 202896449.76904       156.477 4        28.540    38964125.537 7 156892403.31807       120.822 7        42.108    38964121.866 5 164869945.01305       127.013 5        34.429
C32        47.000                                                                                                                                    24485763.171 6 127503772.74906     -3516.393 6        41.094                                                                    24485759.847 7 103607292.49307     -2857.313 7        42.455
C35        51.000                                                                                                                                    23567276.871 8 122721191.44508      1043.623 8        50.481                                                                    23567274.722 7  99720878.21807       848.100 7        43.357
I09        54.000    37105856.889 6 145611342.21806      -714.494 6        36.219
C20        55.000                                                                                                                                    21731160.807 8 113159853.58208     -1024.526 8        51.015                                                                    21731155.501 7  91951729.07107      -832.411 7        46.915
I01        56.000   332005901.257 5 999721665.22405     -2852.666 5        33.802
C30        58.000                                                                                                                                    25531596.611 4                     -4310.864 4        25.940
> 2025 01 01 01 15 50.0000000  0 37
G21         3.000    22694494.890 6 119260375.66206     -3528.706 6        40.067                                    22694491.056 3  92930146.60503     -2749.647 3        22.629
G31         4.000    22593938.079 6 118731903.95106       894.694 6        38.517                                    22593919.019 1  92518302.07501       697.183 1         5.571    22593906.973 3                       697.469 3        21.881
G02         5.000    21306394.933 7 111965865.54207     -2624.530 7        46.941                                    21306386.737 5  87246072.46805     -2045.090 5        33.257
E34         6.000                                                                                                                                    27382540.841 7 107455001.40707      1461.903 7        43.124    27382536.381 5 110258143.81205      1500.266 5        34.990
E04         7.000    23944620.017 7 125829913.21007     -1866.808 7        44.805                                                                    23944617.417 7  93963817.09307     -1394.186 7        47.549    23944617.469 8  96415046.98908     -1430.504 8        49.069
G03         8.000    19910763.701 7 104631765.04407      -454.390 7        47.454                                    19910761.693 7  81531280.37207      -354.067 7        46.173    19910761.482 7  81531270.37607      -354.109 7        44.557
G09         9.000    23797462.075 5 125056506.03705      2857.165 5        33.892
G04        11.000    21623393.522 6 113631794.19306      2021.958 6        36.257                                    21623401.313 1  88544262.76401      1575.608 1        10.963    21623398.967 5  88544192.75405      1575.608 5        35.262
E09        12.000    24113138.142 7 126715490.02307       901.022 7        47.121                                                                    24113137.992 8  94625195.03608       672.873 8        50.885    24113136.166 8  97093655.36308       690.399 8        49.863
E10        13.000                                                                                                                                                                                                    25940848.703 6 104453049.76506     -2552.141 6        36.189
E06        14.000    23384469.836 5 122886285.10605      -377.140 5        35.957                                                                    23384469.050 6  91765694.83206      -281.509 6        41.285    23384468.595 7  94159584.85907      -288.981 7        45.321
E11        15.000    23873447.611 5 125455865.15605     -2332.356 5        32.485                                                                    23873443.996 7  93684519.65707     -1741.653 7        42.999    23873443.671 7  96128462.44207     -1787.064 7        42.643
G19        16.000    22760587.508 6 119607925.05206      1084.775 6        39.868                                    22760610.375 1  93200792.36901       845.273 1         7.500
E30        17.000    28928093.216 4                     -2326.247 4        27.210                                                                    28928094.335 5 113520023.92005     -1737.054 5        32.174    28928101.876 4                     -1782.370 4        24.632
G06        19.000    25251474.137 4 132697400.06704      2721.039 4        28.360                                    25251488.807 1 103400636.02801      2120.037 1         2.600
E36        20.000    23697907.792 5 124533289.82405       304.949 5        34.814                                                                    23697899.902 7  92995633.50107       227.630 7        47.645    23697898.994 7  95421636.59307       233.587 7        44.423
G17        22.000    22184668.939 6 116581202.23206      -987.000 6        36.529                                    22184663.880 5  90842412.94005      -769.093 5        30.113    22184664.619 6  90842478.92906      -768.982 6        39.180
S23        24.000    38111425.318 6 200276838.94206      -824.292 6        41.225
S36        25.000    38161755.147 6 200541263.95206      -827.766 6        37.202
R20        27.000    20048823.312 5                     -3552.875 5        30.136                                                                    20048821.137 7  83385586.55617     -2763.283 7        43.736
R04        28.000                                                                                                                                    23466822.307 3                     -3718.004 3        20.500
R06        29.000    20419586.355 6 108962821.73306      1603.508 6        38.039
C19        33.000                                                                                                                                    23576936.345 7 122771337.37807      1454.514 7        44.772                                                                    23576950.577 5  99761704.81005      1181.586 5        34.814
R21        34.000    19596777.163 8 104866379.46608       712.087 8        48.765                                                                    19596773.726 6  81562836.27806       553.886 6        38.658
R05        36.000    19741447.936 7 105529459.25107     -2975.927 7        46.496                                                                    19741446.473 7  82078366.34407     -2314.699 7        43.117
R22        37.000    23541633.437 4 125667905.04614      3364.664 4        29.678                                                                    23541684.221 5  97741093.07505      2616.950 5        34.410
C39        38.000                                                                                                                                    38841665.830 5 202258630.48805      -887.839 5        32.695                                                                    38841653.932 4 164351692.53704      -721.523 4        28.284
C06        41.000                                                                                                                                    38348995.047 6 199693281.05406      -313.436 6        36.578    38349006.686 6 154415477.60106      -242.596 6        39.703    38348988.627 5 162267112.71905      -254.920 5        34.381
C29        43.000                                                                                                                                    22207026.547 8 115637700.09608     -2456.880 8        48.066                                                                    22207022.640 7  93965215.52907     -1996.448 7        46.302
C16        45.000                                                                                                                                    38761905.271 7 201843491.83507      -436.934 7        43.283    38761905.705 6 156078119.34506      -337.706 6        39.958    38761901.356 5 164014296.02705      -355.145 5        32.287
C09        46.000                                                                                                                                    38963974.725 4 202895670.09904       155.553 4        28.389    38963975.615 6 156891800.41006       120.511 6        41.914    38963972.493 5 164869311.42305       126.603 5        34.681
C32        47.000                                                                                                                                    24489140.095 7 127521355.41807     -3516.709 7        42.159                                                                    24489136.130 6 103621579.84106     -2857.537 6        41.526
C35        51.000                                                                                                                                    23566275.629 8 122715977.91408      1041.740 8        50.134                                                                    23566273.442 7  99716641.77707       846.545 7        43.651
I09        54.000    37106767.825 6 145614915.00706      -714.589 6        36.355
C20        55.000                                                                                                                                    21732145.269 8 113164980.06408     -1026.114 8        51.148                                                                    21732139.841 7  91955894.74607      -833.750 7        46.673
I01        56.000   332009534.940 5 999735928.57305     -2852.470 5        34.052
C30        58.000                                                                                                                                    25535730.358 4                     -4311.006 4        26.120
> 2025 01 01 01 15 55.0000000  0 36
G21         3.000    22697852.596 6 119278023.24206     -3530.203 6        40.148                                    22697849.464 3  92943897.96703     -2750.796 3        23.010
G31         4.000    22593091.120 5 118727438.36205       891.665 5        33.509                                    22593069.702 1  92514822.75801       694.897 1         4.143    22593063.343 3                       692.897 3        23.829
G02         5.000    21308893.164 7 111978993.96007     -2626.802 7        46.677                                    21308884.872 5  87256302.40505     -2046.858 5        33.341
E34         6.000                                                                                                                                    27380678.502 7 107447692.10807      1461.796 7        43.101    27380673.923 5 110250643.85205      1499.858 5        34.929
E04         7.000    23946397.192 7 125839252.95707     -1868.937 7        43.998                                                                    23946394.872 7  93970791.56307     -1395.576 7        47.303    23946394.559 8  96422203.40608     -1432.047 8        49.053
G03         8.000    19911197.037 8 104634042.49908      -456.521 8        48.185                                    19911195.185 7  81533055.01107      -355.730 7        46.666    19911194.903 7  81533045.02007      -355.726 7        44.930
G09         9.000    23794743.051 5 125042223.83005      2855.977 5        32.802
G04        11.000    21621477.584 6 113621689.31306      2019.923 6        39.480                                    21621478.198 2  88536388.85802      1573.971 2        15.571    21621475.733 6  88536318.83706      1574.019 6        37.508
E09        12.000    24112281.896 7 126710989.90107       899.098 7        47.439                                                                    24112281.599 8  94621834.55408       671.388 8        51.107    24112279.498 8  97090207.21608       688.892 8        49.405
E10        13.000                                                                                                                                                                                                    25944017.802 6 104465812.40906     -2552.971 6        36.420
E06        14.000    23384829.252 5 122888176.19205      -379.351 5        35.552                                                                    23384828.708 6  91767107.01406      -283.328 6        40.696    23384828.661 7  94161033.85507      -290.571 7        45.959
E11        15.000    23875667.258 5 125467530.90505     -2334.087 5        32.473                                                                    23875663.950 7  93693231.07707     -1742.874 7        42.650    23875663.624 7  96137401.12807     -1788.386 7        42.675
G19        16.000    22759556.557 6 119602509.16906      1081.573 6        41.120                                    22759579.980 1  93196572.04901       842.766 1         9.524
E30        17.000                                                                                                                                    28930309.727 5 113528712.01905     -1738.161 5        31.751    28930312.905 4                     -1783.780 4        26.216
G28        18.000                                                                                                                                                                    23087857.122 4                      -733.506 4        28.427
E36        20.000    23697618.126 5 124531769.70005       303.217 5        34.905                                                                    23697610.764 7  92994498.35707       226.400 7        47.719    23697609.806 7  95420471.83307       232.401 7        44.397
G17        22.000    22185610.508 6 116586144.72306      -990.000 6        38.763                                    22185604.718 5  90846264.23405      -771.438 5        30.128    22185604.084 6  90846330.22406      -771.298 6        39.520
S23        24.000    38112208.067 6 200280960.77306      -824.426 6        41.323
S36        25.000    38162542.797 6 200545403.39906      -827.922 6        37.221
R20        27.000    20052151.634 4                     -3556.422 4        28.692                                                                    20052144.556 7  83399409.72007     -2765.826 7        43.932
R06        29.000    20418084.814 6 108954810.36106      1600.791 6        37.962
C19        33.000                                                                                                                                    23575540.350 7 122764068.62907      1453.039 7        44.802                                                                    23575561.895 5  99755798.32805      1180.494 5        31.751
R21        34.000    19596112.820 8 104862829.08508       708.135 8        48.513                                                                    19596110.431 6  81560074.86006       550.584 6        36.352
R05        36.000    19744232.994 7 105544345.51807     -2978.472 7        46.343                                                                    19744231.681 7  82089944.55207     -2316.558 7        42.754
R22        37.000                                                                                                                                    23538533.859 5  97728010.21905      2616.573 5        32.503
C39        38.000                                                                                                                                    38842514.856 5 202263072.63705      -889.015 5        32.114                                                                    38842515.105 4 164355302.02704      -721.941 4        29.469
C06        41.000                                                                                                                                    38349296.081 5 199694852.44105      -314.754 5        35.457    38349309.192 6 154416692.68106      -243.317 6        39.517    38349290.633 5 162268389.61205      -255.860 5        35.105
C29        43.000                                                                                                                                    22209387.420 8 115649991.19908     -2459.476 8        48.581                                                                    22209383.344 7  93975203.05907     -1998.540 7        46.942
C16        45.000                                                                                                                                    38762325.527 7 201845678.86807      -437.854 7        43.010    38762325.700 6 156079810.49506      -338.596 6        40.174    38762321.490 5 164016073.18105      -355.873 5        33.060
C09        46.000                                                                                                                                    38963826.265 4 202894894.26404       154.407 4        28.844    38963826.927 6 156891200.47906       119.567 6        41.657    38963823.239 5 164868680.99405       125.921 5        35.129
C32        47.000                                                                                                                                    24492516.609 7 127538940.62207     -3517.334 7        42.897                                                                    24492512.823 6 103635869.28506     -2858.256 6        41.128
C35        51.000                                                                                                                                    23565276.584 8 122710775.29908      1039.440 8        49.324                                                                    23565274.215 7  99712414.23507       844.555 7        44.209
I09        54.000    37107679.078 6 145618488.46006      -714.729 6        36.340
C20        55.000                                                                                                                                    21733131.211 8 113170115.73608     -1028.095 8        51.328                                                                    21733125.865 7  91960067.92107      -835.454 7        46.739
I01        56.000   332013170.137 5 999750192.41305     -2852.926 5        33.946
C30        58.000                                                                                                                                    25539866.148 4                     -4311.148 4        27.473
> 2025 01 01 01 16  0.0000000  0 36
G21         3.000    22701211.717 6 119295677.26906     -3531.389 6        39.694                                    22701208.873 3  92957654.34403     -2751.747 3        22.438
G31         4.000    22592242.184 4 118722987.66404       888.589 4        29.725                                    22592222.843 1  92511354.69001       692.287 1         5.143    22592213.189 3                       692.151 3        23.448
G02         5.000    21311393.729 7 111992133.44607     -2628.976 7        46.938                                    21311385.162 5  87266540.96505     -2048.555 5        33.204
E34         6.000                                                                                                                                    27378815.963 7 107440383.51407      1461.628 7        42.933    27378811.410 5 110243144.63005      1499.812 5        34.733
E04         7.000    23948176.233 7 125848602.40107     -1870.938 7        42.635                                                                    23948174.187 7  93977773.29907     -1397.111 7        47.362    23948173.591 8  96429367.26308     -1433.481 8        48.933
G03         8.000    19911631.874 8 104636330.27508      -458.608 8        48.677                                    19911630.668 7  81534837.68907      -357.359 7        46.998    19911630.218 7  81534827.69307      -357.303 7        45.112
G09         9.000    23792025.383 5 125027945.54105      2855.351 5        32.257
G04        11.000    21619559.427 6 113611594.32606      2017.973 6        41.807                                    21619556.692 3  88528522.66103      1572.457 3        19.343    21619554.522 6  88528452.63406      1572.353 6        38.814
E09        12.000    24111427.427 8 126706499.11408       897.241 8        48.143                                                                    24111427.001 8  94618481.04608       669.963 8        51.477    24111424.657 8  97086766.23108       687.439 8        48.928
E10        13.000                                                                                                                                    25947219.329 3                     -2488.039 3        21.643    25947188.113 6 104478579.19106     -2553.795 6        37.100
E06        14.000    23385190.463 5 122890078.07105      -381.341 5        35.733                                                                    23385190.744 6  91768527.25106      -284.751 6        40.343    23385190.822 7  94162491.15307      -292.236 7        46.062
E11        15.000    23877888.748 5 125479204.86305     -2335.407 5        32.096                                                                    23877885.252 7  93701948.65907     -1744.136 7        42.436    23877885.279 7  96146346.12607     -1789.601 7        42.265
G19        16.000    22758529.047 7 119597108.73207      1078.582 7        42.409                                    22758552.070 1  93192363.81001       840.439 1        11.852
E30        17.000    28932501.507 4                     -2329.491 4        28.929                                                                    28932526.424 5 113537407.04405     -1739.272 5        30.423    28932528.196 4                     -1785.306 4        26.503
G28        18.000                                                                                                                                                                    23088760.434 4                      -736.476 4        29.488
E36        20.000    23697333.610 5 124530257.31705       301.621 5        34.086                                                                    23697322.989 7  92993368.98607       225.312 7        47.929    23697322.123 7  95419313.00707       231.224 7        44.459
G17        22.000    22186553.887 6 116591102.53606      -993.145 6        39.577                                    22186548.253 4  90850127.48604      -773.878 4        29.962    22186547.316 6  90850193.48306      -773.711 6        38.796
S23        24.000    38112988.964 6 200285082.62006      -824.359 6        40.958
S36        25.000    38163330.759 6 200549543.36206      -827.920 6        37.127
R20        27.000    20055474.841 4                     -3559.676 4        26.156                                                                    20055471.536 7                     -2768.620 7        44.054
R06        29.000    20416585.016 6 108946812.01706      1598.451 6        37.698
C19        33.000                                                                                                                                    23574145.337 7 122756806.65907      1451.694 7        44.664                                                                    23574166.219 4  99749897.27404      1179.486 4        26.216
R21        34.000    19595453.417 8 104859298.34608       704.267 8        48.373                                                                    19595453.115 5  81557328.71105       547.803 5        35.829
R05        36.000    19747019.390 7 105559243.98207     -2980.822 7        46.936                                                                    19747018.710 7  82101532.25207     -2318.415 7        42.256
R22        37.000                                                                                                                                    23535383.462 5  97714930.11415      2615.368 5        31.245
C39        38.000                                                                                                                                    38843371.464 5 202267519.44905      -889.883 5        32.042                                                                    38843374.540 4 164358915.35204      -722.999 4        29.090
C06        41.000                                                                                                                                    38349599.061 5 199696428.63505      -315.519 5        34.205    38349610.516 6 154417911.50706      -243.982 6        39.655    38349593.205 5 162269670.39005      -256.347 5        35.329
C29        43.000                                                                                                                                    22211750.172 8 115662294.76608     -2461.913 8        49.601                                                                    22211746.517 7  93985200.71707     -2000.559 7        47.568
C16        45.000                                                                                                                                    38762746.275 7 201847870.61807      -438.645 7        42.707    38762746.684 6 156081505.29806      -339.299 6        40.133    38762742.796 5 164017854.16905      -356.554 5        33.174
C09        46.000                                                                                                                                    38963678.737 4 202894122.68004       153.597 4        29.024    38963678.779 6 156890603.78206       119.091 6        41.507    38963675.174 5 164868053.98105       124.859 5        35.305
C32        47.000                                                                                                                                    24495893.215 7 127556528.69407     -3517.869 7        43.903                                                                    24495890.221 6 103650161.04106     -2858.509 6        40.598
C35        51.000                                                                                                                                    23564279.758 8 122705583.90208      1037.189 8        48.651                                                                    23564277.254 7  99708195.78207       842.758 7        44.417
I09        54.000    37108589.441 6 145622062.79706      -715.006 6        36.265
C20        55.000                                                                                                                                    21734119.328 8 113175260.92708     -1029.980 8        51.570                                                                    21734113.960 7  91964248.80607      -836.922 7        46.631
I01        56.000   332016806.250 5 999764456.97205     -2852.880 5        33.934
C30        58.000                                                                                                                                    25544006.294 4                     -4311.709 4        27.952
> 2025 01 01 01 16  5.0000000  0 37
G21         3.000    22704571.802 6 119313337.48006     -3532.597 6        38.868                                    22704569.695 3  92971415.54703     -2752.683 3        22.133
G31         4.000    22591401.147 5 118718551.44605       886.267 5        31.713                                    22591378.758 1  92507898.06501       690.579 1         8.000    22591370.181 4                       690.017 4        24.677
G02         5.000    21313896.268 7 112005283.84607     -2631.101 7        46.892                                    21313887.379 5  87276788.04005     -2050.214 5        33.036
E34         6.000                                                                                                                                    27376953.322 7 107433075.52507      1461.648 7        42.864    27376948.775 5 110235645.98005      1499.879 5        34.524
E04         7.000    23949956.788 6 125857961.39806     -1872.715 6        41.137                                                                    23949955.298 7  93984762.15907     -1398.442 7        47.322    23949954.439 8  96436538.44108     -1434.920 8        48.709
G03         8.000    19912068.857 8 104638628.21308      -460.544 8        48.575                                    19912068.100 7  81536628.28707      -358.866 7        47.156    19912067.405 7  81536618.29407      -358.791 7        45.138
G09         9.000    23789310.273 5 125013671.02705      2854.796 5        31.366                                    23789320.319 1  97413290.56611      2224.589 1         6.625
G04        11.000    21617640.643 7 113601509.10407      2016.105 7        42.025                                    21617636.734 3  88520664.04603      1570.994 3        20.881    21617635.388 6  88520594.03106      1571.154 6        39.799
E09        12.000    24110574.598 8 126702017.52708       895.443 8        48.856                                                                    24110574.178 8  94615134.40808       668.681 8        51.685    24110571.496 8  97083332.29408       686.159 8        48.455
E10        13.000                                                                                                                                    25950392.464 3                     -2491.635 3        20.048    25950359.241 6 104491349.99206     -2554.649 6        37.319
E06        14.000    23385556.085 6 122891990.65206      -383.450 6        36.881                                                                    23385554.710 6  91769955.46606      -286.348 6        39.916    23385555.029 7  94163956.61607      -293.799 7        46.316
E11        15.000    23880111.659 5 125490886.93405     -2336.770 5        31.434                                                                    23880108.234 7  93710672.29907     -1745.188 7        42.262    23880108.356 7  96155297.33807     -1790.786 7        42.110
G19        16.000    22757504.427 7 119591723.60007      1075.585 7        42.669                                    22757526.709 2  93188167.54402       838.106 2        15.333
E30        17.000    28934725.651 4                     -2331.450 4        29.564                                                                    28934741.184 5 113546108.85605     -1740.723 5        32.114    28934745.008 4                     -1786.163 4        26.335
G28        18.000                                                                                                                                                                    23089658.922 4                      -738.721 4        28.844
E36        20.000    23697051.093 5 124528752.53305       299.983 5        32.617                                                                    23697036.622 8  92992245.28308       224.247 8        48.128    23697035.851 7  95418160.00207       230.107 7        44.465
G17        22.000    22187499.467 6 116596075.54306      -996.003 6        38.778                                    22187494.761 4  90854002.54304      -776.106 4        29.791    22187492.285 6  90854068.54706      -776.233 6        38.255
S23        24.000    38113776.140 6 200289204.50606      -824.461 6        41.063
S36        25.000    38164114.733 6 200553682.68406      -827.913 6        37.013
R20        27.000    20058806.741 4                     -3562.986 4        24.947                                                                    20058801.495 7  83427095.50717     -2771.111 7        44.120
R04        28.000    23480259.898 4                     -4779.639 4        24.602
R06        29.000    20415087.953 6 108938826.31906      1595.929 6        36.824
C19        33.000                                                                                                                                    23572751.759 7 122749551.32507      1450.473 7        44.441                                                                    23572772.873 4  99744001.56704      1178.873 4        29.791
R21        34.000    19594797.443 7 104855787.00607       700.452 7        47.487                                                                    19594797.954 6  81554597.66206       544.986 6        36.076
R05        36.000    19749810.172 7 105574154.55607     -2983.231 7        47.180                                                                    19749808.381 6  82113129.35206     -2320.373 6        41.521
R22        37.000    23532263.956 6 125616829.00116      3362.738 6        36.484                                                                    23532235.866 5  97701852.47205      2615.188 5        31.608
C39        38.000                                                                                                                                    38844230.105 5 202271970.74905      -890.527 5        32.156                                                                    38844228.167 4 164362532.45704      -723.389 4        29.697
C06        41.000                                                                                                                                    38349902.219 5 199698009.44405      -316.253 5        33.976    38349912.597 6 154419133.94406      -244.890 6        39.826    38349896.894 5 162270954.94805      -256.914 5        35.652
C29        43.000                                                                                                                                    22214115.391 8 115674610.65608     -2464.352 8        50.382                                                                    22214111.891 8  93995208.39308     -2002.379 8        48.148
C16        45.000                                                                                                                                    38763168.138 7 201850066.94707      -439.593 7        42.821    38763168.193 6 156083203.63606      -340.059 6        40.098    38763164.704 5 164019638.88405      -357.249 5        33.311
C09        46.000                                                                                                                                    38963529.825 4 202893355.05604       153.405 4        29.090    38963531.423 6 156890010.22006       118.534 6        41.111    38963528.299 6 164867430.25106       124.504 6        36.030
C32        47.000                                                                                                                                    24499270.651 7 127574119.48907     -3518.398 7        44.494                                                                    24499268.141 6 103664455.00406     -2858.883 6        39.976
C35        51.000                                                                                                                                    23563284.625 7 122700403.61407      1035.010 7        47.776                                                                    23563282.423 7  99703986.37307       841.116 7        44.634
I09        54.000    37109500.029 6 145625637.88506      -714.895 6        36.329
C20        55.000                                                                                                                                    21735109.054 8 113180415.48008     -1031.742 8        51.528                                                                    21735103.953 7  91968437.31207      -838.300 7        46.569
I01        56.000   332020440.956 5 999778722.18405     -2853.141 5        34.181
C30        58.000                                                                                                                                    25548146.753 4                     -4312.509 4        27.880
> 2025 01 01 01 16 10.0000000  0 36
G21         3.000    22707933.553 6 119331004.32806     -3534.137 6        39.057                                    22707931.421 3  92985181.93603     -2753.883 3        21.238
G31         4.000    22590557.734 5 118714130.50005       882.670 5        32.754                                    22590537.534 1  92504453.23901       687.778 1        11.185    22590528.662 4                       688.081 4        26.946
G02         5.000    21316400.523 7 112018445.51507     -2633.583 7        46.079                                    21316391.912 5  87287043.89405     -2052.145 5        32.665
E34         6.000                                                                                                                                    27375090.912 7 107425768.45607      1461.249 7        42.536    27375086.303 5 110228148.32205      1499.362 5        34.457
E04         7.000    23951739.562 6 125867330.31606     -1874.824 6        38.889                                                                    23951738.209 7  93991758.42607     -1399.989 7        47.454    23951737.226 8  96443717.22008     -1436.535 8        48.574
G03         8.000    19912508.006 8 104640936.66008      -462.740 8        48.385                                    19912507.490 7  81538427.07507      -360.577 7        47.120    19912506.678 7  81538417.08707      -360.638 7        44.795
G09         9.000    23786592.686 5 124999400.77805      2853.317 5        30.475                                    23786604.510 1  97402170.93001      2223.105 1         2.200
G04        11.000    21615721.688 7 113591434.00507      2013.891 7        42.182                                    21615718.752 3  88512813.35003      1569.260 3        22.095    21615718.340 6  88512743.31906      1569.206 6        40.131
E09        12.000    24109723.506 8 126697545.50708       893.338 8        49.384                                                                    24109723.299 8  94611794.91808       667.085 8        51.816    24109720.337 8  97079905.69408       684.541 8        48.128
E10        13.000                                                                                                                                                                                                    25953532.237 6 104504125.07306     -2555.374 6        38.087
E06        14.000    23385923.194 6 122893914.25806      -386.029 6        38.393                                                                    23385920.531 6  91771391.92906      -288.103 6        39.219    23385921.281 7  94165430.54507      -295.704 7        46.646
E11        15.000    23882335.860 5 125502577.53805     -2339.076 5        32.012                                                                    23882332.793 6  93719402.26406     -1746.624 6        41.957    23882333.173 6  96164255.04306     -1792.184 6        41.809
G19        16.000    22756482.769 7 119586354.14507      1072.251 7        42.811                                    22756503.785 2  93183983.48202       835.518 2        16.377
E30        17.000    28936950.954 5                     -2333.524 5        31.404                                                                    28936955.088 5 113554817.73005     -1742.578 5        33.269    28936961.600 4                     -1787.800 4        26.371
G28        18.000                                                                                                                                                                    23090565.266 4                      -741.720 4        29.100
E36        20.000    23696771.656 5 124527255.70805       298.556 5        30.106                                                                    23696751.815 8  92991127.53908       222.826 8        48.009    23696750.956 7  95417013.09207       228.655 7        44.372
G17        22.000    22188448.627 6 116601064.11406      -999.321 6        38.237                                    22188444.167 4  90857889.74504      -778.690 4        29.460    22188442.044 6  90857955.74506      -778.703 6        38.426
S23        24.000    38114558.589 6 200293326.67406      -824.571 6        41.263
S36        25.000    38164903.787 6 200557821.83706      -827.838 6        37.134
R20        27.000    20062138.028 4                     -3565.777 4        25.338                                                                    20062134.295 7  83440958.32407     -2773.955 7        43.949
R06        29.000    20413595.415 6 108930853.78006      1593.009 6        37.089
C19        33.000                                                                                                                                    23571359.636 7 122742303.00007      1448.863 7        44.211                                                                    23571382.843 5  99738111.65505      1177.470 5        32.287
R21        34.000    19594144.723 8 104852295.52408       696.240 8        48.630                                                                    19594143.717 5  81551882.04605       541.494 5        34.462
R05        36.000    19752602.146 7 105589077.55707     -2986.007 7        46.630                                                                    19752600.190 6  82124736.13406     -2322.428 6        40.479
R22        37.000    23529111.434 6 125600018.33606      3361.698 6        39.147                                                                    23529087.441 5  97688777.66005      2614.265 5        33.383
C39        38.000                                                                                                                                    38845087.663 5 202276426.99405      -892.039 5        32.677                                                                    38845082.885 4 164366153.57004      -724.820 4        29.991
C06        41.000                                                                                                                                    38350206.663 5 199699595.35205      -317.938 5        33.299    38350216.341 6 154420360.25306      -245.825 6        39.766    38350201.906 6 162272243.59606      -258.246 6        36.057
C29        43.000                                                                                                                                    22216482.265 8 115686939.23608     -2467.092 8        50.661                                                                    22216479.706 8  94005226.35708     -2004.668 8        48.639
C16        45.000                                                                                                                                    38763591.019 7 201852268.21507      -440.836 7        42.356    38763591.154 6 156084905.79106      -340.811 6        39.985    38763587.422 5 164021427.56305      -358.266 5        33.832
C09        46.000                                                                                                                                    38963384.505 5 202892591.89405       152.267 5        30.400    38963385.097 6 156889420.07906       117.730 6        40.696    38963381.788 6 164866810.09906       123.808 6        36.023
C32        47.000                                                                                                                                    24502648.902 7 127591713.33807     -3519.194 7        44.623                                                                    24502646.530 6 103678751.44206     -2859.554 6        39.706
C35        51.000                                                                                                                                    23562291.469 7 122695234.78507      1032.521 7        46.312                                                                    23562289.879 7  99699786.24007       839.130 7        44.764
I09        54.000    37110411.490 6 145629214.05506      -715.523 6        36.503
C20        55.000                                                                                                                                    21736100.610 8 113185579.75408     -1033.941 8        51.132                                                                    21736095.779 7  91972633.69507      -840.101 7        46.464
I01        56.000   332024076.692 5 999792988.32105     -2853.555 5        34.057
C30        58.000                                                                                                                                    25552289.702 4                     -4312.701 4        27.401
> 2025 01 01 01 16 15.0000000  0 38
G21         3.000    22711296.566 6 119348677.42606     -3535.192 6        39.336                                    22711294.247 3  92998953.18703     -2754.692 3        20.738
G31         4.000    22589713.521 5 118709724.26505       879.895 5        32.988                                    22589698.841 2  92501019.83002       685.628 2        14.000    22589691.293 4                       685.767 4        29.223
G02         5.000    21318906.504 7 112031618.02907     -2635.629 7        44.239                                    21318898.646 5  87297308.20405     -2053.744 5        32.168
E34         6.000                                                                                                                                    27373228.815 7 107418461.94107      1461.054 7        42.006    27373224.621 5 110220651.20405      1499.224 5        34.448
E04         7.000    23953524.379 6 125876708.69606     -1876.646 6        36.004                                                                    23953522.952 7  93998761.77107     -1401.473 7        47.596    23953521.860 8  96450903.25508     -1438.020 8        48.309
G03         8.000    19912949.529 7 104643255.22307      -464.759 7        47.922                                    19912948.750 7  81540233.74607      -362.149 7        47.164    19912947.666 7  81540223.75007      -362.187 7        44.612
G09         9.000    23783883.409 4 124985134.22704      2852.558 4        29.014                                    23783891.112 1  97391054.09101      2222.626 1         1.111
G04        11.000    21613806.245 7 113581368.59907      2012.125 7        42.624                                    21613802.939 3  88504970.18303      1567.881 3        23.105    21613802.634 6  88504900.18406      1567.704 6        40.231
E09        12.000    24108874.196 8 126693082.62908       891.561 8        50.005                                                                    24108874.202 8  94608462.25108       665.754 8        51.992    24108871.143 7  97076486.09907       683.137 7        47.623
E10        13.000                                                                                                                                    25956708.742 6 101859732.94416     -2491.385 6        39.129    25956706.728 6 104516904.12306     -2556.178 6        38.715
E06        14.000    23386290.532 6 122895848.41706      -387.920 6        39.132                                                                    23386288.411 6  91772836.29506      -289.719 6        38.685    23386289.653 7  94166912.58407      -297.253 7        47.019
E11        15.000    23884561.770 5 125514276.10705     -2340.870 5        32.323                                                                    23884558.932 6  93728138.22906     -1747.764 6        41.490    23884559.301 6  96173218.90606     -1793.422 6        41.297
G19        16.000    22755464.056 7 119580999.97107      1069.230 7        42.536                                    22755483.133 2  93179811.35902       833.186 2        17.887
E30        17.000    28939176.217 5                     -2335.123 5        31.826                                                                    28939173.951 5 113563533.10905     -1743.740 5        33.868    28939181.689 4                     -1788.539 4        24.767
G28        18.000    23091469.859 4                      -954.349 4        27.988                                                                                                    23091472.120 5                      -744.187 5        30.068
G06        19.000    25238652.206 3                      2723.135 3        20.000
E36        20.000                                                                                                                                    23696468.408 8  92990015.41408       221.764 8        48.165    23696467.503 7  95415871.96607       227.515 7        44.232
G17        22.000    22189400.699 6 116606067.83906     -1002.413 6        36.904                                    22189396.578 4  90861788.74704      -781.102 4        28.976    22189393.929 6  90861854.72006      -780.905 6        37.913
S23        24.000    38115343.461 6 200297448.82106      -824.484 6        41.118
S36        25.000    38165692.724 6 200561960.77106      -827.603 6        36.941
R20        27.000    20065476.971 4                     -3569.244 4        25.850                                                                    20065470.674 7  83454834.19817     -2776.589 7        43.570
R04        28.000    23489159.455 3                     -4780.666 3        23.352
R06        29.000    20412104.055 6 108922893.85906      1590.806 6        36.907
C19        33.000                                                                                                                                    23569968.520 7 122735061.25207      1447.591 7        44.012                                                                    23569993.023 5  99732227.10805      1176.290 5        31.751
R21        34.000    19593495.993 8 104848823.51208       692.330 8        48.785                                                                    19593494.517 4  81549181.54404       538.204 4        29.175
R05        36.000    19755395.179 7 105604012.53807     -2988.234 7        46.392                                                                    19755395.110 6  82136352.21406     -2324.194 6        40.400
R22        37.000    23525960.104 6 125583210.91506      3361.211 6        40.365                                                                    23525939.434 5  97675705.25505      2613.698 5        34.609
C39        38.000                                                                                                                                    38845943.353 5 202280887.71105      -892.680 5        32.377                                                                    38845942.330 5 164369778.24305      -724.940 5        30.158
C06        41.000                                                                                                                                    38350512.728 5 199701185.79605      -318.944 5        32.395    38350520.662 6 154421590.10606      -246.507 6        39.973    38350507.203 6 162273535.97406      -258.861 6        36.378
C29        43.000                                                                                                                                    22218851.558 8 115699280.06108     -2469.480 8        50.784                                                                    22218849.734 8  94015254.29508     -2006.534 8        49.110
C16        45.000                                                                                                                                    38764014.564 7 201854473.99007      -441.675 7        42.227    38764014.468 6 156086611.43306      -341.612 6        40.057    38764011.482 5 164023219.95805      -358.839 5        33.856
C09        46.000                                                                                                                                    38963238.546 5 202891832.75505       151.052 5        31.192    38963239.322 6 156888833.05506       116.971 6        40.806    38963235.921 6 164866193.23406       123.248 6        36.181
C32        47.000                                                                                                                                    24506027.905 7 127609309.83307     -3519.603 7        44.898                                                                    24506025.688 6 103693050.03406     -2859.820 6        39.477
C35        51.000                                                                                                                                    23561300.831 7 122690076.99207      1030.411 7        45.573                                                                    23561299.539 7  99695595.12607       837.363 7        45.053
I09        54.000    37111323.572 6 145632790.94706      -715.607 6        36.612
C20        55.000                                                                                                                                    21737094.647 8 113190753.32408     -1035.703 8        51.072                                                                    21737089.369 7  91976837.66007      -841.550 7        46.507
I01        56.000   332027712.332 5 999807255.01405     -2853.657 5        34.367
C30        58.000                                                                                                                                    25556429.074 4                     -4312.909 4        26.479
> 2025 01 01 01 16 20.0000000  0 37
G21         3.000    22714660.657 6 119366356.46606     -3536.321 6        39.105                                    22714658.083 3  93012729.08403     -2755.571 3        20.286
G31         4.000    22588875.102 5 118705332.45505       877.005 5        32.731                                    22588862.714 2  92497597.67502       683.375 2        16.340    22588855.765 5                       683.234 5        30.664
G02         5.000    21321414.092 7 112044801.06507     -2637.471 7        42.436                                    21321407.566 5  87307580.71405     -2055.174 5        31.298
E34         6.000                                                                                                                                    27371366.525 6 107411155.73006      1461.442 6        41.275    27371362.618 5 110213154.38105      1499.479 5        34.910
E04         7.000    23955309.530 5 125886096.23205     -1878.285 5        32.198                                                                    23955309.353 7  94005771.96807     -1402.601 7        47.719    23955308.226 8  96458096.32108     -1439.207 8        48.311
G03         8.000    19913392.706 7 104645583.57007      -466.494 7        47.549                                    19913391.807 7  81542048.04107      -363.501 7        47.013    19913390.854 7  81542038.04207      -363.503 7        44.248
G04        11.000    21611893.716 7 113571312.63107      2010.507 7        42.863                                    21611888.812 3  88497134.39003      1566.611 3        23.943    21611889.187 6  88497064.36806      1566.569 6        39.682
E09        12.000    24108026.756 8 126688628.58608       890.089 8        50.336                                                                    24108026.710 8  94605136.17708       664.714 8        51.978    24108023.722 7  97073073.27207       682.020 7        47.486
E10        13.000                                                                                                                                    25959883.742 6 101872190.75206     -2491.916 6        39.943    25959881.679 6 104529686.89106     -2556.797 6        39.414
E06        14.000    23386660.196 6 122897792.89906      -389.695 6        38.868                                                                    23386658.239 6  91774288.34106      -291.016 6        38.027    23386659.870 7  94168402.51007      -298.608 7        47.458
E11        15.000    23886789.473 5 125525982.42605     -2341.784 5        31.962                                                                    23886786.573 6  93736879.96506     -1748.742 6        41.383    23886786.859 6  96182188.69406     -1794.481 6        40.908
G19        16.000    22754448.312 7 119575660.76907      1066.622 7        42.919                                    22754464.716 3  93175650.90703       831.145 3        19.254
E30        17.000    28941397.482 5                     -2336.602 5        30.196                                                                    28941397.341 5 113572254.90505     -1744.843 5        33.347    28941403.495 3                     -1790.410 3        23.276
G28        18.000    23092381.596 5                      -958.322 5        30.989                                                                                                    23092382.636 5                      -746.821 5        31.970
E36        20.000                                                                                                                                    23696186.304 7  92988908.69407       220.979 7        47.853    23696185.343 7  95414736.37707       226.722 7        44.214
G17        22.000    22190355.190 6 116611086.33606     -1004.969 6        36.609                                    22190351.833 4  90865699.25704      -783.092 4        28.133    22190349.331 6  90865765.26206      -782.957 6        36.968
S23        24.000    38116127.610 6 200301570.51406      -824.000 6        40.937
S36        25.000    38166478.616 6 200566098.85706      -827.425 6        36.991
R20        27.000    20068817.984 4                     -3572.874 4        26.838                                                                    20068809.179 7  83468722.80507     -2778.843 7        42.315
R04        28.000    23493622.837 3                     -4780.846 3        22.933
R06        29.000    20410613.288 6 108914946.37806      1588.554 6        36.643
R13        32.000    24097578.546 5 128679724.73815     -2569.280 5        30.868
C19        33.000                                                                                                                                    23568579.076 7 122727825.78507      1446.632 7        44.259                                                                    23568601.208 5  99726347.57705      1175.459 5        30.181
R21        34.000    19592850.350 8 104845370.64608       688.817 8        48.527                                                                    19592847.625 4  81546495.97504       535.859 4        28.246
R05        36.000    19758191.422 7 105618959.11807     -2990.169 7        45.207                                                                    19758191.253 6  82147977.29606     -2325.623 6        40.226
R22        37.000    23522806.570 6 125566406.50906      3360.779 6        41.273                                                                    23522791.269 6  97662635.17806      2613.805 6        36.306
C39        38.000                                                                                                                                    38846794.907 5 202285352.68505      -892.888 5        32.629                                                                    38846799.833 5 164373406.37005      -725.428 5        30.340
C06        41.000                                                                                                                                    38350820.085 5 199702780.53205      -319.404 5        32.090    38350825.307 6 154422823.26506      -246.775 6        39.763    38350813.513 6 162274831.83006      -259.484 6        36.854
C29        43.000                                                                                                                                    22221223.514 8 115711632.83608     -2471.569 8        50.691                                                                    22221221.962 8  94025291.93208     -2008.466 8        49.454
C16        45.000                                                                                                                                    38764439.164 6 201856683.96906      -442.188 6        41.933    38764438.668 6 156088320.32006      -341.892 6        40.207    38764435.687 5 164025015.76105      -359.474 5        34.310
C09        46.000                                                                                                                                    38963094.616 5 202891077.27505       150.893 5        31.585    38963094.486 6 156888248.87006       116.886 6        40.737    38963091.107 6 164865579.37506       122.407 6        36.790
C32        47.000                                                                                                                                    24509407.237 7 127626908.65707     -3519.784 7        44.748                                                                    24509405.541 6 103707350.51806     -2860.196 6        39.459
C35        51.000                                                                                                                                    23560312.228 7 122684929.93607      1028.599 7        44.962                                                                    23560311.103 7  99691412.71707       835.722 7        45.342
I09        54.000    37112235.944 6 145636368.34806      -715.329 6        36.949
C20        55.000                                                                                                                                    21738090.068 8 113195935.88208     -1037.243 8        51.183                                                                    21738084.673 7  91981048.90507      -842.917 7        46.629
I01        56.000   332031347.990 5 999821522.06905     -2853.247 5        34.290
C30        58.000                                                                                                                                    25560567.936 4                     -4313.181 4        25.579
> 2025 01 01 01 16 25.0000000  0 38
G21         3.000    22718024.880 6 119384041.78706     -3537.591 6        39.324                                    22718023.363 3  93026509.86803     -2756.580 3        20.214
G31         4.000    22588039.709 5 118700955.44805       873.803 5        31.449                                    22588029.535 2  92494187.03602       680.879 2        17.283    22588024.379 5                       681.059 5        32.108
G02         5.000    21323924.438 6 112057995.06206     -2639.820 6        41.673                                    21323918.570 5  87317861.76005     -2056.996 5        30.709
E34         6.000    27369537.207 5 143827755.24505      1956.812 5        33.653                                                                    27369504.437 6 107403850.12906      1461.171 6        40.720    27369501.000 5 110205658.23105      1499.283 5        35.619
E04         7.000    23957095.791 4 125895493.39004     -1880.499 4        28.891                                                                    23957097.556 7  94012789.30807     -1404.126 7        47.943    23957096.454 8  96465296.72708     -1440.840 8        48.141
G03         8.000    19913837.916 7 104647922.10307      -468.683 7        47.854                                    19913836.707 7  81543870.26907      -365.207 7        47.228    19913836.063 7  81543860.27107      -365.152 7        44.272
G09         9.000    23778471.604 4 124956611.87104      2851.573 4        28.796                                    23778463.009 1  97368828.69201      2222.211 1         2.800
G04        11.000    21609981.812 7 113561266.49407      2008.334 7        43.520                                    21609976.603 4  88489306.23404      1564.930 4        25.023    21609977.774 6  88489236.21506      1565.030 6        39.670
E09        12.000    24107181.161 8 126684183.79008       888.065 8        50.567                                                                    24107180.925 8  94601817.01308       663.195 8        52.068    24107178.227 7  97069667.52207       680.519 7        47.501
E10        13.000                                                                                                                                    25963059.224 6 101884652.46706     -2492.782 6        40.398    25963057.119 6 104542473.70606     -2557.844 6        39.991
E06        14.000    23387032.045 6 122899748.10406      -392.042 6        37.890                                                                    23387029.992 6  91775748.39906      -292.808 6        37.607    23387032.141 7  94169900.63907      -300.383 7        47.803
E11        15.000    23889018.888 5 125537696.87805     -2343.495 5        31.668                                                                    23889015.651 6  93745627.78906     -1750.219 6        41.232    23889015.874 6  96191164.70706     -1795.837 6        40.319
G19        16.000    22753435.599 7 119570336.96307      1063.411 7        43.674                                    22753448.808 3  93171502.45903       828.629 3        20.238
E30        17.000    28943614.106 5                     -2338.678 5        30.234                                                                    28943622.318 5 113580983.39405     -1746.430 5        32.575    28943622.757 3                     -1791.958 3        20.643
G28        18.000    23093296.101 5                      -961.486 5        32.353                                                                                                    23093296.350 5  94563185.90615      -749.040 5        34.000
E36        20.000                                                                                                                                    23695905.741 7  92987807.69907       219.658 7        47.760    23695904.718 7  95413606.65307       225.392 7        44.160
G17        22.000    22191314.420 6 116616120.15006     -1008.235 6        37.085                                    22191309.842 4  90869621.71804      -785.637 4        27.138    22191307.537 6  90869687.72906      -785.615 6        36.688
S23        24.000    38116912.540 6 200305692.19506      -824.271 6        40.725
S36        25.000    38167269.405 6 200570237.32306      -827.655 6        36.994
R20        27.000    20072157.575 4                     -3576.011 4        27.126                                                                    20072150.919 6  83482624.34116     -2781.481 6        40.996
R04        28.000    23498092.174 3                     -4781.001 3        23.352
R06        29.000    20409125.739 6 108907011.70606      1585.566 6        36.314
R13        32.000    24099979.785 4 128692580.23604     -2572.710 4        29.270
C19        33.000                                                                                                                                    23567190.450 7 122720596.99107      1445.136 7        44.801
R21        34.000    19592209.070 8 104841937.30608       684.835 8        48.908                                                                    19592208.630 5  81543825.63605       532.691 5        32.892
R05        36.000    19760989.126 7 105633917.71507     -2992.883 7        44.397                                                                    19760989.344 6  82159611.75906     -2327.743 6        40.706
R22        37.000    23519655.994 6 125549605.41206      3359.981 6        41.542                                                                    23519643.740 6  97649567.71006      2613.169 6        38.144
C39        38.000                                                                                                                                    38847651.487 5 202289822.22805      -894.298 5        32.437                                                                    38847658.259 5 164377038.21805      -726.609 5        30.460
C06        41.000                                                                                                                                    38351126.546 5 199704379.93405      -320.427 5        31.849    38351127.529 6 154424060.08006      -247.622 6        39.739    38351121.018 6 162276131.47606      -260.179 6        36.953
C29        43.000                                                                                                                                    22223597.996 8 115723997.94308     -2474.225 8        50.420                                                                    22223596.460 8  94035339.59208     -2010.578 8        49.450
C16        45.000                                                                                                                                    38764864.286 6 201858898.55306      -443.162 6        41.549    38764864.459 6 156090032.77006      -342.576 6        40.021    38764860.847 5 164026815.29805      -360.142 5        34.338
C09        46.000                                                                                                                                    38962950.159 5 202890325.89205       150.054 5        32.204    38962950.603 6 156887667.88206       115.771 6        40.880    38962947.126 6 164864968.82306       121.950 6        37.539
C32        47.000                                                                                                                                    24512786.903 7 127644510.21707     -3520.477 7        44.524                                                                    24512786.071 6 103721653.23206     -2860.698 6        39.772
C35        51.000                                                                                                                                    23559326.267 7 122679794.05007      1026.130 7        44.355                                                                    23559324.944 7  99687239.39007       833.776 7        45.374
I09        54.000    37113146.845 6 145639946.53906      -715.702 6        36.794
C20        55.000                                                                                                                                    21739087.139 8 113201127.84008     -1039.220 8        51.547                                                                    21739081.838 7  91985267.80707      -844.578 7        46.620
I01        56.000   332034983.961 5 999835789.76105     -2853.521 5        34.433
C30        58.000                                                                                                                                    25564701.115 3                     -4314.543 3        23.676
> 2025 01 01 01 16 30.0000000  0 36
G21         3.000    22721390.958 6 119401733.33806     -3538.622 6        38.952                                    22721389.569 3  93040295.48403     -2757.368 3        19.463
G31         4.000    22587207.777 4 118696593.14404       871.062 4        29.346                                    22587199.369 2  92490787.84402       678.801 2        16.491    22587195.895 5                       678.776 5        33.030
G02         5.000    21326437.495 6 112071199.89506     -2641.906 6        41.607                                    21326431.729 5  87328151.25305     -2058.636 5        30.226
E34         6.000                                                                                                                                    27367642.775 6 107396545.14406      1460.948 6        40.074    27367639.756 6 110198162.67006      1499.348 6        36.284
E04         7.000    23958887.083 4 125904900.08104     -1882.286 4        27.737                                                                    23958887.476 8  94019813.74408     -1405.466 8        48.072    23958886.508 7  96472504.40207     -1442.114 7        47.992
G03         8.000    19914284.749 8 104650270.76408      -470.525 8        48.120                                    19914283.503 7  81545700.39407      -366.641 7        47.436    19914283.374 7  81545690.39007      -366.596 7        44.491
G09         9.000    23775754.301 4 124942356.47704      2851.412 4        29.251                                    23775750.433 1  97357720.79301      2221.950 1         2.800
G04        11.000    21608072.065 7 113551230.12907      2006.475 7        42.870                                    21608066.492 4  88481485.70204      1563.492 4        25.534    21608068.292 6  88481415.67706      1563.422 6        39.622
E09        12.000    24106337.064 8 126679748.17708       886.379 8        50.824                                                                    24106336.909 8  94598504.70608       661.931 8        52.050    24106334.567 7  97066268.81307       679.197 7        47.525
E10        13.000                                                                                                                                    25966235.366 6 101897118.05106     -2493.408 6        40.501    25966233.802 6 104555264.48406     -2558.342 6        40.408
E06        14.000    23387404.953 6 122901713.93106      -394.165 6        36.726                                                                    23387403.895 6  91777216.35206      -294.161 6        36.771    23387406.453 8  94171406.90908      -301.928 8        48.126
E11        15.000    23891249.753 5 125549419.39305     -2345.570 5        32.629                                                                    23891246.411 6  93754381.61306     -1751.290 6        40.987    23891246.459 6  96200146.88606     -1796.883 6        39.504
G19        16.000    22752425.792 7 119565028.49007      1060.343 7        44.194                                    22752435.990 3  93167365.99003       826.245 3        20.976
E30        17.000    28945838.085 5                     -2340.290 5        30.491                                                                    28945847.388 5 113589718.64405     -1747.463 5        33.467    28945847.403 3                     -1788.380 3        20.214
G28        18.000    23094212.556 5                      -964.749 5        33.419                                                                                                    23094213.403 5  94566938.64005      -751.853 5        35.252
E36        20.000                                                                                                                                    23695626.677 7  92986712.35607       218.663 7        47.525    23695625.766 7  95412482.73107       224.397 7        43.966
G17        22.000    22192279.668 6 116621169.06706     -1011.078 6        36.465                                    22192270.611 4  90873555.95404      -787.863 4        24.692    22192268.625 5  90873621.98505      -787.886 5        35.967
S23        24.000    38117698.562 6 200309813.73206      -824.036 6        40.753
S36        25.000    38168056.030 6 200574376.01506      -827.545 6        36.745
R20        27.000    20075500.176 4                     -3579.474 4        27.653                                                                    20075495.730 6  83496538.94316     -2784.156 6        40.224
R06        29.000    20407642.729 5 108899089.79105      1583.207 5        35.933
R13        32.000    24102387.772 4 128705454.00804     -2576.482 4        28.427
C19        33.000                                                                                                                                    23565802.880 7 122713374.80707      1444.020 7        44.864                                                                    23565810.825 6  99714604.92106      1173.545 6        36.374
R21        34.000    19591572.256 8 104838523.53608       681.061 8        49.510                                                                    19591569.813 6  81541170.48106       529.754 6        36.004
R05        36.000    19763789.959 7 105648888.33207     -2995.134 7        44.609                                                                    19763789.785 7  82171255.59207     -2329.641 7        42.061
R22        37.000    23516509.537 6 125532807.58806      3359.391 6        41.125                                                                    23516495.869 6  97636502.79206      2612.924 6        39.474
C39        38.000                                                                                                                                    38848512.188 5 202294296.24105      -894.888 5        31.977                                                                    38848516.882 5 164380673.73905      -727.314 5        30.068
C06        41.000                                                                                                                                    38351435.626 5 199705983.90705      -320.851 5        31.366    38351427.141 6 154425300.37106      -248.277 6        40.229    38351428.922 6 162277434.84806      -260.564 6        37.452
C29        43.000                                                                                                                                    22225974.263 8 115736375.30808     -2476.466 8        49.583                                                                    22225973.247 8  94045397.19308     -2012.304 8        49.258
C16        45.000                                                                                                                                    38765290.251 6 201861117.67406      -444.052 6        41.151    38765290.300 6 156091748.74106      -343.451 6        40.253    38765286.971 5 164028618.48005      -360.511 5        34.638
C09        46.000                                                                                                                                    38962806.304 5 202889578.59205       149.167 5        32.263    38962807.469 6 156887089.98106       115.478 6        41.058    38962803.537 6 164864361.52506       121.667 6        37.690
C32        47.000                                                                                                                                    24516166.784 7 127662114.41807     -3520.950 7        43.907                                                                    24516166.891 6 103735958.05206     -2860.812 6        40.107
C35        51.000                                                                                                                                    23558341.946 7 122674669.27407      1023.926 7        43.771                                                                    23558340.883 7  99683075.05307       832.226 7        45.404
I09        54.000    37114059.080 6 145643525.48706      -715.667 6        36.922
C20        55.000                                                                                                                                    21740085.894 8 113206329.09808     -1041.008 8        51.749                                                                    21740080.689 7  91989494.24207      -845.800 7        46.605
I01        56.000   332038618.898 5 999850058.06405     -2853.644 5        34.538
> 2025 01 01 01 16 35.0000000  0 38
G21         3.000    22724759.536 6 119419431.22106     -3540.060 6        38.679                                    22724757.122 3  93054086.04903     -2758.511 3        18.746
G31         4.000    22586381.283 4 118692245.70004       867.945 4        26.323                                    22586372.092 2  92487400.22502       676.344 2        15.286    22586369.159 5                       676.344 5        33.737
G02         5.000    21328952.472 7 112084415.69407     -2644.134 7        42.267                                    21328946.914 5  87338449.29905     -2060.368 5        30.430
E34         6.000    27365767.994 5 143808191.41105      1956.409 5        35.243                                                                    27365780.987 6 107389240.79606      1461.013 6        38.868    27365778.118 6 110190667.79806      1499.015 6        36.374
E04         7.000    23960682.498 4 125914316.22804     -1884.351 4        28.483                                                                    23960679.302 8  94026845.32908     -1406.964 8        48.124    23960678.307 7  96479719.41107     -1443.596 7        47.890
G03         8.000    19914734.125 8 104652629.64408      -472.745 8        49.132                                    19914732.217 7  81547538.47807      -368.372 7        47.854    19914732.559 7  81547528.47907      -368.321 7        44.852
G09         9.000    23773035.309 4 124928105.11304      2850.160 4        29.772                                    23773038.144 1  97346615.73601      2220.793 1         2.200
G04        11.000    21606163.380 6 113541203.63606      2004.376 6        41.683                                    21606158.213 4  88473672.86704      1561.845 4        25.308    21606160.066 6  88473602.84006      1562.086 6        39.456
E09        12.000    24105494.643 8 126675321.85308       884.439 8        51.222                                                                    24105494.618 8  94595199.33108       660.462 8        52.022    24105492.685 7  97062877.22507       677.685 7        47.460
E10        13.000                                                                                                                                    25969412.706 6 101909587.59906     -2494.331 6        40.276    25969411.682 6 104568059.32706     -2559.367 6        40.872
E06        14.000    23387781.367 6 122903690.47306      -396.353 6        36.276                                                                    23387779.625 6  91778692.38006      -296.137 6        36.015    23387782.621 8  94172921.40308      -303.677 8        48.123
E11        15.000    23893481.332 5 125561150.05305     -2346.810 5        33.341                                                                    23893478.746 6  93763141.54706     -1752.659 6        41.035    23893478.540 6  96209135.33306     -1798.162 6        38.258
G19        16.000    22751418.202 7 119559735.45107      1057.186 7        44.448                                    22751425.752 3  93163241.57103       823.771 3        21.333
E30        17.000    28948067.010 5                     -2342.480 5        30.838                                                                    28948073.349 5 113598460.62005     -1748.988 5        31.819
G28        18.000    23095134.001 5                      -967.838 5        35.109                                                                                                    23095134.016 5  94570704.22805      -754.488 5        35.257
E36        20.000                                                                                                                                    23695348.947 7  92985622.77107       217.422 7        47.302    23695348.064 7  95411364.72407       223.139 7        43.877
G17        22.000    22193252.254 5 116626233.15305     -1014.033 5        31.872                                    22193234.192 3  90877502.01503      -790.159 3        21.381    22193232.806 5  90877568.09305      -790.409 5        35.614
S23        24.000    38118482.755 6 200313935.20906      -824.083 6        40.672
S36        25.000    38168845.357 6 200578514.41006      -827.501 6        36.994
R20        27.000    20078849.980 4                     -3583.104 4        28.199                                                                    20078845.463 6  83510466.70116     -2786.731 6        40.615
R04        28.000    23507036.242 3                     -4779.661 3        23.143
R06        29.000    20406159.626 5 108891180.64705      1580.917 5        35.162
R13        32.000    24104798.805 4 128718346.19204     -2580.631 4        28.057
C19        33.000                                                                                                                                    23564416.800 7 122706159.36507      1442.487 7        45.077                                                                    23564427.486 6  99708741.79906      1172.218 6        37.781
R21        34.000    19590938.636 8 104835129.41508       676.978 8        49.442                                                                    19590935.128 6  81538530.65706       526.460 6        37.580
R05        36.000    19766591.903 7 105663871.05207     -2997.642 7        44.640                                                                    19766592.460 7  82182908.82107     -2331.500 7        43.096
R22        37.000    23513366.122 6 125516013.16106      3358.521 6        40.605                                                                    23513349.722 6  97623440.49206      2612.366 6        39.757
C39        38.000                                                                                                                                    38849372.785 5 202298774.88805      -896.234 5        31.396                                                                    38849377.733 5 164384313.02305      -727.948 5        30.113
C06        41.000                                                                                                                                    38351744.912 5 199707592.67505      -322.033 5        31.457    38351733.013 6 154426544.31706      -248.949 6        40.081    38351737.965 6 162278742.10106      -261.774 6        37.425
C29        43.000                                                                                                                                    22228352.691 8 115748765.03908     -2479.062 8        48.752                                                                    22228352.317 8  94055464.86308     -2014.454 8        48.905
C16        45.000                                                                                                                                    38765717.094 6 201863341.46006      -445.035 6        40.920    38765717.437 6 156093468.31206      -344.164 6        40.224    38765714.110 5 164030425.50405      -361.819 5        34.681
C09        46.000                                                                                                                                    38962663.453 5 202888835.33905       148.620 5        32.731    38962664.624 6 156886515.28006       114.815 6        41.035    38962661.191 6 164863757.63406       120.357 6        38.294
C32        47.000                                                                                                                                    24519547.330 7 127679721.35807     -3521.577 7        43.427                                                                    24519548.643 6 103750265.12106     -2861.525 6        40.229
C35        51.000                                                                                                                                    23557359.456 7 122669555.69807      1021.654 7        43.401                                                                    23557358.918 7  99678919.86007       830.180 7        45.216
I09        54.000    37114971.237 6 145647105.26906      -716.017 6        36.915
C20        55.000                                                                                                                                    21741086.266 8 113211539.75608     -1042.939 8        51.747                                                                    21741081.363 7  91993728.34307      -847.596 7        46.454
I01        56.000   332042255.816 5 999864327.04705     -2853.681 5        34.729
C30        58.000                                                                                                                                    25572973.671 3                     -4316.596 3        22.171
> 2025 01 01 01 16 40.0000000  0 38
G21         3.000    22728128.969 6 119437135.49006     -3541.270 6        38.769                                    22728125.944 3  93067881.57503     -2759.416 3        18.507
G31         4.000    22585561.183 4 118687913.25104       864.792 4        28.246                                    22585547.681 2  92484024.23302       673.879 2        14.619    22585544.019 5  92484027.18915       673.993 5        33.593
G02         5.000    21331469.602 7 112097642.50807     -2646.355 7        42.965                                    21331464.267 5  87348755.92205     -2062.101 5        30.747
E34         6.000    27363913.095 5 143798410.90205      1956.539 5        34.976                                                                    27363919.455 6 107381937.17206      1460.743 6        38.006    27363917.409 6 110183173.63306      1498.953 6        37.055
E04         7.000    23962476.808 5 125923742.01905     -1885.861 5        31.902                                                                    23962473.090 8  94033884.13208     -1408.333 8        48.190    23962472.018 7  96486941.83607     -1445.084 7        47.672
G03         8.000    19915184.757 8 104654998.81508      -474.609 8        50.266                                    19915182.920 8  81549384.58308      -369.827 8        48.229    19915183.533 7  81549374.59707      -369.892 7        44.817
G09         9.000    23770327.140 4 124913857.70004      2848.867 4        29.678                                    23770325.689 1  97335513.98501      2220.002 1         4.571
G04        11.000    21604257.537 6 113531187.11406      2002.390 6        41.385                                    21604251.974 4  88465867.79304      1560.303 4        24.962    21604254.220 6  88465797.77606      1560.351 6        39.288
E09        12.000    24104653.987 8 126670904.87408       882.661 8        51.327                                                                    24104654.126 8  94591900.93908       659.129 8        51.888    24104652.518 7  97059492.79007       676.340 7        47.833
E10        13.000                                                                                                                                    25972591.220 6 101922061.13506     -2494.957 6        40.024    25972590.925 6 104580858.26106     -2559.999 6        41.397
E06        14.000    23388160.655 6 122905677.81106      -398.239 6        36.132                                                                    23388157.514 5  91780176.40805      -297.595 5        35.186    23388160.843 8  94174444.15808      -305.215 8        48.141
E11        15.000    23895715.175 5 125572888.96805     -2348.441 5        34.276                                                                    23895712.795 6  93771907.62006     -1753.671 6        40.934    23895712.435 6  96218130.08406     -1799.555 6        37.380
G19        16.000    22750413.361 7 119554457.91607      1054.175 7        45.187                                    22750417.960 3  93159129.25003       821.420 3        22.095
E30        17.000    28950298.234 5                     -2343.918 5        31.653                                                                    28950302.194 4 113607209.38204     -1749.922 4        29.810
G28        18.000    23096059.874 6 121370588.67216      -971.323 6        38.865                                    23096048.884 1  94574456.75511      -756.912 1         8.952    23096057.007 5  94574482.76805      -756.928 5        33.216
G06        19.000    25225583.380 4                      2719.712 4        27.329
E36        20.000                                                                                                                                    23695072.645 7  92984538.97307       216.404 7        46.850    23695071.981 7  95410252.65907       221.955 7        43.754
G17        22.000                                                                                                                                                                    22194199.743 5  90881526.10305      -792.598 5        35.790
S23        24.000    38119267.717 6 200318056.80506      -824.103 6        40.746
S36        25.000    38169632.666 6 200582652.36406      -827.340 6        36.786
R20        27.000    20082204.296 4                     -3586.178 4        27.916                                                                    20082197.217 6                     -2789.404 6        41.466
R04        28.000    23511497.960 3                     -4778.259 3        21.429
R06        29.000    20404677.631 5 108883284.48905      1578.179 5        34.210
C19        33.000                                                                                                                                    23563032.071 7 122698950.70307      1441.301 7        44.685                                                                    23563042.430 6  99702884.19406      1170.844 6        37.819
R21        34.000    19590307.673 8 104831755.06608       673.145 8        48.906                                                                    19590305.528 6  81535906.17406       523.461 6        38.517
R05        36.000    19769397.488 7 105678865.77607     -2999.941 7        45.306                                                                    19769397.262 7  82194571.36907     -2333.284 7        43.666
R22        37.000    23510222.696 6 125499222.21706      3357.958 6        39.192                                                                    23510204.717 6  97610380.90706      2611.920 6        40.119
C39        38.000                                                                                                                                    38850234.599 5 202303258.19405      -896.278 5        30.717                                                                    38850239.861 5 164387956.11005      -728.873 5        30.241
C06        41.000                                                                                                                                    38352055.500 5 199709206.24005      -323.179 5        31.713    38352045.000 6 154427792.02806      -249.652 6        40.319    38352047.773 6 162280053.25006      -262.666 6        37.694
C29        43.000                                                                                                                                    22230733.948 7 115761167.19307     -2481.477 7        47.873                                                                    22230733.746 8  94065542.63008     -2016.615 8        48.556
C16        45.000                                                                                                                                    38766144.628 6 201865569.93006      -445.897 6        40.758    38766145.419 6 156095191.50106      -344.806 6        40.234    38766141.897 5 164032236.33605      -362.609 5        34.871
C09        46.000                                                                                                                                    38962519.723 5 202888096.36905       147.245 5        33.251    38962522.884 6 156885943.82706       114.056 6        41.175    38962519.489 6 164863157.12206       119.873 6        38.520
C32        47.000                                                                                                                                    24522928.642 7 127697331.09007     -3522.000 7        42.210                                                                    24522930.630 6 103764574.48006     -2862.007 6        40.451
C35        51.000                                                                                                                                    23556379.554 7 122664453.38607      1019.608 7        43.217                                                                    23556379.236 7  99674773.82707       828.201 7        45.278
I09        54.000    37115883.571 6 145650685.91106      -715.947 6        36.998
C20        55.000                                                                                                                                    21742088.714 8 113216759.91008     -1044.779 8        51.739                                                                    21742083.874 7  91997970.14607      -849.157 7        46.363
I01        56.000   332045891.926 5 999878596.75405     -2853.794 5        34.614
C30        58.000                                                                                                                                    25577118.243 3                     -4315.474 3        23.238
> 2025 01 01 01 16 45.0000000  0 38
G21         3.000    22731499.198 6 119454845.73706     -3542.834 6        38.679                                    22731495.821 2  93081681.76102     -2760.647 2        17.962
G31         4.000    22584740.537 5 118683595.26905       861.891 5        30.936                                    22584725.954 2  92480659.52402       671.621 2        15.571    22584721.996 5  92480662.53905       671.951 5        32.611
G02         5.000    21333988.964 7 112110879.94007     -2648.598 7        43.276                                    21333983.597 5  87359070.82205     -2063.846 5        31.532
E34         6.000    27362056.492 5 143788630.98005      1955.839 5        34.605                                                                    27362058.303 6 107374633.97906      1460.529 6        37.263    27362056.817 6 110175679.93906      1498.644 6        37.883
E04         7.000    23964270.425 5 125933177.08905     -1887.800 5        33.275                                                                    23964268.603 8  94040929.81808     -1409.896 8        48.344    23964267.415 7  96494171.32807     -1446.690 7        47.812
G03         8.000    19915637.280 8 104657377.87008      -476.913 8        50.545                                    19915635.520 8  81551238.39608      -371.623 8        48.557    19915636.012 7  81551228.39507      -371.569 7        44.843
G09         9.000    23767619.040 4 124899613.91704      2847.992 4        28.284                                    23767614.638 1  97324414.92401      2219.255 1         6.000
G04        11.000    21602354.387 6 113521180.12206      2000.347 6        40.841                                    21602347.434 3  88458070.14103      1558.703 3        23.848    21602349.093 6  88458000.12606      1558.715 6        38.853
E09        12.000    24103815.133 8 126666496.83608       880.690 8        51.017                                                                    24103815.313 8  94588609.22408       657.645 8        51.936    24103814.026 8  97056115.21008       674.745 8        48.260
E10        13.000                                                                                                                                    25975770.659 6 101934538.36006     -2495.988 6        40.112    25975771.152 7 104593660.98107     -2560.896 7        42.002
E06        14.000    23388541.085 5 122907675.51505      -400.392 5        35.710                                                                    23388537.014 5  91781668.19205      -299.074 5        34.495    23388540.843 8  94175974.87208      -307.060 8        48.161
E11        15.000    23897951.369 5 125584635.70605     -2349.970 5        34.648                                                                    23897948.226 6  93780679.52306     -1755.054 6        41.094    23897947.952 6  96227130.81906     -1800.596 6        36.352
G19        16.000    22749412.534 7 119549195.48707      1050.866 7        45.643                                    22749412.771 3  93155028.68603       818.859 3        22.876
E30        17.000    28952530.190 5                     -2345.729 5        32.102                                                                    28952532.598 5 113615964.61205     -1751.530 5        30.589
G28        18.000    23096986.272 6 121375453.99406      -974.756 6        39.315                                    23096976.589 1  94578247.90501      -759.581 1         8.952    23096980.128 4  94578273.89504      -759.706 4        29.536
G06        19.000    25223001.657 5                      2720.016 5        30.792
E36        20.000                                                                                                                                    23694797.664 7  92983460.67607       215.018 7        46.740    23694797.095 7  95409146.23107       220.685 7        43.824
G17        22.000    22195179.716 5 116636406.57205     -1020.328 5        31.162                                    22195170.082 2  90885429.66102      -795.087 2        17.660    22195169.304 6  90885495.73006      -795.237 6        36.805
S23        24.000    38120051.454 6 200322178.15006      -824.417 6        40.663
S36        25.000    38170419.681 6 200586791.34706      -827.761 6        37.062
R20        27.000    20085557.638 4                     -3589.718 4        28.815                                                                    20085552.248 6  83538361.25016     -2792.030 6        41.774
R06        29.000    20403201.671 5 108875400.80605      1575.312 5        32.078
R13        32.000    24109651.963 3                     -2590.146 3        21.333
C19        33.000                                                                                                                                    23561649.011 7 122691748.42307      1439.681 7        44.402                                                                    23561655.806 6  99697031.74206      1169.967 6        36.896
R21        34.000    19589680.256 8 104828399.91308       668.956 8        48.284                                                                    19589677.545 6  81533296.60006       520.344 6        38.432
R05        36.000    19772205.332 7 105693872.08107     -3002.548 7        46.025                                                                    19772204.450 7  82206242.92507     -2335.261 7        43.841
R22        37.000    23507076.271 6 125482434.40806      3357.125 6        36.329                                                                    23507060.587 6  97597323.72606      2611.169 6        40.124
C39        38.000                                                                                                                                    38851096.433 5 202307745.78805      -898.059 5        30.347                                                                    38851101.249 4 164391602.67604      -729.688 4        29.564
C06        41.000                                                                                                                                    38352365.741 5 199710824.13005      -324.131 5        31.902    38352357.695 6 154429043.10406      -250.544 6        40.777    38352358.642 6 162281367.91706      -263.432 6        37.905
C29        43.000                                                                                                                                    22233117.648 7 115773581.34607     -2484.084 7        46.473                                                                    22233117.540 8  94075630.13108     -2018.476 8        48.388
C16        45.000                                                                                                                                    38766573.531 6 201867802.71106      -447.180 6        40.715    38766574.094 6 156096918.01706      -345.746 6        40.329    38766570.986 5 164034050.63005      -363.034 5        35.267
C09        46.000                                                                                                                                    38962380.209 5 202887361.11605       146.634 5        33.754    38962382.082 6 156885375.30606       113.299 6        41.263    38962378.493 6 164862559.68106       119.156 6        39.015
C32        47.000                                                                                                                                    24526309.497 6 127714943.23006     -3522.844 6        40.868                                                                    24526313.136 6 103778885.76606     -2862.496 6        40.992
C35        51.000                                                                                                                                    23555401.749 7 122659361.95907      1017.184 7        43.075                                                                    23555401.444 7  99670636.60307       826.590 7        45.231
I09        54.000    37116796.492 6 145654267.13506      -716.260 6        37.319
C20        55.000                                                                                                                                    21743093.250 8 113221989.10408     -1046.782 8        51.725                                                                    21743088.124 7  92002219.29107      -850.569 7        46.276
I01        56.000   332049528.286 5 999892866.92005     -2854.641 5        34.405
C30        58.000                                                                                                                                    25581261.653 3                     -4315.090 3        23.105
> 2025 01 01 01 16 50.0000000  0 36
G21         3.000    22734871.300 6 119472562.03006     -3544.246 6        39.520                                    22734866.669 2  93095486.67202     -2761.740 2        17.245
G31         4.000    22583921.595 5 118679291.78805       858.869 5        32.802                                    22583906.913 2  92477306.16102       669.225 2        16.302    22583902.711 5  92477309.24105       669.259 5        30.845
G02         5.000    21336510.372 7 112124128.05807     -2651.117 7        44.436                                    21336504.895 5  87369394.04505     -2065.812 5        32.467
E34         6.000    27360196.729 5 143778851.68505      1955.448 5        33.796                                                                    27360197.026 6 107367331.30206      1460.195 6        36.646    27360196.313 6 110168186.74806      1498.537 6        38.486
E04         7.000    23966068.221 5 125942621.50205     -1890.180 5        33.347                                                                    23966065.892 8  94047982.47708     -1411.592 8        48.573    23966064.565 7  96501407.96207     -1448.414 7        47.622
G03         8.000    19916091.678 8 104659766.88708      -479.219 8        50.551                                    19916090.056 8  81553099.96708      -373.420 8        48.909    19916090.941 7  81553089.97007      -373.442 7        44.646
G09         9.000    23764912.755 4 124885373.79204      2846.482 4        28.882                                    23764904.441 1  97313318.80701      2217.976 1         6.625
G04        11.000    21600453.106 6 113511182.78606      1998.094 6        40.574                                    21600444.463 3  88450280.00803      1556.963 3        22.552    21600446.154 6  88450210.01606      1556.956 6        38.363
E09        12.000    24102978.002 8 126662097.84808       878.441 8        50.565                                                                    24102978.203 8  94585324.26208       656.034 8        52.001    24102977.108 8  97052744.55908       673.101 8        48.463
E10        13.000                                                                                                                                    25978951.238 6 101947019.32206     -2496.990 6        39.880    25978952.453 7 104606467.54607     -2561.928 7        42.239
E06        14.000    23388922.465 5 122909683.72305      -403.038 5        35.167                                                                    23388918.870 5  91783167.82805      -301.031 5        34.362    23388922.908 7  94177513.60207      -308.778 7        47.750
E11        15.000    23900188.289 5 125596390.34105     -2351.963 5        35.152                                                                    23900185.065 6  93789457.32706     -1756.211 6        41.108    23900184.644 5  96236137.61405     -1802.344 5        35.614
G19        16.000    22748414.107 7 119543948.26007      1047.522 7        45.944                                    22748410.815 4  93150939.95904       816.251 4        24.226
E30        17.000    28954761.458 5                     -2347.673 5        31.509                                                                    28954765.144 5 113624726.42705     -1753.492 5        30.808
G28        18.000    23097914.470 6 121380335.65306      -978.242 6        37.728                                    23097907.308 1  94582051.82501      -762.270 1         8.286    23097905.215 4  94582077.73204      -762.117 4        24.932
E36        20.000    23694523.454 5 124515528.67015       286.284 5        35.014                                                                    23694524.164 7  92982387.94607       213.607 7        46.571    23694523.619 7  95408045.51507       219.247 7        43.530
G17        22.000    22196150.094 5 116641515.84905     -1024.277 5        30.709                                    22196142.245 3  90889411.02103      -798.147 3        19.612    22196141.887 6  90889477.02906      -797.844 6        36.578
S23        24.000    38120837.306 6 200326299.28906      -824.514 6        40.656
S36        25.000    38171206.297 6 200590930.32506      -828.456 6        36.866
R20        27.000    20088911.748 4                     -3593.004 4        29.175                                                                    20088910.155 6  83552327.76816     -2794.825 6        41.297
R06        29.000    20401724.539 5 108867529.69805      1572.676 5        30.936
C19        33.000                                                                                                                                    23560268.526 7 122684552.58707      1438.123 7        45.055                                                                    23560270.568 6  99691184.57506      1168.526 6        36.045
R21        34.000    19589055.595 7 104825064.14407       664.746 7        47.573                                                                    19589053.871 6  81530702.13906       516.941 6        39.880
R05        36.000    19775016.270 7 105708890.18907     -3005.193 7        46.843                                                                    19775013.264 7  82217923.64707     -2337.343 7        43.917
R22        37.000    23503925.533 5 125465649.82605      3356.078 5        30.936                                                                    23503915.111 6  97584268.98906      2610.421 6        39.535
C39        38.000                                                                                                                                    38851958.749 5 202312237.70805      -899.075 5        30.068                                                                    38851963.889 4 164395252.79404      -731.177 4        28.398
C06        41.000                                                                                                                                    38352677.364 5 199712446.50405      -325.421 5        31.857    38352669.173 6 154430297.63406      -251.552 6        40.996    38352670.380 6 162282686.24706      -264.291 6        38.066
C29        43.000                                                                                                                                    22235502.995 7 115786007.59507     -2486.835 7        45.091                                                                    22235503.859 8  94085727.47108     -2020.692 8        48.172
C16        45.000                                                                                                                                    38767003.461 6 201870039.85306      -448.303 6        40.493    38767003.944 6 156098647.93006      -346.614 6        40.634    38767000.783 5 164035868.51405      -364.381 5        35.395
C09        46.000                                                                                                                                    38962240.446 5 202886629.74805       145.569 5        34.652    38962241.577 6 156884809.76806       112.532 6        41.311    38962238.105 6 164861965.39206       118.409 6        39.306
C32        47.000                                                                                                                                    24529689.643 6 127732557.84006     -3523.546 6        39.003                                                                    24529696.096 6 103793199.06906     -2863.149 6        41.166
C35        51.000                                                                                                                                    23554425.419 7 122654281.52607      1014.715 7        42.891                                                                    23554425.953 7  99666508.33207       824.532 7        45.067
I09        54.000    37117708.917 6 145657849.01206      -716.735 6        37.123
C20        55.000                                                                                                                                    21744099.639 8 113227227.46408     -1049.006 8        51.817                                                                    21744094.153 7  92006475.87707      -852.266 7        45.908
I01        56.000   332053164.874 5 999907137.51205     -2854.751 5        34.567
C30        58.000                                                                                                                                    25585406.172 3                     -4314.787 3        23.486
> 2025 01 01 01 16 55.0000000  0 37
G21         3.000    22738244.529 6 119490285.25306     -3545.552 6        39.081                                    22738238.719 2  93109296.97802     -2762.761 2        17.132
G31         4.000    22583102.672 5 118675003.86205       855.603 5        32.192                                    22583090.833 2  92473964.95202       666.685 2        15.143    22583086.261 5  92473968.04105       667.142 5        30.521
G02         5.000    21339034.269 7 112137387.78007     -2653.324 7        45.804                                    21339028.339 5  87379726.30405     -2067.525 5        33.353
E34         6.000    27358336.314 5 143769073.98905      1955.101 5        32.988                                                                    27358335.914 6 107360029.77506      1460.189 6        36.095    27358336.081 6 110160694.77506      1498.056 6        39.027
E04         7.000    23967869.581 5 125952076.14805     -1892.221 5        34.657                                                                    23967865.043 8  94055042.75608     -1412.959 8        48.605    23967863.701 7  96508652.41807     -1449.852 7        47.461
G03         8.000    19916548.193 8 104662166.78808      -481.279 8        50.917                                    19916546.725 8  81554970.01908      -375.025 8        49.153    19916547.405 7  81554960.01807      -375.012 7        44.476
G09         9.000    23762211.255 4 124871138.23604      2846.139 4        28.351                                    23762195.193 1  97302226.19001      2217.752 1         7.000
G04        11.000    21598552.842 6 113501196.01006      1996.126 6        39.643                                    21598543.568 3  88442498.10603      1555.421 3        21.595    21598545.615 6  88442428.12306      1555.123 6        38.090
E09        12.000    24102142.733 8 126657708.78708       876.620 8        50.401                                                                    24102142.943 8  94582046.71708       654.635 8        51.863    24102141.900 8  97049381.51708       671.667 8        48.749
E10        13.000                                                                                                                                    25982132.567 6 101959504.72706     -2497.719 6        39.066    25982134.804 7 104619278.65307     -2562.828 7        42.222
E06        14.000    23389306.993 5 122911703.26805      -405.420 5        34.457                                                                    23389302.995 5  91784675.92905      -302.397 5        33.958    23389307.046 7  94179061.05307      -310.581 7        47.069
E11        15.000    23902425.911 5 125608153.79005     -2353.765 5        35.581                                                                    23902423.694 6  93798241.73206     -1757.556 6        40.732    23902423.231 5  96245151.13505     -1803.458 5        34.390
G19        16.000    22747418.042 7 119538717.11707      1044.447 7        45.332                                    22747412.194 4  93146863.75304       813.867 4        25.173
E30        17.000    28956994.408 5                     -2349.396 5        32.593                                                                    28956999.567 5 113633495.37105     -1754.663 5        31.019
G28        18.000    23098845.715 5 121385234.51105      -981.624 5        35.933                                    23098839.118 1  94585869.07101      -764.910 1         6.750
G06        19.000    25217841.072 5 132520660.67515      2719.556 5        34.962
E36        20.000    23694252.482 6 124514100.45306       284.817 6        36.945                                                                    23694252.224 7  92981321.45507       212.495 7        46.200    23694251.682 7  95406951.20707       218.089 7        43.371
G17        22.000    22197124.523 5 116646640.98805     -1026.455 5        31.887                                    22197117.197 3  90893404.67503      -799.862 3        20.476    22197115.947 5  90893470.72905      -800.082 5        35.033
S23        24.000    38121623.305 6 200330421.05506      -824.685 6        40.734
S36        25.000    38171994.747 6 200595070.74406      -828.515 6        36.957
R20        27.000    20092269.574 4                     -3596.628 4        29.507                                                                    20092270.667 6                     -2797.544 6        40.174
R06        29.000    20400253.301 5 108859672.16305      1569.491 5        30.687
C19        33.000                                                                                                                                    23558889.165 7 122677364.13007      1436.745 7        45.949                                                                    23558889.366 5  99685343.36205      1167.254 5        35.181
R21        34.000    19588435.867 7 104821748.83307       660.800 7        47.148                                                                    19588435.426 6  81528123.56306       513.922 6        41.721
R05        36.000    19777830.885 7 105723920.93407     -3007.624 7        47.133                                                                    19777825.671 7  82229614.21007     -2339.255 7        43.896
R22        37.000                                                                                                                                    23500770.992 6  97571217.47506      2609.914 6        38.724
C39        38.000                                                                                                                                    38852823.829 4 202316734.94004      -900.484 4        29.782                                                                    38852826.915 4 164398907.09504      -731.175 4        27.186
C06        41.000                                                                                                                                    38352990.092 5 199714074.24805      -326.342 5        31.592    38352981.790 6 154431556.30806      -252.295 6        41.120    38352983.059 6 162284008.89106      -264.915 6        38.282
C29        43.000                                                                                                                                    22237891.444 7 115798446.80507     -2489.289 7        43.915                                                                    22237892.739 8  94095835.34308     -2022.614 8        48.087
C16        45.000                                                                                                                                    38767434.090 6 201872282.27606      -449.179 6        40.458    38767434.428 6 156100381.91806      -347.441 6        40.679    38767431.217 5 164037690.65205      -364.679 5        35.710
C09        46.000                                                                                                                                    38962101.184 5 202885903.16305       144.633 5        35.581    38962101.842 6 156884247.93806       111.875 6        41.373    38962098.779 6 164861374.99206       117.628 6        39.856
C32        47.000                                                                                                                                    24533071.874 6 127750175.79806     -3524.019 6        36.926                                                                    24533079.335 6 103807515.08906     -2863.417 6        41.054
C35        51.000                                                                                                                                    23553451.988 7 122649212.98207      1012.258 7        42.728                                                                    23553452.616 7  99662389.70407       822.714 7        45.037
I09        54.000    37118622.449 6 145661432.16806      -716.862 6        37.085
C20        55.000                                                                                                                                    21745107.547 8 113232475.86208     -1050.888 8        51.878                                                                    21745101.942 7  92010740.63807      -853.781 7        45.678
I01        56.000   332056801.748 5 999921409.20105     -2854.602 5        34.743
C30        58.000                                                                                                                                    25589549.748 4                     -4316.074 4        25.323
> 2025 01 01 01 17  0.0000000  0 37
G21         3.000    22741617.374 6 119508014.61406     -3546.696 6        38.541                                    22741611.888 2  93123112.08202     -2763.663 2        17.057
G31         4.000    22582283.161 5 118670730.63205       853.026 5        31.608                                    22582277.334 2  92470635.23702       664.617 2        13.394    22582273.222 4  92470638.28204       664.785 4        29.573
G02         5.000    21341559.810 7 112150658.30707     -2655.436 7        47.172                                    21341553.733 5  87390066.98405     -2069.172 5        34.395
E34         6.000    27356475.547 5 143759297.05305      1954.892 5        32.329                                                                    27356475.240 5 107352728.82605      1459.923 5        35.810    27356475.621 6 110153203.34606      1498.082 6        39.604
E04         7.000    23969671.769 6 125961540.17406     -1893.928 6        36.163                                                                    23969666.070 8  94062110.06808     -1414.305 8        48.609    23969664.730 7  96515904.09807     -1451.217 7        47.479
G03         8.000    19917007.096 8 104664576.74908      -483.184 8        50.835                                    19917005.366 8  81556847.90608      -376.506 8        49.624    19917006.365 7  81556837.90807      -376.561 7        44.628
G09         9.000    23759506.681 4 124856906.51704      2845.690 4        28.047                                    23759486.440 1  97291136.67201      2217.442 1         6.500
G04        11.000    21596654.620 6 113491219.01906      1994.388 6        38.471                                    21596644.586 3  88434723.79003      1554.031 3        20.500    21596646.985 6  88434653.81806      1553.875 6        38.369
E09        12.000    24101309.479 8 126653328.87108       874.820 8        50.051                                                                    24101309.333 8  94578776.00008       653.324 8        51.851    24101308.391 8  97046025.47308       670.383 8        49.298
E10        13.000                                                                                                                                    25985314.818 6 101971993.92806     -2498.170 6        38.315    25985318.254 7 104632093.68407     -2563.644 7        42.176
E06        14.000    23389692.577 5 122913733.38505      -407.411 5        33.467                                                                    23389689.245 5  91786191.90205      -304.096 5        34.052    23389693.014 7  94180616.58607      -312.046 7        46.536
E11        15.000    23904665.285 5 125619925.22405     -2355.219 5        35.762                                                                    23904663.648 6  93807032.09406     -1758.825 6        40.520    23904663.208 5  96254170.80205     -1804.425 5        33.545
G19        16.000    22746425.249 7 119533501.30707      1041.410 7        45.437                                    22746416.963 4  93142799.49704       811.494 4        26.228
E30        17.000    28959232.240 5                     -2351.142 5        32.731                                                                    28959236.042 5 113642270.91305     -1755.438 5        30.868
G28        18.000    23099780.698 5 121390149.74805      -984.831 5        35.290                                    23099774.501 1  94589699.13401      -767.345 1         5.143    23099771.094 3                      -767.274 3        22.933
G06        19.000    25215252.977 6 132507062.57106      2719.446 6        36.518
E36        20.000    23693982.089 6 124512679.85206       283.154 6        38.393                                                                    23693981.765 7  92980260.60707       211.468 7        45.824    23693981.155 7  95405862.68107       216.988 7        43.217
G17        22.000    22198100.160 5 116651781.29905     -1029.818 5        34.419                                    22198094.904 3  90897410.15403      -802.469 3        21.881    22198094.318 5  90897476.16205      -802.242 5        32.731
S23        24.000    38122406.836 6 200334542.63806      -824.540 6        40.482
S36        25.000    38172781.865 6 200599211.34206      -828.297 6        36.900
R20        27.000    20095634.296 4                     -3599.692 4        29.924                                                                    20095634.685 6  83580300.71816     -2800.053 6        38.832
R06        29.000    20398784.289 5 108851827.17805      1567.512 5        30.189
C19        33.000                                                                                                                                    23557509.827 7 122670182.25207      1435.498 7        45.964                                                                    23557510.518 5  99679507.46805      1166.696 5        35.200
R21        34.000    19587820.578 7 104818452.97107       656.945 7        47.476                                                                    19587820.811 7  81525560.11107       511.048 7        42.491
R05        36.000    19780646.240 7 105738963.45307     -3009.882 7        45.967                                                                    19780639.674 7  82241313.95207     -2341.011 7        44.017
R22        37.000    23497622.563 5 125432091.97905      3355.177 5        30.966                                                                    23497627.305 6  97558168.59806      2609.076 6        38.282
C39        38.000                                                                                                                                    38853686.233 4 202321236.51604      -900.607 4        29.393
C06        41.000                                                                                                                                    38353302.895 5 199715706.54005      -327.055 5        31.555    38353295.384 6 154432818.50006      -252.977 6        41.421    38353296.648 6 162285335.29106      -265.742 6        38.670
C29        43.000                                                                                                                                    22240282.439 7 115810898.19107     -2491.709 7        42.290                                                                    22240283.906 8  94105953.10908     -2024.651 8        48.060
C16        45.000                                                                                                                                    38767865.617 6 201874529.17506      -450.013 6        40.279    38767866.280 6 156102119.35206      -347.995 6        40.784    38767862.811 5 164039516.47705      -365.918 5        35.686
C09        46.000                                                                                                                                    38961962.483 6 202885180.55906       143.806 6        36.620    38961962.811 6 156883689.18606       111.202 6        41.526    38961960.072 6 164860787.82506       116.972 6        40.188
C32        47.000                                                                                                                                    24536457.193 5 127767796.30805     -3524.354 5        35.014                                                                    24536463.468 6 103821833.17806     -2864.007 6        41.080
C35        51.000                                                                                                                                    23552480.504 7 122644155.48907      1010.057 7        42.809                                                                    23552481.425 7  99658280.09307       820.805 7        45.097
I09        54.000    37119536.325 6 145665016.04506      -716.921 6        37.093
C20        55.000                                                                                                                                    21746117.443 8 113237733.48308     -1052.640 8        51.881                                                                    21746111.336 7  92015012.89207      -855.313 7        45.475
I01        56.000   332060439.375 5 999935681.47805     -2854.531 5        34.743
C30        58.000                                                                                                                                    25593694.432 4                     -4315.824 4        25.128
> 2025 01 01 01 17  5.0000000  0 38
G21         3.000    22744992.288 6 119525750.17806     -3547.553 6        38.054                                    22744986.380 2  93136931.98802     -2764.319 2        17.094
G31         4.000    22581474.424 5 118666472.22205       850.276 5        32.455                                    22581467.049 1  92467317.04701       662.609 1        10.296    22581461.337 4  92467320.11704       662.506 4        27.437
G02         5.000    21344087.199 8 112163939.65308     -2657.389 8        48.393                                    21344081.188 5  87400416.09605     -2070.691 5        35.057
E34         6.000    27354615.831 5 143749520.92905      1955.061 5        31.049                                                                    27354614.808 5 107345428.47605      1460.068 5        35.590    27354615.507 6 110145712.55506      1498.023 6        40.257
E04         7.000    23971474.888 6 125971013.62306     -1895.655 6        38.354                                                                    23971468.799 8  94069184.42008     -1415.594 8        48.670    23971467.453 7  96523162.99207     -1452.484 7        47.543
G03         8.000    19917467.767 8 104666996.82008      -484.992 8        50.438                                    19917465.965 8  81558733.67008      -377.916 8        49.765    19917466.966 7  81558723.67707      -377.940 7        44.697
G09         9.000    23756798.423 4 124842678.62604      2845.094 4        26.455                                    23756778.613 1  97280050.11101      2216.925 1         7.750
G04        11.000    21594757.203 6 113481251.82506      1992.620 6        36.556                                    21594747.500 3  88426957.15403      1552.687 3        19.254    21594750.359 6  88426887.15506      1552.732 6        38.399
E09        12.000    24100477.880 8 126648958.14208       873.204 8        49.693                                                                    24100477.469 8  94575512.14608       652.066 8        51.905    24100476.573 8  97042676.47708       669.066 8        50.047
E10        13.000                                                                                                                                    25988497.700 6 101984486.99906     -2498.977 6        36.873    25988502.569 7 104644912.65107     -2564.157 7        42.061
E06        14.000    23390081.487 5 122915774.09205      -409.283 5        34.500                                                                    23390077.565 5  91787715.84305      -305.601 5        34.286    23390081.199 7  94182180.26007      -313.598 7        46.000
E11        15.000    23906907.699 5 125631704.72005     -2356.628 5        35.738                                                                    23906905.141 6  93815828.48006     -1760.024 6        40.112    23906904.116 5  96263196.68205     -1805.888 5        32.952
G19        16.000    22745435.865 7 119528300.84007      1038.633 7        44.963                                    22745425.148 4  93138747.18104       809.321 4        26.120
E30        17.000    28961472.188 5                     -2353.117 5        32.910                                                                    28961474.598 5 113651053.06505     -1757.146 5        32.108
G28        18.000    23100719.177 5 121395081.46305      -988.032 5        34.924                                    23100712.214 1  94593542.01701      -769.849 1         5.286    23100709.258 3                      -771.412 3        21.357
G06        19.000    25212663.211 6 132493464.84906      2719.577 6        36.537
E36        20.000    23693712.984 6 124511266.87706       281.770 6        38.940                                                                    23693712.817 7  92979205.45207       210.509 7        45.663    23693712.110 7  95404779.99807       215.937 7        43.120
G17        22.000    22199080.604 6 116656936.73806     -1032.675 6        37.187                                    22199075.244 3  90901427.39803      -804.691 3        23.429    22199074.583 4  90901493.39104      -804.220 4        29.886
S23        24.000    38123188.753 6 200338664.04006      -824.269 6        40.517
S36        25.000    38173572.935 6 200603351.46306      -827.982 6        36.896
R20        27.000    20099001.937 5                     -3603.239 5        30.143                                                                    20099003.331 6  83594306.59806     -2802.401 6        38.048
R04        28.000    23533708.411 4                     -4778.988 4        24.797
R06        29.000    20397316.683 5 108843995.00805      1565.056 5        31.955
C19        33.000                                                                                                                                    23556130.443 7 122663007.01007      1434.390 7        45.288                                                                    23556133.719 5  99673676.97705      1165.349 5        35.600
R21        34.000    19587209.851 7 104815176.74007       653.256 7        47.699                                                                    19587207.417 7  81523011.92407       508.111 7        42.095
R05        36.000    19783458.470 7 105754017.75507     -3011.927 7        44.325                                                                    19783455.792 7  82253022.85307     -2342.661 7        42.995
R22        37.000    23494486.903 5 125415318.20705      3354.120 5        34.290                                                                    23494485.708 6  97545122.31806      2609.153 6        36.106
C39        38.000                                                                                                                                    38854544.909 4 202325742.57404      -901.938 4        28.986
C06        41.000                                                                                                                                    38353617.552 5 199717343.44405      -327.681 5        32.000    38353609.872 6 154434084.26306      -253.458 6        41.564    38353610.792 6 162286665.42106      -266.341 6        38.553
C29        43.000                                                                                                                                    22242676.042 6 115823361.78906     -2493.916 6        40.610                                                                    22242677.303 8  94116080.79008     -2026.519 8        48.054
C16        45.000                                                                                                                                    38768298.039 6 201876780.60606      -450.710 6        40.420    38768299.000 6 156103860.30506      -348.548 6        41.087    38768295.212 6 164041345.95706      -366.466 6        36.136
C09        46.000                                                                                                                                    38961825.665 6 202884461.94806       143.386 6        37.395    38961825.232 6 156883133.51506       110.826 6        41.516    38961822.309 6 164860203.91906       116.489 6        40.582
C32        47.000                                                                                                                                    24539843.498 5 127785419.41305     -3524.992 5        33.593                                                                    24539847.597 6 103836153.39506     -2864.261 6        41.259
C35        51.000                                                                                                                                    23551511.765 7 122639109.13107      1008.221 7        43.763                                                                    23551512.394 7  99654179.53607       819.172 7        45.171
I09        54.000    37120449.895 6 145668600.64906      -716.921 6        37.297
C20        55.000                                                                                                                                    21747128.797 8 113243000.37208     -1054.326 8        51.799                                                                    21747122.482 7  92019292.68007      -856.736 7        45.234
I01        56.000   332064075.590 5 999949954.35505     -2854.610 5        34.819
C30        58.000                                                                                                                                    25597839.541 4                     -4316.347 4        24.947
> 2025 01 01 01 17 10.0000000  0 36
G21         3.000    22748369.283 6 119543491.61106     -3548.724 6        37.599                                    22748362.026 2  93150756.52002     -2765.220 2        17.245
G31         4.000                                                                                                                                                                    22580652.151 4  92464013.23804       659.892 4        27.988
G02         5.000    21346616.460 8 112177231.50108     -2659.456 8        49.463                                    21346610.606 5  87410773.37905     -2072.300 5        35.614
E34         6.000    27352755.953 5 143739745.31505      1954.993 5        31.464                                                                    27352754.812 5 107338128.52005      1459.889 5        35.629    27352755.464 6 110138222.15806      1498.013 6        40.634
E04         7.000    23973278.155 6 125980496.23206     -1897.388 6        40.429                                                                    23973273.200 8  94076265.59608     -1417.012 8        48.462    23973271.916 7  96530428.89307     -1453.940 7        47.748
G03         8.000    19917930.055 8 104669426.70408      -487.033 8        50.185                                    19917928.456 8  81560627.07808      -379.504 8        49.866    19917929.123 7  81560617.07807      -379.488 7        44.712
G09         9.000    23754090.169 4 124828454.29604      2844.342 4        25.068                                    23754071.578 1  97268966.31101      2216.320 1         6.125
G04        11.000    21592864.225 5 113471294.18405      1990.534 5        33.808                                    21592852.274 2  88419197.88702      1551.069 2        16.792    21592855.548 6  88419127.92906      1551.258 6        37.766
E09        12.000    24099647.853 8 126644596.29908       871.502 8        49.802                                                                    24099647.342 8  94572254.92308       650.729 8        51.642    24099646.501 8  97039334.28708       667.699 8        50.609
E10        13.000                                                                                                                                    25991681.964 5 101996983.68505     -2499.555 5        35.914    25991688.152 6 104657735.33606     -2564.950 6        41.659
E06        14.000    23390473.152 6 122917825.12006      -411.238 6        36.733                                                                    23390468.424 5  91789247.45705      -307.206 5        34.671    23390471.264 7  94183751.81507      -315.113 7        45.242
E11        15.000    23909151.466 6 125643491.94906     -2358.221 6        36.783                                                                    23909148.082 6  93824630.64206     -1761.132 6        39.703    23909147.096 5  96272228.43305     -1806.815 5        32.701
G19        16.000    22744448.920 7 119523115.46107      1035.557 7        44.038                                    22744436.919 4  93134706.64104       806.927 4        25.940
E30        17.000    28963711.272 5                     -2354.637 5        32.629                                                                    28963714.073 5 113659841.64505     -1758.342 5        30.415
G28        18.000    23101660.820 5 121400029.30505      -991.365 5        33.766                                    23101653.325 1  94597397.28701      -772.575 1         4.000
G06        19.000    25210069.002 6 132479867.27806      2719.532 6        36.386
E36        20.000    23693445.817 6 124509861.18806       280.296 6        39.751                                                                    23693445.291 7  92978155.75507       209.347 7        45.267    23693444.433 7  95403702.91607       214.765 7        43.048
G17        22.000    22200065.996 6 116662107.00206     -1035.669 6        39.643                                    22200058.425 4  90905456.19404      -807.023 4        25.038    22200060.553 4  90905522.17604      -806.731 4        29.498
S23        24.000    38123972.834 6 200342785.04206      -824.115 6        40.675
S36        25.000    38174357.521 6 200607490.75706      -827.801 6        37.055
R20        27.000    20102373.259 5                     -3606.496 5        30.634                                                                    20102374.301 6  83608325.17316     -2805.050 6        36.102
R06        29.000    20395851.870 5 108836175.17605      1562.456 5        32.683
C19        33.000                                                                                                                                    23554752.492 7 122655838.08707      1433.088 7        44.640                                                                    23554757.032 5  99667851.58305      1164.760 5        35.952
R21        34.000    19586601.643 7 104811919.77907       649.458 7        46.935                                                                    19586597.423 6  81520478.71506       505.266 6        41.220
R05        36.000    19786272.907 6 105769083.61406     -3014.484 6        41.623                                                                    19786274.047 6  82264740.73306     -2344.499 6        41.871
R22        37.000    23491346.350 6 125398547.48106      3353.763 6        36.533                                                                    23491343.797 5  97532078.45105      2608.528 5        34.667
C06        41.000                                                                                                                                    38353932.267 5 199718984.65005      -328.844 5        32.832    38353925.113 6 154435353.34006      -254.154 6        41.826    38353926.008 6 162287999.01806      -266.853 6        39.153
C29        43.000                                                                                                                                    22245072.524 6 115835837.30106     -2496.333 6        39.886                                                                    22245072.931 7  94126218.14007     -2028.334 7        47.988
C16        45.000                                                                                                                                    38768731.549 6 201879036.24606      -451.602 6        40.417    38768731.997 6 156105604.51106      -349.199 6        41.397    38768728.583 6 164043178.82406      -366.715 6        36.442
C09        46.000                                                                                                                                    38961688.952 6 202883747.07906       142.405 6        38.330    38961687.608 6 156882580.72406       110.291 6        41.850    38961685.119 6 164859623.01406       116.016 6        41.135
C32        47.000                                                                                                                                    24543230.680 5 127803044.82505     -3525.345 5        33.479                                                                    24543232.483 6 103850475.45406     -2864.386 6        41.280
C35        51.000                                                                                                                                    23550544.884 7 122634073.62707      1006.054 7        44.832                                                                    23550545.455 7  99650087.77407       817.586 7        44.992
I09        54.000    37121362.765 6 145672185.80406      -717.168 6        37.244
C20        55.000                                                                                                                                    21748142.183 8 113248276.24008     -1056.093 8        52.227                                                                    21748135.440 7  92023579.75907      -857.990 7        45.058
I01        56.000   332067712.653 5 999964227.55705     -2854.407 5        35.038
C30        58.000                                                                                                                                    25601983.631 4                     -4314.762 4        25.233
> 2025 01 01 01 17 15.0000000  0 35
G21         3.000    22751747.650 6 119561239.70206     -3550.168 6        37.293                                    22751739.013 2  93164586.16302     -2766.338 2        16.641
G31         4.000                                                                                                                                                                    22579846.206 4  92460718.25704       657.167 4        25.910
G02         5.000    21349147.734 8 112190534.64908     -2661.749 8        49.992                                    21349142.130 5  87421139.46705     -2074.091 5        35.633
E34         6.000    27350897.001 5 143729971.03805      1954.450 5        31.608                                                                    27350894.349 5 107330829.51005      1459.635 5        35.938    27350895.432 6 110130732.75306      1497.753 6        41.051
E04         7.000    23975083.759 7 125989988.77407     -1899.499 7        42.093                                                                    23975079.475 8  94083354.18408     -1418.496 8        48.278    23975078.272 7  96537702.40307     -1455.450 7        47.641
G03         8.000    19918394.783 8 104671867.19208      -489.294 8        50.498                                    19918392.955 8  81562528.75408      -381.264 8        49.640    19918393.092 7  81562518.74607      -381.179 7        44.327
G04        11.000                                                                                                                                                                    21590961.731 6  88411376.73706      1549.471 6        36.828
E09        12.000    24098819.512 8 126640244.13108       869.451 8        49.706                                                                    24098819.091 8  94569004.92008       649.273 8        51.409    24098818.350 8  97035999.50708       666.153 8        51.167
E10        13.000                                                                                                                                    25994867.003 5 102009484.60305     -2500.556 5        34.210    25994874.738 6 104670562.34206     -2565.885 6        40.687
E06        14.000    23390864.480 6 122919887.22606      -413.659 6        39.066                                                                    23390861.407 5  91790787.33505      -308.673 5        35.324    23390863.294 7  94185331.87407      -316.840 7        44.561
E11        15.000    23911396.138 6 125655287.71606     -2360.084 6        37.728                                                                    23911392.862 6  93833439.15106     -1762.333 6        39.015    23911391.085 5  96281266.75105     -1808.298 5        33.132
G19        16.000    22743465.026 7 119517945.96307      1032.307 7        44.119                                    22743452.197 4  93130678.46204       804.401 4        25.639
E30        17.000    28965952.839 5 152217108.54115     -2356.536 5        33.527                                                                    28965955.294 5 113668637.22605     -1759.944 5        31.464
G28        18.000    23102604.640 5 121404994.04105      -994.824 5        31.192                                    23102597.616 1  94601265.96401      -775.284 1         4.571
E36        20.000    23693179.524 6 124508463.60506       278.698 6        40.122                                                                    23693179.376 7  92977112.10707       208.132 7        44.941    23693178.587 7  95402632.04607       213.464 7        42.607
G17        22.000    22201053.249 6 116667292.86606     -1038.683 6        40.691                                    22201044.941 4  90909497.14204      -809.356 4        25.895    22201047.838 5  90909563.17205      -809.595 5        30.204
S23        24.000    38124758.950 6 200346906.56406      -824.508 6        40.543
S36        25.000    38175145.801 6 200611630.61006      -827.968 6        36.824
R20        27.000    20105747.666 4                     -3609.619 4        29.668                                                                    20105746.498 5  83622357.10315     -2807.661 5        34.510
R06        29.000    20394387.926 4 108828368.63304      1560.084 4        29.981
C19        33.000                                                                                                                                    23553377.096 7 122648676.24207      1431.655 7        44.137                                                                    23553381.697 5  99662031.97205      1163.489 5        35.848
R21        34.000    19585993.245 7 104808682.95707       645.341 7        44.602                                                                    19585992.564 6  81517961.19206       501.940 6        41.659
R05        36.000    19789093.172 6 105784161.95806     -3016.784 6        39.550                                                                    19789094.561 6  82276468.35106     -2346.467 6        41.018
R22        37.000    23488204.956 6 125381780.66006      3353.000 6        36.957                                                                    23488202.967 5  97519037.63305      2607.906 5        32.701
C39        38.000                                                                                                                                    38856263.729 5 202334768.30905      -903.399 5        30.536                                                                    38856290.837 3                      -734.267 3        23.257
C06        41.000                                                                                                                                    38354248.107 5 199720630.97305      -330.068 5        32.964    38354241.820 7 154436626.37007      -254.981 7        42.191    38354242.160 6 162289336.78306      -268.001 6        38.847
C29        43.000                                                                                                                                    22247470.417 6 115848325.46306     -2499.025 6        40.641                                                                    22247470.988 7  94136365.80107     -2030.493 7        47.529
C16        45.000                                                                                                                                    38769165.800 6 201881296.91206      -452.739 6        40.429    38769165.962 6 156107352.58306      -350.065 6        41.669    38769162.310 6 164045015.79106      -367.595 6        36.095
C09        46.000                                                                                                                                    38961553.037 6 202883036.68606       141.590 6        39.117    38961551.192 7 156882031.42707       109.389 7        42.055    38961548.607 6 164859045.77406       115.210 6        40.970
C32        47.000                                                                                                                                    24546618.453 5 127820673.28005     -3526.076 5        35.071                                                                    24546617.702 6 103864800.04106     -2865.065 6        40.641
C35        51.000                                                                                                                                    23549580.390 7 122629049.77507      1003.527 7        45.916                                                                    23549580.611 7  99646005.50007       815.599 7        44.570
I09        54.000    37122275.903 6 145675772.02906      -717.356 6        37.191
C20        55.000                                                                                                                                    21749157.387 8 113253561.85808     -1058.114 8        52.985                                                                    21749150.392 7  92027874.77207      -859.727 7        44.649
I01        56.000   332071350.155 5 999978501.72905     -2855.143 5        34.829
C30        58.000                                                                                                                                    25606131.803 4                     -4317.018 4        26.635
> 2025 01 01 01 17 20.0000000  0 38
G21         3.000    22755126.561 6 119578993.87306     -3551.382 6        37.709                                    22755117.060 2  93178420.56302     -2767.301 2        16.830
G31         4.000                                                                                                                                                                    22579044.453 3  92457434.61803       655.520 3        22.590
G02         5.000    21351681.075 8 112203848.51308     -2663.723 8        50.027                                    21351675.604 5  87431513.90005     -2075.628 5        35.381
E34         6.000    27349037.551 5 143720197.40405      1954.432 5        32.186                                                                    27349033.923 5 107323531.05205      1459.668 5        35.976    27349035.445 6 110123243.88806      1497.857 6        40.903
E04         7.000    23976891.518 7 125999490.61007     -1901.094 7        43.458                                                                    23976887.628 8  94090449.71208     -1419.710 8        48.028    23976886.398 7  96544983.03707     -1456.754 7        47.507
G03         8.000    19918860.934 8 104674317.65108      -491.026 8        50.545                                    19918859.305 8  81564438.19108      -382.616 8        49.434    19918859.524 7  81564428.19707      -382.575 7        43.843
G09         9.000    23748645.140 4                      2842.457 4        27.341
G04        11.000                                                                                                                                                                    21589070.924 6  88403633.12206      1548.052 6        36.696
E09        12.000    24097993.168 8 126635901.01708       867.859 8        49.737                                                                    24097992.556 8  94565761.69608       648.065 8        51.137    24097991.872 8  97032671.67308       664.972 8        51.473
E10        13.000                                                                                                                                    25998053.090 5 102021989.24305     -2501.074 5        32.485    25998061.836 6 104683393.19206     -2566.415 6        39.195
E06        14.000    23391257.812 6 122921959.79106      -415.418 6        40.539                                                                    23391256.265 6  91792335.02506      -309.768 6        36.155    23391257.383 7  94186919.94807      -318.309 7        43.446
E11        15.000    23913641.966 6 125667091.37206     -2361.319 6        37.864                                                                    23913638.869 6  93842253.58306     -1763.343 6        38.417    23913636.873 5  96290311.11005     -1809.344 5        33.407
G19        16.000    22742484.674 7 119512791.73907      1029.435 7        44.418                                    22742470.962 4  93126662.18704       802.153 4        25.534
E30        17.000    28968195.268 5 152228895.59205     -2358.588 5        33.473                                                                    28968198.477 5 113677439.27405     -1761.094 5        31.072
G28        18.000    23103553.690 5 121409975.07205      -997.454 5        30.989                                    23103545.483 1  94605147.34901      -777.238 1         3.600
G06        19.000    25204873.107 5 132452674.10705      2719.476 5        33.407
E36        20.000    23692914.824 6 124507073.51106       277.395 6        40.770                                                                    23692914.982 7  92976074.06107       207.198 7        44.677    23692914.280 7  95401566.91107       212.622 7        42.159
G17        22.000    22202041.898 6 116672493.73306     -1041.597 6        40.472                                    22202034.918 4  90913549.78404      -811.641 4        25.955    22202038.524 5  90913615.78705      -811.706 5        31.743
S23        24.000    38125542.056 6 200351027.96906      -824.039 6        40.510
S36        25.000    38175937.752 6 200615769.53806      -827.675 6        36.575
R20        27.000    20109123.929 4                     -3613.232 4        29.649                                                                    20109123.397 5  83636401.73305     -2810.137 5        32.054
R04        28.000    23547127.263 4                     -4779.987 4        25.669
R06        29.000    20392923.758 4 108820574.57004      1557.628 4        26.551
C19        33.000                                                                                                                                    23552003.252 7 122641520.90207      1430.617 7        43.668                                                                    23552007.706 6  99656217.67306      1162.318 6        36.121
R21        34.000    19585389.250 6 104805465.56706       641.641 6        41.921                                                                    19585391.228 6  81515458.80706       499.038 6        41.521
R05        36.000    19791917.738 6 105799251.77806     -3018.968 6        39.402                                                                    19791917.375 6  82288204.88306     -2348.163 6        40.486
R22        37.000    23485063.905 6 125365017.05506      3352.408 6        36.548                                                                    23485062.354 5  97505999.26305      2607.740 5        31.079
C39        38.000                                                                                                                                    38857134.688 5 202339288.03505      -904.608 5        30.830                                                                    38857157.111 3                      -734.056 3        22.971
C06        41.000                                                                                                                                    38354564.270 5 199722281.73305      -330.578 5        33.132    38354558.757 7 154437902.85507      -255.579 7        42.341    38354559.173 6 162290678.17806      -268.345 6        38.985
C29        43.000                                                                                                                                    22249870.422 6 115860825.66406     -2501.297 6        41.087                                                                    22249871.333 7  94146523.28407     -2032.466 7        47.125
C16        45.000                                                                                                                                    38769600.676 6 201883561.93706      -453.241 6        40.417    38769601.370 6 156109104.05206      -350.545 6        41.681    38769597.296 6 164046856.34706      -368.372 6        36.038
C09        46.000                                                                                                                                    38961418.183 6 202882330.23006       141.087 6        39.450    38961415.794 7 156881485.13707       109.142 7        42.290    38961413.010 6 164858471.74306       114.545 6        41.304
C32        47.000                                                                                                                                    24550006.074 6 127838304.13606     -3526.315 6        36.352                                                                    24550003.457 6 103879126.61906     -2865.615 6        40.055
C35        51.000                                                                                                                                    23548617.771 7 122624036.95007      1001.631 7        46.243                                                                    23548617.860 7  99641932.19307       813.876 7        44.172
I09        54.000    37123190.754 6 145679358.89906      -717.349 6        37.618
C20        55.000                                                                                                                                    21750174.340 8 113258856.60008     -1059.739 8        53.408                                                                    21750167.184 7  92032177.21807      -861.128 7        44.485
I01        56.000   332074988.237 5 999992776.37605     -2855.139 5        35.152
C30        58.000                                                                                                                                    25610283.226 4                     -4317.178 4        26.299
> 2025 01 01 01 17 25.0000000  0 36
G21         3.000    22758505.662 6 119596754.28906     -3552.864 6        38.336                                    22758496.149 2  93192259.85602     -2768.479 2        16.679
G31         4.000    22578286.121 4 118649586.25204       838.048 4        25.338
G02         5.000    21354216.263 8 112217173.27808     -2666.174 8        49.620                                    21354210.942 5  87441896.82405     -2077.533 5        34.819
E34         6.000    27347177.242 5 143710424.70405      1954.388 5        33.120                                                                    27347173.929 6 107316233.29206      1459.468 6        36.393    27347175.777 6 110115755.75006      1497.537 6        41.187
E04         7.000    23978701.287 7 126009001.97807     -1903.395 7        44.456                                                                    23978697.513 7  94097552.34107     -1421.306 7        47.908    23978696.346 7  96552270.96007     -1458.406 7        47.307
G03         8.000    19919329.087 8 104676778.31908      -493.272 8        50.736                                    19919327.506 8  81566355.58808      -384.366 8        49.105    19919327.634 7  81566345.59307      -384.377 7        43.473
G04        11.000    21587187.973 5                      1984.380 5        33.545                                                                                                    21587181.827 6  88395897.23906      1546.342 6        36.805
E09        12.000    24097168.827 8 126631567.21508       865.690 8        49.972                                                                    24097167.799 8  94562525.41408       646.414 8        51.055    24097167.160 8  97029350.96808       663.314 8        51.739
E10        13.000                                                                                                                                    26001239.788 5 102034497.83305     -2502.195 5        31.102    26001249.654 6 104696228.04806     -2567.339 6        36.809
E06        14.000    23391653.889 6 122924043.08406      -417.924 6        40.968                                                                    23391653.128 6  91793890.77306      -312.059 6        36.828    23391653.416 7  94188516.24907      -320.225 7        42.419
E11        15.000    23915890.003 6 125678903.19806     -2363.379 6        37.505                                                                    23915886.458 6  93851074.08706     -1764.710 6        37.898    23915884.606 5  96299361.70905     -1810.905 5        34.219
G19        16.000    22741506.808 7 119507653.02807      1026.054 7        44.856                                    22741492.825 4  93122658.00804       799.527 4        25.489
E30        17.000    28970439.411 5 152240691.53005     -2360.417 5        31.072                                                                    28970443.698 5 113686247.95605     -1762.213 5        30.060
G28        18.000    23104507.973 5 121414972.74005     -1001.155 5        33.928                                    23104496.012 1  94609041.72001      -780.093 1         3.800
G06        19.000    25202287.182 5 132439078.25405      2719.096 5        31.298                                    25202299.322 1 103199202.77411      2118.780 1        10.074
E36        20.000    23692652.309 6 124505691.16106       275.657 6        41.771                                                                    23692651.954 7  92975041.79707       205.821 7        44.516    23692651.256 6  95400507.71706       211.179 6        41.716
G17        22.000    22203033.412 6 116677709.87906     -1044.930 6        38.414                                    22203028.056 4  90917614.30604      -814.240 4        24.857    22203030.057 5  90917680.33205      -814.462 5        31.819
S23        24.000    38126329.929 6 200355149.32106      -824.399 6        40.522
S36        25.000    38176721.176 6 200619908.97806      -828.188 6        36.533
R20        27.000    20112504.225 5                     -3616.673 5        30.083                                                                    20112502.390 5  83650459.47405     -2812.974 5        30.460
R04        28.000    23551591.485 4                     -4779.206 4        27.245
R06        29.000    20391464.140 3                      1555.627 3        22.533
C19        33.000                                                                                                                                    23550630.661 7 122634372.30507      1428.961 7        43.100                                                                    23550635.706 6  99650408.78506      1160.896 6        36.367
R21        34.000    19584791.910 6 104802267.95206       637.581 6        37.376                                                                    19584792.855 6  81512971.79206       495.797 6        41.032
R05        36.000    19794742.953 6 105814353.58206     -3021.701 6        40.505                                                                    19794742.321 6  82299950.72206     -2350.087 6        39.955
R22        37.000    23481922.785 6 125348257.05106      3351.366 6        36.847                                                                    23481923.525 5  97492963.75405      2606.371 5        31.517
C39        38.000                                                                                                                                    38858005.268 5 202343812.25805      -905.103 5        31.057                                                                    38858026.909 3                      -736.136 3        22.019
C06        41.000                                                                                                                                    38354881.685 5 199723937.16805      -331.756 5        33.275    38354876.671 7 154439182.96407      -256.510 7        42.599    38354876.973 6 162292023.34706      -269.423 6        38.649
C29        43.000                                                                                                                                    22252272.250 6 115873338.15806     -2503.827 6        40.372                                                                    22252274.130 7  94156690.68307     -2034.580 7        46.985
C16        45.000                                                                                                                                    38770036.414 6 201885831.61006      -454.503 6        40.396    38770037.209 6 156110859.11006      -351.514 6        41.905    38770032.946 5 164048700.60505      -369.127 5        35.881
C09        46.000                                                                                                                                    38961283.050 6 202881627.91206       140.058 6        39.766    38961280.846 7 156880942.06707       108.237 7        42.525    38961278.094 6 164857901.00606       113.833 6        41.380
C32        47.000                                                                                                                                    24553391.711 6 127855937.69506     -3527.069 6        37.622                                                                    24553389.685 6 103893455.30206     -2866.033 6        39.637
C35        51.000                                                                                                                                    23547657.346 7 122619035.42307       999.106 7        46.728                                                                    23547656.961 7  99637868.00707       811.903 7        43.547
I09        54.000    37124105.404 6 145682946.61806      -717.716 6        37.433
C20        55.000                                                                                                                                    21751192.793 8 113264160.71708     -1061.909 8        53.415                                                                    21751185.816 7  92036487.21207      -862.826 7        44.664
I01        56.000   332078625.605 5      7051.67805     -2855.505 5        35.338
> 2025 01 01 01 17 30.0000000  0 37
G21         3.000    22761886.347 6 119614520.84306     -3553.939 6        38.471                                    22761876.383 2  93206103.90602     -2769.292 2        16.000
G31         4.000                                                                                                                                                                    22577447.226 3                       651.394 3        19.970
G02         5.000    21356753.782 8 112230508.84008     -2668.179 8        48.907                                    21356748.141 5  87452288.15505     -2079.098 5        34.186
E34         6.000    27345317.903 5 143700652.86705      1954.579 5        34.338                                                                    27345314.622 6 107308936.13706      1459.408 6        36.820    27345316.280 6 110108268.21606      1497.556 6        41.170
E04         7.000    23980512.821 7 126018522.73407     -1905.016 7        45.044                                                                    23980509.160 7  94104661.98807     -1422.562 7        47.632    23980508.033 7  96559566.07607     -1459.630 7        47.187
G03         8.000    19919799.446 8 104679249.08108      -495.170 8        50.894                                    19919797.523 8  81568280.85108      -385.844 8        48.858    19919797.459 7  81568270.85207      -385.756 7        42.758
G09         9.000    23743258.199 5                      2841.089 5        30.030
G04        11.000    21585300.752 6 113431520.83216      1982.569 6        38.592                                    21585288.180 2  88388146.99812      1544.942 2        12.121    21585294.793 6  88388169.00506      1544.992 6        36.306
E09        12.000    24096346.076 8 126627242.57708       864.032 8        50.213                                                                    24096344.782 8  94559295.97208       645.172 8        50.712    24096344.162 8  97026037.27808       662.080 8        52.034
E10        13.000                                                                                                                                    26004427.509 4 102047010.21904     -2502.728 4        29.460    26004437.634 5 104709066.81405     -2568.169 5        34.419
E06        14.000    23392052.327 7 122926136.93607      -419.858 7        42.045                                                                    23392052.055 6  91795454.37906      -313.563 6        37.346    23392051.445 6  94190120.62606      -321.676 6        41.635
E11        15.000    23918139.612 6 125690723.02106     -2364.762 6        37.573                                                                    23918135.478 6  93859900.58106     -1765.723 6        36.994    23918134.953 5  96308418.44605     -1811.949 5        35.933
G19        16.000    22740531.906 7 119502529.74307      1023.123 7        45.154                                    22740517.793 4  93118665.84904       797.242 4        25.654
E30        17.000    28972685.399 4 152252496.31004     -2361.890 4        29.953                                                                    28972690.699 4 113695063.24604     -1763.593 4        29.393
G28        18.000    23105462.783 5 121419986.78705     -1004.355 5        35.700                                    23105450.006 1  94612948.74601      -782.692 1         5.286    23105448.566 4                      -782.166 4        24.677
G06        19.000    25199701.939 4 132425482.73804      2718.787 4        28.844                                    25199709.501 1 103188608.88701      2118.580 1        10.222
E36        20.000    23692391.164 7 124504316.43007       274.179 7        42.430                                                                    23692390.348 7  92974015.21007       204.749 7        44.429    23692389.945 6  95399454.34006       210.180 6        41.406
G17        22.000    22204026.583 6 116682941.06206     -1047.819 6        37.059                                    22204023.980 3  90921690.56303      -816.483 3        23.314    22204024.878 5  90921756.56405      -816.581 5        31.698
S23        24.000    38127110.062 6 200359270.45706      -824.158 6        40.455
S36        25.000    38177505.991 6 200624048.72706      -828.085 6        36.578
R20        27.000    20115888.569 4                     -3619.769 4        27.545                                                                    20115886.168 5  83664530.07605     -2815.758 5        31.509
R06        29.000    20390009.914 3                      1552.041 3        22.229
C19        33.000                                                                                                                                    23549259.276 7 122627230.30707      1427.720 7        43.409                                                                    23549264.666 6  99644605.27606      1160.360 6        36.987
R21        34.000    19584200.122 6 104799090.02306       633.586 6        38.889                                                                    19584199.368 6  81510500.04506       492.846 6        39.739
R05        36.000    19797570.126 7 105829467.18307     -3023.843 7        42.963                                                                    19797569.696 6  82311705.73606     -2351.801 6        39.988
R22        37.000    23478785.498 6 125331500.50906      3350.773 6        37.062                                                                    23478784.573 5  97479930.88405      2606.182 5        32.539
C39        38.000                                                                                                                                    38858875.406 5 202348340.98805      -906.359 5        31.472                                                                    38858890.688 3                      -737.088 3        18.896
C06        41.000                                                                                                                                    38355199.933 5 199725597.22905      -332.670 5        33.228    38355195.741 7 154440466.61507      -257.089 7        42.950    38355195.731 6 162293372.28006      -270.151 6        38.607
C29        43.000                                                                                                                                    22254676.203 6 115885862.86506     -2506.103 6        39.270                                                                    22254679.429 7  94166867.99407     -2036.358 7        47.019
C16        45.000                                                                                                                                    38770473.292 6 201888105.77506      -455.280 6        40.315    38770473.862 7 156112617.62507      -352.126 7        42.093    38770469.793 5 164050548.55405      -369.908 5        35.786
C09        46.000                                                                                                                                    38961148.873 6 202880929.54206       139.365 6        40.017    38961146.677 7 156880402.05807       107.677 7        42.933    38961144.135 6 164857333.53106       113.270 6        41.533
C32        47.000                                                                                                                                    24556778.326 6 127873573.79606     -3527.398 6        38.892                                                                    24556776.124 6 103907786.09906     -2866.352 6        39.183
C35        51.000                                                                                                                                    23546699.054 7 122614045.04407       997.013 7        47.407                                                                    23546698.064 7  99633812.92907       810.170 7        42.827
I09        54.000    37125019.128 6 145686535.00206      -717.570 6        37.399
C20        55.000                                                                                                                                    21752212.726 8 113269474.05808     -1063.587 8        53.255                                                                    21752206.363 7  92040804.73307      -864.145 7        45.099
I01        56.000   332082263.326 5     21327.53305     -2855.284 5        35.310
C30        58.000                                                                                                                                    25618592.560 4                     -4317.720 4        25.895
> 2025 01 01 01 17 35.0000000  0 38
G21         3.000    22765268.096 6 119632293.55006     -3555.198 6        38.595                                    22765257.976 2  93219952.77602     -2770.282 2        15.571
G31         4.000    22576674.186 5                       832.384 5        31.230                                                                                                    22576656.696 3                       648.946 3        23.619
G02         5.000    21359293.581 8 112243855.22008     -2670.448 8        48.416                                    21359287.293 5  87462687.91605     -2080.864 5        33.234
E34         6.000    27343458.724 5 143690881.86505      1953.907 5        34.724                                                                    27343455.333 6 107301639.60506      1459.126 6        37.319    27343456.878 6 110100781.32806      1497.167 6        41.087
E04         7.000    23982326.500 7 126028052.92007     -1907.117 7        45.503                                                                    23982322.662 7  94111778.67307     -1424.134 7        47.494    23982321.761 7  96566868.42707     -1461.264 7        47.101
G03         8.000    19920271.311 8 104681729.97008      -497.328 8        51.061                                    19920269.364 8  81570214.00608      -387.526 8        48.530    19920269.095 7  81570204.02107      -387.589 7        42.377
G09         9.000    23740561.100 5                      2840.424 5        30.574
G04        11.000    21583414.595 6 113421612.79606      1980.664 6        40.269                                    21583403.611 2  88380426.47702      1543.361 2        16.641    21583409.771 5  88380448.47905      1543.344 5        35.690
E09        12.000    24095524.831 8 126622927.14808       862.038 8        50.637                                                                    24095523.530 8  94556073.41008       643.758 8        50.511    24095522.945 8  97022730.65408       660.571 8        52.072
E10        13.000                                                                                                                                    26007615.651 4 102059526.42804     -2503.269 4        28.066
E06        14.000    23392453.029 7 122928241.40407      -422.025 7        42.819                                                                    23392452.895 6  91797025.89206      -315.256 6        37.887    23392451.702 6  94191733.14006      -323.442 6        40.374
E11        15.000    23920390.307 6 125702550.90006     -2366.408 6        36.998                                                                    23920386.135 6  93868733.11906     -1767.146 6        36.427    23920387.787 6  96317481.34606     -1813.115 6        37.259
G19        16.000    22739560.261 7 119497421.87807      1019.930 7        44.597                                    22739545.993 4  93114685.70304       794.749 4        25.729
E30        17.000    28974932.842 5 152264309.98205     -2363.878 5        30.581                                                                    28974937.807 4 113703885.18904     -1765.316 4        28.938
G28        18.000    23106418.542 5 121425017.27505     -1007.914 5        35.500                                    23106407.054 1  94616868.69801      -785.437 1         6.125    23106410.635 4                      -785.317 4        28.701
G06        19.000    25197115.367 4 132411887.68804      2719.010 4        26.060                                    25197119.985 1 103178015.32901      2118.680 1        10.148
E36        20.000    23692130.733 7 124502949.33807       272.598 7        42.902                                                                    23692130.177 7  92972994.33707       203.530 7        44.369    23692129.932 6  95398406.83706       208.623 6        40.942
G17        22.000    22205025.636 6 116688187.36506     -1050.822 6        36.401                                    22205022.409 3  90925778.57303      -818.828 3        20.738    22205023.439 5  90925844.61205      -818.840 5        31.343
S23        24.000    38127895.176 6 200363391.47006      -824.298 6        40.229
S36        25.000    38178298.666 6 200628188.49706      -828.136 6        36.654
R20        27.000    20119275.925 4                     -3621.892 4        24.827                                                                    20119274.848 5                     -2817.952 5        32.401
R04        28.000    23560495.103 4                     -4779.261 4        24.045                                                                    23560486.992 3                     -3718.288 3        21.095
R06        29.000    20388553.668 3                      1550.575 3        23.886
C19        33.000                                                                                                                                    23547890.064 7 122620094.92907      1426.332 7        44.008                                                                    23547895.720 6  99638807.21306      1158.809 6        36.839
R21        34.000    19583612.282 6 104795931.68906       629.619 6        41.855                                                                    19583610.072 6  81508043.54506       489.615 6        39.510
R05        36.000    19800399.753 7 105844592.40307     -3026.345 7        44.737                                                                    19800398.437 6  82323469.78706     -2353.715 6        40.164
R22        37.000    23475649.460 6 125314747.40406      3350.175 6        39.441                                                                    23475646.922 5  97466900.72505      2605.552 5        33.371
C39        38.000                                                                                                                                    38859744.985 5 202352874.21505      -906.781 5        31.683
C06        41.000                                                                                                                                    38355519.665 5 199727261.87405      -333.438 5        33.707    38355515.390 7 154441753.84907      -257.951 7        42.929    38355515.505 6 162294724.96006      -271.015 6        38.559
C29        43.000                                                                                                                                    22257085.836 6 115898399.74606     -2508.668 6        38.114                                                                    22257087.176 7  94177055.23407     -2038.536 7        47.176
C16        45.000                                                                                                                                    38770910.705 6 201890384.45306      -456.354 6        39.862    38770911.518 6 156114379.65106      -352.847 6        41.969    38770907.261 5 164052400.18305      -370.814 5        35.705
C09        46.000                                                                                                                                    38961016.008 6 202880235.22706       138.495 6        40.286    38961013.152 7 156879865.17807       106.938 7        43.079    38961010.529 6 164856769.35906       112.368 6        41.645
C32        47.000                                                                                                                                    24560164.948 6 127891212.48606     -3528.230 6        39.520                                                                    24560163.206 6 103922119.00406     -2866.876 6        39.156
C35        51.000                                                                                                                                    23545743.118 7 122609065.85007       994.622 7        47.973                                                                    23545741.195 7  99629766.95307       808.183 7        42.023
I09        54.000    37125933.462 6 145690124.18306      -718.019 6        37.456
C20        55.000                                                                                                                                    21753234.773 8 113274796.66708     -1065.566 8        53.198                                                                    21753228.764 7  92045129.82007      -865.901 7        45.299
I01        56.000   332085900.775 5     35604.02205     -2855.559 5        35.533
C30        58.000                                                                                                                                    25622738.881 4                     -4319.104 4        24.977
> 2025 01 01 01 17 40.0000000  0 38
G21         3.000    22768651.355 6 119650073.00606     -3556.647 6        37.947                                    22768640.991 2  93233806.89002     -2771.396 2        14.810
G31         4.000    22575883.630 5                       829.276 5        35.243                                                                                                    22575869.159 4                       645.879 4        25.173
G02         5.000    21361835.700 7 112257213.03107     -2672.679 7        47.470                                    21361828.619 5  87473096.58305     -2082.603 5        32.545
E34         6.000    27341597.006 5 143681112.32105      1953.684 5        34.595                                                                    27341596.205 6 107294344.16006      1459.013 6        37.425    27341597.589 6 110093295.56206      1497.159 6        40.961
E04         7.000    23984142.062 7 126037593.12307     -1909.091 7        44.984                                                                    23984137.967 7  94118902.83607     -1425.575 7        47.358    23984137.236 7  96574178.44607     -1462.828 7        46.906
G03         8.000    19920745.276 8 104684221.57108      -499.431 8        51.178                                    19920743.155 8  81572155.50608      -389.166 8        48.240    19920743.746 7  81572145.51207      -389.180 7        42.110
G09         9.000    23737856.569 5                      2839.493 5        30.249
G04        11.000    21581529.715 6 113411715.24906      1978.430 6        40.236                                    21581521.272 3  88372714.13603      1541.631 3        18.716    21581526.082 6  88372736.09106      1541.877 6        36.121
E09        12.000    24094705.255 8 126618621.54208       860.214 8        50.407                                                                    24094704.205 8  94552858.18108       642.374 8        50.287    24094703.531 8  97019431.55308       659.074 8        51.811
E10        13.000                                                                                                                                    26010805.806 4 102072046.96404     -2504.575 4        27.078    26010805.733 5 104734756.49805     -2569.655 5        31.751
E06        14.000    23392855.864 7 122930357.09807      -424.315 7        43.086                                                                    23392855.566 6  91798605.80006      -316.918 6        38.249    23392853.823 6  94193354.24506      -325.162 6        39.228
E11        15.000    23922642.526 6 125714387.43306     -2368.187 6        36.556                                                                    23922638.355 5  93877572.07305     -1768.259 5        35.948    23922641.751 6  96326550.89806     -1814.663 6        38.444
G19        16.000    22738590.808 7 119492330.09507      1016.748 7        44.315                                    22738577.225 4  93110718.08804       792.271 4        25.789
E30        17.000    28977182.220 5 152276133.04305     -2365.523 5        31.109                                                                    28977187.533 4 113712714.19704     -1766.767 4        28.408
G28        18.000    23107378.728 5 121430064.83905     -1011.228 5        35.671                                    23107367.419 1  94620801.91101      -788.060 1         7.750    23107376.099 4                      -787.820 4        29.772
G06        19.000    25194529.573 3                      2718.975 3        23.810
E36        20.000    23691872.009 7 124501590.52307       270.902 7        42.789                                                                    23691871.526 7  92971979.63507       202.370 7        44.245    23691871.322 6  95397365.65706       207.738 6        40.451
G17        22.000    22206027.265 5 116693449.45005     -1054.120 5        35.162                                    22206022.724 3  90929878.88303      -821.395 3        18.537    22206027.634 4  90929944.87004      -821.648 4        28.995
S23        24.000    38128678.095 6 200367512.97406      -824.486 6        40.117
S36        25.000    38179083.660 6 200632329.39906      -828.343 6        36.314
R20        27.000    20122673.970 3                     -3627.487 3        21.476                                                                    20122662.674 5  83692710.25215     -2820.690 5        32.000
R04        28.000    23564952.447 3                     -4781.113 3        22.838
R06        29.000    20387102.291 3                      1547.908 3        23.486
C19        33.000                                                                                                                                    23546521.433 7 122612966.80007      1424.892 7        44.247                                                                    23546527.237 6  99633014.98406      1157.942 6        36.473
R21        34.000    19583026.433 7 104792793.74907       625.610 7        44.156                                                                    19583023.997 6  81505602.91206       486.506 6        40.174
R05        36.000    19803231.928 7 105859730.16807     -3028.790 7        45.663                                                                    19803229.660 6  82335243.58406     -2355.638 6        40.262
R22        37.000    23472513.765 6 125297998.45506      3349.304 6        41.228                                                                    23472507.141 5  97453873.82905      2605.198 5        34.267
C39        38.000                                                                                                                                    38860616.026 5 202357412.54605      -908.150 5        31.411                                                                    38860603.051 4                      -738.505 4        24.391
C06        41.000                                                                                                                                    38355840.418 5 199728931.74005      -334.602 5        33.928    38355836.670 7 154443045.08807      -258.599 7        43.181    38355835.933 6 162296081.87006      -271.815 6        38.405
C29        43.000                                                                                                                                    22259498.249 6 115910949.38906     -2511.162 6        37.422                                                                    22259497.363 7  94187252.83907     -2040.507 7        47.472
C16        45.000                                                                                                                                    38771348.860 6 201892668.29206      -457.381 6        39.393    38771350.665 7 156116145.65907      -353.666 7        42.099    38771345.768 5 164054255.97005      -371.447 5        35.890
C09        46.000                                                                                                                                    38960883.485 6 202879545.56606       137.501 6        40.207    38960880.821 7 156879331.87507       106.319 7        43.410    38960877.914 6 164856208.94506       111.658 6        41.700
C32        47.000                                                                                                                                    24563552.005 6 127908854.36606     -3528.689 6        40.067                                                                    24563550.970 6 103936454.48106     -2867.347 6        38.513
C35        51.000                                                                                                                                    23544789.036 8 122604098.47208       992.362 8        48.227                                                                    23544786.622 6  99625730.56906       806.371 6        41.275
I09        54.000    37126848.183 6 145693714.55006      -718.145 6        37.490
C20        55.000                                                                                                                                    21754258.702 8 113280129.13008     -1067.470 8        53.137                                                                    21754253.044 7  92049462.88507      -867.456 7        45.874
I01        56.000   332089539.964 5     49881.49805     -2855.763 5        35.710
C30        58.000                                                                                                                                    25626877.873 4                     -4318.939 4        25.714
> 2025 01 01 01 17 45.0000000  0 37
G21         3.000    22772035.267 6 119667859.46106     -3557.903 6        37.614                                    22772025.235 2  93247666.45202     -2772.388 2        14.952
G31         4.000    22575097.742 6 118632932.71616       825.897 6        38.513                                    22575087.823 2  92441210.47912       643.526 2        14.762    22575082.573 4                       644.025 4        26.359
G02         5.000    21364380.008 7 112270582.58507     -2675.205 7        46.166                                    21364372.266 5  87483514.40705     -2084.575 5        31.811
E34         6.000    27339735.666 5 143671344.55305      1953.353 5        34.848                                                                    27339737.529 6 107287050.06006      1458.577 6        37.543    27339738.667 6 110085811.15406      1496.671 6        40.634
E04         7.000    23985959.411 7 126047143.65107     -1911.190 7        44.051                                                                    23985955.228 7  94126034.72207     -1427.245 7        47.094    23985954.660 7  96581496.37807     -1464.430 7        46.858
G03         8.000    19921221.671 8 104686724.21908      -501.751 8        51.241                                    19921218.994 8  81574105.61608      -390.973 8        48.035    19921220.056 7  81574095.62107      -390.974 7        42.083
G09         9.000    23735150.213 4                      2838.589 4        28.019
G04        11.000    21579648.208 6 113401828.49806      1976.158 6        40.739                                    21579640.758 3  88365010.17903      1539.862 3        20.667    21579644.690 6  88365032.18206      1539.764 6        37.130
E09        12.000    24093887.732 8 126614326.07008       858.039 8        50.079                                                                    24093886.829 8  94549650.52408       640.712 8        49.921    24093886.072 8  97016140.21708       657.433 8        51.746
E10        13.000                                                                                                                                    26013996.528 4 102084571.97904     -2505.057 4        26.144    26014000.509 5 104747608.27805     -2570.726 5        32.868
E06        14.000    23393260.530 7 122932484.31007      -426.704 7        43.060                                                                    23393260.386 6  91800194.30606      -318.704 6        38.144    23393258.331 6  94194984.20006      -327.058 6        38.222
E11        15.000    23924897.398 6 125726232.95606     -2370.101 6        36.586                                                                    23924892.113 5  93886417.77905     -1769.994 5        35.133    23924896.287 6  96335627.31606     -1816.035 6        39.087
G19        16.000    22737625.273 7 119487254.68807      1013.366 7        44.641                                    22737611.511 4  93106763.22404       789.641 4        25.850
E30        17.000    28979433.603 5 152287965.88905     -2367.840 5        30.634                                                                    28979439.348 4 113721550.44704     -1767.883 4        26.982    28979425.380 3                     -1815.800 3        22.343
G28        18.000    23108343.060 6 121435129.82106     -1014.967 6        36.060                                    23108331.322 1  94624748.58501      -790.891 1         6.000    23108337.601 4                      -790.651 4        29.583
G06        19.000    25191942.469 3                      2719.122 3        20.881
E36        20.000    23691614.819 7 124500240.27907       269.048 7        42.129                                                                    23691614.588 7  92970971.34607       200.949 7        44.054    23691614.519 6  95396331.06006       206.225 6        40.093
G17        22.000    22207031.499 5 116698727.54205     -1057.218 5        34.629                                    22207026.000 2  90933991.67402      -823.825 2        15.762
S23        24.000    38129462.453 6 200371635.43406      -824.778 6        40.069
S36        25.000    38179869.775 6 200636471.02106      -828.407 6        36.318
R20        27.000                                                                                                                                    20126056.538 4  83706820.61404     -2824.139 4        28.948
R06        29.000    20385651.536 3                      1545.194 3        23.676
C19        33.000                                                                                                                                    23545154.510 7 122605846.23407      1423.247 7        44.448                                                                    23545160.200 5  99627228.92205      1156.514 5        35.738
R21        34.000    19582443.298 7 104789676.40007       621.295 7        44.935                                                                    19582441.513 6  81503178.28706       483.210 6        41.521
R05        36.000    19806065.444 7 105874880.52007     -3031.452 7        46.469                                                                    19806064.407 6  82347027.19906     -2357.667 6        40.582
R22        37.000    23469377.091 6 125281253.92106      3348.389 6        41.044                                                                    23469369.323 5  97440850.33805      2604.432 5        33.377
C39        38.000                                                                                                                                    38861489.325 5 202361956.19905      -909.074 5        31.940                                                                    38861481.895 4                      -739.313 4        27.138
C06        41.000                                                                                                                                    38356162.000 5 199730607.11805      -335.593 5        33.970    38356158.826 7 154444340.61607      -259.643 7        43.412    38356157.787 6 162297443.26506      -272.838 6        38.393
C29        43.000                                                                                                                                    22261911.544 6 115923512.13306     -2514.147 6        37.675                                                                    22261909.985 7  94197461.07707     -2042.828 7        47.677
C16        45.000                                                                                                                                    38771788.395 6 201894957.53606      -458.435 6        39.051    38771791.019 7 156117915.85907      -354.567 7        42.389    38771785.330 5 164056116.20205      -372.580 5        35.609
C09        46.000                                                                                                                                    38960751.466 6 202878860.82506       136.369 6        40.226    38960749.232 7 156878802.39607       105.516 7        43.826    38960746.478 6 164855652.53806       110.645 6        41.535
C32        47.000                                                                                                                                    24566940.508 6 127926499.69906     -3529.546 6        40.722                                                                    24566939.286 6 103950792.75706     -2868.056 6        38.219
C35        51.000                                                                                                                                    23543837.304 8 122599143.21908       989.773 8        48.660                                                                    23543834.675 6  99621704.02906       804.242 6        40.482
I09        54.000    37127763.371 6 145697306.34506      -718.569 6        37.743
C20        55.000                                                                                                                                    21755284.708 8 113285471.77008     -1069.632 8        52.814                                                                    21755279.359 7  92053804.22207      -869.196 7        46.434
I01        56.000   332093178.687 6     64160.24406     -2855.911 6        36.023
C30        58.000                                                                                                                                    25631017.751 4                     -4319.372 4        24.241
