     3.04           OBSERVATION DATA    M                   RINEX VERSION / TYPE
ssrcrin-15.6.1x                         20250101 023000 UTC PGM / RUN BY / DATE 
(00000000023479385599111004) Septentrio proprietary         COMMENT             
ract                                                        MARKER NAME         
01                                                          MARKER NUMBER       
geodetic                                                    MARKER TYPE         
NFB                 CLIMERS@TUW                             OBSERVER / AGENCY   
3296359             SEPT ASTERX SB3 PROB4.14.4              REC # / TYPE / VERS 
Unknown             Unknown                                 ANT # / TYPE        
  4127445.1203  1206914.9423  4695542.0161                  APPROX POSITION XYZ 
        0.0000        0.0000        0.0000                  ANTENNA: DELTA H/E/N
G   23 X1  C1C L1C D1C S1C C1W S1W C2W L2W D2W S2W C2L L2L  SYS / # / OBS TYPES 
       D2L S2L C5Q L5Q D5Q S5Q C1L L1L D1L S1L              SYS / # / OBS TYPES 
E   21 X1  C1C L1C D1C S1C C6C L6C D6C S6C C5Q L5Q D5Q S5Q  SYS / # / OBS TYPES 
       C7Q L7Q D7Q S7Q C8Q L8Q D8Q S8Q                      SYS / # / OBS TYPES 
S    9 X1  C1C L1C D1C S1C C5I L5I D5I S5I                  SYS / # / OBS TYPES 
R   17 X1  C1C L1C D1C S1C C2P L2P D2P S2P C2C L2C D2C S2C  SYS / # / OBS TYPES 
       C3Q L3Q D3Q S3Q                                      SYS / # / OBS TYPES 
C   25 X1  C1P L1P D1P S1P C5P L5P D5P S5P C2I L2I D2I S2I  SYS / # / OBS TYPES 
       C7I L7I D7I S7I C6I L6I D6I S6I C7D L7D D7D S7D      SYS / # / OBS TYPES 
J   17 X1  C1C L1C D1C S1C C2L L2L D2L S2L C5Q L5Q D5Q S5Q  SYS / # / OBS TYPES 
       C1L L1L D1L S1L                                      SYS / # / OBS TYPES 
I    5 X1  C5A L5A D5A S5A                                  SYS / # / OBS TYPES 
SEPTENTRIO RECEIVERS OUTPUT ALIGNED CARRIER PHASES.         COMMENT             
NO FURTHER PHASE SHIFT APPLIED IN THE RINEX ENCODER.        COMMENT             
G L1C                                                       SYS / PHASE SHIFT   
G L2W                                                       SYS / PHASE SHIFT   
G L2L  0.00000                                              SYS / PHASE SHIFT   
G L5Q  0.00000                                              SYS / PHASE SHIFT   
G L1L  0.00000                                              SYS / PHASE SHIFT   
E L1C  0.00000                                              SYS / PHASE SHIFT   
E L6C  0.00000                                              SYS / PHASE SHIFT   
E L5Q  0.00000                                              SYS / PHASE SHIFT   
E L7Q  0.00000                                              SYS / PHASE SHIFT   
E L8Q  0.00000                                              SYS / PHASE SHIFT   
S L1C                                                       SYS / PHASE SHIFT   
S L5I                                                       SYS / PHASE SHIFT   
R L1C                                                       SYS / PHASE SHIFT   
R L2P  0.00000                                              SYS / PHASE SHIFT   
R L2C                                                       SYS / PHASE SHIFT   
R L3Q  0.00000                                              SYS / PHASE SHIFT   
C L1P  0.00000                                              SYS / PHASE SHIFT   
C L5P  0.00000                                              SYS / PHASE SHIFT   
C L2I                                                       SYS / PHASE SHIFT   
C L7I                                                       SYS / PHASE SHIFT   
C L6I                                                       SYS / PHASE SHIFT   
C L7D                                                       SYS / PHASE SHIFT   
J L1C                                                       SYS / PHASE SHIFT   
J L2L  0.00000                                              SYS / PHASE SHIFT   
J L5Q  0.00000                                              SYS / PHASE SHIFT   
J L1L  0.00000                                              SYS / PHASE SHIFT   
I L5A                                                       SYS / PHASE SHIFT   
  2025     1     1     2    30    0.0000000     GPS         TIME OF FIRST OBS   
 C1C    0.000 C2C    0.000 C2P    0.000                     GLONASS COD/PHS/BIS 
DBHZ                                                        SIGNAL STRENGTH UNIT
    18                                                      LEAP SECONDS        
 24 R01  1 R02 -4 R03  5 R04  6 R05  1 R06 -4 R07  5 R08  6 GLONASS SLOT / FRQ #
    R09 -2 R10 -7 R11  0 R12 -1 R13 -2 R14 -7 R15  0 R16 -1 GLONASS SLOT / FRQ #
    R17  4 R18 -3 R19  3 R20  2 R21  4 R22 -3 R23  3 R24  2 GLONASS SLOT / FRQ #
                                                            END OF HEADER       
> 2025 01 01 02 30  0.0000000  0 38
G02         1.000    23644324.864 5                     -4136.590 5        30.641
G31         4.000    22509125.382 7 118286138.23007     -2179.004 7        46.165                                    22509115.344 5  92170983.37205     -1697.920 5        34.814    22509120.305 5  92171110.35605     -1697.947 5        34.629
E34         6.000    25321191.181 7 133063760.01107      1320.092 7        46.453                                                                    25321189.765 7  99365842.73607       985.762 7        46.997    25321189.195 7 101957963.39907      1011.536 7        46.846
E04         7.000    25519538.796 6 134106064.29906     -3104.365 6        41.044                                                                    25519536.733 7 100144130.78007     -2318.212 7        42.226    25519535.189 6 102756586.34406     -2378.566 6        41.902
G03         8.000    20456229.620 7 107498431.79807     -2226.692 7        45.514                                    20456229.530 6  83764803.51206     -1735.087 6        41.080    20456229.026 7  83764863.51707     -1735.069 7        42.339
G09         9.000    21248505.276 7 111661630.75807      1559.367 7        47.027                                    21248501.012 7  87009071.56807      1215.089 7        42.370    21248501.135 6  87009062.58206      1215.086 6        39.670
R14        10.000    23676910.857 4                     -2728.947 4        29.858                                                                    23676911.456 5                     -2122.764 5        33.096
G04        11.000    20189162.371 7 106094788.60507      -155.617 7        47.683                                    20189156.698 6  82671210.11206      -121.255 6        36.715    20189158.582 7  82671229.11407      -121.261 7        45.685
E09        12.000    23477827.534 7 123376915.92107      -811.308 7        46.801                                                                    23477826.348 7  92132105.44807      -605.775 7        45.595    23477826.026 7  94535528.52507      -621.649 7        45.962
E06        14.000    23858762.482 7 125378664.54407     -2061.765 7        46.290                                                                    23858761.612 7  93626923.57007     -1539.552 7        45.342    23858761.501 7  96069333.31407     -1579.765 7        46.159
E11        15.000    25823557.179 5 135703727.60605     -3610.808 5        32.413                                                                    25823554.771 5 101337196.11905     -2696.239 5        33.521    25823556.234 5                     -2766.969 5        31.125
G19        16.000    22524044.643 5 118364782.49305     -1969.540 5        32.551                                    22524041.413 2  92232190.27102     -1534.674 2        13.273
G28        17.000                                                                                                                                                                    24457153.988 4                     -2754.358 4        26.395
G06        19.000    22584092.056 7 118680309.68407      1887.291 7        46.055                                    22584091.613 7  92478058.74007      1470.617 7        43.494    22584091.606 7  92478131.75107      1470.638 7        43.524
E36        20.000    23523557.836 8 123617269.83008     -1409.223 8        48.129                                                                    23523558.156 8  92311479.05408     -1052.328 8        49.542    23523556.452 7  94719635.62507     -1079.744 7        45.944
E05        21.000    24060043.767 5 126436380.04905      1582.435 5        34.433                                                                    24060038.786 4  94416823.78604      1182.161 4        26.934    24060041.728 6  96879858.94506      1212.527 6        36.896
G17        22.000                                                                                                                                                                    23460179.573 3                     -2515.637 3        23.581
R07        23.000    21570418.868 6 115467941.57506      1945.379 6        40.868                                                                    21570387.315 6  89808414.58806      1512.901 6        40.100
S23        24.000    38210435.748 6 200797103.84906      -825.994 6        40.880
S36        25.000    38264022.202 5 201078784.61105      -830.083 5        35.671
R06        29.000    19471790.519 6 103905217.52606      -755.221 6        38.441
C05        32.000                                                                                                                                                                                                    39190857.244 6 157805344.20406      -653.992 6        37.028
C19        33.000                                                                                                                                    22275435.688 6 115994162.16706       168.587 6        37.584                                                                    22275432.295 7  94254639.95707       136.722 7        47.105
R21        34.000    20011060.605 8 107083331.74308     -3170.305 8        48.882                                                                    20011057.545 6  83286937.86506     -2465.790 6        40.558
R05        36.000    22247415.751 6 118925205.32406     -4193.041 6        36.771                                                                    22247428.151 5  92497337.72705     -3261.145 5        33.419
R22        37.000    20753134.333 8 110781616.73508      1421.235 8        52.325                                                                    20753130.004 7  86163519.47407      1105.405 7        42.216
C39        38.000                                                                                                                                    39319141.702 6 204745157.33206     -1586.867 6        36.208                                                                    39319134.234 5 166372151.66205     -1288.910 5        31.706
C22        39.000                                                                                                                                    25572658.261 6 133163501.62706      1927.601 6        36.885                                                                    25572640.603 5 108206229.05705      1566.038 5        33.898
C06        41.000                                                                                                                                    38363826.942 6 199770599.29206     -1099.584 6        36.389    38363812.556 5 154475166.17505      -849.509 5        31.419    38363817.420 4                      -893.668 4        28.455
C29        43.000                                                                                                                                    24481152.487 6 127479852.31506     -4029.552 6        38.826                                                                    24481146.205 6 103587744.33206     -3274.482 6        36.975
C16        45.000                                                                                                                                    38871343.526 5                     -1193.045 5        31.494    38871352.878 6 156518941.58406      -922.420 6        40.412
C09        46.000                                                                                                                                    38550750.297 6 200743894.85606      -588.260 6        38.492    38550750.565 7 155227911.59907      -454.944 7        44.734    38550740.873 4                      -478.156 4        26.060
C44        48.000                                                                                                                                    24890700.005 5 129612502.07405      1183.022 5        34.486                                                                    24890693.333 5 105320674.60305       960.949 5        32.078
C37        49.000                                                                                                                                    25122342.175 4                       543.016 4        29.355                                                                    25122326.602 4                       441.529 4        29.261
C35        51.000                                                                                                                                    23060770.087 8 120083692.00108     -1355.828 8        48.316                                                                    23060767.991 7  97577720.37307     -1101.759 7        45.096
C20        55.000                                                                                                                                    22637249.944 7 117878114.52607     -2386.630 7        45.725                                                                    22637248.207 7  95785702.43107     -1939.415 7        47.228
C12        56.000                                                                                                                                                                                                    26945325.360 4 108497659.67704      1651.892 4        29.621
I09        59.000    37394251.786 4 146743098.28504      -844.501 4        27.473
> 2025 01 01 02 30  5.0000000  0 39
G02         1.000    23648262.217 5                     -4137.379 5        32.144
G31         4.000    22511200.517 7 118297042.46707     -2182.280 7        46.136                                    22511189.989 5  92179480.17405     -1700.476 5        34.605    22511195.502 5  92179607.16405     -1700.493 5        35.138
E34         6.000    25319936.238 7 133057163.50707      1318.932 7        46.936                                                                    25319934.500 7  99360916.78207       984.877 7        47.095    25319934.164 7 101952908.94207      1010.582 7        47.079
E04         7.000    25522493.096 6 134121588.79706     -3105.015 6        41.604                                                                    25522491.171 7 100155723.73807     -2318.728 7        42.315    25522489.467 7 102768481.74207     -2379.262 7        42.123
G03         8.000    20458349.184 7 107509570.16307     -2228.336 7        44.718                                    20458349.424 6  83773482.75606     -1736.365 6        40.393    20458348.287 7  83773542.77407     -1736.477 7        42.121
G09         9.000    21247022.554 7 111653839.57407      1557.434 7        47.588                                    21247018.088 6  87003000.52106      1213.583 6        41.740    21247018.089 6  87002991.52606      1213.558 6        38.952
R14        10.000    23679480.229 5 126224926.77315     -2732.575 5        35.324                                                                    23679475.534 5                     -2125.438 5        31.781
G04        11.000    20189311.605 7 106095573.84307      -158.133 7        46.929                                    20189306.157 6  82671821.98406      -123.216 6        36.280    20189307.944 7  82671840.98607      -123.186 7        45.222
E09        12.000    23478600.267 7 123380977.55207      -812.967 7        46.904                                                                    23478599.270 7  92135138.48307      -607.149 7        45.226    23478598.956 7  94538640.68107      -622.894 7        45.973
E06        14.000    23860724.979 7 125388977.64807     -2063.153 7        46.381                                                                    23860723.923 7  93634624.92107     -1540.639 7        44.831    23860724.184 7  96077235.56307     -1580.815 7        46.342
E11        15.000    25826993.551 5 135721783.85605     -3611.371 5        31.917                                                                    25826991.048 5 101350679.63905     -2696.979 5        33.036    25826992.488 5                     -2767.382 5        31.751
G19        16.000    22525921.361 5 118374639.93105     -1972.575 5        33.856                                    22525917.250 1  92239871.40301     -1537.042 1        10.815
G28        17.000                                                                                                                                                                    24460516.147 4                     -2755.904 4        26.635
G06        19.000    22582297.644 7 118670878.31507      1885.580 7        46.158                                    22582296.637 7  92470709.62107      1469.280 7        43.268    22582297.064 7  92470782.63707      1469.242 7        43.272
E36        20.000    23524900.042 8 123624321.97708     -1411.254 8        48.290                                                                    23524900.181 8  92316745.26308     -1053.864 8        49.507    23524898.354 7  94725039.21407     -1081.368 7        46.072
E05        21.000    24058538.553 5 126428471.67805      1581.482 5        34.605                                                                    24058533.338 4  94410918.27804      1180.734 4        27.006    24058536.377 6  96873799.30006      1211.727 6        36.215
G17        22.000    23463287.505 6 123300425.56316     -3230.190 6        36.760                                                                                                    23463254.592 4                     -2516.507 4        24.481
R07        23.000    21568609.276 6 115458219.53406      1943.891 6        37.422                                                                    21568571.887 6  89800853.01406      1512.017 6        40.329
S23        24.000    38211216.645 6 200801234.44906      -825.893 6        40.713
S36        25.000    38264816.147 5 201082935.44505      -830.123 5        35.671
R15        28.000    22516771.175 6 120322934.17316       553.654 6        38.517                                                                    22516783.099 4                       430.297 4        26.000
R06        29.000    19472498.841 6 103908999.98806      -757.464 6        37.913
C05        32.000                                                                                                                                                                                                    39191670.189 6 157808613.80606      -653.805 6        37.172
C19        33.000                                                                                                                                    22275274.563 5 115993324.65005       166.983 5        35.548                                                                    22275271.400 7  94253959.40307       135.571 7        47.301
R21        34.000    20014025.149 8 107099193.89208     -3174.227 8        48.867                                                                    20014021.145 6  83299275.11106     -2468.857 6        41.552
R05        36.000    22251334.266 5 118946172.26705     -4193.344 5        35.781                                                                    22251352.431 5  92513645.33005     -3261.395 5        32.222
R22        37.000    20751804.501 8 110774520.50908      1417.685 8        51.845                                                                    20751800.972 7  86158000.20507      1102.626 7        42.792
C39        38.000                                                                                                                                    39320663.122 6 204753092.75206     -1587.230 6        36.068                                                                    39320658.598 5 166378599.85605     -1289.491 5        31.517
C22        39.000                                                                                                                                    25570807.649 5 133153866.01005      1927.192 5        35.148                                                                    25570790.926 5 108198399.33005      1565.872 5        34.329
C06        41.000                                                                                                                                    38364883.341 6 199776099.43106     -1100.190 6        36.711    38364869.822 5 154479419.25105      -850.594 5        32.287    38364872.929 4                      -893.850 4        27.737
C29        43.000                                                                                                                                    24485022.565 6 127500003.27106     -4030.267 6        38.492                                                                    24485016.122 6 103604118.62806     -3275.303 6        37.365
C16        45.000                                                                                                                                    38872488.315 5                     -1193.711 5        31.358    38872498.436 6 156523555.67006      -922.856 6        40.200
C09        46.000                                                                                                                                    38551315.729 6 200746839.17006      -588.965 6        38.279    38551316.159 7 155230188.31807      -455.428 7        44.659    38551307.423 4                      -478.301 4        26.862
C44        48.000                                                                                                                                    24889561.722 5 129606593.84005      1180.746 5        33.287                                                                    24889558.548 5 105315873.62405       959.386 5        32.964
C37        49.000                                                                                                                                    25121818.396 4                       540.528 4        25.684                                                                    25121812.495 4                       439.780 4        28.986
C35        51.000                                                                                                                                    23062072.375 7 120090478.76807     -1358.536 7        47.687                                                                    23062071.592 7  97583235.18207     -1104.062 7        45.725
C20        55.000                                                                                                                                    22639542.290 7 117890051.24607     -2387.644 7        43.518                                                                    22639540.581 7  95795401.99007     -1940.296 7        47.008
C12        56.000                                                                                                                                    26943271.723 4                      2135.071 4        25.233    26943275.681 4 108489403.08404      1650.926 4        25.985
I09        59.000    37395327.752 4 146747322.25904      -844.768 4        27.665
> 2025 01 01 02 30 10.0000000  0 40
G02         1.000    23652200.836 5                     -4138.049 5        34.167
G31         4.000    22513278.900 7 118307963.86607     -2186.188 7        46.374                                    22513268.193 5  92187990.34505     -1703.518 5        34.829    22513273.421 5  92188117.34605     -1703.182 5        34.124
E34         6.000    25318682.154 7 133050573.86207      1317.129 7        47.517                                                                    25318680.547 7  99355995.95307       983.541 7        47.056    25318680.237 7 101947859.74507      1009.229 7        47.108
E04         7.000    25525447.943 6 134137117.65106     -3106.306 6        41.905                                                                    25525446.313 7 100167319.95407     -2319.641 7        42.337    25525444.483 7 102780380.47207     -2380.270 7        42.406
G03         8.000    20460470.431 7 107520718.13307     -2230.724 7        44.492                                    20460471.115 6  83782169.48906     -1738.223 6        40.036    20460469.884 6  83782229.50506     -1738.149 6        41.676
G09         9.000    21245541.459 7 111646058.69407      1555.076 7        47.577                                    21245536.916 6  86996937.49506      1211.746 6        41.449    21245536.732 6  86996928.50406      1211.763 6        38.438
R14        10.000    23682044.806 5 126238600.21505     -2736.890 5        33.551
G04        11.000    20189463.433 7 106096372.55107      -161.273 7        47.047                                    20189458.170 6  82672444.34806      -125.667 6        36.023    20189459.846 7  82672463.34607      -125.578 7        44.829
E09        12.000    23479374.949 7 123385048.45607      -815.276 7        46.961                                                                    23479373.882 7  92138178.44107      -608.786 7        44.746    23479373.806 7  94541759.94907      -624.683 7        46.037
E06        14.000    23862688.948 7 125399298.45707     -2065.045 7        46.509                                                                    23862687.715 7  93642332.01807     -1542.158 7        44.435    23862688.369 7  96085143.71707     -1582.314 7        46.377
E11        15.000    25830430.913 5 135739845.79105     -3613.006 5        30.000                                                                    25830428.481 5 101364167.42005     -2697.885 5        33.509    25830430.660 5                     -2768.365 5        32.000
G19        16.000    22527801.286 6 118384513.78006     -1976.610 6        36.873                                    22527796.167 1  92247565.31401     -1540.207 1        10.963
G28        17.000                                                                                                                                                                    24463881.634 4                     -2757.894 4        27.150
G06        19.000    22580504.919 7 118661456.69907      1883.258 7        46.244                                    22580503.489 7  92463368.10407      1467.474 7        43.168    22580504.136 7  92463441.11207      1467.433 7        42.993
E36        20.000    23526244.420 8 123631385.22308     -1413.954 8        48.664                                                                    23526244.224 8  92322019.76508     -1055.883 8        49.454    23526242.602 7  94730451.31107     -1083.390 7        46.128
E05        21.000    24057035.338 5 126420569.07805      1579.768 5        34.871                                                                    24057028.857 4  94405016.89904      1179.694 4        26.527    24057033.336 5  96867744.07705      1210.380 5        35.981
G17        22.000    23466362.993 6 123316581.99906     -3232.146 6        37.841
R07        23.000                                                                                                                                    21566758.098 6  89793297.70806      1510.222 6        40.875
S23        24.000    38212005.999 6 200805365.07806      -826.193 6        40.532
S36        25.000    38265610.017 5 201087086.19805      -830.439 5        35.195
R20        27.000                                                                                                                                    23373452.037 3                     -4240.319 3        19.552
R15        28.000    22516257.105 6 120320176.92416       549.269 6        38.396                                                                    22516258.506 3                       425.840 3        18.627
R06        29.000    19473209.343 6 103912795.12406      -760.344 6        38.601
C05        32.000                                                                                                                                                                                                    39192481.927 6 157811883.61906      -654.113 6        36.900
C19        33.000                                                                                                                                    22275113.258 5 115992494.78105       164.641 5        30.151                                                                    22275111.997 7  94253284.99907       134.253 7        47.670
R21        34.000    20016992.880 8 107115076.36508     -3178.656 8        48.962                                                                    20016989.909 7  83311628.13307     -2472.227 7        42.988
R05        36.000    22255255.652 5 118967141.72805     -4194.586 5        35.643                                                                    22255272.737 5  92529954.98505     -3262.159 5        32.024
R22        37.000    20750478.266 8 110767443.11408      1413.424 8        51.916                                                                    20750475.212 7  86152495.55107      1099.351 7        44.179
C39        38.000                                                                                                                                    39322185.136 5 204761031.42805     -1588.360 5        35.595                                                                    39322183.171 5 166385050.67205     -1290.578 5        31.562
C22        39.000                                                                                                                                    25568958.358 5 133144233.06705      1926.299 5        32.982                                                                    25568941.202 5 108190571.79205      1565.429 5        35.024
C06        41.000                                                                                                                                    38365941.372 6 199781603.61506     -1101.178 6        36.858    38365927.785 5 154483675.45305      -851.633 5        31.872    38365930.092 4                      -895.108 4        28.095
C29        43.000                                                                                                                                    24488892.592 6 127520158.85006     -4031.640 6        38.039                                                                    24488886.618 6 103620496.69806     -3275.989 6        37.664
C16        45.000                                                                                                                                    38873634.222 5                     -1194.613 5        30.664    38873642.970 6 156528172.72606      -923.780 6        39.889
C09        46.000                                                                                                                                    38551882.106 6 200749787.69406      -590.272 6        37.588    38551882.292 7 155232468.31207      -456.348 7        44.618    38551873.521 4                      -479.703 4        27.365
C44        48.000                                                                                                                                    24888427.947 5 129600696.62705      1178.124 5        34.648                                                                    24888425.350 5 105311081.75205       957.028 5        33.030
C37        49.000                                                                                                                                    25121295.096 4                       538.358 4        26.862                                                                    25121300.115 4                       437.260 4        28.957
C35        51.000                                                                                                                                    23063377.192 7 120097279.87107     -1361.781 7        47.525                                                                    23063377.926 7  97588761.64507     -1106.442 7        46.084
C20        55.000                                                                                                                                    22641837.127 6 117901993.98206     -2389.271 6        41.402                                                                    22641834.028 7  95805106.42607     -1941.404 7        46.834
C12        56.000                                                                                                                                    26941224.744 4                      2133.917 4        28.028    26941224.272 3                      1649.696 3        22.019
I09        59.000    37396403.919 4 146751547.01204      -845.185 4        27.545
> 2025 01 01 02 30 15.0000000  0 38
G02         1.000    23656143.247 5 124313848.95615     -4139.753 5        34.810
G31         4.000    22515360.622 7 118318902.26107     -2189.564 7        46.789                                    22515349.917 5  92196513.77505     -1706.159 5        35.424    22515355.193 5  92196640.77405     -1706.075 5        33.018
E34         6.000    25317429.134 7 133043990.96407      1315.773 7        47.973                                                                    25317427.931 7  99351080.15107       982.520 7        47.467    25317427.741 7 101942815.70607      1008.259 7        47.060
E04         7.000    25528403.152 6 134152650.69406     -3107.098 6        41.092                                                                    25528402.197 7 100178919.30707     -2320.312 7        42.739    25528400.338 7 102792282.40307     -2380.735 7        42.258
G03         8.000    20462593.910 7 107531875.57907     -2232.595 7        45.193                                    20462594.603 6  83790863.60706     -1739.684 6        39.949    20462593.264 6  83790923.62406     -1739.592 6        41.554
G09         9.000    21244062.308 7 111638287.99007      1552.968 7        47.444                                    21244057.739 6  86990882.40206      1210.106 6        41.876    21244058.454 6  86990873.40406      1210.162 6        39.468
R14        10.000    23684609.792 4                     -2740.161 4        29.687                                                                    23684622.107 4                     -2132.877 4        24.872
G04        11.000    20189618.036 7 106097184.58507      -163.846 7        46.565                                    20189612.741 5  82673077.10505      -127.670 5        35.981    20189615.076 7  82673096.12607      -127.805 7        45.273
E09        12.000    23480151.098 7 123389128.51107      -817.031 7        47.152                                                                    23480150.414 7  92141225.23707      -610.161 7        44.983    23480150.301 7  94544886.22407      -626.017 7        45.821
E06        14.000    23864654.378 7 125409626.83807     -2066.552 7        46.317                                                                    23864653.200 7  93650044.77307     -1543.280 7        44.823    23864653.710 7  96093057.67107     -1583.434 7        46.012
E11        15.000    25833869.534 4 135757913.22804     -3614.296 4        27.186                                                                    25833867.448 5 101377659.32505     -2698.701 5        34.233    25833869.709 5                     -2769.120 5        32.641
G19        16.000    22529683.131 6 118394403.85506     -1979.822 6        37.871                                    22529678.144 1  92255271.87501     -1542.799 1         9.714
G28        17.000    24467288.077 4                     -3541.279 4        27.916                                                                                                    24467248.747 4                     -2759.118 4        29.280
G06        19.000    22578713.797 7 118652044.73207      1881.364 7        44.685                                    22578712.086 7  92456034.10807      1465.996 7        42.986    22578712.539 7  92456107.11507      1465.960 7        42.514
E36        20.000    23527590.628 8 123638459.43108     -1416.126 8        48.338                                                                    23527590.355 8  92327302.45008     -1057.425 8        49.358    23527588.844 7  94735871.80407     -1085.037 7        45.970
E05        21.000    24055532.374 5 126412672.08105      1578.717 5        34.290                                                                    24055528.527 4  94399119.83904      1178.796 4        28.559    24055532.007 5  96861693.16405      1209.576 5        35.671
G17        22.000    23469436.403 6 123332746.75806     -3233.875 6        37.531                                                                                                    23469438.242 4                     -2519.464 4        24.526
R07        23.000    21564947.551 5                      1940.862 5        34.424                                                                    21564944.455 6  89785748.78706      1509.146 6        40.415
S23        24.000    38212791.001 6 200809495.72406      -826.310 6        40.617
S36        25.000    38266395.703 5 201091237.26905      -830.416 5        35.362
R06        29.000    19473924.580 6 103916602.70806      -762.963 6        39.003
C05        32.000                                                                                                                                                                                                    39193292.127 6 157815153.57606      -654.016 6        36.586
C19        33.000                                                                                                                                    22274954.113 4 115991672.30004       163.673 4        29.460                                                                    22274953.978 7  94252616.63207       133.102 7        47.516
R21        34.000    20019963.744 8 107130978.99408     -3182.674 8        48.624                                                                    20019961.832 7  83323996.86607     -2475.465 7        44.160
R05        36.000    22259180.439 6 118988113.71406     -4195.002 6        36.314
R22        37.000    20749156.385 8 110760384.41208      1409.690 8        52.005                                                                    20749152.839 7  86147005.47907      1096.433 7        45.509
C39        38.000                                                                                                                                    39323709.782 6 204768973.22706     -1588.825 6        36.930                                                                    39323708.396 5 166391503.99605     -1290.508 5        31.238
C22        39.000                                                                                                                                    25567113.630 5 133134602.53905      1925.907 5        31.094                                                                    25567091.962 5 108182746.28205      1564.813 5        34.886
C06        41.000                                                                                                                                    38367001.271 6 199787111.78406     -1102.198 6        36.253    38366984.219 5 154487934.73005      -852.525 5        30.113    38366989.826 5                      -895.397 5        30.000
C29        43.000                                                                                                                                    24492762.829 6 127540318.97406     -4032.756 6        37.229                                                                    24492758.266 6 103636878.40306     -3276.726 6        37.905
C16        45.000                                                                                                                                    38874783.429 5                     -1195.088 5        31.042    38874787.858 6 156532792.63006      -924.342 6        40.050
C09        46.000                                                                                                                                    38552448.906 6 200752740.22706      -591.124 6        36.771    38552449.397 7 155234751.38807      -457.007 7        44.816    38552441.055 4                      -480.040 4        26.359
C44        48.000                                                                                                                                    24887299.533 6 129594810.50706      1175.885 6        37.622                                                                    24887295.552 5 105306298.74905       955.721 5        33.862
C37        49.000                                                                                                                                    25120781.467 5                       536.301 5        30.219                                                                    25120784.452 4                       436.233 4        27.102
C35        51.000                                                                                                                                    23064685.587 7 120104095.22607     -1364.632 7        47.221                                                                    23064686.747 7  97594299.66707     -1108.736 7        46.347
C20        55.000                                                                                                                                    22644132.980 6 117913942.57606     -2390.474 6        41.297                                                                    22644128.684 7  95814815.62107     -1942.310 7        46.844
C12        56.000                                                                                                                                    26939180.707 4                      2132.800 4        29.289
I09        59.000    37397482.381 4 146755772.39904      -844.875 4        26.299
> 2025 01 01 02 30 20.0000000  0 39
G02         1.000    23660083.578 6 124334549.52006     -4140.635 6        36.405
G31         4.000    22517445.665 7 118329857.27807     -2192.631 7        47.188                                    22517434.856 6  92205050.15106     -1708.549 6        36.212    22517438.437 5  92205177.12005     -1708.495 5        31.464
E34         6.000    25316177.644 8 133037414.42108      1314.723 8        48.590                                                                    25316176.320 7  99346169.09707       981.775 7        47.363    25316176.296 7 101937776.54207      1007.379 7        47.230
E04         7.000    25531359.287 6 134168187.56006     -3107.792 6        40.489                                                                    25531358.997 7 100190521.50907     -2320.709 7        43.109    25531357.103 7 102804187.27407     -2381.264 7        42.912
G03         8.000    20464719.077 7 107543042.08607     -2234.122 7        44.975                                    20464719.813 6  83799564.78706     -1740.874 6        39.652    20464718.061 6  83799624.80906     -1741.031 6        41.333
G09         9.000    21242585.674 7 111630527.07507      1551.169 7        47.969                                    21242580.512 7  86984834.94607      1208.701 7        42.106    21242581.727 6  86984825.94706      1208.763 6        38.685
R14        10.000    23687184.438 4 126266002.16214     -2744.000 4        28.483                                                                    23687197.024 4                     -2134.154 4        28.237
G04        11.000    20189775.060 7 106098009.57407      -166.339 7        46.294                                    20189769.873 5  82673719.95505      -129.615 5        35.981    20189772.094 7  82673738.96507      -129.575 7        45.937
E09        12.000    23480929.093 7 123393217.31607      -818.626 7        46.968                                                                    23480928.565 7  92144278.55507      -611.335 7        45.002    23480928.559 7  94548019.20507      -627.274 7        45.846
E06        14.000    23866621.248 7 125419962.38907     -2067.817 7        46.251                                                                    23866619.903 7  93657762.87507     -1544.106 7        44.420    23866620.391 7  96100977.10507     -1584.411 7        45.801
E11        15.000    25837308.959 4 135775985.78804     -3615.311 4        26.000                                                                    25837307.380 5 101391155.10905     -2699.318 5        34.205    25837307.819 5                     -2769.855 5        31.706
G19        16.000    22531567.549 6 118404309.79306     -1982.678 6        38.444                                    22531563.071 1  92262990.74001     -1544.920 1        10.593
G28        17.000    24470651.162 4                     -3542.772 4        26.072                                                                                                    24470614.873 4                     -2760.899 4        28.256
G06        19.000    22576924.610 7 118642642.03207      1879.589 7        43.706                                    22576922.417 7  92448707.33607      1464.614 7        42.760    22576923.494 6  92448780.33806      1464.620 6        41.897
E36        20.000    23528938.743 8 123645544.21608     -1417.992 8        48.039                                                                    23528938.435 8  92332593.03708     -1058.887 8        49.158    23528936.969 7  94741300.40707     -1086.516 7        45.889
E05        21.000    24054030.860 5 126404780.35805      1577.878 5        34.233                                                                    24054026.000 4  94393226.66004      1178.251 4        28.066    24054032.386 6  96855646.25406      1209.113 6        37.694
G17        22.000    23472508.523 5 123348919.37205     -3235.107 5        34.095                                    23472512.858 1  96116020.85111     -2520.807 1        10.148
R07        23.000    21563139.246 6 115429154.09116      1938.674 6        37.437                                                                    21563131.415 6  89778205.88006      1508.063 6        38.243
S23        24.000    38213575.042 6 200813626.04406      -826.005 6        40.286
S36        25.000    38267185.812 5 201095388.93705      -830.446 5        34.810
R15        28.000    22515255.981 5 120314721.04305       541.555 5        33.024
R06        29.000    19474640.116 6 103920422.34806      -765.120 6        39.144
C05        32.000                                                                                                                                                                                                    39194102.832 6 157818423.37006      -654.070 6        36.242
C19        33.000                                                                                                                                    22274797.557 5 115990856.83005       162.327 5        30.400                                                                    22274797.354 7  94251954.03207       131.784 7        47.340
R21        34.000    20022938.747 7 107146901.27707     -3186.393 7        46.882                                                                    20022936.890 7  83336380.87207     -2478.384 7        44.763
R05        36.000    22263105.791 6 119009087.67606     -4194.961 6        36.726                                                                    22263097.028 5  92562579.67005     -3262.824 5        32.581
R22        37.000    20747837.806 8 110753344.02708      1406.266 8        52.004                                                                    20747833.845 7  86141529.60707      1093.791 7        45.904
C39        38.000                                                                                                                                    39325239.327 5 204776917.69405     -1589.291 5        35.957                                                                    39325233.075 5 166397959.62405     -1291.989 5        31.072
C22        39.000                                                                                                                                    25565271.078 5 133124974.07205      1925.334 5        32.647                                                                    25565243.646 5 108174922.48305      1564.734 5        35.152
C06        41.000                                                                                                                                    38368061.245 5 199792623.49105     -1102.721 5        35.886    38368042.505 4 154492196.68504      -852.787 4        29.469    38368048.125 4                      -895.749 4        28.474
C29        43.000                                                                                                                                    24496636.525 6 127560483.15406     -4033.206 6        38.477                                                                    24496630.810 6 103653263.51006     -3277.533 6        38.363
C16        45.000                                                                                                                                    38875931.214 5                     -1195.956 5        31.245    38875933.604 6 156537415.09106      -924.739 6        39.730
C09        46.000                                                                                                                                    38553016.121 5 200755696.45405      -591.746 5        35.776    38553016.979 7 155237037.31607      -457.363 7        44.284    38553008.285 4                      -480.766 4        26.635
C44        48.000                                                                                                                                    24886171.888 6 129588935.01606      1173.856 6        39.147                                                                    24886167.344 5 105301524.45105       953.788 5        34.429
C37        49.000                                                                                                                                    25120272.386 4                       533.918 4        28.692                                                                    25120267.814 4                       433.714 4        27.090
C35        51.000                                                                                                                                    23065996.712 7 120110924.41007     -1367.244 7        46.986                                                                    23065998.132 7  97599848.95907     -1111.156 7        46.588
C20        55.000                                                                                                                                    22646430.294 6 117925896.62006     -2391.345 6        41.685                                                                    22646424.321 7  95824529.29707     -1943.302 7        46.888
C12        56.000                                                                                                                                    26937135.239 4                      2131.220 4        28.938
I09        59.000    37398558.928 4 146759998.26004      -845.369 4        26.168
> 2025 01 01 02 30 25.0000000  0 38
G02         1.000    23664024.002 6 124355255.34606     -4141.663 6        37.977
G31         4.000    22519533.531 7 118340829.49007     -2196.150 7        47.674                                    22519523.014 6  92213599.93206     -1711.288 6        36.563    22519526.596 5  92213726.90705     -1711.413 5        30.506
E34         6.000    25314927.399 8 133030844.80108      1313.202 8        49.205                                                                    25314926.067 7  99341263.22107       980.655 7        47.800    25314926.227 7 101932742.67907      1006.291 7        47.519
E04         7.000    25534316.911 6 134183728.82406     -3108.773 6        40.768                                                                    25534316.377 7 100202126.97907     -2321.444 7        43.122    25534314.377 7 102816095.50007     -2381.962 7        43.175
G03         8.000    20466845.415 7 107554218.24207     -2236.056 7        45.643                                    20466846.817 6  83808273.48906     -1742.385 6        39.405    20466845.410 6  83808333.50906     -1742.385 6        41.106
G09         9.000    21241111.429 7 111622776.51307      1548.997 7        47.922                                    21241105.203 6  86978795.56106      1207.006 6        41.712    21241107.076 6  86978786.56306      1207.176 6        37.497
R14        10.000    23689763.681 4 126279731.17714     -2747.448 4        28.863
G04        11.000    20189934.311 7 106098848.07507      -169.128 7        46.222                                    20189929.573 5  82674373.33405      -131.785 5        35.886    20189931.841 7  82674392.33407      -131.730 7        46.561
E09        12.000    23481709.219 7 123397315.43807      -820.506 7        46.770                                                                    23481708.340 7  92147338.83407      -612.692 7        44.638    23481708.540 7  94551159.31707      -628.695 7        46.079
E06        14.000    23868589.508 7 125430305.67507     -2069.379 7        46.328                                                                    23868588.033 7  93665486.74907     -1545.286 7        44.060    23868588.628 7  96108902.48207     -1585.631 7        45.782
E11        15.000    25840746.627 4 135794064.17604     -3616.320 4        24.286                                                                    25840748.001 5 101404655.14205     -2700.200 5        34.638    25840747.552 5                     -2770.946 5        32.144
G19        16.000    22533455.729 6 118414232.13506     -1986.058 6        37.834                                    22533451.174 2  92270722.41102     -1547.559 2        12.121
G28        17.000    24474015.226 3                     -3544.278 3        23.162
G06        19.000    22575137.917 7 118633249.15007      1877.582 7        43.291                                    22575134.712 7  92441388.21307      1463.052 7        42.527    22575136.577 6  92441461.22206      1462.982 6        41.433
E36        20.000    23530289.165 8 123652640.14208     -1420.322 8        48.138                                                                    23530288.670 8  92337891.93908     -1060.605 8        49.293    23530287.415 7  94746737.54607     -1088.284 7        46.047
E05        21.000    24052530.242 5 126396894.43705      1576.468 5        35.276                                                                    24052527.539 4  94387337.83804      1176.996 4        28.161    24052533.064 6  96849603.82106      1207.860 6        38.276
G17        22.000    23475579.884 5 123365100.45305     -3237.108 5        31.230                                    23475590.993 1  96128629.47101     -2522.387 1         8.476    23475584.165 3                     -2522.454 3        20.048
R07        23.000    21561330.227 6 115419464.42306      1937.002 6        41.249                                                                    21561319.261 5  89770669.42505      1506.603 5        34.895
S23        24.000    38214362.226 6 200817756.90006      -826.321 6        40.429
S36        25.000    38267977.982 5 201099540.51105      -830.447 5        35.281
R06        29.000    19475357.170 6 103924254.60006      -767.602 6        39.192
C05        32.000                                                                                                                                                                                                    39194915.053 6 157821693.42306      -654.048 6        36.110
C19        33.000                                                                                                                                    22274642.830 5 115990048.99805       160.642 5        33.545                                                                    22274642.130 7  94251297.58507       130.605 7        47.487
R21        34.000    20025918.583 7 107162843.91307     -3190.610 7        45.237                                                                    20025915.977 7  83348780.69007     -2481.583 7        44.313
R05        36.000    22267025.987 5 119030064.30005     -4195.549 5        34.952                                                                    22267021.426 5  92578894.83405     -3263.271 5        32.725
R22        37.000    20746522.276 8 110746322.54808      1402.454 8        51.607                                                                    20746518.354 7  86136068.45607      1090.853 7        45.920
C39        38.000                                                                                                                                    39326771.766 5 204784865.47905     -1589.974 5        35.690                                                                    39326758.949 5 166404417.80105     -1291.722 5        30.415
C22        39.000                                                                                                                                    25563427.324 5 133115348.29605      1924.764 5        32.108                                                                    25563395.316 5 108167100.90005      1563.910 5        35.205
C06        41.000                                                                                                                                    38369122.337 5 199798139.29505     -1103.572 5        35.771    38369098.827 4 154496461.88004      -853.454 4        29.128    38369107.676 4                      -896.801 4        28.379
C29        43.000                                                                                                                                    24500511.318 6 127580652.03606     -4034.162 6        38.009                                                                    24500504.331 6 103669652.34606     -3278.117 6        38.892
C16        45.000                                                                                                                                    38877077.393 5                     -1196.666 5        31.894    38877081.031 6 156542040.54706      -925.418 6        39.186
C09        46.000                                                                                                                                    38553584.793 6 200758656.88206      -592.458 6        36.888    38553585.025 7 155239326.52407      -458.118 7        44.179    38553577.657 4                      -481.172 4        26.934
C44        48.000                                                                                                                                    24885045.922 6 129583070.69806      1171.766 6        40.710                                                                    24885040.727 5 105296759.22405       951.986 5        34.319
C37        49.000                                                                                                                                    25119767.420 4                       532.142 4        27.042                                                                    25119752.942 4                       432.049 4        28.474
C35        51.000                                                                                                                                    23067310.851 7 120117767.99907     -1370.214 7        46.955                                                                    23067312.232 7  97605409.91507     -1113.305 7        46.697
C20        55.000                                                                                                                                    22648729.414 7 117937856.74007     -2392.562 7        43.357                                                                    22648721.156 7  95834247.86607     -1944.307 7        46.915
C12        56.000                                                                                                                                    26935089.937 5                      2130.151 5        31.185
I09        59.000    37399635.114 4 146764224.88104      -845.559 4        25.985
> 2025 01 01 02 30 30.0000000  0 39
G02         1.000    23667965.330 6 124375966.32506     -4142.721 6        38.363
G31         4.000    22521624.492 8 118351818.79408     -2199.494 8        48.402                                    22521614.356 6  92222163.02806     -1713.891 6        36.609    22521617.723 5  92222290.00105     -1714.137 5        31.472
E34         6.000    25313678.385 8 133024282.01208      1311.949 8        49.250                                                                    25313677.221 8  99336362.43708       979.736 8        48.029    25313677.345 7 101927714.06107      1005.274 7        47.523
E04         7.000    25537275.604 6 134199274.32906     -3109.432 6        40.465                                                                    25537274.513 7 100213735.63307     -2322.000 7        43.699    25537272.651 7 102828006.99507     -2382.506 7        43.198
G03         8.000    20468974.173 7 107565403.95007     -2237.939 7        45.753                                    20468975.573 6  83816989.63106     -1743.849 6        38.871    20468973.790 6  83817049.65506     -1743.898 6        39.784
G09         9.000    21239638.262 7 111615036.21907      1547.120 7        47.631                                    21239631.844 6  86972764.18206      1205.544 6        41.411    21239634.517 6  86972755.16006      1205.427 6        36.624
R14        10.000                                                                                                                                    23692372.015 5                     -2139.852 5        30.083
G04        11.000    20190096.358 7 106099699.96607      -171.665 7        46.163                                    20190091.848 5  82675037.14805      -133.765 5        35.943    20190094.139 7  82675056.15307      -133.725 7        47.236
E09        12.000    23482490.907 7 123401422.78907      -822.314 7        46.536                                                                    23482489.945 7  92150406.00307      -614.044 7        44.536    23482490.281 7  94554306.50307      -630.068 7        46.331
E06        14.000    23870559.265 7 125440656.58207     -2070.853 7        46.866                                                                    23870557.665 7  93673216.32707     -1546.386 7        43.926    23870558.265 7  96116833.69507     -1586.668 7        45.795
E11        15.000    25844189.296 4 135812148.04804     -3617.228 4        26.359                                                                    25844190.064 5 101418159.34905     -2701.152 5        34.571    25844187.706 5                     -2771.429 5        32.000
G19        16.000    22535345.719 6 118424170.83306     -1989.316 6        37.561                                    22535342.370 2  92278466.85302     -1550.134 2        13.394
G28        17.000                                                                                                                                                                    24477335.458 3                     -2763.669 3        23.657
G06        19.000    22573353.299 7 118623866.02707      1875.755 7        42.823                                    22573348.933 7  92434076.69307      1461.632 7        42.241    22573351.343 7  92434149.68407      1461.597 7        42.237
E36        20.000    23531641.828 8 123659747.11508     -1422.445 8        48.175                                                                    23531641.011 8  92343199.09008     -1062.177 8        49.389    23531639.871 7  94752183.15107     -1089.887 7        46.072
E05        21.000    24051031.190 5 126389014.22105      1575.673 5        35.333                                                                    24051028.003 4  94381453.27404      1176.781 4        29.270    24051033.925 6  96843565.72806      1207.257 6        38.685
G17        22.000    23478649.428 5 123381289.82705     -3238.781 5        33.066                                    23478670.587 1  96141244.48201     -2523.494 1         5.143
R07        23.000    21559522.276 7 115409782.87107      1935.675 7        43.477                                                                    21559511.988 5  89763139.37005      1505.263 5        34.529
S23        24.000    38215148.677 6 200821887.76406      -826.137 6        40.358
S36        25.000    38268772.934 6 201103691.70406      -830.405 6        36.318
R15        28.000                                                                                                                                    22514215.458 4                       415.126 4        26.192
R06        29.000    19476078.593 6 103928099.36906      -770.150 6        38.667
C05        32.000                                                                                                                                                                                                    39195728.330 5 157824963.65305      -653.840 5        35.790
C19        33.000                                                                                                                                    22274490.737 6 115989248.65006       159.360 6        36.843                                                                    22274488.301 7  94250647.24907       129.582 7        47.511
R21        34.000    20028902.557 7 107178806.67007     -3194.449 7        45.305                                                                    20028899.377 7  83361196.18307     -2484.653 7        43.564
R05        36.000    22270942.255 5 119051043.25405     -4196.373 5        35.200                                                                    22270947.355 5  92595211.85305     -3263.675 5        34.014
R22        37.000    20745210.179 8 110739319.87008      1398.739 8        50.447                                                                    20745206.638 7  86130621.91707      1087.928 7        45.568
C39        38.000                                                                                                                                                                                                                                                                    39328286.436 5 166410878.63005     -1292.077 5        30.038
C22        39.000                                                                                                                                                                                                                                                                    25561547.630 5 108159281.39005      1563.902 5        34.767
C06        41.000                                                                                                                                    38370185.064 5 199803659.09805     -1104.348 5        35.376    38370159.711 4 154500730.10704      -853.741 4        27.772    38370166.923 4                      -897.401 4        28.256
C29        43.000                                                                                                                                    24504384.632 6 127600825.46406     -4035.151 6        37.758                                                                    24504378.529 6 103686044.89006     -3278.680 6        39.075
C16        45.000                                                                                                                                    38878226.963 5                     -1197.593 5        31.819    38878230.189 6 156546668.91206      -925.927 6        38.886
C09        46.000                                                                                                                                    38554154.889 6 200761621.42806      -593.170 6        37.335    38554154.387 7 155241618.90707      -458.813 7        44.096    38554146.080 4                      -482.165 4        26.635
C44        48.000                                                                                                                                    24883920.908 7 129577217.51607      1169.505 7        42.444                                                                    24883916.745 5 105292003.03405       950.435 5        34.629
C37        49.000                                                                                                                                    25119259.573 4                       529.440 4        27.281                                                                    25119244.353 4                       430.237 4        28.976
C35        51.000                                                                                                                                    23068628.161 7 120124625.85607     -1372.941 7        47.611                                                                    23068629.093 7  97610982.47607     -1115.579 7        46.734
C20        55.000                                                                                                                                    22651028.376 7 117949822.76007     -2393.710 7        45.302                                                                    22651019.388 7  95843971.26007     -1945.107 7        46.913
C12        56.000                                                                                                                                    26933047.389 5                      2129.065 5        31.691
I09        59.000    37400714.885 4 146768452.28404      -844.860 4        26.635
> 2025 01 01 02 30 35.0000000  0 39
G02         1.000    23671907.560 6 124396682.00206     -4143.378 6        38.306
G31         4.000    22523718.850 8 118362824.71908     -2202.706 8        48.854                                    22523708.703 6  92230739.07306     -1716.392 6        36.310    22523712.428 5  92230866.03605     -1716.237 5        32.365
E34         6.000    25312430.505 8 133017725.58008      1310.806 8        49.389                                                                    25312429.735 8  99331466.40408       978.866 8        48.188    25312429.613 7 101922690.30207      1004.337 7        47.646
E04         7.000    25540234.447 6 134214823.62606     -3110.056 6        40.076                                                                    25540233.444 7 100225347.12507     -2322.488 7        43.748    25540231.497 7 102839921.39507     -2383.063 7        43.143
G03         8.000    20471104.209 7 107576598.71507     -2239.719 7        45.034                                    20471105.769 6  83825712.83106     -1745.234 6        37.777    20471102.020 6  83825772.84506     -1745.336 6        38.084
G09         9.000    21238166.951 7 111607305.70007      1545.350 7        47.022                                    21238160.523 6  86966740.41506      1204.164 6        41.414    21238164.329 6  86966731.39606      1204.142 6        36.896
R14        10.000                                                                                                                                    23694952.284 5                     -2142.736 5        31.819
G04        11.000    20190261.474 7 106100564.78807      -174.106 7        46.111                                    20190256.654 6  82675711.03206      -135.675 6        36.200    20190258.200 7  82675730.04107      -135.661 7        47.574
E09        12.000    23483274.246 7 123405538.84307      -823.898 7        46.299                                                                    23483273.072 7  92153479.68207      -615.300 7        44.302    23483273.724 7  94557460.37107      -631.338 7        46.760
E06        14.000    23872530.299 7 125451014.65507     -2072.240 7        46.744                                                                    23872528.784 7  93680951.24207     -1547.495 7        43.545    23872529.260 7  96124770.39507     -1587.866 7        45.890
E11        15.000    25847633.415 4 135830237.10604     -3618.361 4        26.958                                                                    25847632.867 5 101431667.43205     -2701.869 5        34.776    25847629.106 5                     -2772.395 5        32.461
G19        16.000    22537240.470 6 118434125.29206     -1992.302 6        40.179                                    22537236.787 2  92286223.53002     -1552.454 2        15.762
G28        17.000                                                                                                                                                                    24480715.401 3                     -2765.821 3        22.114
G06        19.000    22571569.175 7 118614492.16107      1874.017 7        43.528                                    22571565.029 7  92426772.38007      1460.276 7        42.129    22571567.780 7  92426845.37907      1460.303 7        42.591
E36        20.000    23532996.326 8 123666864.64508     -1424.327 8        48.560                                                                    23532995.466 8  92348514.12608     -1063.680 8        49.152    23532994.518 7  94757636.84707     -1091.445 7        46.158
E05        21.000    24049532.639 5 126381139.22605      1574.637 5        35.010                                                                    24049529.319 4  94375572.65804      1175.374 4        27.760    24049535.889 6  96837531.66006      1206.621 6        40.169
G17        22.000    23481729.817 5 123397487.02505     -3240.439 5        33.665                                    23481752.398 1  96153865.66201     -2524.970 1         3.400
R07        23.000    21557715.895 7 115400109.08407      1934.125 7        44.617                                                                    21557711.157 6  89755615.30806      1504.367 6        36.582
S23        24.000    38215934.677 6 200826018.24906      -825.961 6        40.794
S36        25.000    38269566.406 6 201107842.98606      -830.025 6        36.730
R15        28.000                                                                                                                                    22513718.736 4                       412.180 4        26.874
R06        29.000    19476801.873 6 103931956.18006      -772.474 6        39.913
C05        32.000                                                                                                                                                                                                    39196539.813 5 157828233.66205      -653.748 5        35.419
C19        33.000                                                                                                                                    22274339.002 6 115988455.36106       157.989 6        37.648                                                                    22274335.854 7  94250002.65907       128.359 7        47.409
R21        34.000    20031889.196 7 107194789.07207     -3198.273 7        45.273                                                                    20031886.064 7  83373626.92807     -2487.584 7        42.792
R05        36.000    22274866.007 6 119072024.31106     -4196.162 6        36.907                                                                    22274875.129 5  92611530.52505     -3263.869 5        34.062
R22        37.000    20743900.781 8 110732335.54208      1395.130 8        49.490                                                                    20743898.231 7  86125189.65207      1085.155 7        44.966
C39        38.000                                                                                                                                    39329844.453 6 204800770.17906     -1590.826 6        36.510                                                                    39329814.791 5 166417341.65805     -1293.009 5        30.309
C22        39.000                                                                                                                                                                                                                                                                    25559700.186 5 108151463.63605      1563.564 5        35.010
C06        41.000                                                                                                                                    38371246.279 5 199809182.41305     -1104.869 5        35.276    38371216.811 4 154505001.11904      -854.457 4        27.796    38371227.834 4                      -897.845 4        27.281
C29        43.000                                                                                                                                    24508256.857 6 127621002.94106     -4035.604 6        36.333                                                                    24508253.642 6 103702440.75606     -3279.502 6        39.429
C16        45.000                                                                                                                                    38879375.723 5                     -1198.016 5        31.517    38879381.524 6 156551299.81906      -926.268 6        39.171
C09        46.000                                                                                                                                    38554725.726 6 200764589.64006      -593.819 6        36.673    38554724.553 7 155243914.12707      -459.235 7        44.144    38554715.819 4                      -482.903 4        26.287
C44        48.000                                                                                                                                    24882798.839 7 129571374.90807      1167.602 7        43.926                                                                    24882794.890 5 105287255.48605       948.526 5        35.143
C37        49.000                                                                                                                                                                                                                                                                    25118739.547 4                       428.439 4        29.393
C35        51.000                                                                                                                                    23069948.419 8 120131497.55008     -1375.612 8        48.301                                                                    23069948.618 7  97616566.30407     -1117.811 7        46.970
C20        55.000                                                                                                                                    22653325.103 7 117961794.28007     -2394.706 7        47.036                                                                    22653318.658 7  95853699.11107     -1945.924 7        47.394
C12        56.000                                                                                                                                    26931007.386 5                      2127.969 5        32.281
I09        59.000    37401792.464 4 146772680.06504      -845.603 4        26.204
> 2025 01 01 02 30 40.0000000  0 40
G02         1.000    23675848.999 6 124417402.76306     -4144.719 6        38.688
G31         4.000    22525816.509 8 118373847.59908     -2206.426 8        48.701                                    22525806.127 5  92239328.33105     -1719.295 5        35.395    22525812.758 5  92239455.32105     -1719.319 5        34.619
E34         6.000    25311183.916 8 133011175.93608      1309.082 8        49.124                                                                    25311183.350 8  99326575.43708       977.568 8        48.301    25311183.143 7 101917671.74607      1003.026 7        47.859
E04         7.000    25543194.264 6 134230377.09106     -3111.294 6        38.769                                                                    25543193.283 7 100236961.72807     -2323.344 7        44.021    25543191.379 7 102851838.99007     -2384.004 7        43.414
G03         8.000    20473236.409 7 107587802.95607     -2241.957 7        44.819                                    20473237.539 6  83834443.40806     -1746.980 6        36.420    20473233.632 6  83834503.42306     -1747.003 6        36.896
G09         9.000    21236698.034 7 111599585.38307      1542.825 7        46.588                                    21236691.345 6  86960724.60106      1202.202 6        41.545    21236695.960 6  86960715.57806      1202.288 6        38.465
R14        10.000    23697514.278 4                     -2757.500 4        25.654                                                                    23697533.591 5                     -2145.768 5        31.389
G04        11.000    20190428.247 7 106101442.94607      -177.093 7        46.355                                    20190424.067 6  82676395.31406      -137.998 6        36.374    20190425.382 7  82676414.32907      -138.018 7        47.505
E09        12.000    23484059.352 7 123409664.03607      -826.163 7        46.075                                                                    23484058.034 7  92156560.17507      -616.826 7        44.143    23484058.930 7  94560621.22707      -633.020 7        46.991
E06        14.000    23874502.969 7 125461380.23407     -2074.009 7        47.016                                                                    23874501.495 7  93688691.77507     -1548.817 7        43.681    23874501.631 7  96132712.84907     -1589.169 7        45.937
E11        15.000    25851077.438 4 135848331.70904     -3619.893 4        28.199                                                                    25851076.412 5 101445179.63805     -2703.034 5        34.024    25851071.375 5                     -2773.381 5        31.253
G19        16.000    22539139.573 6 118444095.93606     -1995.856 6        41.778                                    22539134.427 2  92293992.85702     -1555.213 2        17.509
G28        17.000    24484160.336 4                     -3551.891 4        26.707
G06        19.000    22569786.854 7 118605128.01107      1871.694 7        44.430                                    22569783.087 7  92419475.64607      1458.463 7        42.220    22569785.771 7  92419548.66007      1458.426 7        43.179
E36        20.000    23534352.853 8 123673993.15608     -1426.991 8        48.660                                                                    23534351.957 8  92353837.35308     -1065.592 8        49.051    23534351.244 7  94763098.94407     -1093.319 7        46.440
E05        21.000    24048035.611 6 126373269.92306      1573.113 6        36.480                                                                    24048031.792 4  94369696.17704      1174.481 4        29.308    24048038.804 6  96831501.92406      1205.415 6        41.046
G17        22.000    23484818.618 5 123413692.38305     -3242.200 5        35.548                                    23484835.237 1  96166493.37101     -2526.491 1         1.111    23484809.002 4                     -2525.956 4        25.489
R07        23.000    21555910.479 7 115390443.29607      1932.106 7        44.254                                                                    21555912.949 5  89748097.43405      1502.676 5        34.914
S23        24.000    38216721.226 6 200830148.70506      -826.238 6        40.646
S36        25.000    38270351.063 5 201111994.38205      -830.285 5        35.371
R20        27.000                                                                                                                                    23404059.283 3                     -4237.890 3        20.976
R15        28.000    22513220.854 5 120304046.00015       525.604 5        32.275                                                                    22513223.339 4                       409.207 4        28.313
R06        29.000    19477527.032 6 103935825.50606      -775.174 6        39.093
C05        32.000                                                                                                                                                                                                    39197352.070 6 157831503.85306      -654.382 6        36.204
C19        33.000                                                                                                                                    22274188.521 6 115987669.55606       156.288 6        38.513                                                                    22274184.801 7  94249364.11807       126.947 7        47.278
R21        34.000    20034879.391 7 107210791.52307     -3202.684 7        44.605                                                                    20034876.963 7  83386073.27307     -2491.010 7        42.743
R05        36.000    22278794.204 5 119093007.80005     -4197.016 5        34.671                                                                    22278800.330 5  92627851.05505     -3264.630 5        35.352
R22        37.000    20742595.070 7 110725369.98007      1390.999 7        47.998                                                                    20742593.883 7  86119772.00607      1081.892 7        45.058
C39        38.000                                                                                                                                    39331372.712 5 204808726.95905     -1591.823 5        35.795                                                                    39331342.036 5 166423807.22105     -1293.666 5        30.287
C22        39.000                                                                                                                                    25557914.735 5 133086485.85805      1923.176 5        31.653                                                                    25557853.479 5 108143647.93805      1562.838 5        34.476
C06        41.000                                                                                                                                    38372305.712 5 199814709.67105     -1105.962 5        34.238    38372277.020 4 154509275.16204      -854.773 4        28.654    38372289.281 4                      -898.554 4        28.351
C29        43.000                                                                                                                                    24512130.388 5 127641184.88205     -4037.139 5        35.724                                                                    24512129.335 6 103718840.22506     -3280.501 6        40.124
C16        45.000                                                                                                                                    38880528.167 5                     -1198.838 5        31.147    38880533.593 6 156555933.56206      -927.133 6        39.309
C09        46.000                                                                                                                                    38555296.283 6 200767561.86206      -594.965 6        37.047    38555295.269 7 155246212.43807      -460.105 7        43.945    38555286.393 4                      -483.518 4        26.251
C44        48.000                                                                                                                                    24881680.025 7 129565543.37007      1165.051 7        45.135                                                                    24881675.885 5 105282516.90205       946.584 5        35.614
C37        49.000                                                                                                                                                                                                                                                                    25118235.944 4                       426.308 4        29.886
C35        51.000                                                                                                                                    23071271.751 8 120138383.45208     -1378.659 8        48.835                                                                    23071270.717 7  97622161.67507     -1120.344 7        46.831
C20        55.000                                                                                                                                    22655624.112 8 117973771.65708     -2396.269 8        48.190                                                                    22655619.100 7  95863431.73507     -1947.249 7        47.729
C12        56.000                                                                                                                                    26928967.083 5                      2126.594 5        30.596    26929074.216 4                      1644.293 4        26.635
I09        59.000    37402868.276 3 146776908.45303      -845.493 3        22.819
> 2025 01 01 02 30 45.0000000  0 38
G02         1.000    23679793.270 6 124438128.51006     -4145.309 6        40.286
G31         4.000    22527916.958 8 118384887.40208     -2209.406 8        48.106                                    22527906.743 5  92247930.78805     -1721.615 5        34.324    22527911.248 5  92248057.76305     -1721.455 5        33.335
E34         6.000    25309938.690 8 133004632.99408      1308.206 8        48.879                                                                    25309938.179 8  99321689.47208       976.891 8        48.505    25309937.867 7 101912658.32207      1002.427 7        47.719
E04         7.000    25546154.811 6 134245934.67806     -3111.664 6        39.219                                                                    25546153.676 7 100248579.39907     -2323.693 7        44.309    25546151.958 7 102863759.73307     -2384.294 7        43.443
G03         8.000    20475370.422 7 107599016.57407     -2243.360 7        45.032                                    20475370.999 5  83843181.30605     -1748.074 5        35.314    20475368.625 6  83843241.32806     -1748.288 6        36.015
G09         9.000    21235231.203 7 111591875.18407      1541.205 7        45.455                                    21235224.411 6  86954716.66606      1200.936 6        41.814    21235230.017 6  86954707.63006      1200.988 6        39.535
R14        10.000                                                                                                                                    23700121.346 5                     -2148.205 5        31.042
G04        11.000    20190598.009 7 106102334.37307      -179.348 7        46.736                                    20190594.007 6  82677089.93806      -139.748 6        36.507    20190595.074 7  82677108.94007      -139.685 7        47.240
E09        12.000    23484845.807 7 123413798.28907      -827.562 7        46.241                                                                    23484844.763 7  92159647.44607      -617.971 7        44.405    23484845.725 7  94563789.02907      -634.088 7        47.354
E06        14.000    23876477.189 8 125471753.29508     -2075.105 8        48.099                                                                    23876475.674 7  93696437.88207     -1549.523 7        43.714    23876475.520 7  96140661.03507     -1589.994 7        46.133
E11        15.000    25854522.358 5 135866431.73905     -3620.292 5        30.166                                                                    25854519.881 5 101458695.87405     -2703.597 5        32.880    25854514.998 5                     -2774.375 5        30.823
G19        16.000    22541039.697 7 118454082.70607     -1998.637 7        42.506                                    22541035.189 3  92301774.75103     -1557.341 3        19.075
G28        17.000    24487546.607 4                     -3553.546 4        26.144
G06        19.000    22568006.186 7 118595773.49607      1870.148 7        45.530                                    22568003.046 7  92412186.41707      1457.257 7        42.358    22568005.388 7  92412259.42307      1457.207 7        43.729
E36        20.000    23535711.084 8 123681132.55208     -1428.741 8        48.659                                                                    23535710.541 8  92359168.72008     -1066.901 8        49.122    23535710.134 7  94768569.39807     -1094.767 7        46.758
E05        21.000    24046539.942 6 126365406.16306      1572.523 6        36.862                                                                    24046535.449 4  94363823.85304      1174.208 4        29.934    24046542.658 6  96825476.46306      1204.974 6        41.247
G17        22.000    23487909.086 6 123429905.87306     -3243.260 6        36.620                                    23487919.391 1  96179127.46901     -2527.229 1         5.571    23487904.371 4                     -2527.388 4        28.341
R07        23.000    21554107.351 7 115380785.71007      1931.099 7        45.296                                                                    21554105.201 4  89740586.02604      1502.000 4        29.630
S23        24.000    38217506.828 6 200834279.27206      -825.801 6        39.793
S36        25.000    38271140.157 5 201116145.53805      -829.805 5        35.990
R15        28.000    22512738.331 5 120301426.63505       522.151 5        33.790                                                                    22512732.368 4                       406.038 4        26.742
R06        29.000    19478252.941 6 103939707.13706      -777.303 6        38.282
C05        32.000                                                                                                                                                                                                    39198163.741 6 157834774.08606      -653.961 6        36.166
C19        33.000                                                                                                                                    22274038.839 6 115986891.10306       155.262 6        37.754                                                                    22274035.298 7  94248731.55207       125.984 7        47.383
R21        34.000    20037873.932 7 107226814.00307     -3206.229 7        45.403                                                                    20037871.259 7  83398535.19207     -2493.654 7        43.700
R05        36.000    22282719.022 5 119113993.65705     -4196.693 5        35.457                                                                    22282726.497 5  92644173.39105     -3264.321 5        35.524
R22        37.000    20741292.960 7 110718423.12407      1387.748 7        46.379                                                                    20741293.535 7  86114368.89707      1079.372 7        45.819
C39        38.000                                                                                                                                    39332899.811 5 204816686.73105     -1592.168 5        35.905                                                                    39332870.476 4 166430275.16304     -1293.557 4        29.460
C22        39.000                                                                                                                                    25556059.885 5 133076869.89905      1923.545 5        31.313                                                                    25556007.927 5 108135834.19905      1562.771 5        34.448
C06        41.000                                                                                                                                    38373367.747 5 199820240.76005     -1106.339 5        31.653    38373342.717 5 154513552.19405      -855.800 5        30.408    38373354.864 4                      -898.738 4        27.162
C29        43.000                                                                                                                                    24516008.358 5 127661371.18305     -4037.465 5        34.810                                                                    24516006.061 6 103735243.22506     -3280.880 6        40.467
C16        45.000                                                                                                                                    38881681.358 5                     -1199.440 5        32.731    38881684.545 6 156560570.08706      -927.151 6        38.150
C09        46.000                                                                                                                                    38555867.069 6 200770538.09906      -595.433 6        37.546    38555866.118 7 155248513.83407      -460.373 7        43.492    38555858.797 4                      -483.919 4        27.114
C44        48.000                                                                                                                                    24880563.184 7 129559722.84507      1163.225 7        45.315                                                                    24880558.433 6 105277787.24706       945.144 6        36.163
C37        49.000                                                                                                                                                                                                                                                                    25117735.471 5                       424.392 5        30.830
C35        51.000                                                                                                                                    23072597.621 8 120145283.48908     -1381.118 8        48.618                                                                    23072595.838 7  97627768.52207     -1122.457 7        46.889
C20        55.000                                                                                                                                    22657924.702 8 117985754.82908     -2396.989 8        48.636                                                                    22657920.369 7  95873169.03107     -1947.893 7        47.814
C12        56.000                                                                                                                                    26926931.430 5                      2125.550 5        30.732
> 2025 01 01 02 30 50.0000000  0 38
G02         1.000    23683737.931 6 124458859.08506     -4146.599 6        40.331                                    23683738.451 2  96980948.61512     -3231.111 2        13.636
G31         4.000    22530020.222 7 118395943.90507     -2212.955 7        46.084                                    22530010.516 5  92256546.23305     -1724.384 5        33.509    22530013.751 5  92256673.23005     -1724.608 5        32.635
E34         6.000    25308694.772 8 132998096.57808      1306.603 8        48.339                                                                    25308694.602 8  99316808.38508       975.683 8        48.820    25308693.839 7 101907649.89607      1001.195 7        47.387
E04         7.000    25549115.943 6 134261496.12906     -3112.786 6        39.541                                                                    25549114.682 7 100260199.97607     -2324.447 7        44.533    25549113.256 7 102875683.46307     -2385.158 7        43.304
G03         8.000    20477506.179 7 107610239.38807     -2245.615 7        44.564                                    20477506.034 5  83851926.35805     -1749.833 5        33.880    20477503.449 5  83851986.34905     -1749.616 5        34.100
G09         9.000    21233765.591 7 111584174.90207      1539.022 7        44.185                                    21233759.459 7  86948716.45207      1199.230 7        42.444    21233763.427 6  86948707.43006      1199.200 6        40.038
R14        10.000    23702701.803 3                     -2766.306 3        22.590                                                                    23702717.154 4                     -2151.047 4        28.370
G04        11.000    20190770.056 7 106103238.84607      -182.259 7        46.918                                    20190766.433 6  82677794.72306      -142.022 6        36.972    20190767.363 7  82677813.73007      -142.049 7        47.198
E09        12.000    23485634.029 7 123417941.39307      -829.627 7        45.377                                                                    23485633.143 7  92162741.32007      -619.538 7        44.242    23485634.169 7  94566963.61707      -635.621 7        47.516
E06        14.000    23878452.642 8 125482133.60408     -2076.813 8        48.620                                                                    23878451.213 7  93704189.42207     -1551.015 7        43.426    23878450.818 7  96148614.78507     -1591.365 7        46.170
E11        15.000    25857965.202 5 135884537.03405     -3621.625 5        30.151                                                                    25857964.466 5 101472216.04105     -2704.505 5        31.706    25857960.030 5                     -2775.108 5        31.826
G19        16.000    22542942.803 6 118464085.40606     -2002.224 6        41.626                                    22542939.496 3  92309569.08103     -1560.175 3        20.405
G06        19.000    22566227.840 7 118586428.41407      1867.967 7        46.684                                    22566224.883 7  92404904.53807      1455.557 7        42.798    22566226.813 7  92404977.54007      1455.591 7        43.951
E36        20.000    23537071.383 8 123688282.66408     -1431.215 8        48.382                                                                    23537071.291 8  92364508.08008     -1068.731 8        49.244    23537071.086 7  94774048.05907     -1096.616 7        46.825
E05        21.000    24045042.730 5 126357547.81005      1571.165 5        33.760                                                                    24045039.834 4  94357955.59904      1173.299 4        28.768    24045047.345 6  96819455.10106      1203.778 6        41.654
G17        22.000    23491000.618 5 123446127.25405     -3245.086 5        35.500                                    23491005.115 1  96191767.46901     -2528.663 1         6.125
R07        23.000    21552306.025 7 115371135.92607      1929.170 7        42.167                                                                    21552304.003 5  89733080.45205      1500.473 5        30.536
S23        24.000    38218292.313 6 200838409.62306      -826.140 6        39.778
S36        25.000    38271941.280 6 201120296.52406      -830.432 6        37.924
R20        27.000                                                                                                                                    23414253.299 3                     -4242.642 3        22.629
R15        28.000    22512260.319 5 120298826.80505       518.234 5        33.521                                                                    22512246.504 4                       403.123 4        27.102
R06        29.000    19478982.592 6 103943601.03206      -780.117 6        38.697
C05        32.000                                                                                                                                                                                                    39198976.923 5 157838044.25805      -654.062 5        35.900
C19        33.000                                                                                                                                    22273890.343 6 115986119.86606       153.415 6        38.550                                                                    22273887.023 7  94248104.81507       124.759 7        47.178
R21        34.000    20040871.295 7 107242856.19307     -3210.406 7        46.108                                                                    20040868.868 7  83411012.47407     -2497.096 7        43.680
R05        36.000    22286644.771 5 119134981.46105     -4197.936 5        34.343                                                                    22286654.144 6  92660497.30006     -3264.957 6        37.293
R22        37.000    20739994.711 7 110711494.80107      1383.716 7        46.491                                                                    20739995.896 7  86108980.20007      1076.328 7        46.984
C39        38.000                                                                                                                                    39334426.845 6 204824649.37106     -1592.773 6        36.231                                                                    39334399.302 4 166436745.49904     -1294.242 4        29.175
C22        39.000                                                                                                                                    25554203.995 4 133067256.28604      1922.220 4        28.597                                                                    25554161.981 5 108128022.33305      1562.004 5        33.964
C06        41.000                                                                                                                                    38374430.880 5 199825775.51805     -1107.542 5        30.423    38374407.466 5 154517832.01605      -856.227 5        30.906    38374421.265 4                      -900.032 4        28.171
C29        43.000                                                                                                                                    24519884.540 4 127681561.65104     -4038.219 4        29.611                                                                    24519883.542 6 103751649.63006     -3281.627 6        40.956
C16        45.000                                                                                                                                    38882834.777 5                     -1200.307 5        32.940    38882832.458 6 156565209.29506      -928.079 6        37.603
C09        46.000                                                                                                                                    38556440.130 6 200773518.05106      -596.465 6        37.452    38556438.521 7 155250818.14407      -461.197 7        43.336    38556429.944 4                      -484.345 4        27.198
C44        48.000                                                                                                                                    24879447.631 7 129553913.12007      1160.764 7        44.910                                                                    24879442.583 6 105273066.37206       943.175 6        36.015
C37        49.000                                                                                                                                    25117301.382 3                       520.763 3        23.676                                                                    25117237.914 4                       422.817 4        27.269
C35        51.000                                                                                                                                    23073925.807 8 120152197.48408     -1384.216 8        48.714                                                                    23073923.386 7  97633386.69107     -1124.775 7        46.996
C20        55.000                                                                                                                                    22660226.972 8 117997743.59608     -2398.386 8        48.651                                                                    22660222.701 8  95882910.87108     -1948.822 8        48.039
C12        56.000                                                                                                                                    26924900.339 5                      2124.052 5        30.257
> 2025 01 01 02 30 55.0000000  0 38
G02         1.000    23687683.520 6 124479594.76306     -4147.631 6        41.673                                    23687684.899 2  96997106.27102     -3231.941 2        14.238
G31         4.000    22532127.061 7 118407017.47107     -2216.423 7        45.521                                    22532117.218 5  92265174.98105     -1727.085 5        32.437    22532121.016 5  92265301.97805     -1727.303 5        31.389
E34         6.000    25307452.239 7 132991567.03607      1305.221 7        47.748                                                                    25307452.385 8  99311932.41608       974.648 8        49.211    25307451.069 7 101902646.73307      1000.101 7        47.209
E04         7.000    25552077.934 6 134277061.86806     -3113.706 6        39.363                                                                    25552076.869 7 100271823.72507     -2325.100 7        44.775    25552075.288 7 102887610.42807     -2385.739 7        43.401
G03         8.000    20479643.750 7 107621471.73507     -2247.387 7        44.176                                    20479643.040 5  83860678.84105     -1751.218 5        32.515    20479640.418 5  83860738.81305     -1750.942 5        33.527
G09         9.000    21232302.723 7 111576484.92107      1536.950 7        45.482                                    21232296.581 7  86942724.26807      1197.620 7        42.993    21232300.259 6  86942715.25506      1197.531 6        41.766
R14        10.000                                                                                                                                    23705313.204 3                     -2154.416 3        23.619
G04        11.000    20190944.989 7 106104156.72807      -184.862 7        47.107                                    20190941.412 6  82678509.96006      -144.043 6        37.255    20190942.308 7  82678528.95307      -144.083 7        47.444
E09        12.000    23486424.339 7 123422093.70007      -831.381 7        45.825                                                                    23486423.190 7  92165842.05607      -620.874 7        44.138    23486424.133 7  94570145.24107      -637.049 7        47.424
E06        14.000    23880429.418 8 125492521.52008     -2078.365 8        48.960                                                                    23880427.940 7  93711946.63107     -1551.991 7        43.348    23880427.527 7  96156574.35107     -1592.463 7        46.197
E11        15.000    25861410.740 5 135902647.90605     -3623.067 5        31.502                                                                    25861410.050 4 101485740.36204     -2705.109 4        28.445    25861406.471 5                     -2775.706 5        31.381
G19        16.000    22544848.619 6 118474104.33906     -2005.489 6        40.577                                    22544847.140 3  92317376.04903     -1562.713 3        21.429
G28        17.000                                                                                                                                                                    24494334.421 4                     -2772.186 4        27.952
G06        19.000    22564451.538 7 118577093.14707      1866.043 7        46.946                                    22564448.616 7  92397630.30807      1454.052 7        43.249    22564450.096 7  92397703.31407      1454.089 7        44.265
E36        20.000    23538433.758 7 123695443.80707     -1433.318 7        47.787                                                                    23538434.191 8  92369855.68008     -1070.352 8        49.345    23538433.885 7  94779535.17207     -1098.297 7        47.310
E05        21.000    24043548.105 5 126349695.17705      1569.958 5        32.605                                                                    24043545.509 4  94352091.65204      1172.272 4        28.938    24043552.978 6  96813438.11706      1202.932 6        41.878
G17        22.000    23494089.252 5 123462356.80605     -3246.770 5        30.528                                    23494092.631 1  96204413.95701     -2529.947 1         9.524    23494094.872 5                     -2529.968 5        33.413
R07        23.000    21550500.849 6 115361494.29706      1927.547 6        37.747                                                                    21550511.665 4  89725581.34704      1499.479 4        29.810
S23        24.000    38219075.504 6 200842540.11506      -826.234 6        40.188
S36        25.000    38272717.062 6 201124447.67206      -830.133 6        37.180
R20        27.000                                                                                                                                    23419353.010 3                     -4244.284 3        22.762
R15        28.000    22511780.217 6 120296246.90806       513.692 6        36.382                                                                    22511773.487 4                       399.754 4        28.521
R06        29.000    19479714.901 6 103947507.35606      -782.477 6        38.922
C05        32.000                                                                                                                                                                                                    39199790.477 6 157841314.57006      -654.213 6        36.578
C19        33.000                                                                                                                                    22273743.553 6 115985356.09806       151.910 6        40.048                                                                    22273740.174 7  94247484.21107       123.502 7        46.589
R21        34.000    20043872.525 7 107258918.61807     -3214.441 7        45.962                                                                    20043870.672 7  83423505.44407     -2500.169 7        44.117
R05        36.000    22290570.652 6 119155971.93506     -4198.498 6        36.023                                                                    22290585.955 6  92676823.26506     -3265.442 6        38.919
R22        37.000    20738699.962 7 110704585.36107      1380.016 7        44.540                                                                    20738701.792 7  86103606.19907      1073.281 7        47.607
C39        38.000                                                                                                                                    39335957.049 5 204832615.19805     -1593.340 5        35.171                                                                    39335929.089 5 166443218.33605     -1294.713 5        30.996
C22        39.000                                                                                                                                                                                                                                                                    25552319.803 5 108120212.56505      1561.605 5        33.545
C06        41.000                                                                                                                                    38375492.269 5 199831314.26405     -1108.356 5        30.030    38375471.846 5 154522114.90905      -856.852 5        31.343    38375488.910 4                      -900.711 4        26.802
C29        43.000                                                                                                                                    24523763.076 4 127701756.79404     -4039.760 4        27.305                                                                    24523761.503 6 103768059.69206     -3282.334 6        40.543
C16        45.000                                                                                                                                    38883984.767 5                     -1200.788 5        32.228    38883984.032 6 156569851.37006      -928.774 6        38.625
C09        46.000                                                                                                                                    38557013.046 6 200776502.14606      -597.100 6        36.287    38557011.691 7 155253125.64107      -461.880 7        43.156    38557002.982 4                      -485.346 4        27.413
C44        48.000                                                                                                                                    24878333.675 7 129548114.52007      1158.578 7        44.959                                                                    24878329.416 6 105268354.53606       941.552 6        36.091
C35        51.000                                                                                                                                    23075256.395 8 120159125.73808     -1387.080 8        49.044                                                                    23075253.920 7  97639016.47207     -1127.010 7        46.952
C20        55.000                                                                                                                                    22662530.707 8 118009738.27008     -2399.608 8        49.715                                                                    22662525.999 7  95892657.53107     -1949.819 7        47.755
C12        56.000                                                                                                                                    26922861.037 4                      2122.706 4        28.351
> 2025 01 01 02 31  0.0000000  0 37
G02         1.000    23691630.404 6 124500335.82906     -4148.604 6        41.366                                    23691632.179 2  97013268.14202     -3232.678 2        15.762
G31         4.000    22534238.618 7 118418108.31507     -2219.697 7        45.457                                    22534227.202 5  92273817.18005     -1729.642 5        31.698    22534232.305 4  92273944.16404     -1730.169 4        28.464
E34         6.000    25306211.171 7 132985044.62007      1303.940 7        47.516                                                                    25306211.208 8  99307061.78108       973.727 8        48.876    25306209.925 7 101897649.03907       999.123 7        47.085
E04         7.000    25555041.225 6 134292632.07006     -3114.402 6        39.730                                                                    25555039.814 7 100283450.81407     -2325.596 7        44.749    25555038.019 7 102899540.84407     -2386.277 7        43.553
G03         8.000    20481782.823 7 107632713.87007     -2249.228 7        42.135                                    20481782.157 5  83869438.94205     -1752.648 5        31.004    20481778.938 5  83869498.92605     -1752.855 5        32.114
G09         9.000    21230841.993 7 111568805.47907      1534.994 7        47.027                                    21230835.849 7  86936740.30207      1196.099 7        44.156    21230839.209 7  86936731.27907      1196.072 7        42.866
R14        10.000                                                                                                                                    23707928.043 3                     -2158.276 3        19.672
G04        11.000    20191122.466 7 106105088.25407      -187.483 7        47.259                                    20191119.011 6  82679235.82606      -146.092 6        38.042    20191119.671 8  82679254.82808      -146.148 8        48.020
E09        12.000    23487216.686 7 123426255.45307      -833.137 7        45.025                                                                    23487215.344 7  92168949.85807      -622.121 7        44.021    23487216.080 7  94573334.10907      -638.402 7        47.499
E06        14.000    23882407.416 8 125502917.28008     -2079.713 8        49.172                                                                    23882406.471 7  93719709.70807     -1553.156 7        43.336    23882405.514 7  96164539.93507     -1593.578 7        46.098
E11        15.000    25864859.184 5 135920764.63605     -3623.802 5        32.731                                                                    25864853.010 4 101499269.06504     -2706.240 4        27.760    25864855.380 5                     -2776.742 5        32.545
G19        16.000    22546758.357 6 118484139.77706     -2008.551 6        41.781                                    22546757.819 3  92325195.88403     -1565.101 3        21.833
G06        19.000    22562676.142 7 118567767.97507      1864.188 7        46.636                                    22562674.383 7  92390363.94207      1452.614 7        43.598    22562675.616 7  92390436.91807      1452.658 7        44.218
E36        20.000    23539798.648 7 123702616.27007     -1435.434 7        47.302                                                                    23539798.974 8  92375211.72908     -1071.916 8        48.954    23539798.792 7  94785030.94707     -1099.879 7        47.871
E05        21.000    24042055.736 5 126341848.49705      1569.061 5        34.124                                                                                                                                    24042058.671 6  96807425.73006      1202.140 6        41.735
G17        22.000                                                                                                                                                                    23497183.041 5  96217038.01315     -2531.094 5        34.090
R07        23.000                                                                                                                                    21548723.443 5  89718088.93605      1497.520 5        30.491
S23        24.000    38219862.434 6 200846670.83706      -825.865 6        39.676
S36        25.000    38273503.119 5 201128599.34205      -830.020 5        35.410
R20        27.000                                                                                                                                    23424454.237 4                     -4245.164 4        26.156
R15        28.000    22511296.420 6                       510.104 6        36.495                                                                    22511302.339 5                       396.676 5        31.434
R06        29.000    19480449.256 6 103951426.45206      -784.839 6        38.508
C05        32.000                                                                                                                                                                                                    39200603.203 6 157844585.23906      -653.754 6        36.057
C19        33.000                                                                                                                                    22273599.331 6 115984600.08706       150.587 6        41.714                                                                    22273594.781 7  94246869.89807       122.387 7        46.736
R21        34.000    20046877.219 7 107275001.33407     -3218.371 7        45.813                                                                    20046876.125 7  83436014.23207     -2503.255 7        44.795
R05        36.000    22294500.462 6 119176964.98406     -4198.753 6        38.270                                                                    22294519.630 6  92693151.21006     -3265.796 6        38.994
R22        37.000    20737409.867 7 110697695.08607      1376.372 7        46.362                                                                    20737411.059 8  86098247.10108      1070.459 8        48.778
C39        38.000                                                                                                                                    39337490.281 6 204840584.44406     -1593.938 6        36.658                                                                    39337460.290 5 166449694.02705     -1295.367 5        30.657
C22        39.000                                                                                                                                                                                                                                                                    25550474.154 5 108112405.11305      1561.438 5        31.834
C06        41.000                                                                                                                                    38376550.647 4 199836857.20304     -1108.593 4        29.308    38376536.106 5 154526401.15505      -857.685 5        30.362    38376558.307 4                      -901.137 4        27.138
C29        43.000                                                                                                                                    24527641.381 3                     -4040.593 3        23.867                                                                    24527640.269 6 103784473.58006     -3282.977 6        40.288
C16        45.000                                                                                                                                    38885140.257 5                     -1201.714 5        32.204    38885141.044 6 156574496.54906      -929.232 6        38.754
C09        46.000                                                                                                                                    38557586.842 5 200779490.64805      -598.034 5        35.900    38557585.486 7 155255436.52807      -462.531 7        43.744    38557580.711 4                      -486.187 4        28.379
C44        48.000                                                                                                                                    24877222.538 7 129542327.36607      1156.480 7        44.805                                                                    24877218.080 6 105263652.00906       939.879 6        36.998
C35        51.000                                                                                                                                    23076590.239 8 120166068.52008     -1389.765 8        50.356                                                                    23076587.200 7  97644658.06607     -1129.396 7        46.738
C20        55.000                                                                                                                                    22664835.744 8 118021739.11308     -2400.598 8        49.063                                                                    22664830.558 8  95902409.19908     -1950.662 8        48.086
C12        56.000                                                                                                                                    26920814.872 4                      2121.907 4        29.081
> 2025 01 01 02 31  5.0000000  0 38
G02         1.000    23695578.633 6 124521081.97506     -4149.784 6        41.194                                    23695580.148 2  97029434.00002     -3233.595 2        14.381
G21         3.000    25479395.435 3                     -4178.150 3        19.642
G31         4.000    22536353.133 7 118429216.22207     -2223.194 7        45.543                                    22536340.058 5  92282472.69105     -1732.359 5        30.521    22536344.936 4  92282599.71304     -1732.638 4        27.485
E34         6.000    25304971.590 7 132978529.06807      1302.546 7        47.313                                                                    25304971.283 8  99302196.27108       972.658 8        49.254    25304969.959 7 101892656.59407       998.048 7        47.261
E04         7.000    25558004.730 6 134308206.45506     -3115.358 6        39.315                                                                    25558003.514 7 100295081.05007     -2326.266 7        44.826    25558001.746 7 102911474.46907     -2386.929 7        43.632
G03         8.000    20483923.472 7 107643965.52007     -2251.080 7        42.267                                    20483923.286 4  83878206.42504     -1754.076 4        29.081    20483919.707 5  83878266.35805     -1754.136 5        30.294
G09         9.000    21229382.844 7 111561136.31707      1532.865 7        46.678                                    21229377.108 7  86930764.34007      1194.439 7        44.898    21229379.509 7  86930755.31507      1194.382 7        44.322
R14        10.000    23710487.775 4                     -2778.476 4        26.599
G04        11.000    20191302.613 7 106106033.15907      -190.234 7        47.955                                    20191299.262 6  82679972.11406      -148.234 6        38.285    20191299.421 8  82679991.11108      -148.255 8        48.690
E09        12.000    23488010.594 7 123430426.34707      -835.036 7        44.760                                                                    23488009.044 7  92172064.49107      -623.578 7        44.661    23488009.899 8  94576530.00608      -639.799 8        48.198
E06        14.000    23884387.212 8 125513320.62408     -2081.378 8        49.394                                                                    23884386.326 7  93727478.41407     -1554.206 7        44.122    23884385.225 7  96172511.31707     -1594.738 7        46.112
E11        15.000    25868308.932 5 135938886.86505     -3624.875 5        33.904                                                                    25868299.855 4 101512801.96704     -2707.407 4        24.767    25868303.725 5                     -2777.587 5        32.234
G19        16.000    22548671.830 7 118494191.39607     -2011.858 7        43.137                                    22548671.553 3  92333028.32503     -1567.692 3        22.076
G28        17.000    24501023.943 4                     -3562.751 4        24.857
G06        19.000    22560903.000 7 118558452.55507      1862.116 7        45.490                                    22560902.020 7  92383105.17507      1450.993 7        43.526    22560902.312 7  92383178.18107      1451.023 7        44.518
E36        20.000    23541165.633 7 123709799.73907     -1437.731 7        47.707                                                                    23541165.889 8  92380576.01008     -1073.654 8        49.201    23541166.006 8  94790535.17808     -1101.616 8        48.226
E05        21.000    24040564.858 5 126334007.51005      1567.801 5        35.381                                                                    24040576.833 5  94340377.11005      1170.586 5        34.800    24040566.036 7  96801417.69407      1201.301 7        42.726
G17        22.000    23500259.390 4                     -3248.024 4        28.427                                                                                                    23500266.576 5  96229697.40605     -2532.667 5        30.830
R07        23.000    21546886.994 5 115342236.23705      1923.999 5        32.066                                                                    21546927.301 3                      1495.292 3        21.571
S23        24.000    38220647.503 6 200850801.69006      -825.993 6        38.267
S36        25.000    38274279.809 5 201132751.24505      -830.399 5        32.371
R20        27.000                                                                                                                                    23429551.963 3                     -4242.948 3        23.962
R15        28.000    22510818.830 5 120291147.36615       505.701 5        34.667
R06        29.000    19481186.493 6 103955358.03606      -787.516 6        37.913
C05        32.000                                                                                                                                                                                                    39201413.121 6 157847856.09906      -654.086 6        36.140
C19        33.000                                                                                                                                    22273455.366 6 115983851.62106       149.031 6        41.549                                                                    22273451.298 7  94246261.67607       121.081 7        46.906
R21        34.000    20049885.988 7 107291103.98707     -3222.438 7        45.801                                                                    20049884.780 7  83448538.50707     -2506.431 7        44.284
R05        36.000    22298430.173 6 119197960.59806     -4199.204 6        38.192                                                                    22298452.907 6  92709481.12006     -3266.143 6        38.646
R22        37.000    20736123.768 7 110690823.72507      1372.426 7        46.961                                                                    20736123.544 8  86092902.68108      1067.468 8        48.691
C39        38.000                                                                                                                                    39339023.388 6 204848556.84406     -1594.751 6        36.265                                                                    39338991.003 5 166456172.17805     -1295.556 5        30.060
C22        39.000                                                                                                                                    25548621.688 5 133038431.32305      1920.807 5        31.072                                                                    25548626.104 4 108104599.81604      1560.789 4        29.915
C06        41.000                                                                                                                                    38377609.367 4 199842404.05204     -1109.935 4        27.748    38377602.187 5 154530690.40105      -858.235 5        33.533    38377625.706 4                      -901.174 4        25.218
C29        43.000                                                                                                                                    24531521.350 4                     -4041.743 4        26.886                                                                    24531520.117 6 103800891.08506     -3283.701 6        40.019
C16        45.000                                                                                                                                    38886296.202 5                     -1202.259 5        32.186    38886297.301 6 156579144.59206      -930.014 6        38.688
C09        46.000                                                                                                                                    38558160.319 6 200782483.15706      -598.683 6        37.338    38558160.609 7 155257750.53407      -463.076 7        43.913    38558154.747 4                      -486.722 4        29.791
C44        48.000                                                                                                                                    24876112.268 7 129536551.35307      1154.069 7        44.846                                                                    24876109.890 6 105258958.50206       937.863 6        37.860
C35        51.000                                                                                                                                    23077926.010 8 120173025.57508     -1392.741 8        51.031                                                                    23077923.270 7  97650311.22307     -1131.635 7        46.696
C20        55.000                                                                                                                                    22667142.349 8 118033745.87108     -2401.867 8        49.436                                                                    22667136.217 7  95912165.65407     -1951.723 7        47.708
> 2025 01 01 02 31 10.0000000  0 38
G02         1.000    23699527.449 6 124541832.83806     -4150.278 6        40.684                                    23699528.868 2  97045603.49602     -3233.981 2        14.476
G31         4.000    22538470.051 7 118440340.78507     -2226.295 7        45.889                                    22538456.141 4  92291141.18204     -1734.779 4        29.365    22538456.968 3                     -1735.645 3        21.310
E34         6.000    25303732.909 7 132972020.04107      1301.544 7        47.513                                                                    25303732.841 8  99297335.63108       971.948 8        49.212    25303731.494 7 101887669.15707       997.314 7        47.347
E04         7.000    25560969.076 6 134323784.70806     -3115.485 6        38.991                                                                    25560967.749 7 100306714.16007     -2326.549 7        45.121    25560966.358 7 102923411.06007     -2387.207 7        44.302
G03         8.000    20486066.598 6 107655226.32106     -2252.749 6        40.911                                    20486066.007 4  83886981.04604     -1755.373 4        27.329    20486064.233 5  83887041.03205     -1755.262 5        32.120
G09         9.000    21227925.041 7 111553477.07307      1531.319 7        46.532                                    21227920.240 7  86924796.09707      1193.237 7        45.958    21227921.899 7  86924787.06107      1193.312 7        44.814
R14        10.000    23713101.340 5                     -2780.577 5        31.819
G04        11.000    20191485.184 7 106106991.09607      -192.463 7        47.742                                    20191481.982 6  82680718.56106      -149.971 6        38.766    20191481.586 8  82680737.56208      -149.982 8        49.087
E09        12.000    23488806.005 7 123434606.08507      -836.437 7        44.149                                                                    23488804.457 7  92175185.72707      -624.591 7        44.652    23488805.226 8  94579732.66008      -640.903 8        48.224
E06        14.000    23886368.663 8 125523731.17108     -2082.405 8        49.638                                                                    23886367.541 7  93735252.53407     -1555.054 7        43.972    23886366.298 7  96180488.23007     -1595.591 7        46.155
E11        15.000    25871758.486 5 135957014.32605     -3625.476 5        34.971                                                                    25871749.936 4                     -2708.593 4        24.195    25871755.451 5                     -2778.318 5        32.551
G19        16.000    22550587.753 7 118504258.86107     -2014.713 7        44.084                                    22550588.086 3  92340873.11903     -1569.904 3        22.743
G28        17.000                                                                                                                                                                    24504432.802 4                     -2777.141 4        27.760
G06        19.000    22559132.648 7 118549146.61807      1860.733 7        44.983                                    22559131.441 7  92375853.79107      1449.916 7        43.596    22559131.965 7  92375926.80707      1449.784 7        44.524
E36        20.000    23542534.839 7 123716993.90507     -1439.538 7        47.914                                                                    23542534.962 8  92385948.26508     -1074.947 8        49.354    23542534.957 8  94796047.59508     -1102.984 8        48.877
E05        21.000    24039073.314 5 126326171.94305      1566.946 5        34.967                                                                    24039083.986 5  94334525.82705      1170.158 5        35.329    24039075.659 7  96795413.79507      1200.742 7        43.752
G17        22.000                                                                                                                                                                    23503358.367 4  96242362.83304     -2533.551 4        29.441
R07        23.000    21545099.638 4 115332619.02704      1923.354 4        29.659
S23        24.000    38221443.939 6 200854932.33306      -825.677 6        38.727
S36        25.000    38275083.891 5 201136903.08605      -830.090 5        34.105
R20        27.000                                                                                                                                    23434658.297 3                     -4244.661 3        23.676
R15        28.000    22510347.783 5 120288627.15505       502.450 5        31.675                                                                    22510364.657 5  93557793.21815       391.111 5        33.084
R06        29.000    19481925.526 6 103959301.75006      -789.415 6        38.574
C05        32.000                                                                                                                                                                                                    39202226.129 6 157851126.87906      -653.897 6        37.142
C19        33.000                                                                                                                                    22273311.594 7 115983110.30507       147.909 7        42.063                                                                    22273309.042 7  94245659.30007       120.126 7        46.631
R21        34.000    20052899.016 7 107307226.49307     -3225.990 7        46.008                                                                    20052898.038 7  83461078.21307     -2509.102 7        43.928
R05        36.000    22302360.186 6 119218958.14806     -4199.443 6        37.837                                                                    22302382.834 6  92725812.56906     -3266.242 6        38.577
R22        37.000    20734840.206 7 110683970.95107      1369.164 7        47.854                                                                    20734839.080 7  86087572.73407      1064.884 7        47.937
C39        38.000                                                                                                                                    39340562.174 5 204856532.06905     -1594.953 5        34.529                                                                    39340520.639 4 166462652.73904     -1296.027 4        29.062
C22        39.000                                                                                                                                    25546785.027 5 133028827.94905      1920.996 5        33.814                                                                    25546784.941 4 108096796.24804      1560.581 4        28.000
C06        41.000                                                                                                                                    38378670.208 4 199847954.69304     -1109.805 4        29.526    38378667.564 5 154534982.47505      -858.350 5        35.190    38378690.668 4                      -902.478 4        25.925
C29        43.000                                                                                                                                    24535403.729 5                     -4041.946 5        30.151                                                                    24535400.737 6 103817311.94706     -3284.149 6        40.148
C16        45.000                                                                                                                                    38887452.241 5 202497161.12815     -1202.763 5        33.982    38887451.733 6 156583795.26806      -929.864 6        38.949
C09        46.000                                                                                                                                    38558737.116 6 200785479.47306      -598.898 6        36.635    38558736.018 7 155260067.48007      -463.346 7        43.625    38558728.885 4                      -487.303 4        29.346
C44        48.000                                                                                                                                    24875004.565 7 129530786.11907      1152.465 7        44.054                                                                    24875002.116 6 105254273.81606       936.300 6        37.739
C35        51.000                                                                                                                                    23079264.560 8 120179996.52208     -1395.190 8        51.649                                                                    23079262.029 7  97655975.72907     -1133.787 7        46.822
C20        55.000                                                                                                                                    22669449.435 8 118045758.18408     -2402.563 8        49.847                                                                    22669442.867 7  95921926.65107     -1952.335 7        47.347
C12        56.000                                                                                                                                    26916723.637 5                      2119.525 5        31.887
> 2025 01 01 02 31 15.0000000  0 38
G02         1.000    23703477.744 6 124562588.34206     -4151.798 6        40.636                                    23703478.397 2  97061776.60702     -3235.179 2        15.238
G31         4.000    22540589.885 7 118451481.85907     -2230.079 7        45.341                                    22540575.315 4  92299822.53104     -1737.720 4        28.066    22540577.975 3                     -1737.448 3        21.000
E34         6.000    25302495.489 7 132965517.43607      1299.717 7        47.497                                                                    25302495.453 8  99292479.79008       970.571 8        49.105    25302493.915 7 101882686.64707       995.869 7        46.985
E04         7.000    25563933.438 6 134339366.72106     -3116.808 6        37.701                                                                    25563932.832 7 100318350.07607     -2327.550 7        44.846    25563931.092 7 102935350.51007     -2388.349 7        43.589
G03         8.000    20488210.229 6 107666496.16606     -2255.131 6        40.756                                    20488210.293 4  83895762.72804     -1757.241 4        25.218    20488208.501 5  83895822.71205     -1756.772 5        31.494
G09         9.000    21226468.954 7 111545827.64907      1528.646 7        46.943                                    21226465.120 7  86918835.50907      1191.147 7        46.840    21226465.757 7  86918826.48407      1191.244 7        44.716
R14        10.000    23715715.571 5 126418096.03915     -2784.433 5        33.437                                                                    23715709.954 3                     -2165.785 3        23.962
G04        11.000    20191669.972 8 106107961.95408      -195.593 8        48.268                                    20191667.076 6  82681475.07006      -152.411 6        39.243    20191666.055 8  82681494.08108      -152.474 8        48.803
E09        12.000    23489602.544 7 123438794.54407      -838.795 7        44.047                                                                    23489601.447 7  92178313.45407      -626.261 7        44.557    23489602.223 8  94582941.97908      -642.651 8        48.239
E06        14.000    23888351.087 8 125534148.82008     -2084.429 8        49.460                                                                    23888350.041 7  93743031.95507     -1556.618 7        44.114    23888348.653 7  96188470.58607     -1597.115 7        46.013
E11        15.000    25875208.115 6 135975146.87706     -3627.032 6        36.064                                                                    25875198.375 3                     -2709.484 3        21.881    25875206.895 5                     -2779.204 5        33.353
G19        16.000    22552506.545 7 118514342.05007     -2018.325 7        45.223                                    22552507.288 3  92348730.18003     -1572.718 3        22.667
G06        19.000    22557363.671 7 118539850.07207      1858.190 7        45.217                                    22557362.624 7  92368609.73207      1447.940 7        43.647    22557362.616 7  92368682.74307      1447.872 7        43.970
E36        20.000    23543905.783 8 123724198.62308     -1442.206 8        48.008                                                                    23543906.064 8  92391328.41708     -1076.919 8        49.541    23543905.874 8  94801568.10408     -1105.064 8        49.058
E05        21.000    24037583.426 5 126318341.62105      1565.470 5        35.086                                                                    24037594.799 5  94328678.46905      1169.024 5        34.319    24037585.547 7  96789413.93307      1199.416 7        44.185
G17        22.000    23506456.263 4                     -3252.864 4        24.045                                                                                                    23506449.485 4  96255034.21304     -2534.953 4        25.534
R07        23.000    21543302.265 5 115323009.84815      1920.735 5        35.010                                                                    21543316.640 5  89695718.65015      1494.072 5        33.401
S23        24.000    38222231.200 6 200859062.78206      -826.377 6        39.426
S36        25.000    38275871.335 5 201141054.50105      -830.132 5        34.457
R20        27.000                                                                                                                                    23439769.437 4                     -4245.119 4        24.947
R15        28.000    22509878.852 4 120286126.39504       498.156 4        29.242                                                                    22509895.849 5  93555848.29905       387.212 5        33.587
R06        29.000    19482666.907 6 103963257.51006      -792.459 6        39.030
C05        32.000                                                                                                                                                                                                    39203038.525 6 157854397.45806      -654.119 6        37.297
C19        33.000                                                                                                                                    22273170.794 7 115982376.01807       145.949 7        43.048                                                                    22273167.491 7  94245062.61007       118.684 7        46.239
R21        34.000    20055915.130 7 107323368.50607     -3230.552 7        46.078                                                                    20055914.314 7  83473633.10807     -2512.602 7        44.030
R05        36.000    22306286.317 6 119239957.73106     -4200.301 6        36.677                                                                    22306307.488 6  92742145.56606     -3266.896 6        37.369
R22        37.000    20733560.679 8 110677136.60808      1364.795 8        48.682                                                                    20733558.088 7  86082257.13007      1061.497 7        47.057
C39        38.000                                                                                                                                    39342101.717 5 204864509.95805     -1596.092 5        33.234                                                                    39342054.774 4 166469135.34804     -1296.534 4        29.431
C22        39.000                                                                                                                                    25544944.103 5 133019226.69905      1919.937 5        35.219                                                                    25544952.791 4 108088994.35104      1560.427 4        28.152
C06        41.000                                                                                                                                                                                                    38379735.210 5 154539277.26805      -859.335 5        35.095    38379761.362 4                      -901.814 4        24.526
C29        43.000                                                                                                                                    24539285.728 5                     -4043.041 5        31.396                                                                    24539282.563 6 103833735.99606     -3285.271 6        39.925
C16        45.000                                                                                                                                    38888605.461 5 202503178.73705     -1204.324 5        32.150    38888605.446 6 156588448.47006      -931.067 6        39.141
C09        46.000                                                                                                                                    38559313.355 6 200788479.42706      -600.517 6        36.752    38559311.932 7 155262387.22207      -464.295 7        43.979    38559304.508 4                      -487.457 4        27.940
C44        48.000                                                                                                                                    24873898.713 7 129525031.59707      1149.619 7        43.227                                                                    24873896.426 6 105249597.76406       934.122 6        37.588
C37        49.000                                                                                                                                    25114774.951 4                       508.465 4        27.748
C35        51.000                                                                                                                                    23080605.812 8 120186981.27308     -1398.493 8        51.354                                                                    23080603.575 7  97661651.39807     -1136.392 7        46.788
C20        55.000                                                                                                                                    22671757.242 8 118057775.91108     -2404.354 8        50.167                                                                    22671750.688 7  95931692.03007     -1953.680 7        47.400
C12        56.000                                                                                                                                    26914686.616 5                      2118.202 5        32.742
> 2025 01 01 02 31 20.0000000  0 37
G02         1.000    23707427.863 6 124583349.09806     -4152.309 6        39.571                                    23707429.398 2  97077953.86402     -3235.579 2        14.238
G31         4.000    22542712.595 7 118462640.16807     -2233.139 7        42.521                                    22542697.681 4  92308517.30104     -1740.115 4        26.120
E34         6.000    25301259.440 7 132959021.92707      1298.654 7        47.568                                                                    25301259.261 8  99287629.24808       969.738 8        48.920    25301257.850 7 101877709.56207       995.077 7        46.724
E04         7.000    25566899.866 6 134354953.09406     -3117.571 6        37.425                                                                    25566898.832 7 100329989.26107     -2328.029 7        44.701    25566897.170 7 102947293.33107     -2388.775 7        43.147
G03         8.000    20490356.323 6 107677775.71806     -2256.584 6        37.709                                    20490356.037 3  83904551.94403     -1758.358 3        23.600    20490353.103 4  83904611.95904     -1758.273 4        29.716
G09         9.000    21225015.455 7 111538188.70407      1526.984 7        47.616                                    21225011.843 7  86912883.09207      1189.851 7        47.252    21225011.736 7  86912874.07707      1189.863 7        44.777
R14        10.000    23718325.772 5 126432026.95815     -2787.675 5        34.390                                                                    23718326.247 4                     -2167.892 4        24.556
G04        11.000    20191857.021 8 106108946.39108      -197.959 8        48.270                                    20191854.544 6  82682242.16906      -154.255 6        39.102    20191852.414 7  82682261.16807      -154.289 7        47.971
E09        12.000    23490401.940 7 123442992.35207      -840.248 7        44.208                                                                    23490400.101 7  92181448.18907      -627.577 7        44.885    23490401.032 8  94586158.48108      -643.816 8        48.327
E06        14.000    23890334.510 8 125544574.22908     -2085.623 8        49.309                                                                    23890333.615 7  93750817.16507     -1557.430 7        44.367    23890332.499 7  96196458.88907     -1598.072 7        46.224
E11        15.000    25878659.469 6 135993285.19006     -3628.137 6        36.563                                                                    25878650.575 3                     -2710.765 3        20.143    25878659.041 5 104202634.93815     -2779.905 5        33.545
G19        16.000    22554427.706 7 118524441.66907     -2021.324 7        45.013                                    22554429.214 3  92356600.03403     -1575.053 3        20.524
G06        19.000    22555596.987 7 118530563.59807      1856.521 7        44.719                                    22555595.666 7  92361373.51507      1446.643 7        43.801    22555595.556 7  92361446.51007      1446.682 7        44.147
E36        20.000    23545278.778 8 123731414.58808     -1444.033 8        48.065                                                                    23545279.110 8  92396716.95808     -1078.327 8        49.546    23545278.914 8  94807097.22108     -1106.458 8        49.214
E05        21.000    24036094.774 5 126310517.22805      1564.444 5        35.129                                                                    24036106.253 5  94322835.55705      1168.400 5        32.844    24036097.060 7  96783418.60607      1198.870 7        44.721
G17        22.000                                                                                                                                                                    23509543.214 4  96267712.10004     -2536.529 4        24.902
R07        23.000    21541508.435 6 115313409.10406      1919.509 6        37.856                                                                    21541519.536 6  89688251.46406      1492.766 6        36.476
S23        24.000    38223015.352 6 200863193.45606      -825.991 6        39.685
S36        25.000    38276673.983 5 201145205.43405      -829.714 5        35.676
R20        27.000                                                                                                                                    23444872.225 3                     -4246.199 3        22.762
R15        28.000                                                                                                                                    22509436.186 5  93553918.95705       384.559 5        34.076
R06        29.000    19483410.877 6 103967225.85206      -794.725 6        38.820
C05        32.000                                                                                                                                                                                                    39203851.667 6 157857668.35406      -653.951 6        37.686
C19        33.000                                                                                                                                    22273032.264 7 115981649.40507       144.716 7        43.801                                                                    22273027.929 7  94244472.21607       117.439 7        46.110
R21        34.000    20058935.556 7 107339530.73107     -3234.122 7        45.866                                                                    20058934.137 7  83486203.69607     -2515.355 7        43.318
R05        36.000    22310211.396 5 119260959.90505     -4200.688 5        32.114
R22        37.000    20732285.096 8 110670321.43608      1361.321 8        50.195                                                                    20732281.382 7  86076956.41207      1058.792 7        46.906
C39        38.000                                                                                                                                    39343635.712 5 204872491.19005     -1596.028 5        31.223                                                                    39343587.322 4 166475620.78904     -1297.419 4        29.166
C22        39.000                                                                                                                                    25543101.991 5 133009628.26905      1919.718 5        35.795                                                                    25543113.292 4 108081194.79604      1559.787 4        27.437
C06        41.000                                                                                                                                                                                                    38380801.729 5 154543575.28005      -859.773 5        35.757    38380832.803 4                      -903.069 4        24.947
C29        43.000                                                                                                                                    24543165.165 5                     -4043.667 5        30.649                                                                    24543164.781 6 103850163.85906     -3285.995 6        39.508
C16        45.000                                                                                                                                    38889761.220 5 202509200.29305     -1204.709 5        31.789    38889760.463 6 156593104.68406      -931.353 6        38.820
C09        46.000                                                                                                                                    38559889.955 6 200791483.65006      -600.932 6        37.898    38559888.896 7 155264710.29507      -464.847 7        43.917    38559879.327 4                      -488.580 4        27.006
C44        48.000                                                                                                                                    24872795.763 7 129519288.43407      1147.702 7        42.525                                                                    24872793.372 6 105244930.99206       932.585 6        38.000
C35        51.000                                                                                                                                    23081949.378 8 120193980.46708     -1401.023 8        50.985                                                                    23081947.804 7  97667338.83407     -1138.678 7        46.802
C20        55.000                                                                                                                                    22674066.372 8 118069799.72408     -2405.147 8        49.858                                                                    22674059.682 7  95941462.37807     -1954.661 7        47.490
C12        56.000                                                                                                                                    26912652.189 5                      2116.924 5        32.491    26912654.494 4                      1636.903 4        24.211
> 2025 01 01 02 31 25.0000000  0 39
G02         1.000    23711379.832 6 124604114.83406     -4153.457 6        39.228                                    23711381.324 2  97094134.93502     -3236.476 2        14.095
G31         4.000    22544838.771 6 118473815.35406     -2236.569 6        39.631                                    22544823.405 4  92317225.23204     -1742.790 4        24.301    22544858.110 4                     -1742.890 4        29.005
E34         6.000    25300024.749 8 132952533.24408      1297.241 8        48.141                                                                    25300024.492 8  99282783.79708       968.723 8        48.755    25300023.121 7 101872737.70607       994.005 7        46.543
E04         7.000    25569866.527 6 134370543.56206     -3118.240 6        36.858                                                                    25569865.436 7 100341631.51107     -2328.509 7        44.665    25569864.128 7 102959239.28407     -2389.329 7        43.532
G03         8.000    20492503.585 6 107689064.68106     -2258.658 6        36.189                                    20492503.476 3  83913348.53703     -1759.992 3        22.286    20492503.043 4  83913408.57004     -1760.011 4        28.540
G09         9.000    21223563.952 7 111530559.96907      1525.045 7        47.564                                    21223560.425 7  86906938.63107      1188.346 7        47.430    21223560.302 7  86906929.60207      1188.318 7        44.248
R14        10.000    23720935.721 5                     -2791.246 5        33.222                                                                    23720945.183 3                     -2169.409 3        23.181
G04        11.000    20192046.825 8 106109944.12508      -200.646 8        48.329                                    20192044.226 6  82683019.62306      -156.351 6        38.796    20192042.072 7  82683038.62807      -156.353 7        47.039
E09        12.000    23491202.597 7 123447199.24007      -842.010 7        44.492                                                                    23491200.517 7  92184589.68807      -628.771 7        44.635    23491201.410 8  94589381.93708      -645.179 8        48.158
E06        14.000    23892319.438 8 125555007.11308     -2087.044 8        49.405                                                                    23892318.826 7  93758607.94307     -1558.474 7        43.996    23892318.013 7  96204452.91907     -1599.208 7        46.227
E11        15.000    25882112.896 6 136011428.92606     -3629.266 6        36.095                                                                                                                                    25882111.597 5 104216537.27605     -2780.599 5        33.677
G19        16.000    22556351.822 7 118534557.38307     -2024.498 7        43.651                                    22556353.174 3  92364482.46503     -1577.522 3        18.716
G28        17.000                                                                                                                                                                    24514648.631 3                     -2780.248 3        21.643
G06        19.000    22553831.401 7 118521286.86107      1854.599 7        44.798                                    22553830.507 7  92354144.88507      1445.143 7        43.915    22553830.191 7  92354217.88307      1445.124 7        43.822
E36        20.000    23546654.022 7 123738641.51107     -1446.236 7        47.805                                                                    23546654.235 8  92402113.68508     -1079.983 8        49.529    23546654.111 8  94812634.73708     -1108.190 8        49.524
E05        21.000    24034606.876 6 126302698.44006      1563.507 6        36.280                                                                    24034616.182 5  94316996.81805      1167.744 5        33.174    24034609.711 7  96777427.60707      1197.942 7        45.172
G17        22.000                                                                                                                                                                    23512638.232 4  96280396.28404     -2536.838 4        24.571
R07        23.000    21539719.758 6 115303816.29706      1917.979 6        40.072                                                                    21539722.454 6  89680790.34606      1491.824 6        38.492
S23        24.000    38223802.188 6 200867323.99306      -825.985 6        40.565
S36        25.000    38277459.432 6 201149356.58606      -830.038 6        36.488
R20        27.000                                                                                                                                    23449977.324 4                     -4246.254 4        24.857
R15        28.000                                                                                                                                    22508982.747 5  93552005.03505       381.598 5        30.906
R06        29.000    19484156.217 6 103971206.70606      -797.078 6        37.251
C05        32.000                                                                                                                                                                                                    39204664.921 6 157860939.36706      -653.902 6        37.667
C19        33.000                                                                                                                                    22272894.736 7 115980930.22507       143.356 7        44.367                                                                    22272889.950 7  94243887.80407       116.505 7        46.007
R21        34.000    20061960.198 7 107355712.89907     -3238.170 7        45.309                                                                    20061957.233 6  83498789.81306     -2518.552 6        41.762
R05        36.000    22314140.427 5 119281964.35305     -4200.948 5        32.479
R22        37.000    20731011.998 8 110663525.11108      1357.618 8        51.380                                                                    20731007.850 7  86071670.37407      1055.921 7        46.360
C39        38.000                                                                                                                                    39345170.225 5 204880475.53205     -1596.946 5        31.306
C22        39.000                                                                                                                                    25541257.393 6 133000032.33706      1919.244 6        36.888                                                                    25541272.869 4 108073397.28504      1559.204 4        28.095
C06        41.000                                                                                                                                                                                                    38381867.966 5 154547876.25505      -860.150 5        34.581    38381905.974 4                      -903.758 4        24.451
C29        43.000                                                                                                                                    24547047.266 4                     -4044.584 4        29.081                                                                    24547048.042 6 103866595.19106     -3286.577 6        39.198
C16        45.000                                                                                                                                    38890917.670 5 202515225.44005     -1205.169 5        32.820    38890918.324 6 156597763.76206      -932.030 6        39.414
C09        46.000                                                                                                                                    38560468.712 6 200794491.90306      -601.638 6        37.720    38560466.373 7 155267036.48407      -465.436 7        44.451    38560457.910 4                      -489.267 4        28.009
C44        48.000                                                                                                                                    24871695.966 7 129513556.37307      1145.485 7        42.438                                                                    24871692.211 6 105240273.20306       930.920 6        38.036
C37        49.000                                                                                                                                    25113782.774 5                       503.678 5        30.113
C35        51.000                                                                                                                                    23083295.821 8 120200993.83108     -1403.840 8        51.448                                                                    23083294.546 7  97673037.74607     -1140.841 7        46.922
C20        55.000                                                                                                                                    22676376.414 8 118081829.34708     -2406.267 8        50.600                                                                    22676369.810 7  95951237.41407     -1955.334 7        47.137
C12        56.000                                                                                                                                    26910620.530 5                      2115.982 5        33.060    26910627.923 4                      1636.734 4        28.218
> 2025 01 01 02 31 30.0000000  0 38
G02         1.000    23715333.151 6 124624885.57706     -4154.906 6        38.865                                    23715334.256 2  97110319.96002     -3237.572 2        13.333
G31         4.000    22546966.808 5 118485007.45605     -2240.270 5        35.805                                    22546952.944 3  92325946.34903     -1745.677 3        23.029    22546987.774 4                     -1745.577 4        29.422
E34         6.000    25298791.185 8 132946051.42608      1295.409 8        48.536                                                                    25298790.945 8  99277943.48708       967.328 8        48.457    25298789.679 7 101867771.12607       992.565 7        46.434
E04         7.000    25572834.102 6 134386138.19106     -3119.579 6        36.919                                                                    25572833.013 7 100353276.86407     -2329.578 7        44.795    25572831.860 7 102971188.41607     -2390.321 7        43.742
G03         8.000    20494653.566 5 107700363.20405     -2260.853 5        34.586                                    20494652.502 3  83922152.51603     -1761.697 3        21.048    20494652.899 4  83922212.50804     -1761.803 4        28.341
G09         9.000    21222113.833 7 111522941.53907      1522.401 7        47.155                                    21222110.860 7  86901002.19907      1186.287 7        47.629    21222111.085 7  86900993.17007      1186.296 7        44.081
R14        10.000    23723548.471 5 126459943.81615     -2795.847 5        33.102
G04        11.000    20192239.222 8 106110955.21908      -203.833 8        48.651                                    20192236.188 6  82683807.48906      -158.837 6        38.336    20192234.679 7  82683826.49307      -158.754 7        46.716
E09        12.000    23492004.627 7 123451415.26707      -844.309 7        45.436                                                                    23492002.822 7  92187738.02107      -630.550 7        45.120    23492003.647 8  94592612.39908      -646.976 8        48.379
E06        14.000    23894305.883 8 125565447.52108     -2089.067 8        48.573                                                                    23894305.656 7  93766404.35107     -1560.021 7        44.250    23894305.037 7  96212452.71207     -1600.728 7        46.467
E11        15.000    25885564.708 5 136029578.18205     -3630.652 5        35.852                                                                                                                                    25885565.779 5 104230443.85805     -2782.034 5        34.090
G19        16.000    22558279.606 7 118544689.25907     -2028.351 7        43.270                                    22558279.809 2  92372377.49102     -1580.554 2        17.358
G28        17.000    24517992.007 4                     -3572.916 4        25.233
G06        19.000    22552068.347 7 118512019.98807      1852.177 7        43.896                                    22552067.122 7  92346923.94207      1443.257 7        43.900    22552066.898 7  92346996.95307      1443.247 7        44.433
E36        20.000    23548031.300 7 123745879.43807     -1448.966 7        47.780                                                                    23548031.548 8  92407518.63008     -1082.017 8        49.574    23548031.349 8  94818180.68208     -1110.263 8        49.908
E05        21.000    24033120.379 6 126294885.38806      1561.896 6        36.900                                                                    24033123.716 5  94311162.29905      1166.305 5        33.934    24033122.998 7  96771440.97107      1196.782 7        45.555
R07        23.000    21537933.141 6 115294231.67306      1915.839 6        41.254                                                                    21537926.371 6  89673335.56306      1490.278 6        38.862
S23        24.000    38224589.824 6 200871454.59606      -826.394 6        40.722
S36        25.000    38278247.909 5 201153508.30705      -830.630 5        35.414
R20        27.000                                                                                                                                    23455081.324 3                     -4246.809 3        22.800
R15        28.000                                                                                                                                    22508536.845 4  93550106.60414       377.769 4        28.436
R06        29.000    19484903.476 6 103975199.84806      -800.179 6        36.352
C05        32.000                                                                                                                                                                                                    39205476.212 6 157864210.52906      -654.426 6        37.146
C19        33.000                                                                                                                                    22272759.352 7 115980218.51507       141.425 7        44.748                                                                    22272753.328 7  94243309.50307       114.757 7        45.926
R21        34.000    20064988.511 7 107371914.99207     -3242.658 7        45.929                                                                    20064985.129 6  83511391.41606     -2521.956 6        41.151
R05        36.000    22318073.381 5 119302971.12605     -4201.970 5        31.162                                                                    22318070.880 5  92791156.09805     -3268.825 5        30.830
R22        37.000    20729742.424 8 110656747.75708      1353.329 8        52.029                                                                    20729738.352 7  86066399.10607      1052.587 7        45.022
C39        38.000                                                                                                                                    39346708.884 5 204888462.99105     -1597.895 5        31.140                                                                    39346653.804 4 166488599.08004     -1298.645 4        26.958
C22        39.000                                                                                                                                    25539414.428 6 132990439.01206      1918.038 6        37.656                                                                    25539434.691 4 108065601.89604      1558.356 4        27.677
C06        41.000                                                                                                                                                                                                    38382937.894 5 154552180.32405      -861.159 5        35.252    38382975.546 3                      -905.193 3        23.124
C29        43.000                                                                                                                                    24550933.294 5                     -4045.831 5        30.015                                                                    24550932.073 6 103883030.11406     -3287.644 6        38.727
C16        45.000                                                                                                                                    38892072.750 5 202521254.31005     -1206.235 5        31.592    38892078.124 6 156602425.67306      -932.705 6        39.616
C09        46.000                                                                                                                                    38561046.631 6 200797504.20806      -603.242 6        37.263    38561044.742 7 155269365.79207      -466.364 7        44.539    38561034.977 4                      -490.536 4        26.240
C44        48.000                                                                                                                                    24870597.173 6 129507835.46906      1142.827 6        41.545                                                                    24870593.704 6 105235624.52406       928.416 6        38.102
C37        49.000                                                                                                                                    25113306.144 5                       501.085 5        34.210
C35        51.000                                                                                                                                    23084645.789 8 120208021.40508     -1407.174 8        51.852                                                                    23084643.750 7  97678748.24307     -1143.533 7        46.628
C20        55.000                                                                                                                                    22678687.341 8 118093864.82708     -2407.912 8        50.435                                                                    22678681.045 7  95961017.24107     -1956.744 7        47.030
C12        56.000                                                                                                                                    26908587.723 5 140120086.60015      2113.842 5        32.892
> 2025 01 01 02 31 35.0000000  0 38
G02         1.000    23719286.278 6 124645661.41306     -4155.598 6        36.752                                    23719287.984 2  97126508.95702     -3238.180 2        12.182
G31         4.000    22549097.044 5 118496216.55505     -2243.428 5        31.049                                    22549086.284 3  92334680.74603     -1748.147 3        22.190    22549118.663 4                     -1748.113 4        29.242
E34         6.000    25297559.126 8 132939576.60808      1294.306 8        48.602                                                                    25297558.794 8  99273108.40208       966.446 8        48.158    25297557.519 7 101862809.89707       991.721 7        46.275
E04         7.000    25575802.004 6 134401737.07506     -3120.044 6        37.735                                                                    25575801.223 7 100364925.37107     -2330.076 7        44.822    25575800.493 7 102983140.81307     -2390.865 7        43.901
G03         8.000    20496807.263 5 107711671.21005     -2262.722 5        34.867                                    20496803.871 3  83930963.91603     -1763.156 3        20.667    20496806.236 4  83931023.95604     -1763.326 4        29.640
G09         9.000    21220666.043 7 111515333.46107      1520.592 7        47.291                                    21220663.172 7  86895073.82407      1184.883 7        47.840    21220663.821 7  86895064.79507      1184.828 7        43.960
R14        10.000    23726172.267 5 126473929.99415     -2798.518 5        33.467                                                                    23726189.631 4                     -2176.926 4        26.982
G04        11.000    20192434.163 8 106111979.76208      -206.208 8        49.201                                    20192430.538 6  82684605.83306      -160.685 6        38.234    20192429.913 7  82684624.83507      -160.693 7        46.930
E09        12.000    23492809.021 7 123455640.52207      -846.029 7        46.109                                                                    23492807.103 7  92190893.23407      -631.660 7        45.242    23492807.451 8  94595849.93708      -648.224 8        48.256
E06        14.000    23896294.158 8 125575895.53108     -2090.424 8        48.216                                                                    23896293.828 7  93774206.43907     -1560.935 7        44.515    23896293.409 7  96220458.33307     -1601.764 7        46.714
E11        15.000    25889018.504 5 136047733.05105     -3631.422 5        35.400                                                                    25889041.611 3                     -2712.511 3        23.600    25889021.371 5 104244354.70705     -2782.572 5        34.452
G19        16.000    22560210.450 7 118554837.39807     -2031.063 7        42.533                                    22560210.128 2  92380285.18802     -1582.649 2        17.132
G28        17.000    24521399.875 4                     -3575.385 4        28.777                                                                                                    24521428.071 4                     -2785.818 4        29.393
G06        19.000    22550306.313 7 118502763.07907      1850.377 7        44.081                                    22550305.540 7  92339710.75607      1441.854 7        43.947    22550305.799 7  92339783.75307      1441.906 7        44.798
E36        20.000    23549410.852 7 123753128.47107     -1450.876 7        47.910                                                                    23549411.031 8  92412931.87208     -1083.489 8        49.526    23549410.679 8  94823735.14308     -1111.748 8        49.929
E05        21.000    24031634.493 6 126287078.14906      1560.823 6        37.913                                                                    24031632.851 5  94305332.19305      1165.560 5        34.719    24031637.334 7  96765458.80507      1195.931 7        45.988
G17        22.000                                                                                                                                                                    23518826.754 4                     -2539.766 4        24.316
R07        23.000    21536143.893 7 115284655.46907      1914.459 7        42.275                                                                    21536136.552 6  89665887.38806      1489.265 6        38.429
S23        24.000    38225373.042 6 200875585.55206      -826.136 6        40.484
S36        25.000    38279037.213 5 201157660.61505      -830.443 5        35.067
R20        27.000    23460206.617 3                     -5462.720 3        18.866                                                                    23460190.515 3                     -4247.659 3        21.500
R06        29.000    19485654.550 6 103979205.66506      -802.462 6        36.049
C05        32.000                                                                                                                                                                                                    39206288.129 6 157867481.89006      -654.306 6        36.854
C19        33.000                                                                                                                                    22272624.729 7 115979514.39207       140.113 7        44.933                                                                    22272618.392 7  94242737.33307       113.755 7        46.069
R21        34.000    20068020.423 7 107388137.13507     -3246.413 7        45.400                                                                    20068016.327 6  83524008.62106     -2524.807 6        40.613
R05        36.000    22321999.588 4 119323980.44904     -4202.442 4        24.902                                                                    22322001.586 4  92807496.61004     -3267.853 4        26.503
R22        37.000    20728476.157 8 110649989.43108      1349.826 8        51.875                                                                    20728472.245 7  86061142.64607      1049.787 7        44.200
C39        38.000                                                                                                                                    39348245.560 4 204896453.68404     -1598.419 4        29.972                                                                    39348187.656 4 166495092.13804     -1298.579 4        27.269
C22        39.000                                                                                                                                    25537576.103 6 132980848.35406      1917.777 6        38.456                                                                    25537594.516 4 108057808.65304      1558.671 4        26.120
C06        41.000                                                                                                                                    38384163.780 3                     -1114.811 3        23.829    38384008.101 6 154556487.53406      -861.870 6        36.163    38384039.189 3                      -905.255 3        20.881
C29        43.000                                                                                                                                    24554821.120 5                     -4046.426 5        30.966                                                                    24554816.744 6 103899468.64506     -3288.167 6        38.102
C16        45.000                                                                                                                                    38893228.876 5 202527287.01205     -1207.043 5        30.785    38893237.975 6 156607090.52606      -933.303 6        40.081
C09        46.000                                                                                                                                    38561625.871 6 200800520.67706      -603.707 6        38.093    38561624.122 7 155271698.32707      -466.858 7        44.360    38561614.034 4                      -489.982 4        27.940
C44        48.000                                                                                                                                    24869500.693 6 129502125.83506      1140.953 6        40.810                                                                    24869497.597 6 105230984.96706       926.864 6        38.520
C37        49.000                                                                                                                                    25112825.829 5 130769073.83615       498.898 5        35.790
C35        51.000                                                                                                                                    23085998.441 8 120215063.30008     -1409.811 8        51.901                                                                    23085995.714 7  97684470.35107     -1145.525 7        46.448
C20        55.000                                                                                                                                    22680999.379 8 118105906.25608     -2408.846 8        50.344                                                                    22680993.363 7  95970801.87007     -1957.380 7        46.926
C12        56.000                                                                                                                                    26906557.151 5 140109517.08205      2113.198 5        34.014    26906586.082 4                      1634.192 4        28.379
> 2025 01 01 02 31 40.0000000  0 39
G02         1.000    23723238.962 6 124666442.35606     -4156.720 6        36.087                                    23723242.607 1  97142701.89301     -3239.014 1        10.074
G31         4.000    22551237.046 6 118507442.75906     -2246.928 6        36.072                                    22551223.536 3  92343428.43203     -1750.855 3        21.833
E34         6.000    25296328.254 8 132933108.77308      1292.656 8        48.483                                                                    25296328.001 7  99268278.53407       965.289 7        47.744    25296326.777 7 101857854.03007       990.456 7        46.336
E04         7.000    25578770.770 6 134417340.19606     -3121.021 6        36.987                                                                    25578770.188 7 100376577.05307     -2330.778 7        44.214    25578769.775 7 102995096.44007     -2391.537 7        44.107
G03         8.000    20498964.094 5 107722988.74805     -2264.690 5        35.290                                    20498957.512 3  83939782.77003     -1764.711 3        20.190    20498963.970 5  83939842.85105     -1764.594 5        31.758
G09         9.000    21219220.396 7 111507735.76507      1518.293 7        47.490                                    21219217.344 7  86889153.53607      1183.085 7        47.896    21219217.730 7  86889144.51007      1183.119 7        43.554
R14        10.000    23728803.081 5 126487934.65905     -2802.785 5        31.260                                                                    23728820.399 4                     -2179.898 4        27.629
G04        11.000    20192631.543 8 106113017.75208      -209.183 8        49.294                                    20192627.509 6  82685414.65606      -162.999 6        38.066    20192627.266 7  82685433.65607      -162.963 7        46.412
E09        12.000    23493614.730 7 123459874.97307      -848.005 7        45.723                                                                    23493612.929 7  92194055.33907      -633.167 7        45.034    23493613.140 8  94599094.52808      -649.788 8        48.145
E06        14.000    23898283.728 7 125586351.14907     -2092.061 7        47.668                                                                    23898283.413 7  93782014.20207     -1562.233 7        44.263    23898283.159 7  96228469.77107     -1602.930 7        47.010
E11        15.000    25892473.987 5 136065893.50505     -3632.533 5        35.710                                                                    25892502.240 3                     -2713.220 3        21.714    25892477.260 5 104258269.84105     -2783.497 5        33.922
G19        16.000    22562145.355 7 118565001.74507     -2034.626 7        42.790                                    22562144.319 3  92388205.51303     -1585.432 3        18.507
G28        17.000    24524812.353 4                     -3577.215 4        28.607                                                                                                    24524827.233 5                     -2787.424 5        30.558
G06        19.000    22548547.339 7 118493516.09007      1848.191 7        44.108                                    22548545.809 7  92332505.31107      1440.152 7        43.860    22548546.121 7  92332578.31207      1440.212 7        45.081
E36        20.000    23550792.605 7 123760388.61407     -1453.331 7        47.545                                                                    23550792.579 8  92418353.39408     -1085.211 8        49.217    23550792.217 8  94829298.10208     -1113.565 8        50.293
E05        21.000    24030149.590 6 126279276.66806      1559.595 6        38.312                                                                    24030149.085 5  94299506.44805      1164.574 5        35.833    24030152.379 7  96759481.06707      1194.989 7        45.962
G17        22.000                                                                                                                                                                    23521929.667 3                     -2543.783 3        20.714
R07        23.000    21534354.307 7 115275087.54807      1912.528 7        44.804                                                                    21534349.329 6  89658445.66206      1487.582 6        39.357
S23        24.000    38226157.231 6 200879716.74406      -826.403 6        40.474
S36        25.000    38279825.260 5 201161813.42905      -830.746 5        35.029
R20        27.000                                                                                                                                    23465296.933 3                     -4249.750 3        22.286
R15        28.000    22507591.257 5                       478.176 5        33.413                                                                    22507655.069 3                       368.067 3        21.524
R06        29.000    19486408.622 6 103983223.92306      -805.098 6        36.310
C05        32.000                                                                                                                                                                                                    39207101.110 6 157870753.47506      -654.456 6        36.964
C19        33.000                                                                                                                                    22272491.299 7 115978817.83607       138.320 7        44.962                                                                    22272484.610 7  94242171.31307       112.636 7        46.328
R21        34.000    20071056.695 7 107404379.37607     -3250.599 7        45.541                                                                    20071052.085 6  83536641.46506     -2528.267 6        41.385
R05        36.000    22325926.062 4 119344992.37104     -4202.433 4        27.365
R22        37.000    20727212.980 8 110643250.19308      1345.753 8        51.371                                                                    20727209.730 7  86055901.03207      1046.638 7        44.351
C39        38.000                                                                                                                                    39349783.650 4 204904447.55204     -1599.275 4        27.245                                                                    39349722.141 4 166501587.75704     -1299.673 4        26.719
C22        39.000                                                                                                                                    25535740.841 6 132971260.35406      1917.184 6        38.730                                                                    25535753.183 4 108050017.60804      1557.631 4        28.104
C06        41.000                                                                                                                                                                                                    38385079.566 6 154560797.82906      -862.548 6        37.074    38385111.542 3                      -914.311 3        18.209
C29        43.000                                                                                                                                    24558718.890 4                     -4047.221 4        28.739                                                                    24558702.227 6 103915910.79106     -3288.913 6        37.671
C16        45.000                                                                                                                                    38894390.504 4 202533323.47904     -1208.081 4        29.033    38894397.898 6 156611758.28706      -933.908 6        40.265
C09        46.000                                                                                                                                    38562207.301 6 200803541.32806      -604.709 6        38.742    38562204.257 7 155274034.08007      -467.543 7        44.439    38562194.965 4                      -491.213 4        27.701
C44        48.000                                                                                                                                    24868406.908 6 129496427.46806      1138.431 6        40.443                                                                    24868403.572 6 105226354.53306       925.309 6        38.952
C37        49.000                                                                                                                                    25112345.406 5 130766585.65705       496.304 5        33.419
C35        51.000                                                                                                                                    23087352.842 8 120222119.50408     -1412.896 8        51.578                                                                    23087350.712 7  97690204.09107     -1147.877 7        46.400
C20        55.000                                                                                                                                    22683313.263 8 118117953.60708     -2410.231 8        50.784                                                                    22683306.807 7  95980591.33607     -1958.394 7        46.534
C12        56.000                                                                                                                                    26904524.739 5 140098953.75505      2111.682 5        33.760    26904551.587 5                      1633.120 5        33.018
> 2025 01 01 02 31 45.0000000  0 39
G02         1.000    23727194.376 6 124687227.60606     -4157.717 6        36.374                                    23727197.681 1  97158898.08301     -3239.831 1         8.190
G31         4.000    22553379.746 6 118518685.28806     -2250.474 6        38.634                                    22553363.824 3  92352188.82903     -1753.609 3        22.095    22553362.483 4                     -1753.437 4        28.559
E34         6.000    25295098.606 8 132926647.13608      1291.383 8        48.270                                                                    25295098.325 7  99263453.28707       964.357 7        47.692    25295097.082 7 101852902.90007       989.597 7        45.971
E04         7.000    25581740.828 6 134432946.74906     -3121.820 6        36.692                                                                    25581740.100 7 100388231.30207     -2331.381 7        44.301    25581739.636 7 103007054.71407     -2392.098 7        44.305
G03         8.000    20501118.381 5 107734315.07605     -2266.426 5        34.962                                    20501112.968 3  83948608.47103     -1766.062 3        19.343    20501117.726 5  83948668.56205     -1766.102 5        32.850
G09         9.000    21217776.461 7 111500147.65407      1516.392 7        47.998                                    21217773.229 7  86883240.71207      1181.605 7        47.817    21217773.846 7  86883231.69207      1181.620 7        43.465
R14        10.000    23731434.547 5 126501956.83905     -2806.467 5        34.890                                                                    23731455.714 4                     -2182.579 4        27.940
G04        11.000    20192831.461 8 106114068.38608      -211.701 8        49.315                                    20192827.019 6  82686233.33006      -164.962 6        38.114    20192827.300 7  82686252.33907      -164.933 7        45.892
E09        12.000    23494421.648 7 123464117.86207      -849.720 7        45.806                                                                    23494420.408 7  92197223.73007      -634.498 7        45.287    23494420.543 8  94602345.57308      -651.123 8        48.312
E06        14.000    23900274.506 7 125596813.56207     -2093.409 7        47.552                                                                    23900274.148 7  93789827.03807     -1563.301 7        44.403    23900274.089 7  96236486.42507     -1604.081 7        47.225
E11        15.000    25895931.764 5 136084058.76405     -3633.994 5        35.857                                                                                                                                    25895933.790 5 104272188.67405     -2784.197 5        33.293
G19        16.000    22564083.462 7 118575181.59407     -2037.813 7        43.429                                    22564082.092 3  92396137.87203     -1587.921 3        19.313
G28        17.000    24528214.565 4                     -3579.216 4        28.882                                                                                                    24528229.128 5                     -2788.979 5        30.491
G06        19.000    22546789.137 7 118484278.28707      1846.294 7        44.560                                    22546787.818 7  92325307.02307      1438.670 7        44.087    22546788.527 7  92325380.03607      1438.644 7        45.526
E36        20.000    23552176.071 7 123767659.05307     -1455.386 7        47.474                                                                    23552176.072 8  92423782.63108     -1086.838 8        49.132    23552175.846 8  94834868.96508     -1115.146 8        50.452
E05        21.000    24028665.538 6 126271480.23006      1558.392 6        38.754                                                                    24028667.402 6  94293684.40806      1163.716 6        36.367    24028667.817 7  96753507.17107      1194.140 7        45.505
G17        22.000    23525061.602 3                     -3264.416 3        20.810                                                                                                    23525036.832 4                     -2542.370 4        27.030
R07        23.000    21532571.979 7 115265526.95807      1911.055 7        45.792                                                                    21532564.603 6  89651009.64006      1486.384 6        38.766
S23        24.000    38226943.329 6 200883847.28006      -826.315 6        39.420
S36        25.000    38280621.365 5 201165964.99505      -830.133 5        35.248
R20        27.000                                                                                                                                    23470407.354 3                     -4248.223 3        22.971
R15        28.000    22507150.570 5 120271373.33415       474.080 5        35.052
R06        29.000    19487164.065 5 103987253.97505      -807.283 5        34.857
C05        32.000                                                                                                                                                                                                    39207914.829 6 157874024.65906      -654.273 6        37.263
C19        33.000                                                                                                                                    22272359.353 7 115978128.05007       136.981 7        45.309                                                                    22272352.096 7  94241610.79407       111.301 7        46.063
R21        34.000    20074094.705 7 107420640.71007     -3254.475 7        45.412                                                                    20074090.459 6  83549289.18606     -2531.399 6        41.209
R05        36.000    22329861.728 5 119366005.77115     -4203.044 5        31.766
R22        37.000    20725954.350 8 110636529.26508      1342.071 8        51.768                                                                    20725951.269 7  86050673.65807      1043.776 7        44.831
C39        38.000                                                                                                                                    39351316.726 4 204912443.75504     -1600.202 4        25.068                                                                    39351258.983 4 166508085.34204     -1299.909 4        26.096
C22        39.000                                                                                                                                    25533904.836 6 132961674.27706      1916.670 6        37.890                                                                    25533911.874 5 108042228.02205      1557.549 5        30.045
C06        41.000                                                                                                                                                                                                    38386152.630 6 154565110.65106      -862.977 6        37.369
C29        43.000                                                                                                                                    24562619.719 4                     -4048.227 4        29.204                                                                    24562588.810 6 103932355.90806     -3289.683 6        36.922
C16        45.000                                                                                                                                    38895550.920 5 202539362.89705     -1208.439 5        30.287    38895557.771 6 156616428.39906      -934.505 6        40.489
C09        46.000                                                                                                                                    38562788.649 6 200806565.33406      -605.527 6        38.664    38562785.161 7 155276372.43207      -468.242 7        44.227    38562775.109 4                      -492.110 4        27.365
C44        48.000                                                                                                                                    24867314.180 6 129490739.57706      1136.196 6        39.628                                                                    24867311.182 6 105221732.62806       923.370 6        39.027
C37        49.000                                                                                                                                    25111862.501 5 130764108.61705       494.162 5        34.657
C35        51.000                                                                                                                                    23088710.247 8 120229189.22708     -1415.602 8        51.044                                                                    23088708.308 7  97695948.81007     -1150.295 7        46.042
C20        55.000                                                                                                                                    22685628.004 8 118130006.11608     -2411.286 8        51.193                                                                    22685621.158 7  95990384.96907     -1959.308 7        46.355
C12        56.000                                                                                                                                    26902490.966 5 140088395.83005      2110.637 5        31.864    26902525.294 5 108325319.62715      1632.195 5        33.784
> 2025 01 01 02 31 50.0000000  0 39
G02         1.000    23731151.304 5 124708018.35805     -4158.695 5        35.486                                    23731154.204 1  97175098.72301     -3240.703 1         5.000
G31         4.000    22555520.852 6 118529945.18106     -2253.714 6        41.409                                    22555507.350 3  92360962.78503     -1756.126 3        23.600    22555509.635 4                     -1756.047 4        26.503
E34         6.000    25293870.628 8 132920192.96508      1290.161 8        48.413                                                                    25293870.146 7  99258633.60807       963.476 7        47.418    25293868.746 7 101847957.49507       988.578 7        45.765
E04         7.000    25584712.018 6 134448557.97106     -3122.606 6        37.198                                                                    25584710.713 7 100399889.04107     -2331.917 7        44.111    25584710.511 7 103019016.57107     -2392.685 7        44.340
G03         8.000    20503270.102 5 107745651.44005     -2268.103 5        30.528                                    20503270.794 3  83957442.02803     -1767.376 3        20.310    20503273.134 5  83957502.11605     -1767.524 5        34.714
G09         9.000    21216334.459 7 111492570.37607      1514.411 7        47.407                                    21216331.131 7  86877336.33607      1180.060 7        47.637    21216332.040 7  86877327.31807      1180.126 7        43.401
R14        10.000    23734074.064 5 126515997.84605     -2810.271 5        35.157                                                                    23734090.143 4                     -2185.261 4        24.872
G04        11.000    20193033.954 8 106115132.92108      -214.238 8        49.181                                    20193029.315 6  82687062.83406      -166.937 6        38.321    20193030.283 7  82687081.84707      -166.988 7        46.071
E09        12.000    23495230.592 7 123468370.41607      -851.442 7        45.564                                                                    23495229.681 7  92200399.35207      -635.866 7        45.076    23495229.789 8  94605604.03708      -652.427 8        48.383
E06        14.000    23902267.159 7 125607284.03507     -2094.889 7        47.101                                                                    23902266.467 7  93797645.90007     -1564.362 7        44.141    23902266.421 7  96244509.25007     -1605.119 7        47.154
E11        15.000    25899389.938 5 136102230.02705     -3634.941 5        35.990                                                                                                                                    25899391.613 5 104286112.10305     -2785.174 5        32.814
G19        16.000    22566025.058 7 118585378.10107     -2040.976 7        43.528                                    22566023.027 3  92404083.21103     -1590.375 3        20.881
G28        17.000    24531618.852 5                     -3581.498 5        30.936
G06        19.000    22545033.265 7 118475050.91807      1844.468 7        46.189                                    22545031.807 7  92318116.86607      1437.243 7        44.473    22545032.107 7  92318189.89307      1437.242 7        45.669
E36        20.000    23553561.489 7 123774941.06507     -1457.498 7        47.594                                                                    23553561.854 8  92429220.49908     -1088.406 8        48.936    23553561.744 8  94840448.69008     -1116.806 8        50.535
E05        21.000    24027183.634 6 126263690.02306      1557.614 6        39.087                                                                    24027186.417 6  94287867.08606      1163.091 6        36.560    24027184.289 7  96747538.06207      1193.402 7        44.716
G17        22.000                                                                                                                                                                    23528145.875 5                     -2543.883 5        31.555
R07        23.000    21530790.895 7 115255975.30107      1909.489 7        45.434                                                                    21530779.811 6  89643580.58606      1484.951 6        39.192
S23        24.000    38227729.350 6 200887978.24506      -826.048 6        40.005
S36        25.000    38281407.468 5 201170117.14105      -830.314 5        35.186
R20        27.000                                                                                                                                    23475516.778 4                     -4249.873 4        25.338
R15        28.000    22506708.610 6 120269012.45706       470.075 6        36.711
R06        29.000    19487920.960 5 103991296.98205      -809.761 5        33.641
C05        32.000                                                                                                                                                                                                    39208726.558 6 157877296.41106      -654.396 6        36.885
C19        33.000                                                                                                                                    22272228.695 7 115977446.30307       135.623 7        44.026                                                                    22272221.191 7  94241056.81707       110.203 7        46.098
R21        34.000    20077136.382 7 107436922.62907     -3258.446 7        45.625                                                                    20077133.356 6  83561952.90306     -2534.401 6        40.758
R05        36.000    22333794.931 5 119387022.10005     -4203.320 5        33.611
R22        37.000    20724698.628 8 110629827.88308      1338.402 8        50.847                                                                    20724696.330 7  86045461.48707      1040.989 7        46.053
C39        38.000                                                                                                                                                                                                                                                                    39352793.530 4 166514585.93004     -1301.147 4        25.248
C22        39.000                                                                                                                                    25532065.569 6 132952091.32306      1916.379 6        36.068                                                                    25532073.118 5 108034441.13705      1557.115 5        31.592
C06        41.000                                                                                                                                                                                                    38387224.415 6 154569426.92906      -863.517 6        37.531
C29        43.000                                                                                                                                    24566511.528 3                     -4047.966 3        22.190                                                                    24566476.077 6 103948804.98706     -3289.986 6        37.149
C16        45.000                                                                                                                                    38896717.693 4 202545406.53104     -1208.360 4        29.782    38896718.255 6 156621101.76506      -934.939 6        40.250
C09        46.000                                                                                                                                    38563369.788 6 200809593.93206      -606.163 6        38.763    38563366.381 7 155278714.35607      -468.732 7        43.875    38563357.748 4                      -492.432 4        28.209
C44        48.000                                                                                                                                    24866222.813 6 129485063.41006      1134.184 6        39.120                                                                    24866220.874 6 105217120.29006       921.497 6        39.195
C37        49.000                                                                                                                                    25111385.864 6 130761644.03906       491.768 6        36.892
C35        51.000                                                                                                                                    23090070.596 8 120236273.70108     -1418.318 8        50.475                                                                    23090068.728 7  97701705.52607     -1152.424 7        45.920
C20        55.000                                                                                                                                    22687943.560 8 118142065.02108     -2412.375 8        50.988                                                                    22687936.724 7  96000183.82407     -1960.226 7        45.943
C12        56.000                                                                                                                                    26900459.347 5 140077844.68405      2109.794 5        30.868    26900496.188 5 108317160.73305      1631.447 5        34.790
> 2025 01 01 02 31 55.0000000  0 38
G02         1.000    23735108.292 6 124728813.61706     -4159.708 6        36.102                                    23735111.357 1  97191302.88601     -3241.317 1         5.857
G31         4.000    22557664.850 6 118541221.49906     -2256.958 6        41.063                                    22557653.971 4  92369749.53804     -1758.662 4        24.617    22557656.806 4                     -1758.815 4        28.445
E34         6.000    25292643.487 8 132913745.22008      1288.899 8        48.460                                                                    25292643.280 7  99253818.73107       962.533 7        47.403    25292641.721 7 101843017.01307       987.568 7        45.911
E04         7.000    25587684.074 6 134464172.85406     -3123.272 6        37.826                                                                    25587682.303 7 100411549.50307     -2332.480 7        44.092    25587681.773 7 103030981.22007     -2393.215 7        44.435
G03         8.000    20505424.766 5 107756996.80305     -2270.174 5        33.048                                    20505430.127 3  83966282.58203     -1768.958 3        20.524    20505433.203 5  83966342.60005     -1768.600 5        34.171
G09         9.000    21214894.492 7 111485002.90107      1512.530 7        46.904                                    21214890.964 7  86871439.59707      1178.595 7        47.567    21214892.057 7  86871430.58807      1178.529 7        43.289
G04        11.000    20193238.810 8 106116210.31808      -216.783 8        49.456                                    20193234.232 6  82687902.36506      -168.919 6        38.673    20193235.677 7  82687921.36607      -168.937 7        46.172
E09        12.000    23496041.909 7 123472631.60007      -853.146 7        45.008                                                                    23496040.322 7  92203581.40707      -637.114 7        45.174    23496040.538 8  94608869.09008      -653.664 8        48.304
E06        14.000    23904261.284 7 125617761.49807     -2096.177 7        46.843                                                                    23904260.113 7  93805469.97807     -1565.323 7        43.772    23904260.281 7  96252537.44107     -1606.159 7        47.142
E11        15.000    25902848.454 5 136120406.29005     -3635.664 5        35.476                                                                                                                                    25902850.614 5 104300039.38305     -2785.825 5        32.192
G19        16.000    22567967.906 7 118595590.18407     -2044.014 7        43.591                                    22567967.020 3  92412040.67703     -1592.745 3        21.881
G28        17.000    24535037.680 4                     -3583.508 4        29.877
G06        19.000    22543279.000 7 118465832.94907      1842.738 7        46.923                                    22543277.661 7  92310934.03707      1435.899 7        44.975    22543278.066 7  92311007.06007      1435.845 7        45.299
E36        20.000    23554949.104 7 123782233.60507     -1459.601 7        47.199                                                                    23554949.627 8  92434666.22008     -1089.918 8        48.987    23554949.699 8  94846036.47508     -1118.405 8        51.020
E05        21.000    24025702.893 6 126255905.06306      1556.477 6        38.754                                                                    24025703.552 6  94282053.64106      1162.250 6        37.743    24025702.317 7  96741572.98207      1192.561 7        44.322
G17        22.000                                                                                                                                                                    23531256.542 5                     -2545.023 5        33.048
R07        23.000    21529006.075 7 115246431.27407      1908.021 7        43.949                                                                    21528997.722 6  89636157.44806      1484.062 6        39.766
S23        24.000    38228513.579 6 200892108.88106      -826.121 6        39.550
S36        25.000    38282207.343 5 201174269.50505      -830.535 5        35.990
R20        27.000                                                                                                                                    23480622.029 4                     -4247.584 4        24.857
R15        28.000    22506274.256 6 120266671.20306       466.193 6        39.919                                                                    22506269.304 4                       362.945 4        25.925
R06        29.000    19488678.868 5 103995351.85505      -812.008 5        33.737
C05        32.000                                                                                                                                                                                                    39209539.401 6 157880567.94306      -654.187 6        37.134
C19        33.000                                                                                                                                    22272099.542 6 115976771.57306       134.165 6        41.981                                                                    22272091.626 7  94240508.52707       108.992 7        46.445
R21        34.000    20080182.634 7 107453223.87507     -3262.227 7        44.930                                                                    20080180.300 7  83574631.66707     -2537.336 7        42.053
R05        36.000    22337725.495 5 119408040.20905     -4204.106 5        31.758                                                                    22337735.414 3                     -3271.841 3        20.262
R22        37.000    20723446.188 8 110623145.04108      1334.657 8        50.459                                                                    20723443.786 7  86040263.72707      1038.112 7        46.880
C39        38.000                                                                                                                                                                                                                                                                    39354330.875 4 166521088.63904     -1300.951 4        24.571
C22        39.000                                                                                                                                    25530222.742 5 132942510.44205      1916.023 5        33.796                                                                    25530235.778 5 108026655.92305      1556.895 5        32.629
C06        41.000                                                                                                                                                                                                    38388296.035 6 154573745.83606      -863.955 6        37.100
C29        43.000                                                                                                                                                                                                                                                                    24570364.411 6 103965257.21306     -3290.898 6        36.628
C16        45.000                                                                                                                                                                                                    38897879.370 6 156625777.60206      -935.464 6        40.415
C09        46.000                                                                                                                                    38563953.472 6 200812626.11906      -606.673 6        39.781    38563948.107 7 155281059.02407      -469.303 7        43.604    38563939.184 4                      -493.217 4        28.161
C44        48.000                                                                                                                                    24865134.796 6 129479397.95006      1132.044 6        40.021                                                                    24865133.486 6 105212516.65806       919.634 6        39.667
C37        49.000                                                                                                                                    25110918.857 6 130759190.78306       489.411 6        37.384
C35        51.000                                                                                                                                    23091433.840 8 120243371.89108     -1420.978 8        50.167                                                                    23091431.787 7  97707473.39507     -1154.750 7        45.142
C20        55.000                                                                                                                                    22690260.034 8 118154129.25908     -2413.384 8        51.126                                                                    22690253.385 7  96009987.02707     -1961.104 7        45.406
C12        56.000                                                                                                                                    26898432.265 5 140067299.44605      2108.428 5        32.228    26898469.110 6 108309006.43506      1630.522 6        37.323
> 2025 01 01 02 32  0.0000000  0 39
G02         1.000    23739064.866 5 124749613.68505     -4160.432 5        34.419                                    23739069.526 1  97207510.85701     -3241.724 1         4.143
G31         4.000    22559813.433 6 118552514.60806     -2260.500 6        41.044                                    22559803.623 4  92378549.38304     -1761.422 4        24.632    22559803.587 4                     -1761.035 4        26.946
E34         6.000    25291417.589 8 132907304.28208      1287.255 8        48.322                                                                    25291417.243 7  99249008.94407       961.307 7        46.831    25291415.932 7 101838081.73607       986.389 7        45.103
E04         7.000    25590656.682 6 134479791.72706     -3124.373 6        38.285                                                                    25590654.108 7 100423212.93907     -2333.190 7        44.319    25590654.185 7 103042948.92607     -2394.040 7        44.769
G03         8.000    20507594.028 6 107768351.47206     -2271.993 6        38.324                                    20507591.414 3  83975130.36803     -1770.393 3        23.162    20507592.314 5  83975190.42105     -1770.609 5        31.185
G09         9.000    21213456.720 7 111477445.61907      1510.215 7        46.277                                    21213452.694 7  86865550.82007      1176.797 7        47.395    21213453.595 7  86865541.79107      1176.810 7        43.424
R14        10.000    23739345.473 4 126544133.91214     -2817.009 4        29.934
G04        11.000    20193446.630 8 106117300.93108      -219.604 8        49.066                                    20193441.791 6  82688752.18806      -171.116 6        38.940    20193443.130 7  82688771.19307      -171.141 7        46.880
E09        12.000    23496854.912 7 123476901.78307      -855.172 7        45.788                                                                    23496852.936 7  92206770.18507      -638.606 7        45.220    23496853.238 8  94612141.05708      -655.217 8        48.363
E06        14.000    23906256.886 7 125628246.34207     -2097.926 7        47.101                                                                    23906255.402 7  93813299.57807     -1566.638 7        43.873    23906255.299 7  96260571.28207     -1607.487 7        46.806
E11        15.000    25906307.677 5 136138587.92705     -3637.103 5        34.948                                                                                                                                    25906310.872 5 104313970.76605     -2786.872 5        30.211
G19        16.000    22569914.356 7 118605818.21607     -2047.398 7        44.364                                    22569913.960 3  92420010.55803     -1595.372 3        21.619
G28        17.000    24538450.221 4                     -3585.551 4        28.427                                                                                                    24538427.240 4                     -2793.579 4        25.053
G06        19.000    22541526.600 7 118456624.79307      1840.461 7        47.060                                    22541525.424 7  92303758.85707      1434.125 7        45.740    22541525.992 7  92303831.87107      1434.111 7        45.394
E36        20.000    23556339.151 7 123789537.02807     -1461.951 7        47.475                                                                    23556339.425 8  92440120.07908     -1091.677 8        49.289    23556339.684 8  94851632.60608     -1120.185 8        51.257
E05        21.000    24024222.721 6 126248125.70106      1555.024 6        39.051                                                                    24024224.317 6  94276244.38606      1161.223 6        38.054    24024221.736 7  96735612.16307      1191.658 7        43.941
G17        22.000    23534416.921 5                     -3267.639 5        34.400                                                                                                    23534364.744 5  96369289.06515     -2546.158 5        34.771
R07        23.000                                                                                                                                    21527216.871 6  89628740.60706      1482.563 6        40.613
S23        24.000    38229301.193 6 200896239.61906      -826.334 6        39.450
S36        25.000    38283003.336 6 201178421.90506      -830.625 6        36.336
R20        27.000                                                                                                                                    23485733.536 3                     -4248.325 3        21.738
R15        28.000    22505845.995 6 120264349.85116       461.971 6        40.262                                                                    22505841.705 4                       359.809 4        28.635
R06        29.000    19489441.938 5 103999419.03605      -814.784 5        34.348
C05        32.000                                                                                                                                                                                                    39210351.000 6 157883839.55006      -654.403 6        36.631
C19        33.000                                                                                                                                    22271968.465 6 115976104.15706       132.559 6        40.036                                                                    22271963.427 7  94239966.16507       107.737 7        46.241
R21        34.000    20083231.101 7 107469544.89707     -3266.461 7        44.226                                                                    20083231.796 7  83587325.77707     -2540.474 7        43.852
R05        36.000    22341658.705 5 119429060.40505     -4204.422 5        32.365                                                                    22341669.834 3                     -3270.887 3        23.333
R22        37.000    20722197.716 8 110616481.08508      1330.678 8        50.943                                                                    20722195.431 7  86035080.66607      1035.012 7        47.419
C39        38.000                                                                                                                                    39355940.576 4                     -1601.952 4        27.353                                                                    39355867.384 4 166527593.67004     -1300.416 4        24.376
C22        39.000                                                                                                                                    25528383.513 5 132932931.94805      1915.241 5        33.599                                                                    25528395.040 5 108018872.66405      1556.360 5        33.036
C06        41.000                                                                                                                                                                                                    38389366.849 6 154578067.71506      -864.732 6        37.112
C29        43.000                                                                                                                                    24574247.968 5                     -4050.688 5        33.198                                                                    24574253.043 6 103981712.82006     -3291.732 6        36.333
C16        45.000                                                                                                                                    38899033.628 4                     -1209.976 4        27.018    38899040.628 6 156630456.17506      -936.010 6        41.626
C09        46.000                                                                                                                                    38564537.409 6 200815662.24306      -607.893 6        39.922    38564530.653 7 155283406.74707      -470.004 7        43.041    38564523.581 4                      -493.514 4        29.365
C44        48.000                                                                                                                                    24864050.029 6 129473743.58606      1129.522 6        41.209                                                                    24864047.955 6 105207922.00406       917.929 6        40.026
C37        49.000                                                                                                                                    25110451.482 6 130756749.28606       486.867 6        36.178
C35        51.000                                                                                                                                    23092799.488 8 120250484.16608     -1424.080 8        48.967                                                                    23092797.668 7  97713252.68407     -1157.157 7        45.077
C20        55.000                                                                                                                                    22692578.214 8 118166199.19808     -2414.771 8        51.639                                                                    22692571.215 7  96019794.82307     -1962.180 7        44.959
C12        56.000                                                                                                                                    26896412.974 5 140056760.09205      2106.679 5        30.468    26896440.582 6 108300856.68306      1629.428 6        37.157
> 2025 01 01 02 32  5.0000000  0 38
G02         1.000    23743024.318 5 124770419.34005     -4162.350 5        32.323                                    23743028.673 1  97223722.90401     -3243.385 1         4.714
G31         4.000    22561966.447 6 118563825.13306     -2263.927 6        40.110                                    22561956.454 4  92387362.76104     -1764.106 4        24.752    22561958.900 5                     -1763.811 5        31.457
E34         6.000    25290193.340 8 132900870.79808      1285.893 8        48.341                                                                    25290192.736 7  99244204.73107       960.255 7        46.937    25290191.111 7 101833152.19907       985.273 7        44.710
E04         7.000    25593629.866 6 134495415.22806     -3125.275 6        39.477                                                                    25593627.332 7 100434879.85207     -2333.788 7        44.078    25593627.083 7 103054920.18507     -2394.663 7        44.918
G03         8.000    20509762.411 6 107779716.17006     -2274.023 6        40.491                                    20509754.361 4  83983985.98004     -1771.967 4        25.293    20509755.521 5  83984046.03505     -1772.195 5        32.916
G09         9.000    21212020.694 7 111469899.15807      1508.159 7        46.182                                    21212016.512 7  86859670.44907      1175.191 7        47.093    21212017.601 7  86859661.44207      1175.228 7        43.433
R14        10.000    23741995.123 5 126558229.84205     -2821.451 5        34.000                                                                    23742016.501 3                     -2190.365 3        21.452
G04        11.000    20193656.905 8 106118405.43008      -222.382 8        49.198                                    20193652.105 6  82689612.83306      -173.280 6        39.393    20193653.642 7  82689631.84307      -173.315 7        47.937
E09        12.000    23497669.423 7 123481181.61107      -856.914 7        45.928                                                                    23497667.546 7  92209966.15607      -639.897 7        45.482    23497667.671 7  94615420.41107      -656.694 7        47.993
E06        14.000    23908253.742 7 125638739.19807     -2099.438 7        47.537                                                                    23908252.319 7  93821135.14707     -1567.839 7        44.170    23908252.218 7  96268611.25907     -1608.623 7        47.070
E11        15.000    25909767.812 5 136156775.55405     -3638.194 5        33.204                                                                                                                                    25909775.265 4 104327906.78104     -2788.247 4        29.564
G19        16.000    22571863.976 7 118616062.82507     -2050.679 7        45.141                                    22571863.820 3  92427993.32503     -1597.890 3        21.690
G28        17.000    24541856.260 3                     -3586.935 3        20.786                                                                                                    24541836.615 3                     -2796.383 3        20.571
G06        19.000    22539776.391 7 118447427.08507      1838.459 7        47.548                                    22539775.213 7  92296591.81507      1432.565 7        46.353    22539775.974 7  92296664.83007      1432.631 7        45.345
E36        20.000    23557731.175 7 123796852.00907     -1464.194 7        46.954                                                                    23557731.588 8  92445582.56108     -1093.402 8        49.405    23557731.687 8  94857237.58908     -1121.922 8        51.430
E05        21.000    24022744.109 6 126240352.61006      1553.859 6        38.375                                                                    24022743.248 6  94270439.79106      1160.488 6        36.888    24022742.266 7  96729656.14507      1190.757 7        43.285
G17        22.000    23537518.875 5 123690537.11415     -3268.893 5        34.343                                                                                                    23537472.652 5  96382023.62205     -2547.869 5        35.252
R07        23.000    21525430.569 6 115227368.10406      1904.443 6        41.321                                                                    21525437.071 6  89621330.55406      1481.213 6        41.983
S23        24.000    38230084.541 6 200900371.03906      -826.470 6        39.087
S36        25.000    38283782.431 5 201182575.18305      -830.940 5        35.733
R15        28.000    22505416.961 6 120262049.18506       457.899 6        40.303                                                                    22505410.475 5                       356.195 5        32.180
R06        29.000    19490207.052 5 104003499.17205      -817.431 5        33.790
C05        32.000                                                                                                                                                                                                    39211162.998 6 157887111.71006      -654.655 6        36.287
C19        33.000                                                                                                                                    22271841.837 6 115975444.72606       131.048 6        41.452                                                                    22271836.870 7  94239430.32707       106.631 7        46.397
R21        34.000    20086284.821 7 107485886.34407     -3270.311 7        44.119                                                                    20086285.716 7  83600035.82707     -2543.609 7        43.917
R05        36.000    22345590.008 5 119450083.69905     -4205.044 5        30.158                                                                    22345606.190 3                     -3273.517 3        21.048
R22        37.000    20720953.398 8 110609836.74908      1326.830 8        50.831                                                                    20720950.706 7  86029912.84407      1031.941 7        46.828
C39        38.000                                                                                                                                    39357483.791 4                     -1602.197 4        29.763                                                                    39357402.042 3                     -1301.932 3        23.086
C22        39.000                                                                                                                                                                                                                                                                    25526554.737 5 108011091.85905      1556.481 5        30.385
C06        41.000                                                                                                                                    38390458.631 5                     -1119.067 5        34.638    38390443.259 6 154582393.07706      -865.480 6        37.433
C29        43.000                                                                                                                                    24578145.644 5                     -4051.663 5        35.833                                                                    24578142.575 5 103998172.36005     -3292.232 5        35.871
C16        45.000                                                                                                                                    38900204.777 5                     -1211.406 5        30.604    38900203.418 6 156635138.05306      -936.760 6        40.577
C09        46.000                                                                                                                                    38565121.149 6 200818702.93306      -608.576 6        39.814    38565114.508 7 155285758.02707      -470.717 7        43.079    38565109.193 5                      -494.375 5        31.230
C44        48.000                                                                                                                                    24862966.364 6 129468100.94706      1127.176 6        41.640                                                                    24862964.356 6 105203336.90506       916.181 6        39.655
C37        49.000                                                                                                                                    25109984.893 6 130754320.17806       484.456 6        37.618
C35        51.000                                                                                                                                    23094167.870 8 120257611.17408     -1426.961 8        48.598                                                                    23094166.586 7  97719043.94307     -1159.270 7        45.087
C20        55.000                                                                                                                                    22694897.778 8 118178275.52808     -2415.993 8        51.707                                                                    22694889.929 7  96029607.81907     -1962.991 7        43.926
C12        56.000                                                                                                                                    26894389.687 5 140046227.43605      2105.994 5        30.891    26894413.516 6 108292712.25706      1628.344 6        37.229
> 2025 01 01 02 32 10.0000000  0 38
G02         1.000    23746985.234 5 124791229.79205     -4162.011 5        31.758                                    23746988.702 1  97239938.88001     -3243.213 1         4.286
G31         4.000    22564122.099 6 118575152.56806     -2267.427 6        38.318                                    22564112.447 4  92396189.35204     -1766.823 4        24.165    22564115.479 5                     -1766.543 5        32.796
E34         6.000    25288970.509 7 132894444.22407      1284.544 7        47.830                                                                    25288969.935 7  99239405.66407       959.305 7        46.574    25288968.454 7 101828227.94007       984.320 7        44.554
E04         7.000    25596603.541 6 134511042.81106     -3126.023 6        40.360                                                                    25596601.449 7 100446549.78607     -2334.219 7        44.060    25596601.170 7 103066894.56307     -2395.188 7        45.017
G03         8.000    20511927.075 6 107791090.28506     -2275.698 6        41.051                                    20511919.100 4  83992848.93804     -1773.278 4        27.796    20511922.500 5  83992908.99005     -1773.433 5        34.786
G09         9.000    21210587.364 7 111462362.98607      1506.096 7        47.326                                    21210582.404 7  86853798.10207      1173.580 7        47.350    21210583.579 7  86853789.10707      1173.581 7        43.386
R14        10.000    23744650.800 6 126572344.06706     -2824.735 6        36.567
G04        11.000    20193869.672 8 106119523.23908      -224.889 8        49.263                                    20193865.035 6  82690483.85306      -175.236 6        39.739    20193866.075 8  82690502.85808      -175.272 8        48.362
E09        12.000    23498485.522 7 123485470.51807      -858.781 7        46.208                                                                    23498483.803 7  92213168.90707      -641.276 7        46.120    23498483.694 7  94618706.71707      -657.956 7        47.978
E06        14.000    23910251.993 7 125649239.49007     -2100.797 7        47.371                                                                    23910250.477 7  93828976.27707     -1568.783 7        44.740    23910250.612 7  96276656.94207     -1609.683 7        47.089
E11        15.000    25913229.830 5 136174968.60805     -3639.082 5        33.048
G19        16.000    22573816.840 7 118626323.46807     -2053.787 7        45.743                                    22573816.104 3  92435988.57703     -1600.341 3        21.429
G28        17.000                                                                                                                                                                    24545257.124 3                     -2797.103 3        21.643
G06        19.000    22538027.748 7 118438239.29007      1836.492 7        47.573                                    22538026.822 7  92289432.50207      1431.033 7        46.289    22538027.846 7  92289505.51707      1431.109 7        45.022
E36        20.000    23559125.224 7 123804177.97607     -1466.328 7        46.742                                                                    23559125.751 8  92451053.24408     -1094.979 8        49.603    23559125.800 8  94862850.98308     -1123.531 8        51.396
E05        21.000    24021265.935 6 126232585.21306      1552.828 6        38.979                                                                    24021261.638 6  94264639.42106      1159.624 6        36.253    24021263.625 7  96723704.49707      1189.844 7        42.186
G17        22.000                                                                                                                                                                    23540582.941 5  96394764.41605     -2548.902 5        34.605
R07        23.000    21523655.295 7 115217849.16207      1902.987 7        42.400                                                                    21523658.973 7  89613926.94907      1480.155 7        43.185
S23        24.000    38230874.989 6 200904502.39906      -826.121 6        40.725
S36        25.000    38284575.152 6 201186727.70006      -830.401 6        36.189
R15        28.000    22504988.093 6 120259768.53406       454.073 6        36.605                                                                    22504985.050 5  93535408.13315       353.597 5        34.148
R06        29.000    19490972.835 5 104007591.72205      -819.868 5        32.575
C05        32.000                                                                                                                                                                                                    39211974.906 6 157890383.97506      -654.487 6        36.268
C19        33.000                                                                                                                                    22271717.118 7 115974792.71307       129.667 7        44.182                                                                    22271711.685 7  94238900.53707       105.215 7        46.267
R21        34.000    20089341.661 7 107502247.64007     -3274.316 7        42.603                                                                    20089343.462 7  83612761.27607     -2546.556 7        44.020
R05        36.000                                                                                                                                    22349528.711 4                     -3270.415 4        24.526
R22        37.000    20719711.817 8 110603211.44208      1323.101 8        49.682                                                                    20719709.642 7  86024759.84707      1029.105 7        46.972
C39        38.000                                                                                                                                    39359015.313 4                     -1602.809 4        27.748                                                                    39358942.373 3                     -1302.928 3        23.200
C22        39.000                                                                                                                                    25524729.096 5 132913783.68505      1914.339 5        34.795                                                                    25524720.633 5 108003313.27405      1555.486 5        30.641
C06        41.000                                                                                                                                    38391533.422 5                     -1119.833 5        34.486    38391519.345 6 154586721.42006      -865.948 6        37.282
C29        43.000                                                                                                                                    24582039.530 6 128005079.14616     -4052.486 6        37.531                                                                    24582032.908 5 104014635.34805     -3293.102 5        35.200
C16        45.000                                                                                                                                                                                                    38901366.817 6 156639822.74106      -937.385 6        41.361
C09        46.000                                                                                                                                    38565704.928 6 200821747.69106      -609.392 6        38.673    38565699.885 7 155288112.43407      -471.159 7        43.367    38565693.075 4                      -495.000 4        29.668
C44        48.000                                                                                                                                    24861885.013 7 129462469.50507      1125.196 7        42.921                                                                    24861883.117 6 105198760.92406       914.120 6        40.634
C37        49.000                                                                                                                                    25109520.697 5 130751902.91705       482.121 5        35.710
C35        51.000                                                                                                                                    23095538.574 7 120264752.34807     -1429.681 7        47.909                                                                    23095538.210 7  97724846.72807     -1161.692 7        44.767
C20        55.000                                                                                                                                    22697218.104 8 118190357.62208     -2417.038 8        52.029                                                                    22697209.810 7  96039425.52307     -1964.151 7        43.372
C12        56.000                                                                                                                                    26892366.815 4 140035700.92904      2104.508 4        29.365    26892390.643 6 108284572.38806      1627.388 6        38.649
> 2025 01 01 02 32 15.0000000  0 38
G02         1.000    23750946.440 5 124812044.78805     -4163.423 5        32.359                                    23750949.594 1  97256158.24901     -3244.229 1         4.143
G31         4.000    22566280.059 5 118586496.32405     -2270.362 5        34.200                                    22566271.221 4  92405028.62904     -1769.130 4        24.060    22566274.745 5  92405122.67715     -1769.218 5        32.934
E34         6.000    25287748.876 7 132888024.12407      1283.432 7        47.617                                                                    25287748.445 7  99234611.44307       958.469 7        46.788    25287746.814 7 101823308.65207       983.433 7        44.020
E04         7.000    25599578.130 6 134526674.00406     -3126.581 6        41.168                                                                    25599575.996 7 100458222.44607     -2334.730 7        44.062    25599575.655 7 103078871.72407     -2395.712 7        44.993
G03         8.000    20514090.423 7 107802473.38707     -2277.365 7        42.275                                    20514085.784 4  84001718.89804     -1774.572 4        29.469    20514089.296 5  84001778.95405     -1774.620 5        34.657
G09         9.000    21209154.870 7 111454836.64307      1504.339 7        47.413                                    21209150.282 7  86847933.41307      1172.211 7        47.337    21209151.327 7  86847924.40907      1172.226 7        44.024
R14        10.000    23747310.820 6 126586476.26406     -2828.411 6        37.085
G04        11.000    20194084.930 8 106120653.91008      -227.358 8        49.495                                    20194080.469 6  82691364.89506      -177.165 6        40.040    20194080.815 8  82691383.89708      -177.151 8        48.841
E09        12.000    23499303.032 7 123489768.04907      -860.260 7        46.214                                                                    23499301.719 7  92216378.11007      -642.462 7        46.302    23499301.555 7  94621999.64107      -659.243 7        47.592
E06        14.000    23912251.057 7 125659746.79907     -2102.088 7        47.474                                                                    23912250.013 7  93836822.62907     -1569.719 7        44.959    23912250.407 7  96284708.00207     -1610.730 7        47.283
E11        15.000    25916693.577 5 136193166.65305     -3639.901 5        32.964
G19        16.000    22575772.340 7 118636599.69107     -2056.708 7        46.010                                    22575770.127 3  92443995.97003     -1602.617 3        22.419
G28        17.000                                                                                                                                                                    24548669.804 4                     -2797.341 4        24.436
G06        19.000    22536281.255 7 118429060.95207      1834.877 7        47.350                                    22536280.229 7  92282280.55507      1429.774 7        46.485    22536281.317 7  92282353.57007      1429.695 7        45.368
E36        20.000    23560521.528 7 123811514.48207     -1468.321 7        47.233                                                                    23560521.877 8  92456531.80508     -1096.464 8        49.745    23560521.806 8  94868472.45908     -1125.055 8        51.464
E05        21.000    24019788.615 6 126224823.06106      1552.030 6        40.820                                                                    24019784.118 5  94258843.01605      1159.030 5        35.133    24019786.791 6  96717756.86806      1189.250 6        41.547
G17        22.000    23543722.236 5 123723246.05605     -3272.604 5        30.785                                                                                                    23543695.448 5  96407511.05505     -2550.018 5        33.868
R07        23.000    21521879.720 7 115208337.79207      1901.569 7        43.304                                                                    21521882.344 7  89606529.19407      1478.965 7        43.617
S23        24.000    38231657.179 6 200908633.26306      -826.107 6        40.694
S36        25.000    38285368.708 6 201190879.93306      -830.130 6        36.329
R20        27.000                                                                                                                                    23501066.985 3                     -4253.309 3        22.457
R15        28.000    22504561.308 5 120257507.45805       450.296 5        35.638                                                                    22504561.355 5  93533649.49705       350.235 5        32.198
R06        29.000    19491741.898 5 104011696.11605      -821.868 5        32.030
C05        32.000                                                                                                                                                                                                    39212789.873 6 157893656.07006      -654.565 6        37.474
C19        33.000                                                                                                                                    22271592.569 7 115974147.70807       128.439 7        46.006                                                                    22271587.989 7  94238376.44707       104.279 7        46.680
R21        34.000    20092403.332 7 107518628.36307     -3278.011 7        44.951                                                                    20092404.698 7  83625501.85807     -2549.572 7        44.722
R05        36.000                                                                                                                                    22353461.261 4                     -3270.378 4        24.917
R22        37.000    20718472.369 8 110596604.74508      1319.520 8        48.197                                                                    20718471.670 7  86019621.32207      1026.274 7        47.699
C39        38.000                                                                                                                                                                                                                                                                    39360483.236 3                     -1302.139 3        23.886
C22        39.000                                                                                                                                    25522888.075 5 132904212.99905      1913.942 5        33.880                                                                    25522888.672 5 107995536.48905      1554.883 5        30.317
C06        41.000                                                                                                                                    38392609.641 5 199920388.41015     -1120.743 5        34.929    38392595.287 6 154591052.43606      -866.372 6        37.527
C29        43.000                                                                                                                                    24585931.789 6 128025343.10406     -4053.093 6        37.815                                                                    24585924.920 5 104031101.44305     -3293.382 5        35.386
C16        45.000                                                                                                                                    38902556.618 4                     -1212.682 4        29.744    38902531.368 6 156644509.89606      -937.717 6        41.344
C09        46.000                                                                                                                                    38566291.554 6 200824796.03306      -610.023 6        39.583    38566285.774 7 155290469.60407      -471.631 7        43.397    38566277.163 4                      -495.878 4        29.583
C44        48.000                                                                                                                                    24860805.586 7 129456848.82507      1123.155 7        43.045                                                                    24860803.786 6 105194193.69906       912.486 6        40.913
C35        51.000                                                                                                                                    23096912.433 8 120271907.22808     -1432.287 8        48.216                                                                    23096912.190 7  97730660.67507     -1163.870 7        45.484
C20        55.000                                                                                                                                    22699538.493 8 118202445.08008     -2417.958 8        51.774                                                                    22699530.722 7  96049247.59507     -1964.902 7        42.762
C12        56.000                                                                                                                                    26890346.525 4 140025180.30704      2103.696 4        28.408    26890370.852 6 108276437.14106      1626.576 6        39.471
> 2025 01 01 02 32 20.0000000  0 38
G02         1.000    23754908.782 5 124832865.17005     -4164.904 5        34.795                                    23754911.299 1  97272381.92701     -3245.412 1         4.143
G31         4.000    22568444.021 6 118597857.48006     -2274.091 6        36.832                                    22568433.430 4  92413881.47804     -1772.022 4        24.211    22568435.742 5  92413975.46505     -1771.467 5        32.305
E34         6.000    25286528.586 7 132881611.39607      1281.929 7        46.895                                                                    25286528.130 7  99229822.72607       957.257 7        47.253    25286526.629 7 101818395.00907       982.213 7        43.977
E04         7.000    25602553.401 6 134542309.72506     -3127.599 6        41.645                                                                    25602551.329 7 100469898.47207     -2335.517 7        44.105    25602551.055 7 103090852.33407     -2396.413 7        45.327
G03         8.000    20516257.175 7 107813866.36907     -2279.407 7        44.012                                    20516254.512 5  84010596.58405     -1776.161 5        31.509    20516256.329 5  84010656.61205     -1775.966 5        35.000
G09         9.000    21207724.053 7 111447321.03607      1502.101 7        47.866                                    21207720.288 7  86842077.08807      1170.467 7        47.533    21207721.110 7  86842068.09707      1170.464 7        44.008
R14        10.000    23749971.535 6 126600627.28706     -2831.973 6        36.034                                                                    23749967.525 3                     -2201.419 3        21.857
G04        11.000    20194302.649 8 106121798.32208      -230.143 8        50.110                                    20194298.465 6  82692256.65006      -179.334 6        40.541    20194298.854 8  82692275.66408      -179.373 8        49.135
E09        12.000    23500122.319 7 123494075.10007      -862.255 7        46.130                                                                    23500121.520 7  92219594.41607      -643.885 7        46.357    23500121.272 7  94625299.84407      -660.676 7        47.435
E06        14.000    23914252.050 7 125670261.97707     -2103.695 7        47.466                                                                    23914250.895 7  93844674.87507     -1571.011 7        45.016    23914251.532 7  96292765.08507     -1611.938 7        47.320
E11        15.000    25920157.654 5 136211370.60405     -3641.457 5        31.600                                                                                                                                    25920194.496 4 104369739.44004     -2789.913 4        26.263
G19        16.000    22577731.036 7 118646892.38707     -2060.055 7        45.362                                    22577727.450 3  92452016.22303     -1605.232 3        23.695
G28        17.000                                                                                                                                                                    24552090.882 4                     -2800.953 4        26.659
G06        19.000    22534536.859 7 118419892.99407      1832.629 7        46.899                                    22534535.657 7  92275136.69607      1428.024 7        46.677    22534536.897 7  92275209.70707      1428.023 7        45.327
E36        20.000    23561919.932 7 123818862.41607     -1470.643 7        47.819                                                                    23561920.244 8  92462018.89208     -1098.161 8        49.778    23561919.887 8  94874102.69008     -1126.822 8        51.602
E05        21.000    24018312.385 6 126217067.05206      1550.682 6        41.600                                                                    24018308.787 5  94253051.21005      1157.828 5        35.590    24018310.813 6  96711813.95106      1188.202 6        41.478
G17        22.000                                                                                                                                                                    23546810.167 5  96420264.26005     -2551.140 5        32.695
R07        23.000    21520103.914 7 115198835.12307      1899.765 7        42.609                                                                    21520106.109 7  89599138.19407      1477.584 7        42.681
S23        24.000    38232440.625 6 200912764.67106      -826.222 6        41.037
S36        25.000    38286149.172 6 201195032.85206      -830.461 6        36.408
R15        28.000    22504142.918 6 120255266.92306       446.066 6        37.611                                                                    22504144.480 5  93531906.81805       347.211 5        33.204
R06        29.000    19492513.366 4 104015813.43604      -825.024 4        29.365
C05        32.000                                                                                                                                                                                                    39213601.888 6 157896928.59306      -654.435 6        36.026
C19        33.000                                                                                                                                    22271469.606 7 115973510.60607       126.695 7        47.105                                                                    22271465.911 7  94237858.73807       102.921 7        46.965
R21        34.000    20095470.478 8 107535029.27408     -3282.109 8        48.330                                                                    20095470.397 7  83638258.10107     -2552.765 7        45.752
R05        36.000    22357433.982 4                     -4205.691 4        29.071                                                                    22357392.797 5                     -3271.603 5        31.208
R22        37.000    20717238.437 8 110590017.54908      1315.648 8        48.159                                                                    20717237.833 7  86014497.93207      1023.248 7        47.394
C39        38.000                                                                                                                                    39362059.124 5                     -1603.733 5        34.476                                                                    39362027.122 4                     -1302.906 4        24.571
C22        39.000                                                                                                                                                                                                                                                                    25521053.166 4 107987762.00704      1554.767 4        28.540
C06        41.000                                                                                                                                    38393684.163 5 199925993.70605     -1121.262 5        35.719    38393670.450 6 154595386.77806      -866.773 6        37.055
C29        43.000                                                                                                                                    24589826.505 6 128045611.69106     -4053.877 6        39.093                                                                    24589817.298 5 104047571.34305     -3294.215 5        35.105
C16        45.000                                                                                                                                    38903727.938 4                     -1213.381 4        28.114    38903696.102 6 156649200.22406      -938.262 6        40.834
C09        46.000                                                                                                                                    38566878.570 6 200827848.81206      -610.882 6        39.643    38566871.573 7 155292830.20307      -472.331 7        42.876    38566864.386 4                      -496.337 4        29.554
C44        48.000                                                                                                                                    24859728.770 7 129451239.82207      1120.736 7        43.395                                                                    24859726.502 6 105189635.90306       910.768 6        41.344
C37        49.000                                                                                                                                    25108587.661 4 130747103.53404       477.630 4        29.829
C35        51.000                                                                                                                                    23098289.860 8 120279076.71408     -1435.270 8        48.847                                                                    23098289.124 7  97736486.47407     -1166.372 7        45.415
C20        55.000                                                                                                                                    22701860.113 8 118214538.78008     -2419.269 8        50.461                                                                    22701853.118 7  96059074.68407     -1965.899 7        42.561
C12        56.000                                                                                                                                    26888328.603 4 140014666.25004      2102.109 4        28.882    26888352.173 6 108268306.99006      1625.488 6        37.134
> 2025 01 01 02 32 25.0000000  0 38
G02         1.000    23758870.975 6 124853689.58306     -4165.501 6        36.439                                    23758873.819 1  97288608.59101     -3245.893 1         5.143
G31         4.000    22570609.093 6 118609234.62306     -2277.396 6        38.348                                    22570598.871 4  92422746.78204     -1774.597 4        25.368    22570601.137 5  92422840.80005     -1774.473 5        30.943
E34         6.000    25285309.143 7 132875204.82207      1280.464 7        46.049                                                                    25285309.282 7  99225038.58107       956.200 7        47.405    25285307.932 7 101813486.06707       981.130 7        44.044
E04         7.000    25605529.349 6 134557948.70806     -3128.360 6        41.685                                                                    25605527.164 7 100481576.92707     -2336.068 7        44.030    25605526.913 7 103102835.46307     -2397.103 7        45.810
G03         8.000    20518425.055 7 107825268.01307     -2281.260 7        44.417                                    20518424.721 5  84019480.99005     -1777.604 5        33.120    20518425.038 5  84019541.01605     -1777.866 5        34.819
G09         9.000    21206295.398 8 111439814.92808      1500.076 8        48.360                                    21206292.249 7  86836228.17407      1168.893 7        47.837    21206292.585 7  86836219.17307      1168.939 7        43.666
R14        10.000    23752628.554 5 126614795.41805     -2835.542 5        35.157                                                                    23752623.575 4                     -2205.803 4        25.639
G04        11.000    20194522.613 8 106122955.27308      -232.842 8        50.134                                    20194518.791 6  82693158.17006      -181.436 6        40.889    20194518.905 8  82693177.18108      -181.471 8        49.132
E09        12.000    23500943.268 7 123498390.43607      -864.120 7        45.877                                                                    23500942.722 7  92222816.90607      -645.271 7        46.808    23500942.412 7  94628606.40407      -662.088 7        47.127
E06        14.000    23916254.365 7 125680783.79907     -2105.222 7        47.354                                                                    23916252.906 7  93852532.07507     -1572.033 7        44.919    23916253.673 7  96300827.25907     -1613.108 7        47.207
E11        15.000    25923624.281 5 136229579.15405     -3642.514 5        31.185                                                                                                                                    25923656.762 4 104383691.55004     -2790.603 4        27.413
G19        16.000    22579691.779 7 118657200.33307     -2063.342 7        43.636                                    22579687.827 3  92460048.39103     -1607.803 3        23.638
G28        17.000    24555539.001 4                     -3595.558 4        26.096                                                                                                    24555513.077 4                     -2801.991 4        25.835
G06        19.000    22532793.783 7 118410734.19207      1830.635 7        46.769                                    22532792.806 7  92267999.96807      1426.471 7        46.628    22532793.814 7  92268072.98407      1426.451 7        44.849
E36        20.000    23563320.308 8 123826220.54608     -1472.862 8        48.463                                                                    23563320.346 8  92467513.59808     -1099.852 8        50.177    23563319.907 8  94879740.73308     -1128.542 8        51.467
E05        21.000    24016837.113 6 126209315.93606      1549.627 6        41.313                                                                    24016834.275 5  94247263.03505      1157.262 5        35.924    24016836.013 6  96705874.79306      1187.322 6        41.583
G17        22.000    23549930.343 5 123755986.38805     -3276.126 5        30.875                                    23549930.784 1  96433033.08611     -2552.883 1        11.630    23549924.951 5  96433023.04405     -2552.323 5        30.030
R07        23.000    21518328.790 6 115189339.72006      1898.087 6        41.430                                                                    21518331.913 7  89591752.90007      1476.268 7        42.254
S23        24.000    38233225.891 6 200916895.44106      -826.314 6        40.477
S36        25.000    38286942.129 6 201199184.44106      -830.417 6        36.412
R15        28.000    22503724.910 6 120253045.44806       442.191 6        39.159                                                                    22503731.850 5  93530178.95105       344.030 5        31.849
R06        29.000    19493288.394 5 104019942.26205      -827.034 5        30.302
C05        32.000                                                                                                                                                                                                    39214414.391 5 157900200.63105      -654.411 5        35.452
C19        33.000                                                                                                                                    22271348.306 7 115972880.15407       125.181 7        47.882                                                                    22271344.808 7  94237346.44307       101.854 7        46.885
R21        34.000    20098541.235 8 107551449.27908     -3286.129 8        48.319                                                                    20098538.631 7  83651029.20307     -2555.860 7        46.001
R05        36.000    22361365.934 5                     -4206.226 5        30.045
R22        37.000    20716008.486 7 110583448.67407      1311.744 7        47.414                                                                    20716007.079 7  86009388.81007      1020.249 7        47.546
C39        38.000                                                                                                                                    39363597.674 5 204976589.89815     -1604.461 5        31.841                                                                    39363567.408 4                     -1303.963 4        24.286
C22        39.000                                                                                                                                    25519203.766 5 132885079.37405      1912.743 5        31.479                                                                    25519210.996 4                      1554.845 4        24.692
C06        41.000                                                                                                                                    38394760.547 6 199931602.14206     -1122.394 6        36.057    38394747.961 6 154599723.59406      -867.755 6        37.686
C29        43.000                                                                                                                                    24593721.947 6 128065883.77106     -4055.042 6        39.688                                                                    24593710.174 5 104064044.03605     -3294.866 5        35.052
C16        45.000                                                                                                                                    38904894.128 4                     -1214.006 4        28.588    38904862.020 6 156653892.77506      -938.830 6        40.460
C09        46.000                                                                                                                                    38567466.455 6 200830904.85006      -611.763 6        40.076    38567457.963 7 155295193.32907      -472.957 7        42.665    38567450.593 4                      -496.795 4        28.445
C44        48.000                                                                                                                                    24858652.907 7 129445641.25107      1118.396 7        43.321                                                                    24858651.433 6 105185086.59906       909.027 6        41.628
C37        49.000                                                                                                                                    25108129.092 4 130744721.09604       475.135 4        29.972
C35        51.000                                                                                                                                    23099669.556 8 120286259.57508     -1438.132 8        48.858                                                                    23099668.535 7  97742323.12307     -1168.458 7        45.257
C20        55.000                                                                                                                                    22704182.622 8 118226637.49108     -2420.410 8        49.036                                                                    22704176.751 7  96068905.84807     -1966.685 7        42.364
C12        56.000                                                                                                                                    26886313.120 4 140004157.72904      2100.537 4        28.900    26886332.172 6 108260181.15906      1624.340 6        38.517
> 2025 01 01 02 32 30.0000000  0 38
G02         1.000    23762833.996 6 124874518.36606     -4166.074 6        37.905                                    23762837.353 1  97304838.95301     -3246.293 1         8.000
G31         4.000    22572776.557 6 118620628.12606     -2280.497 6        38.601                                    22572767.335 4  92431624.82604     -1777.012 4        25.173    22572770.748 5  92431718.84005     -1777.049 5        31.313
E34         6.000    25284091.375 7 132868804.64107      1279.326 7        45.720                                                                    25284091.381 7  99220259.23207       955.319 7        47.797    25284090.380 7 101808582.03807       980.250 7        44.221
E04         7.000    25608505.976 6 134573591.22306     -3128.907 6        41.697                                                                    25608503.882 7 100493258.03507     -2336.584 7        44.375    25608503.587 7 103114821.29207     -2397.516 7        45.798
G03         8.000    20520596.728 7 107836678.53707     -2282.961 7        45.335                                    20520596.641 5  84028372.30005     -1778.931 5        33.856    20520595.689 5  84028432.34405     -1779.051 5        34.852
G09         9.000    21204868.701 8 111432318.57408      1498.245 8        48.202                                    21204866.079 7  86830386.86307      1167.465 7        47.705    21204865.884 7  86830377.86807      1167.423 7        44.051
R14        10.000    23755285.279 5 126628981.35805     -2839.081 5        32.341                                                                    23755288.112 4                     -2208.206 4        25.805
G04        11.000    20194745.019 8 106124124.99508      -235.227 8        49.559                                    20194741.451 6  82694069.64606      -183.298 6        40.787    20194741.224 8  82694088.65408      -183.356 8        48.702
E09        12.000    23501765.745 7 123502714.30207      -865.721 7        45.257                                                                    23501765.463 7  92226045.77307      -646.451 7        46.663    23501765.178 7  94631919.49507      -663.319 7        46.919
E06        14.000    23918257.958 7 125691312.49107     -2106.406 7        47.297                                                                    23918256.399 7  93860394.41707     -1573.005 7        45.339    23918257.169 7  96308894.70807     -1614.035 7        47.342
E11        15.000    25927090.233 5 136247792.60505     -3643.250 5        31.645                                                                    25927091.564 5 101743479.78315     -2720.729 5        35.038    25927119.996 4 104397647.26304     -2791.418 4        25.218
G19        16.000    22581656.000 7 118667523.78007     -2066.319 7        42.773                                    22581651.867 3  92468092.64703     -1610.121 3        23.143
G28        17.000    24558958.321 4                     -3598.002 4        29.024                                                                                                    24558940.334 4                     -2803.087 4        24.481
G06        19.000    22531053.147 7 118401584.80207      1828.961 7        46.275                                    22531051.695 7  92260870.56607      1425.163 7        46.159    22531052.400 7  92260943.58507      1425.109 7        44.442
E36        20.000    23564722.147 8 123833589.13108     -1474.858 8        48.204                                                                    23564722.495 8  92473016.11308     -1101.306 8        50.260    23564721.992 8  94885386.79208     -1130.063 8        51.429
E05        21.000    24015363.142 6 126201570.03006      1548.569 6        41.030                                                                    24015360.804 6  94241478.76106      1156.440 6        36.473    24015362.967 7  96699939.60907      1186.638 7        42.017
G17        22.000    23553055.913 5 123772367.59605     -3276.919 5        30.558                                    23553047.165 1  96445797.64701     -2553.489 1        10.074    23553040.587 5  96445787.63905     -2553.876 5        30.045
R07        23.000    21516557.075 6 115179852.16206      1896.637 6        41.819                                                                    21516559.229 6  89584373.67806      1475.273 6        41.592
S23        24.000    38234013.715 6 200921025.77306      -826.050 6        40.074
S36        25.000    38287725.316 6 201203334.65806      -830.163 6        36.083
R15        28.000    22503310.615 6 120250843.61406       438.432 6        38.243                                                                    22503318.443 5  93528466.43205       340.646 5        31.758
R06        29.000    19494064.690 5 104024082.86605      -829.475 5        32.737
C05        32.000                                                                                                                                                                                                    39215226.004 6 157903472.39606      -654.414 6        36.091
C19        33.000                                                                                                                                    22271228.592 8 115972256.63808       123.931 8        48.327                                                                    22271225.284 7  94236839.80507       100.872 7        47.387
R21        34.000    20101612.782 8 107567888.40608     -3289.815 8        49.342                                                                    20101609.684 7  83663815.19307     -2558.819 7        45.547
R05        36.000    22365300.657 5                     -4206.813 5        32.557
R22        37.000    20714781.516 7 110576898.31807      1308.210 7        47.668                                                                    20714779.892 7  86004294.08907      1017.502 7        47.611
C39        38.000                                                                                                                                    39365138.966 5 204984613.05305     -1605.239 5        31.977                                                                    39365106.715 3                     -1302.481 3        22.057
C22        39.000                                                                                                                                    25517371.415 5 132875515.40605      1912.567 5        34.748                                                                    25517373.387 3                      1549.414 3        19.821
C06        41.000                                                                                                                                    38395838.441 5 199937213.91305     -1122.778 5        35.567    38395828.495 6 154604062.99006      -868.158 6        37.452
C29        43.000                                                                                                                                    24597615.962 6 128086159.50906     -4055.535 6        40.057                                                                    24597604.314 5 104080519.76405     -3295.315 5        35.276
C16        45.000                                                                                                                                    38906059.227 5                     -1214.835 5        30.158    38906028.447 6 156658587.74506      -939.374 6        40.484
C09        46.000                                                                                                                                    38568053.603 6 200833964.40906      -612.432 6        40.372    38568045.800 7 155297559.16007      -473.417 7        42.504    38568037.592 4                      -497.618 4        29.109
C44        48.000                                                                                                                                    24857579.440 7 129440053.37307      1116.479 7        43.054                                                                    24857578.169 6 105180546.02406       907.293 6        41.564
C37        49.000                                                                                                                                    25107680.427 4 130742349.86904       472.897 4        29.735
C35        51.000                                                                                                                                    23101051.047 8 120293456.07608     -1440.669 8        49.200                                                                    23101050.529 7  97748170.89407     -1170.571 7        45.527
C20        55.000                                                                                                                                    22706507.417 8 118238741.44708     -2421.311 8        48.635                                                                    22706501.296 7  96078741.32707     -1967.423 7        42.751
C12        56.000                                                                                                                                    26884297.304 4 139993654.80604      2100.088 4        28.114    26884311.495 6 108252059.70206      1623.894 6        38.036
