     3.04           OBSERVATION DATA    M                   RINEX VERSION / TYPE
ssrcrin-15.6.1x                         20250101 021500 UTC PGM / RUN BY / DATE 
(00000000023479385599111004) Septentrio proprietary         COMMENT             
ract                                                        MARKER NAME         
01                                                          MARKER NUMBER       
geodetic                                                    MARKER TYPE         
NFB                 CLIMERS@TUW                             OBSERVER / AGENCY   
3296359             SEPT ASTERX SB3 PROB4.14.4              REC # / TYPE / VERS 
Unknown             Unknown                                 ANT # / TYPE        
  4127445.9273  1206914.9604  4695542.2636                  APPROX POSITION XYZ 
        0.0000        0.0000        0.0000                  ANTENNA: DELTA H/E/N
G   23 X1  C1C L1C D1C S1C C1W S1W C2W L2W D2W S2W C2L L2L  SYS / # / OBS TYPES 
       D2L S2L C5Q L5Q D5Q S5Q C1L L1L D1L S1L              SYS / # / OBS TYPES 
E   21 X1  C1C L1C D1C S1C C6C L6C D6C S6C C5Q L5Q D5Q S5Q  SYS / # / OBS TYPES 
       C7Q L7Q D7Q S7Q C8Q L8Q D8Q S8Q                      SYS / # / OBS TYPES 
S    9 X1  C1C L1C D1C S1C C5I L5I D5I S5I                  SYS / # / OBS TYPES 
R   17 X1  C1C L1C D1C S1C C2P L2P D2P S2P C2C L2C D2C S2C  SYS / # / OBS TYPES 
       C3Q L3Q D3Q S3Q                                      SYS / # / OBS TYPES 
C   25 X1  C1P L1P D1P S1P C5P L5P D5P S5P C2I L2I D2I S2I  SYS / # / OBS TYPES 
       C7I L7I D7I S7I C6I L6I D6I S6I C7D L7D D7D S7D      SYS / # / OBS TYPES 
J   17 X1  C1C L1C D1C S1C C2L L2L D2L S2L C5Q L5Q D5Q S5Q  SYS / # / OBS TYPES 
       C1L L1L D1L S1L                                      SYS / # / OBS TYPES 
I    5 X1  C5A L5A D5A S5A                                  SYS / # / OBS TYPES 
SEPTENTRIO RECEIVERS OUTPUT ALIGNED CARRIER PHASES.         COMMENT             
NO FURTHER PHASE SHIFT APPLIED IN THE RINEX ENCODER.        COMMENT             
G L1C                                                       SYS / PHASE SHIFT   
G L2W                                                       SYS / PHASE SHIFT   
G L2L  0.00000                                              SYS / PHASE SHIFT   
G L5Q  0.00000                                              SYS / PHASE SHIFT   
G L1L  0.00000                                              SYS / PHASE SHIFT   
E L1C  0.00000                                              SYS / PHASE SHIFT   
E L6C  0.00000                                              SYS / PHASE SHIFT   
E L5Q  0.00000                                              SYS / PHASE SHIFT   
E L7Q  0.00000                                              SYS / PHASE SHIFT   
E L8Q  0.00000                                              SYS / PHASE SHIFT   
S L1C                                                       SYS / PHASE SHIFT   
S L5I                                                       SYS / PHASE SHIFT   
R L1C                                                       SYS / PHASE SHIFT   
R L2P  0.00000                                              SYS / PHASE SHIFT   
R L2C                                                       SYS / PHASE SHIFT   
R L3Q  0.00000                                              SYS / PHASE SHIFT   
C L1P  0.00000                                              SYS / PHASE SHIFT   
C L5P  0.00000                                              SYS / PHASE SHIFT   
C L2I                                                       SYS / PHASE SHIFT   
C L7I                                                       SYS / PHASE SHIFT   
C L6I                                                       SYS / PHASE SHIFT   
C L7D                                                       SYS / PHASE SHIFT   
J L1C                                                       SYS / PHASE SHIFT   
J L2L  0.00000                                              SYS / PHASE SHIFT   
J L5Q  0.00000                                              SYS / PHASE SHIFT   
J L1L  0.00000                                              SYS / PHASE SHIFT   
I L5A                                                       SYS / PHASE SHIFT   
  2025     1     1     2    15    0.0000000     GPS         TIME OF FIRST OBS   
 C1C    0.000 C2C    0.000 C2P    0.000                     GLONASS COD/PHS/BIS 
DBHZ                                                        SIGNAL STRENGTH UNIT
    18                                                      LEAP SECONDS        
 24 R01  1 R02 -4 R03  5 R04  6 R05  1 R06 -4 R07  5 R08  6 GLONASS SLOT / FRQ #
    R09 -2 R10 -7 R11  0 R12 -1 R13 -2 R14 -7 R15  0 R16 -1 GLONASS SLOT / FRQ #
    R17  4 R18 -3 R19  3 R20  2 R21  4 R22 -3 R23  3 R24  2 GLONASS SLOT / FRQ #
                                                            END OF HEADER       
> 2025 01 01 02 15  0.0000000  0 38
G02         1.000    22953243.338 6 120620161.57706     -3923.463 6        40.865                                    22953234.468 3  93989681.39003     -3057.250 3        18.478
G31         4.000    22189390.881 6 116605922.99506     -1548.271 6        39.784                                    22189385.728 5  90861724.31305     -1206.456 5        33.018    22189384.908 6  90861847.35306     -1206.596 6        39.324
E34         6.000    25566444.107 7 134352574.59107      1536.810 7        45.202                                                                    25566443.914 7 100328268.71807      1147.746 7        46.225    25566443.698 7 102945496.24807      1177.693 7        46.285
E04         7.000    25001823.773 6 131385450.80306     -2933.848 6        37.229                                                                    25001821.946 7  98112505.36307     -2190.802 7        44.060    25001821.139 7 100671962.10007     -2247.964 7        44.608
G03         8.000    20104229.474 8 105648657.76608     -1881.353 8        51.387                                    20104225.167 8  82323421.03408     -1465.989 8        48.980    20104227.754 7  82323481.04907     -1466.022 7        43.534
G09         9.000    21545814.332 5 113223916.69005      1907.944 5        35.957                                    21545796.286 4  88226437.59504      1486.715 4        28.275    21545797.152 6  88226426.62506      1486.419 6        40.086
R14        10.000    23274272.404 5 124064987.00005     -2029.640 5        33.491                                                                    23274262.130 4  96494915.76504     -1578.520 4        28.720
G04        11.000    20203510.715 8 106170186.84508       323.977 8        50.125                                    20203505.408 5  82729961.64205       252.450 5        31.381    20203505.589 6  82729980.66306       252.279 6        38.850
E09        12.000    23367399.077 7 122796607.82107      -474.734 7        45.783                                                                    23367397.584 6  91698758.25606      -354.564 6        41.669    23367397.352 6  94090876.66106      -363.729 6        39.012
E06        14.000    23529802.975 8 123649966.80408     -1773.321 8        48.927                                                                    23529801.268 8  92336012.85208     -1324.201 8        48.356    23529801.458 8  94744746.63408     -1358.754 8        49.355
E11        15.000    25223071.637 6 132548172.70906     -3395.797 6        39.709                                                                    25223067.885 6  98980735.39106     -2535.689 6        36.132    25223065.450 5 101562808.09205     -2602.120 5        30.241
G19        16.000    22238015.036 7 116861736.27807     -1362.400 7        43.647                                    22238009.226 4  91060928.10504     -1061.612 4        24.647
G28        17.000                                                                                                                                                                    23886937.439 3                     -2425.300 3        22.705
G06        19.000    22934628.780 7 120522388.50607      2194.443 7        43.378                                    22934626.151 5  93913444.34405      1709.955 5        35.571    22934626.356 6  93913517.34206      1709.906 6        38.877
E36        20.000    23315599.745 7 122524445.16407     -1020.054 7        47.243                                                                    23315599.859 7  91495408.83307      -761.751 7        47.280    23315599.892 8  93882276.65908      -781.620 8        48.392
E05        21.000    24347661.527 5 127947727.16505      1773.841 5        35.086                                                                                                                                    24347638.576 4  98037892.11804      1359.023 4        28.199
G17        22.000    22934866.508 6 120523643.59806     -2892.083 6        40.520                                    22934858.974 3  93914489.22903     -2253.564 3        20.548    22934858.424 4  93914415.24204     -2254.037 4        25.158
R07        23.000    21921223.902 6 117346407.47306      2225.316 6        38.868                                                                    21921236.381 5  91269175.32605      1730.768 5        34.852
S23        24.000    38068958.422 6 200053656.30806      -825.165 6        39.877
S36        25.000    38121860.690 6 200331639.44806      -829.533 6        36.087
R20        27.000    22459879.675 5 120103059.59705     -5267.718 5        34.024                                                                    22459882.338 6  93413497.50406     -4097.237 6        36.484
R15        28.000    22668508.902 4 121133712.39704      1224.289 4        29.299
R06        29.000    19382826.468 4 103430483.82704      -294.339 4        26.766
C05        32.000                                                                                                                                                                                                    39045036.438 5 157218172.72805      -650.251 5        35.633
C19        33.000                                                                                                                                    22327537.154 8 116265461.19108       435.458 8        48.952                                                                    22327530.890 7  94475092.21707       353.788 7        45.178
R21        34.000    19540759.153 7 104566668.25607     -2410.316 7        47.426                                                                    19540758.878 7  81329533.46507     -1874.630 7        43.748
R05        36.000    21550177.005 5 115198038.27405     -4080.038 5        30.725                                                                    21550141.910 4  89598507.26404     -3173.681 4        24.331
R22        37.000    21046332.886 7 112346705.92907      2039.924 7        44.679                                                                    21046325.994 7  87380810.65007      1586.660 7        45.005
C39        38.000                                                                                                                                    39054835.682 5 203368777.69705     -1468.552 5        34.990                                                                    39054824.607 6 165253742.37406     -1193.537 6        36.132
C06        41.000                                                                                                                                    38186134.570 5 198845220.54405      -954.167 5        33.581    38186139.674 5 153759703.87605      -737.662 5        35.905    38186126.749 6 161577994.26506      -775.247 6        37.055
C29        43.000                                                                                                                                                                                                                                                                    23800608.684 4 100708071.93004     -3114.787 4        27.904
C16        45.000                                                                                                                                    38676797.950 6 201400218.82806     -1055.719 6        38.159    38676793.049 5 155735403.74605      -816.198 5        30.566
C09        46.000                                                                                                                                    38461633.403 6 200279824.32406      -441.003 6        37.021    38461629.181 7 154869062.67807      -341.123 7        43.526    38461626.652 6 162743722.44106      -358.586 6        39.976
C44        48.000                                                                                                                                    25127572.840 5 130845899.39705      1549.833 5        35.781                                                                    25127574.094 5 106323004.99905      1259.121 5        35.871
C35        51.000                                                                                                                                    22870870.015 7 119094847.36207      -839.451 7        43.809                                                                    22870870.780 7  96774152.17307      -682.122 7        42.506
I09        54.000    37203205.386 4 145993349.76604      -820.228 4        29.261
C20        55.000                                                                                                                                    22243595.508 6 115828214.08306     -2163.583 6        40.977                                                                    22243586.997 8  94119990.39408     -1758.155 8        50.939
I01        58.000   334030407.194 5   7666272.68105     -2937.783 5        35.690
> 2025 01 01 02 15  5.0000000  0 38
G02         1.000    22956977.605 6 120639783.49606     -3924.773 6        41.423                                    22956967.969 3  94004971.18803     -3058.255 3        18.030
G31         4.000    22190866.244 6 116613674.92406     -1552.009 6        40.808                                    22190861.037 5  90867764.78605     -1209.364 5        33.042    22190860.484 6  90867887.80806     -1209.272 6        39.679
E34         6.000    25564982.517 7 134344893.74907      1535.858 7        45.643                                                                    25564982.229 7 100322533.03507      1146.903 7        46.047    25564981.994 7 102939610.94207      1176.841 7        46.250
E04         7.000    25004615.591 6 131400123.91206     -2934.891 6        37.391                                                                    25004614.160 7  98123462.55507     -2191.747 7        44.212    25004613.475 7 100683205.12307     -2248.824 7        44.512
G03         8.000    20106020.460 8 105658070.42408     -1883.271 8        51.518                                    20106016.450 8  82330755.56808     -1467.481 8        49.544    20106018.978 7  82330815.58007     -1467.562 7        43.822
G09         9.000                                                                                                                                                                    21543983.247 6  88218998.57706      1485.106 6        40.446
R14        10.000    23276171.280 4 124075147.52204     -2034.637 4        29.725
G04        11.000    20203203.748 8 106168574.77908       321.302 8        49.654                                    20203198.171 5  82728705.49605       250.356 5        31.275    20203199.156 6  82728724.50006       250.312 6        40.133
E09        12.000    23367851.456 7 122798987.23307      -476.666 7        45.592                                                                    23367850.078 6  91700535.10806      -356.123 6        41.399    23367850.117 6  94092699.83806      -365.106 6        39.171
E06        14.000    23531491.103 8 123658838.70708     -1774.981 8        49.057                                                                    23531489.613 8  92342637.97608     -1325.455 8        48.584    23531489.528 8  94751544.59008     -1360.087 8        49.453
E11        15.000    25226303.330 6 132565155.77006     -3397.023 6        39.423                                                                    25226299.232 5  98993417.55705     -2536.500 5        34.824    25226296.967 4 101575821.06304     -2603.037 4        28.995
G19        16.000    22239314.009 7 116868558.25207     -1365.901 7        43.194                                    22239307.834 4  91066243.90604     -1064.325 4        25.098
G28        17.000    23889851.897 4                     -3115.362 4        26.096
G06        19.000    22932542.379 7 120511420.63007      2193.041 7        42.813                                    22932539.106 5  93904897.95405      1708.865 5        35.600    22932538.861 6  93904970.95306      1708.738 6        38.517
E36        20.000    23316571.517 7 122529551.75207     -1022.162 7        46.965                                                                    23316571.563 7  91499222.18707      -763.311 7        47.040    23316571.714 8  93886189.49808      -783.255 8        48.695
E05        21.000    24345964.337 6 127938862.37206      1772.744 6        36.964                                                                    24345963.840 6  95538795.38316      1323.764 6        36.896    24345950.280 4  98031099.60104      1358.379 4        26.707
G17        22.000    22937618.792 6 120538110.48706     -2894.304 6        40.153                                    22937611.495 3  93925762.12203     -2255.293 3        20.976    22937610.989 4  93925688.15704     -2255.680 4        24.466
R07        23.000    21919145.485 6 117335285.68506      2223.822 6        40.536                                                                    21919158.216 6  91260525.11206      1729.661 6        36.030
S23        24.000    38069746.541 6 200057783.18006      -825.140 6        40.083
S36        25.000    38122650.830 6 200335786.69306      -829.283 6        36.023
R20        27.000    22464806.677 5 120129402.74205     -5268.778 5        33.982                                                                    22464809.252 6  93433986.58906     -4098.203 6        36.325
R15        28.000    22667365.514 4 121127601.03104      1220.635 4        27.629                                                                    22667354.638 3                       950.165 3        21.357
R06        29.000    19383102.299 4 103431966.53104      -297.671 4        24.752
C05        32.000                                                                                                                                                                                                    39045844.371 5 157221424.91505      -650.183 5        35.505
C19        33.000                                                                                                                                    22327119.646 8 116263288.40008       434.038 8        50.054                                                                    22327113.518 7  94473326.63807       352.681 7        44.807
R21        34.000    19543013.138 7 104578731.84707     -2414.748 7        47.678                                                                    19543012.661 7  81338916.26807     -1878.112 7        43.539
C22        35.000                                                                                                                                    25911169.316 3                      2010.850 3        21.500
R22        37.000    21044420.677 7 112336515.00807      2036.797 7        42.425                                                                    21044417.499 7  87372884.38207      1584.228 7        45.831
C39        38.000                                                                                                                                    39056246.663 5 203376123.71205     -1469.186 5        35.124                                                                    39056235.122 6 165259711.56506     -1193.828 6        36.393
C06        41.000                                                                                                                                    38187050.305 5 198849993.95105      -954.733 5        33.665    38187056.624 5 153763395.01105      -738.412 5        35.529    38187043.727 6 161581873.04506      -775.826 6        37.225
C29        43.000                                                                                                                                    23804283.761 4 123955104.20114     -3834.629 4        29.374                                                                    23804285.862 5 100723649.37205     -3115.738 5        30.075
C16        45.000                                                                                                                                    38677811.481 6 201405500.45806     -1056.423 6        37.516    38677813.840 5 155739487.92905      -817.036 5        31.140
C09        46.000                                                                                                                                    38462058.028 6 200282033.40006      -441.948 6        37.652    38462053.319 7 154870770.88407      -341.734 7        43.448    38462050.724 6 162745517.49406      -359.241 6        39.393
C44        48.000                                                                                                                                    25126086.727 6 130838156.19406      1547.845 6        36.189                                                                    25126087.148 6 106316712.98206      1257.768 6        36.087
C35        51.000                                                                                                                                    22871677.587 7 119099052.60907      -842.207 7        43.426                                                                    22871678.123 6  96777569.29106      -684.647 6        41.657
I09        54.000    37204254.321 4 145997453.58004      -820.456 4        29.081
C20        55.000                                                                                                                                    22245671.239 6 115839036.30706     -2164.796 6        40.789                                                                    22245665.297 8  94128784.36908     -1759.248 8        50.935
I01        58.000   334034150.012 5   7680963.22705     -2937.831 5        35.381
> 2025 01 01 02 15 10.0000000  0 37
G02         1.000    22960712.878 6 120659412.23506     -3926.428 6        41.936                                    22960702.762 3  94020266.30203     -3059.555 3        18.418
G31         4.000    22192345.001 6 116621444.85706     -1555.653 6        40.784                                    22192339.539 5  90873819.29205     -1212.202 5        33.012    22192338.316 6  90873942.29306     -1212.026 6        38.501
E34         6.000    25563522.249 7 134337218.41007      1534.589 7        45.576                                                                    25563521.702 7 100316801.45107      1145.963 7        45.998    25563521.374 7 102933729.84207      1175.869 7        46.270
E04         7.000    25007408.185 6 131414802.43906     -2936.213 6        37.100                                                                    25007407.615 7  98134423.79007     -2192.633 7        44.418    25007407.051 7 100694452.29407     -2249.718 7        44.427
G03         8.000    20107813.254 8 105667492.96408     -1885.480 8        51.565                                    20107809.745 8  82338097.80408     -1469.203 8        49.843    20107812.162 7  82338157.80607     -1469.162 7        44.501
G09         9.000    21542168.081 5 113204860.56905      1903.918 5        33.892                                    21542170.520 4  88211588.76504      1483.566 4        28.938    21542171.775 6  88211577.77906      1483.617 6        41.323
G04        11.000    20202899.416 8 106166976.11108       318.471 8        49.103                                    20202893.730 5  82727459.79705       248.156 5        31.064    20202895.035 6  82727478.79906       248.079 6        40.486
E09        12.000    23368306.167 7 122801376.31207      -478.689 7        45.174                                                                    23368304.725 6  91702319.17506      -357.496 6        41.192    23368304.982 6  94094530.46006      -366.888 6        39.210
E06        14.000    23533180.801 8 123667719.20208     -1776.876 8        49.171                                                                    23533179.577 8  92349269.52008     -1326.908 8        48.669    23533179.353 8  94758349.12608     -1361.472 8        49.494
E11        15.000    25229536.021 6 132582145.34406     -3398.510 6        38.595                                                                    25229532.581 5  99006104.60205     -2537.786 5        32.862    25229531.743 4 101588839.08004     -2604.213 4        29.820
G19        16.000    22240615.237 7 116875397.77507     -1369.585 7        43.200                                    22240609.716 4  91071573.37904     -1067.213 4        25.383
G28        17.000    23892814.195 4                     -3117.141 4        29.716
G06        19.000    22930457.183 7 120500460.38207      2191.308 7        42.925                                    22930453.380 5  93896357.50705      1707.509 5        35.519    22930452.796 6  93896430.48606      1707.716 6        37.701
E36        20.000    23317545.346 7 122534669.11307     -1024.440 7        46.730                                                                    23317545.453 7  91503043.59107      -765.081 7        46.854    23317545.452 8  93890110.58808      -784.969 8        48.570
E05        21.000    24344272.178 6 127930002.78106      1771.522 6        38.165                                                                    24344276.108 5  95532179.57805      1322.741 5        35.519    24344264.247 4  98024311.06604      1357.390 4        25.744
G17        22.000    22940372.852 6 120552587.88906     -2896.408 6        40.715                                    22940366.072 3  93937043.20303     -2256.947 3        21.024    22940370.173 4  93936969.21504     -2256.844 4        29.242
R07        23.000    21917069.499 7 117324171.60207      2222.141 7        42.595                                                                    21917078.273 5  91251880.84605      1728.479 5        34.924
S23        24.000    38070528.614 6 200061910.36006      -825.446 6        39.676
S36        25.000    38123436.316 5 200339933.74205      -829.230 5        35.786
R20        27.000    22469734.633 5 120155752.61305     -5270.591 5        33.275                                                                    22469736.445 5  93454480.88805     -4099.271 5        35.605
R15        28.000    22666225.839 4 121121507.12204      1216.882 4        27.964                                                                    22666220.943 3                       946.662 3        22.286
C05        32.000                                                                                                                                                                                                    39046652.205 5 157224677.34205      -650.445 5        35.476
C19        33.000                                                                                                                                    22326703.952 8 116261123.15408       432.373 8        51.019                                                                    22326697.907 7  94471567.23107       351.278 7        44.623
R21        34.000    19545272.700 8 104590817.56808     -2419.244 8        48.312                                                                    19545271.660 7  81348316.25207     -1881.676 7        43.437
C22        35.000                                                                                                                                    25909234.508 4                      2009.951 4        26.180
R05        36.000    21557831.089 5 115238846.95805     -4081.458 5        32.946                                                                    21557785.344 5  89630247.26105     -3174.856 5        30.408
R22        37.000    21042507.513 6 112326339.85606      2033.677 6        40.195                                                                    21042510.643 7  87364970.44307      1581.591 7        46.318
C39        38.000                                                                                                                                    39057657.853 5 203383473.27305     -1470.086 5        34.205                                                                    39057646.003 6 165265683.71106     -1194.573 6        36.121
C06        41.000                                                                                                                                    38187968.880 5 198854771.62205      -955.800 5        33.030    38187974.314 5 153767089.39005      -739.115 5        34.857    38187961.033 6 161585755.34906      -776.899 6        37.414
C29        43.000                                                                                                                                    23807966.911 4 123974280.82604     -3835.235 4        29.081                                                                    23807965.284 5 100739232.05605     -3117.108 5        31.804
C16        45.000                                                                                                                                    38678826.708 6 201410786.13206     -1057.615 6        37.255
C09        46.000                                                                                                                                    38462482.230 6 200284246.79906      -443.107 6        37.781    38462478.316 7 154872482.41007      -342.674 7        43.475    38462475.644 6 162747316.07106      -359.887 6        39.550
C44        48.000                                                                                                                                    25124601.087 6 130830422.51606      1546.116 6        36.382                                                                    25124602.060 6 106310428.79606      1256.118 6        36.272
C35        51.000                                                                                                                                    22872487.646 7 119103272.40207      -845.308 7        43.609                                                                    22872488.316 6  96780998.24406      -686.904 6        40.956
I09        54.000    37205299.322 4 146001558.22304      -821.078 4        29.289
C20        55.000                                                                                                                                    22247749.221 6 115849865.23806     -2166.380 6        41.726                                                                    22247744.789 8  94137583.78808     -1760.378 8        50.871
I01        58.000   334037893.053 5   7695654.48005     -2938.226 5        34.543
> 2025 01 01 02 15 15.0000000  0 37
G02         1.000    22964449.007 7 120679047.64007     -3927.610 7        42.571                                    22964439.174 3  94035566.61603     -3060.505 3        18.836
G31         4.000    22193826.735 6 116629232.68706     -1559.225 6        40.141                                    22193821.265 5  90879887.74905     -1214.978 5        33.467    22193820.043 6  90880010.73806     -1214.799 6        36.741
E34         6.000    25562062.517 7 134329548.45707      1533.649 7        45.651                                                                    25562062.095 7 100311073.89007      1145.273 7        45.980    25562061.742 7 102927852.85907      1175.116 7        46.418
E04         7.000    25010202.931 6 131429486.24306     -2937.136 6        36.847                                                                    25010201.984 7  98145388.95907     -2193.351 7        44.646    25010201.205 7 100705703.51507     -2250.457 7        44.146
G03         8.000    20109608.104 8 105676925.21308     -1887.267 8        51.724                                    20109604.989 8  82345447.60308     -1470.594 8        50.387    20109606.947 7  82345507.61807     -1470.627 7        45.195
G09         9.000    21540359.514 5 113195346.39105      1902.091 5        35.476                                    21540360.282 4  88204175.13504      1482.138 4        29.725    21540361.473 6  88204164.15306      1482.250 6        41.097
R14        10.000    23279971.075 4 124095529.61214     -2042.184 4        24.692                                                                    23280007.860 4                     -1588.128 4        24.617
G04        11.000    20202597.926 8 106165390.73208       315.941 8        49.279                                    20202591.998 5  82726224.45505       246.181 5        31.313    20202592.958 6  82726243.44106       246.195 6        39.844
E09        12.000    23368762.548 7 122803774.94907      -480.506 7        45.108                                                                    23368761.030 6  91704110.37406      -358.842 6        40.515    23368761.420 6  94096368.36306      -368.253 6        39.402
E06        14.000    23534872.181 8 123676608.15808     -1778.460 8        49.104                                                                    23534871.098 8  92355907.36608     -1328.093 8        48.888    23534870.719 8  94765160.13508     -1362.732 8        49.420
E11        15.000    25232769.845 6 132599141.26906     -3399.540 6        37.304                                                                    25232766.371 5  99018796.36305     -2538.480 5        31.125    25232767.739 5 101601861.90405     -2604.803 5        31.268
G19        16.000    22241920.112 7 116882254.67107     -1372.864 7        42.345                                    22241914.835 4  91076916.41404     -1069.752 4        25.639
G28        17.000    23895785.668 5                     -3119.534 5        30.891
G06        19.000    22928373.011 7 120489507.63907      2190.078 7        42.569                                    22928368.875 5  93887822.91105      1706.550 5        35.619    22928368.940 5  93887895.90105      1706.556 5        35.805
E36        20.000    23318521.165 7 122539797.12107     -1026.469 7        46.816                                                                    23318521.297 7  91506872.94007      -766.504 7        46.728    23318521.291 8  93894039.83508      -786.488 8        48.712
E05        21.000    24342590.446 6 127921148.16506      1770.561 6        37.535                                                                    24342586.526 5  95525567.43505      1322.124 5        34.800    24342579.151 4  98017526.48504      1356.258 4        26.862
G17        22.000    22943130.158 6 120567075.48906     -2898.314 6        38.796                                    22943123.378 3  93948332.23803     -2258.427 3        20.690    22943130.141 5  93948258.26005     -2258.574 5        31.019
R07        23.000    21914996.468 7 117313064.94607      2220.773 7        43.740
S23        24.000    38071320.275 6 200066037.56706      -825.336 6        38.940
S36        25.000    38124221.859 5 200344080.86105      -829.343 5        35.810
R20        27.000    22474662.601 5 120182108.93605     -5272.052 5        31.924                                                                    22474665.723 6  93474980.28806     -4100.231 6        37.233
R06        29.000    19383659.260 3                      -303.014 3        22.629
C05        32.000                                                                                                                                                                                                    39047461.533 5 157227929.83505      -650.318 5        35.219
C19        33.000                                                                                                                                    22326289.788 8 116258965.33208       431.020 8        51.843                                                                    22326283.543 7  94469813.80407       350.389 7        44.512
R21        34.000    19547536.582 8 104602925.25708     -2423.534 8        48.429                                                                    19547534.498 7  81357733.32807     -1885.007 7        43.615
C22        35.000                                                                                                                                    25907312.104 4                      2010.107 4        25.970                                                                    25907302.071 4                      1632.846 4        29.735
R22        37.000    21040603.342 5 112316180.45905      2030.440 5        33.527                                                                    21040607.207 7  87357068.68007      1579.315 7        46.288
C39        38.000                                                                                                                                    39059071.092 5 203390826.28805     -1470.630 5        33.162                                                                    39059058.355 5 165271658.62005     -1194.886 5        35.714
C06        41.000                                                                                                                                    38188885.973 5 198859553.49905      -956.937 5        31.623    38188891.018 5 153770787.00605      -739.686 5        33.629    38188879.893 6 161589640.97106      -777.229 6        37.437
C29        43.000                                                                                                                                    23811650.925 4 123993463.85804     -3837.303 4        28.967                                                                    23811648.339 5 100754819.87105     -3117.539 5        31.192
C16        45.000                                                                                                                                    38679844.165 6 201416075.74906     -1058.274 6        36.745    38679868.835 5 155747665.56705      -818.069 5        32.892
C09        46.000                                                                                                                                    38462908.293 6 200286464.30706      -443.835 6        37.701    38462904.074 7 154874197.12107      -343.041 7        43.342    38462901.421 6 162749117.96406      -360.445 6        39.417
C44        48.000                                                                                                                                    25123119.371 6 130822698.27206      1543.957 6        37.531                                                                    25123118.949 6 106304152.19306      1254.722 6        36.620
C35        51.000                                                                                                                                    22873300.915 7 119107506.60007      -847.972 7        43.137                                                                    22873301.096 6  96784438.87506      -689.075 6        40.072
I09        54.000    37206347.007 4 146005663.55304      -820.731 4        29.441
C20        55.000                                                                                                                                    22249828.869 6 115860700.69706     -2167.518 6        41.876                                                                    22249825.574 8  94146388.47108     -1761.181 8        50.948
I01        58.000   334041637.865 5   7710346.24705     -2938.422 5        34.119
> 2025 01 01 02 15 20.0000000  0 40
G02         1.000    22968186.352 7 120698690.01507     -3929.542 7        42.550                                    22968177.477 3  94050872.34203     -3061.981 3        19.910
G21         3.000    24732927.765 3                     -4127.301 3        20.405
G31         4.000    22195312.584 7 116637038.71307     -1563.318 7        42.601                                    22195306.349 5  90885970.38405     -1218.177 5        34.148    22195306.552 6  90886093.39906     -1218.212 6        36.257
E34         6.000    25560604.120 7 134321884.17207      1531.954 7        46.201                                                                    25560603.590 7 100305350.55807      1144.002 7        45.669    25560603.287 7 102921980.22107      1173.838 7        46.386
E04         7.000    25012998.566 6 131444175.61306     -2938.806 6        37.539                                                                    25012997.274 7  98156358.28407     -2194.433 7        44.796    25012996.432 7 100716958.99107     -2251.710 7        44.008
G03         8.000    20111405.097 8 105686367.46408     -1889.743 8        52.064                                    20111402.251 8  82352805.20208     -1472.528 8        50.838    20111403.614 7  82352865.22507     -1472.560 7        45.494
G09         9.000    21538553.011 6 113185841.74706      1899.539 6        37.414                                    21538551.837 5  88196768.92105      1480.153 5        30.513    21538552.332 6  88196757.93306      1480.247 6        40.584
R14        10.000                                                                                                                                    23281924.674 4                     -1592.290 4        24.767
G04        11.000    20202299.049 8 106163818.92908       312.688 8        49.161                                    20202292.757 5  82724999.69605       243.643 5        31.434    20202294.047 6  82725018.68306       243.691 6        38.399
E09        12.000    23369220.984 7 122806183.42007      -482.963 7        45.225                                                                    23369219.360 6  91705908.91406      -360.799 6        40.286    23369219.506 6  94098213.81406      -369.990 6        39.682
E06        14.000    23536565.171 8 123685505.85908     -1780.711 8        48.752                                                                    23536564.228 8  92362551.74908     -1329.800 8        49.047    23536563.766 8  94771977.85108     -1364.450 8        49.518
E11        15.000    25236005.236 6 132616143.90406     -3401.593 6        36.707                                                                    25236002.675 5  99031493.15305     -2540.024 5        30.755    25236005.296 5 101614889.85705     -2606.626 5        31.336
G19        16.000    22243227.920 7 116889129.22907     -1376.908 7        42.827                                    22243223.312 4  91082273.18904     -1072.908 4        26.060
G28        17.000    23898765.674 5                     -3122.418 5        30.264                                                                                                    23898780.648 3                     -2434.178 3        20.548
G06        19.000    22926290.383 7 120478562.70607      2187.824 7        43.357                                    22926285.873 5  93879294.40505      1704.796 5        35.924    22926287.635 5  93879367.41205      1704.724 5        35.010
E36        20.000    23319499.076 7 122544936.07707     -1029.204 7        46.864                                                                    23319499.224 7  91510710.46807      -768.590 7        46.605    23319499.143 8  93897977.47908      -788.651 8        48.900
E05        21.000    24340909.565 6 127912298.90106      1769.091 6        36.870                                                                    24340899.143 5  95518959.21805      1321.167 5        33.551    24340894.948 4  98010745.80604      1355.503 4        26.012
G17        22.000    22945888.380 5 120581573.73405     -2901.026 5        34.719                                    22945883.290 3  93959629.54503     -2260.527 3        20.714    22945890.781 5  93959555.55705     -2260.274 5        31.253
R07        23.000    21912923.462 7 117301966.11707      2218.604 7        44.778                                                                    21912914.424 5  91234609.93605      1725.590 5        34.033
S23        24.000    38072101.489 6 200070165.15906      -825.797 6        38.237
S36        25.000    38125004.420 5 200348228.77005      -829.710 5        35.057
R20        27.000    22479590.886 5 120208472.00005     -5273.734 5        31.185                                                                    22479595.256 6  93495484.94306     -4101.621 6        37.981
R15        28.000    22663977.157 6 121109370.93706      1209.858 6        36.544
R06        29.000    19383949.249 4                      -305.692 4        27.210
C05        32.000                                                                                                                                                                                                    39048269.412 5 157231182.69005      -650.979 5        34.852
C19        33.000                                                                                                                                    22325876.698 8 116256815.22708       428.903 8        52.174                                                                    22325870.836 7  94468066.66607       348.608 7        44.269
R21        34.000    19549803.804 8 104615055.19808     -2428.495 8        48.428                                                                    19549801.031 7  81367167.71707     -1888.782 7        43.589
C22        35.000                                                                                                                                    25905384.772 4                      2009.189 4        25.714                                                                    25905372.159 4                      1632.299 4        27.401
R05        36.000    21565490.290 6 115279671.67106     -4083.570 6        36.476                                                                    21565414.742 4  89661999.66304     -3176.972 4        24.060
R22        37.000    21038702.532 5 112306037.08205      2026.077 5        30.619                                                                    21038706.371 7  87349179.43507      1576.263 7        45.589
C39        38.000                                                                                                                                    39060486.267 5 203398183.04505     -1472.236 5        35.671                                                                    39060471.204 5 165277636.60605     -1196.144 5        35.781
C06        41.000                                                                                                                                    38189804.912 5 198864339.80405      -958.038 5        33.144    38189808.300 5 153774488.10805      -740.916 5        34.076    38189798.777 6 161593530.26806      -778.305 6        37.100
C29        43.000                                                                                                                                    23815339.221 4 124012653.40904     -3838.976 4        27.940                                                                    23815336.007 4 100770413.12004     -3119.182 4        26.024
C16        45.000                                                                                                                                    38680860.307 6 201421369.60306     -1059.504 6        36.764    38680888.752 5 155751759.18405      -819.294 5        32.617
C09        46.000                                                                                                                                    38463334.572 6 200288686.25106      -445.376 6        38.147    38463330.591 7 154875915.29607      -344.293 7        43.725    38463328.130 6 162750923.48806      -361.593 6        38.826
C44        48.000                                                                                                                                    25121639.419 6 130814983.70206      1541.471 6        38.643                                                                    25121637.597 6 106297883.48806      1252.668 6        36.953
C35        51.000                                                                                                                                    22874117.325 6 119111755.53906      -851.453 6        41.323                                                                    22874117.030 6  96787891.47106      -691.756 6        38.775
I09        54.000    37207397.152 4 146009769.81904      -821.638 4        29.839
C20        55.000                                                                                                                                    22251911.109 7 115871542.98007     -2169.496 7        42.064                                                                    22251907.843 8  94155198.72408     -1762.769 8        50.795
I01        58.000   334045381.542 5   7725038.77305     -2938.838 5        35.119
> 2025 01 01 02 15 25.0000000  0 37
G02         1.000    22971925.362 6 120718339.19506     -3930.355 6        41.366                                    22971917.368 3  94066183.38903     -3062.617 3        20.381
G31         4.000    22196802.012 7 116644862.81407     -1566.343 7        44.832                                    22196795.055 5  90892067.12105     -1220.528 5        35.229    22196796.727 6  90892190.09906     -1220.522 6        36.582
E34         6.000    25559146.496 7 134314225.43407      1531.414 7        45.440                                                                    25559146.073 7 100299631.37007      1143.671 7        45.616    25559145.777 7 102916111.84207      1173.415 7        46.160
E04         7.000    25015794.855 6 131458870.36206     -2939.053 6        37.645                                                                    25015793.490 7  98167331.65307     -2194.859 7        45.047    25015793.230 7 100728218.62007     -2252.042 7        43.771
G03         8.000    20113203.698 8 105695819.60508     -1891.132 8        52.079                                    20113201.413 8  82360170.50608     -1473.609 8        51.028    20113202.654 7  82360230.51207     -1473.665 7        46.006
G09         9.000    21536748.260 6 113176346.46506      1898.494 6        39.027                                    21536744.953 5  88189369.98005      1479.357 5        31.441    21536744.547 6  88189359.00806      1479.196 6        39.261
R14        10.000                                                                                                                                    23283841.815 3                     -1595.727 3        23.162
G04        11.000    20202002.663 8 106162260.54908       310.624 8        48.576                                    20201996.025 5  82723785.37705       242.045 5        31.275    20201998.479 6  82723804.35406       242.023 6        37.365
E09        12.000    23369681.420 7 122808601.58707      -484.393 7        45.467                                                                    23369679.811 6  91707714.70006      -361.699 6        41.035    23369679.526 6  94100066.70606      -371.144 6        40.543
E06        14.000    23538260.093 8 123694412.14708     -1781.875 8        48.638                                                                    23538259.191 8  92369202.55008     -1330.588 8        49.449    23538258.471 8  94778802.15108     -1365.333 8        49.500
E11        15.000    25239241.350 5 132633153.01005     -3402.362 5        35.414                                                                    25239240.149 5  99044194.81905     -2540.976 5        30.392    25239241.456 5 101627922.81905     -2606.815 5        32.090
G19        16.000    22244540.159 7 116896021.32007     -1379.834 7        43.915                                    22244534.588 4  91087643.64604     -1075.206 4        26.144
G06        19.000    22924209.012 7 120467625.47107      2186.864 7        44.059                                    22924204.449 6  93870771.88506      1704.050 6        36.117    22924206.991 6  93870844.86906      1704.181 6        36.340
E36        20.000    23320478.850 7 122550085.84107     -1030.855 7        46.922                                                                    23320479.332 7  91514556.06107      -769.749 7        46.783    23320478.897 8  93901923.39508      -789.797 8        48.769
E05        21.000    24339226.942 5 127903454.81205      1768.508 5        35.229                                                                    24339215.789 5  95512354.85205      1320.437 5        32.958    24339212.088 4  98003969.15304      1355.332 4        25.383
G17        22.000    22948649.006 6 120596082.60606     -2902.543 6        37.123                                    22948644.924 3  93970935.13003     -2261.705 3        20.643    22948652.770 5  93970861.16605     -2261.450 5        30.513
R07        23.000    21910852.199 7 117290875.04307      2217.762 7        45.318                                                                    21910846.414 5  91225983.53905      1725.304 5        34.829
S23        24.000    38072878.125 6 200074292.79406      -825.386 6        38.255
S36        25.000    38125797.990 5 200352377.16905      -829.630 5        34.186
R20        27.000    22484523.976 5 120234841.65705     -5273.965 5        32.395                                                                    22484525.452 6  93515994.66206     -4102.225 6        38.832
R15        28.000    22662851.929 5 121103329.12005      1206.873 5        32.742                                                                    22662835.259 3                       937.131 3        22.590
R06        29.000    19384245.338 4                      -308.321 4        29.564
C05        32.000                                                                                                                                                                                                    39049076.491 5 157234435.69105      -650.229 5        34.862
C19        33.000                                                                                                                                    22325465.245 8 116254672.69208       427.995 8        52.252                                                                    22325459.527 7  94466325.67707       347.878 7        44.807
R21        34.000    19552074.427 8 104627207.18208     -2432.360 8        48.275                                                                    19552072.116 7  81376619.26307     -1891.844 7        43.359
C22        35.000                                                                                                                                    25903456.107 3                      2009.133 3        23.810                                                                    25903443.289 4                      1631.942 4        26.539
R05        36.000                                                                                                                                    21569233.370 4  89677880.41904     -3176.283 4        29.810
R22        37.000    21036809.311 5 112295909.73705      2024.184 5        35.962                                                                    21036809.678 7  87341302.54807      1574.225 7        45.341
C39        38.000                                                                                                                                    39061899.022 5 203405543.44905     -1472.239 5        34.076                                                                    39061884.984 5 165283617.51305     -1196.052 5        35.200
C06        41.000                                                                                                                                    38190725.727 5 198869130.41605      -958.423 5        35.381    38190731.235 5 153778192.52105      -740.955 5        34.352    38190718.682 6 161597423.00906      -778.376 6        37.297
C16        45.000                                                                                                                                    38681876.351 5 201426667.54905     -1059.861 5        34.433    38681900.188 5 155755855.92505      -819.429 5        32.359
C09        46.000                                                                                                                                    38463762.206 6 200290912.49706      -445.546 6        37.607    38463758.010 7 154877636.78107      -344.569 7        44.012    38463755.131 6 162752732.48606      -361.774 6        38.435
C44        48.000                                                                                                                                    25120160.314 6 130807278.72206      1540.222 6        40.231                                                                    25120158.158 6 106291622.53706      1251.831 6        37.006
C35        51.000                                                                                                                                    22874936.373 6 119116019.02106      -853.889 6        41.640                                                                    22874936.296 6  96791355.90206      -693.773 6        37.815
I09        54.000    37208440.417 4 146013876.71004      -821.114 4        29.469
C20        55.000                                                                                                                                    22253995.000 7 115882391.94207     -2170.251 7        42.144                                                                    22253991.237 8  94164014.40008     -1763.336 8        50.700
I01        58.000   334049125.892 5   7739732.02605     -2938.720 5        35.681
> 2025 01 01 02 15 30.0000000  0 40
G02         1.000    22975665.815 6 120737994.84706     -3931.891 6        41.430                                    22975658.734 3  94081499.47503     -3063.818 3        20.548
G21         3.000    24740790.671 3                     -4129.297 3        21.333
G31         4.000    22198294.221 7 116652704.60507     -1570.148 7        46.257                                    22198287.428 6  90898177.62806     -1223.493 6        36.431    22198288.715 6  90898300.58906     -1223.546 6        36.752
E34         6.000    25557689.813 7 134306571.87407      1530.152 7        45.195                                                                    25557689.500 7 100293916.05607      1142.659 7        45.502    25557689.384 7 102910247.43107      1172.426 7        46.184
E04         7.000    25018591.759 6 131473570.22506     -2940.699 6        38.622                                                                    25018591.029 7  98178308.80307     -2195.744 7        45.285    25018589.904 7 100739482.12107     -2252.997 7        42.895
G03         8.000    20115004.251 8 105705281.24408     -1893.369 8        52.214                                    20115002.421 8  82367543.21008     -1475.353 8        51.278    20115002.928 7  82367603.22307     -1475.326 7        46.393
G09         9.000    21534942.577 6 113166860.19706      1896.275 6        37.433                                    21534939.661 5  88181978.10005      1477.626 5        31.291    21534939.187 6  88181967.08906      1477.548 6        38.144
R14        10.000    23285780.320 5 124126322.21715     -2054.439 5        35.648                                                                    23285762.726 3                     -1599.304 3        23.048
G04        11.000    20201708.524 8 106160715.25708       307.728 8        48.576                                    20201701.823 5  82722581.24705       239.787 5        31.275    20201705.383 6  82722600.22806       239.666 6        37.550
E09        12.000    23370143.463 7 122811029.08707      -486.536 7        45.553                                                                    23370141.989 6  91709527.46506      -363.282 6        41.011    23370141.518 6  94101926.75806      -372.751 6        40.555
E06        14.000    23539956.469 8 123703326.68408     -1783.803 8        48.461                                                                    23539955.813 8  92375859.50808     -1332.085 8        49.575    23539954.914 8  94785632.76408     -1366.744 8        49.538
E11        15.000    25242480.262 5 132650168.28405     -3403.632 5        33.491                                                                    25242479.264 4  99056901.07504     -2541.635 4        29.943    25242478.936 5 101640960.48405     -2607.863 5        33.210
G19        16.000    22245856.324 7 116902930.62107     -1383.607 7        45.291                                    22245849.259 4  91093027.50504     -1078.135 4        26.168
G28        17.000    23904714.712 4                     -3127.527 4        28.180
G06        19.000    22922129.055 7 120456695.57007      2185.206 7        44.519                                    22922124.375 6  93862255.09206      1702.751 6        36.076    22922127.281 5  93862328.07605      1702.679 5        35.176
E36        20.000    23321460.674 7 122555246.05507     -1033.106 7        46.453                                                                    23321461.204 7  91518409.47107      -771.584 7        46.422    23321460.831 8  93905877.32608      -791.590 8        48.379
E05        21.000    24337547.672 5 127894615.52005      1767.323 5        34.081                                                                    24337534.254 5  95505754.10505      1320.045 5        33.186    24337528.508 4  97997196.30204      1354.246 4        26.371
G17        22.000    22951415.367 6 120610601.55806     -2904.729 6        39.733                                    22951408.489 3  93982248.59403     -2263.442 3        22.229    22951417.978 5  93982174.64305     -2263.384 5        30.302
R07        23.000    21908780.560 7 117279790.85307      2216.080 7        45.985                                                                    21908779.576 5  91217362.60405      1723.382 5        34.314
S23        24.000    38073666.419 6 200078420.28106      -825.599 6        38.438
S36        25.000    38126576.857 5 200356525.71805      -829.323 5        32.988
R20        27.000    22489457.118 5 120261217.56005     -5275.658 5        33.144                                                                    22489458.608 6  93536509.24106     -4103.627 6        39.444
R15        28.000    22661732.180 4 121097304.66604      1202.904 4        28.256
R06        29.000    19384536.043 5                      -310.940 5        31.208
C05        32.000                                                                                                                                                                                                    39049882.165 5 157237688.68405      -650.884 5        34.671
C19        33.000                                                                                                                                    22325055.392 8 116252537.37608       426.296 8        52.349                                                                    22325049.712 7  94464590.57307       346.347 7        44.795
R21        34.000    19554349.295 7 104639380.86207     -2436.944 7        47.368                                                                    19554346.796 7  81386087.69207     -1895.441 7        43.469
C22        35.000                                                                                                                                    25901526.468 4                      2008.193 4        25.955                                                                    25901518.188 4                      1631.559 4        28.379
R05        36.000                                                                                                                                    21573056.702 5  89693764.22005     -3176.996 5        33.838
R22        37.000    21034918.449 6 112285797.85606      2020.754 6        37.527                                                                    21034915.487 7  87333437.74207      1571.682 7        45.071
C39        38.000                                                                                                                                    39063313.127 5 203412907.06405     -1472.841 5        34.224                                                                    39063297.998 5 165289601.06805     -1197.012 5        34.819
C06        41.000                                                                                                                                    38191648.866 5 198873924.97505      -959.085 5        34.852    38191653.004 5 153781899.97305      -742.082 5        33.198    38191639.640 6 161601319.02406      -779.574 6        37.040
C29        43.000                                                                                                                                    23822693.175 5 124051052.13505     -3841.072 5        32.772                                                                    23822692.294 5                     -3121.228 5        32.234
C16        45.000                                                                                                                                    38682895.086 5 201431969.23305     -1060.746 5        33.228    38682914.354 5 155759955.50905      -820.332 5        32.677
C09        46.000                                                                                                                                    38464190.700 6 200293142.67906      -446.322 6        37.917    38464186.182 7 154879361.31307      -345.251 7        43.994    38464183.253 6 162754544.72906      -362.936 6        38.183
C44        48.000                                                                                                                                    25118684.036 6 130799582.96306      1538.102 6        41.161                                                                    25118680.520 6 106285369.11506      1249.842 6        37.361
C35        51.000                                                                                                                                    22875758.473 7 119120296.68607      -856.965 7        43.162                                                                    22875757.175 6  96794831.89606      -696.376 6        37.161
I09        54.000    37209482.674 5 146017984.26505      -821.890 5        30.294
C20        55.000                                                                                                                                    22256078.169 6 115893247.25306     -2171.635 6        41.218                                                                    22256075.834 8  94172835.24008     -1764.770 8        50.843
I01        58.000   334052871.286 5   7754425.60505     -2938.579 5        35.457
> 2025 01 01 02 15 35.0000000  0 38
G02         1.000    22979407.616 7 120757657.43607     -3933.112 7        42.591                                    22979401.048 3  94096820.96703     -3064.760 3        21.024
G31         4.000    22199789.493 7 116660564.56107     -1573.661 7        46.369                                    22199783.418 6  90904302.28706     -1226.231 6        37.002    22199784.451 6  90904425.25906     -1226.313 6        38.105
E34         6.000    25556234.306 7 134298924.02507      1529.100 7        44.575                                                                    25556234.274 7 100288205.00007      1141.847 7        45.756    25556234.085 7 102904387.37607      1171.604 7        46.323
E04         7.000    25021389.768 6 131488275.60106     -2941.548 6        38.090                                                                    25021389.327 7  98189290.09407     -2196.522 7        45.579    25021388.143 7 100750749.86107     -2253.812 7        42.191
G03         8.000    20116806.661 8 105714752.89408     -1895.272 8        51.679                                    20116805.321 8  82374923.71708     -1476.836 8        51.409    20116805.216 7  82374983.72607     -1476.783 7        46.395
G09         9.000    21533138.010 5 113157383.37505      1894.569 5        35.152                                    21533135.991 5  88174593.55805      1476.274 5        30.098    21533135.974 6  88174582.59306      1476.130 6        38.114
R14        10.000    23287712.175 5 124136604.58205     -2058.322 5        34.895                                                                    23287685.524 4                     -1601.507 4        25.278
G04        11.000    20201416.855 8 106159183.52608       305.114 8        48.739                                    20201410.457 5  82721387.70105       237.747 5        31.683    20201414.481 6  82721406.67806       237.941 6        39.402
E09        12.000    23370606.821 7 122813466.42107      -488.435 7        44.767                                                                    23370605.830 6  91711347.55706      -364.677 6        41.409    23370605.101 6  94103794.33506      -374.231 6        40.417
E06        14.000    23541654.659 7 123712249.93407     -1785.409 7        47.973                                                                    23541653.891 8  92382522.97708     -1333.263 8        49.868    23541653.019 8  94792470.06508     -1368.084 8        49.575
E11        15.000    25245719.093 5 132667190.20505     -3405.208 5        31.992                                                                    25245719.545 5  99069612.32705     -2543.029 5        30.491    25245718.602 5 101654003.26905     -2609.156 5        33.563
G19        16.000    22247176.038 7 116909857.57207     -1387.046 7        46.660                                    22247167.095 4  91098425.12004     -1080.821 4        26.467
G28        17.000    23907692.329 5                     -3129.930 5        30.717
G06        19.000    22920050.216 7 120445773.52507      2183.720 7        44.533                                    22920045.741 6  93853744.41406      1701.597 6        36.091    22920049.627 5  93853817.43205      1701.555 5        35.538
E36        20.000    23322444.662 7 122560417.22507     -1035.229 7        46.518                                                                    23322445.020 7  91522271.05707      -773.062 7        46.195    23322444.949 7  93909839.63807      -793.188 7        47.866
E05        21.000    24335876.477 5 127885781.45805      1766.405 5        33.000                                                                    24335851.570 5  95499157.36405      1318.943 5        32.509    24335851.381 4  97990427.41804      1353.816 4        29.071
G17        22.000    22954179.525 6 120625131.17506     -2906.828 6        40.010                                    22954174.362 3  93993570.37803     -2265.083 3        22.152    22954174.669 4  93993496.43904     -2264.906 4        28.180
R07        23.000    21906710.262 7 117268714.65607      2214.572 7        46.124                                                                    21906704.645 5  91208747.78105      1722.337 5        31.804
S23        24.000    38074453.845 6 200082547.96406      -825.311 6        38.586
S36        25.000    38127363.160 5 200360673.45005      -829.517 5        32.383
R20        27.000    22494390.329 5 120287600.23605     -5277.160 5        33.665                                                                    22494392.449 6  93557029.07406     -4104.436 6        40.296
R06        29.000    19384823.988 5                      -313.966 5        30.498
C05        32.000                                                                                                                                                                                                    39050687.281 5 157240941.97705      -650.731 5        34.776
C19        33.000                                                                                                                                    22324646.741 8 116250409.76108       424.880 8        52.488                                                                    22324640.934 7  94462861.72707       345.214 7        44.590
R21        34.000    19556628.491 8 104651576.67308     -2441.251 8        48.198                                                                    19556626.057 7  81395573.31707     -1898.735 7        44.573
C22        35.000                                                                                                                                    25899601.600 5                      2007.442 5        30.309                                                                    25899598.302 5                      1631.047 5        30.181
R05        36.000                                                                                                                                    21576879.207 5  89709651.22105     -3177.751 5        35.176
R22        37.000    21033027.695 6 112275702.03706      2017.860 6        37.342                                                                    21033023.917 7  87325585.43307      1569.249 7        45.318
C39        38.000                                                                                                                                    39064728.653 5 203420274.45505     -1473.990 5        34.200                                                                    39064712.596 5 165295587.68705     -1197.538 5        35.095
C06        41.000                                                                                                                                    38192569.386 5 198878724.00205      -960.242 5        35.981    38192571.235 5 153785610.85505      -742.567 5        31.094    38192561.056 6 161605218.64406      -780.175 6        37.448
C29        43.000                                                                                                                                    23826389.704 6 124070261.20606     -3842.446 6        36.560                                                                    23826383.757 5                     -3122.394 5        33.760
C16        45.000                                                                                                                                    38683917.083 5 201437275.19005     -1061.439 5        33.647    38683934.646 5 155764058.40605      -820.947 5        31.079
C09        46.000                                                                                                                                    38464619.666 6 200295377.32206      -447.170 6        38.835    38464615.056 7 154881089.27007      -345.940 7        43.297    38464612.557 6 162756360.56906      -363.341 6        37.875
C44        48.000                                                                                                                                    25117209.110 6 130791896.93206      1536.244 6        41.437                                                                    25117204.438 6 106279123.60506      1248.526 6        37.130
C35        51.000                                                                                                                                    22876582.109 7 119124589.04607      -859.906 7        44.223                                                                    22876579.641 5  96798319.82605      -698.390 5        35.895
I09        54.000    37210523.672 4 146022092.72204      -822.105 4        29.479
C20        55.000                                                                                                                                    22258165.395 6 115904109.38906     -2173.028 6        40.188                                                                    22258161.816 8  94181661.60608     -1765.691 8        50.637
I01        58.000   334056614.684 5   7769120.06005     -2939.103 5        35.571
> 2025 01 01 02 15 40.0000000  0 40
G02         1.000    22983151.261 7 120777326.41307     -3934.606 7        42.373                                    22983144.758 3  94112147.45803     -3065.926 3        22.057
G21         3.000    24748641.686 3                     -4128.590 3        21.738
G31         4.000    22201287.923 7 116668442.12307     -1577.396 7        45.744                                    22201282.775 6  90910440.67206     -1229.145 6        36.904    22201283.916 6  90910563.65306     -1229.246 6        38.189
E34         6.000    25554779.880 7 134291281.32707      1527.844 7        44.075                                                                    25554779.862 7 100282497.78407      1140.965 7        45.535    25554779.799 7 102898531.27407      1170.732 7        46.329
E04         7.000    25024189.217 6 131502985.93906     -2943.006 6        37.259                                                                    25024188.635 7  98200275.10907     -2197.469 7        45.819    25024187.170 6 100762021.42606     -2254.702 6        41.614
G03         8.000    20118610.861 8 105724233.99708     -1897.279 8        51.481                                    20118610.010 8  82382311.59308     -1478.400 8        51.564    20118609.574 7  82382371.60607     -1478.386 7        46.527
G09         9.000    21531336.393 5 113147915.51405      1892.559 5        35.810                                    21531334.106 5  88167216.02205      1474.704 5        30.121    21531335.294 6  88167205.08106      1474.695 6        38.844
R14        10.000    23289646.083 5 124146906.69815     -2062.373 5        32.383                                                                    23289619.420 5                     -1604.462 5        30.241
G04        11.000    20201127.979 8 106157664.82408       302.347 8        48.419                                    20201121.854 5  82720204.30805       235.591 5        32.605    20201125.206 7  82720223.29907       235.621 7        42.028
E09        12.000    23371072.170 7 122815913.04007      -490.479 7        43.977                                                                    23371071.642 6  91713174.58906      -366.183 6        41.449    23371070.683 6  94105669.02606      -375.758 6        40.307
E06        14.000    23543354.026 7 123721181.36107     -1787.233 7        47.836                                                                    23543353.502 8  92389192.54108     -1334.623 8        50.082    23543352.564 8  94799313.61408     -1369.417 8        49.468
E11        15.000    25248959.217 5 132684218.19205     -3406.564 5        30.340                                                                    25248960.225 5  99082328.02305     -2543.593 5        30.732    25248959.262 5 101667050.68005     -2609.854 5        33.329
G19        16.000    22248497.907 7 116916801.62607     -1390.575 7        46.444                                    22248488.071 4  91103836.06404     -1083.562 4        26.599
G28        17.000    23910678.077 5                     -3132.562 5        31.072
G06        19.000    22917973.022 7 120434858.75707      2182.121 7        44.933                                    22917968.624 6  93845239.40506      1700.349 6        36.208    22917972.636 6  93845312.40306      1700.292 6        36.488
E36        20.000    23323430.701 7 122565598.77907     -1037.491 7        46.722                                                                    23323431.078 7  91526140.39807      -774.743 7        46.169    23323431.003 7  93913809.92807      -794.956 7        47.560
E05        21.000    24334198.906 5 127876952.16505      1764.922 5        31.072                                                                    24334170.378 5  95492564.13205      1318.792 5        32.245    24334174.743 5  97983662.22905      1352.859 5        31.819
G17        22.000    22956945.912 6 120639670.89506     -2909.087 6        40.055                                    22956941.545 3  94004900.00203     -2266.827 3        21.452    22956934.856 3  94004826.14103     -2266.742 3        22.933
R07        23.000    21904640.678 7 117257645.52807      2212.908 7        44.789                                                                    21904635.941 5  91200138.43805      1721.362 5        32.545
S23        24.000    38075240.904 6 200086675.55706      -825.606 6        39.279
S36        25.000    38128165.155 5 200364820.68505      -829.656 5        34.957
R20        27.000    22499324.757 5 120313988.96905     -5278.648 5        34.090                                                                    22499328.162 6  93577553.62806     -4105.515 6        40.675
R15        28.000                                                                                                                                    22659447.777 3                       930.516 3        22.819
R06        29.000    19385120.636 5                      -316.339 5        31.766
C05        32.000                                                                                                                                                                                                    39051495.952 5 157244195.17805      -650.737 5        34.776
C19        33.000                                                                                                                                    22324239.524 8 116248289.30908       423.251 8        52.069                                                                    22324233.715 7  94461138.69507       343.950 7        44.874
R21        34.000    19558912.680 8 104663794.18808     -2445.817 8        48.805                                                                    19558908.687 7  81405075.81407     -1902.281 7        44.232
C22        35.000                                                                                                                                                                                                                                                                    25897676.309 4                      1630.817 4        28.758
R05        36.000                                                                                                                                    21580701.611 5  89725540.88405     -3178.198 5        35.343
R22        37.000    21031140.331 6 112265621.73506      2014.236 6        38.474                                                                    21031136.048 7  87317745.19807      1566.698 7        45.658
C39        38.000                                                                                                                                    39066144.949 5 203427645.04805     -1474.477 5        34.038                                                                    39066129.265 5 165301576.88305     -1198.279 5        35.029
C06        41.000                                                                                                                                    38193492.951 6 198883526.92406      -961.070 6        36.431                                                                    38193483.856 6 161609121.40806      -780.920 6        37.679
C29        43.000                                                                                                                                    23830081.120 6 124089476.30906     -3843.805 6        38.928                                                                    23830073.969 6 100832841.67816     -3123.532 6        36.068
C16        45.000                                                                                                                                    38684939.115 5 201442584.80005     -1062.495 5        34.219    38684957.427 5 155768164.15105      -822.110 5        31.109
C09        46.000                                                                                                                                    38465049.859 6 200297615.79106      -448.242 6        39.222    38465044.475 7 154882820.19607      -346.818 7        42.878    38465042.734 6 162758179.51606      -364.270 6        37.493
C44        48.000                                                                                                                                    25115733.996 6 130784220.11806      1534.281 6        41.802                                                                    25115730.386 6 106272885.55606      1246.705 6        37.338
C35        51.000                                                                                                                                    22877408.300 7 119128895.57307      -862.916 7        44.272                                                                    22877405.838 5  96801819.28705      -701.246 5        34.862
I09        54.000    37211569.994 4 146026201.59304      -821.459 4        29.640
C20        55.000                                                                                                                                    22260251.724 6 115914977.75706     -2174.390 6        40.377                                                                    22260248.900 8  94190493.04508     -1766.833 8        50.786
I01        58.000   334060360.445 5   7783814.83005     -2939.250 5        34.995
> 2025 01 01 02 15 45.0000000  0 40
G02         1.000    22986896.066 7 120797002.46907     -3936.006 7        42.455                                    22986889.706 3  94127479.44203     -3067.028 3        22.419
G21         3.000    24752575.323 3                     -4128.682 3        20.167
G31         4.000    22202790.255 7 116676338.05507     -1581.038 7        45.442                                    22202785.478 6  90916593.36506     -1231.985 6        36.242    22202786.249 6  90916716.35106     -1232.108 6        37.142
E34         6.000    25553326.726 7 134283644.48007      1526.696 7        43.609                                                                    25553326.507 7 100276794.96107      1140.093 7        45.150    25553326.516 7 102892679.67707      1169.839 7        46.614
E04         7.000    25026990.582 6 131517701.99606     -2943.472 6        36.767                                                                    25026989.032 7  98211264.38007     -2198.226 7        46.259    25026987.687 6 100773297.36906     -2255.680 6        41.509
G03         8.000    20120417.319 8 105733725.27008     -1899.253 8        51.540                                    20120416.550 8  82389707.39108     -1479.941 8        51.922    20120415.734 7  82389767.40107     -1479.933 7        46.842
G09         9.000    21529538.036 6 113138457.42306      1890.551 6        37.448                                    21529534.341 5  88159846.09305      1473.163 5        30.709    21529535.436 6  88159835.10206      1473.264 6        38.739
R14        10.000    23291575.778 5 124157229.40605     -2066.553 5        32.234                                                                    23291560.368 5                     -1607.222 5        32.766
G04        11.000    20200841.341 7 106156159.87707       299.537 7        47.674                                    20200836.073 5  82719031.63605       233.400 5        33.695    20200839.133 7  82719050.62207       233.400 7        43.678
E09        12.000    23371539.276 7 122818369.64907      -492.403 7        42.684                                                                    23371539.005 6  91715009.07406      -367.612 6        40.841    23371538.208 6  94107551.35706      -377.308 6        40.300
E06        14.000    23545054.989 7 123730121.68707     -1789.019 7        47.481                                                                    23545054.969 8  92395868.74708     -1335.935 8        50.511    23545053.934 8  94806163.99308     -1370.848 8        49.804
E11        15.000    25252199.487 4 132701253.00804     -3407.653 4        28.445                                                                    25252201.603 5  99095048.80605     -2544.917 5        30.445    25252201.378 5 101680103.33905     -2611.085 5        33.455
G19        16.000    22249820.846 7 116923763.50707     -1394.197 7        45.899                                    22249812.691 4  91109260.90604     -1086.397 4        26.479
G28        17.000    23913663.417 5                     -3134.929 5        32.892
G06        19.000    22915897.691 7 120423952.05507      2180.445 7        44.772                                    22915893.138 6  93836740.68006      1699.046 6        36.439    22915897.130 6  93836813.67706      1699.118 6        37.951
E36        20.000    23324418.729 7 122570791.48407     -1039.677 7        46.935                                                                    23324419.160 7  91530018.06307      -776.404 7        46.350    23324419.337 7  93917788.73807      -796.642 7        47.627
E05        21.000    24332511.816 5 127868128.33805      1763.926 5        31.645                                                                    24332490.680 5  95485975.05005      1317.505 5        31.102    24332498.705 5  97976901.27805      1351.840 5        34.614
G17        22.000    22959715.148 6 120654221.38406     -2911.156 6        41.039                                    22959710.307 3  94016238.03203     -2268.418 3        21.333
R07        23.000    21902571.982 7 117246584.66407      2211.320 7        42.427                                                                    21902571.378 5  91191535.60805      1720.050 5        32.533
S23        24.000    38076032.739 6 200090803.59706      -825.744 6        39.871
S36        25.000    38128966.148 5 200368969.15805      -829.708 5        35.876
R20        27.000    22504261.105 5 120340384.44705     -5279.875 5        34.929                                                                    22504264.760 6  93598083.43406     -4106.489 6        40.717
R15        28.000                                                                                                                                    22658321.594 3                       928.215 3        23.676
R06        29.000    19385417.842 5                      -318.965 5        31.706
C05        32.000                                                                                                                                                                                                    39052307.153 5 157247448.83905      -650.818 5        35.333
C19        33.000                                                                                                                                    22323833.943 8 116246176.74608       421.659 8        51.471                                                                    22323828.053 7  94459422.05207       342.694 7        44.969
R21        34.000    19561201.354 8 104676034.13108     -2450.289 8        48.364                                                                    19561195.715 7  81414595.75907     -1905.705 7        44.272
C22        35.000                                                                                                                                                                                                                                                                    25895746.531 4                      1630.809 4        26.431
R05        36.000                                                                                                                                    21584521.155 5  89741434.05105     -3178.884 5        34.067
R22        37.000    21029254.176 6 112255557.72506      2011.209 6        40.627                                                                    21029250.560 7  87309917.61907      1564.198 7        46.078
C39        38.000                                                                                                                                    39067563.214 5 203435019.52405     -1475.099 5        31.985                                                                    39067545.053 5 165307569.20705     -1198.641 5        34.462
C06        41.000                                                                                                                                    38194417.722 6 198888334.50306      -962.197 6        36.147    38194400.518 4 153793042.24904      -743.951 4        28.427    38194407.324 6 161613027.93106      -781.556 6        37.629
C29        43.000                                                                                                                                    23833773.671 6 124108698.22606     -3845.175 6        40.114                                                                    23833765.578 6 100848461.04606     -3124.488 6        36.858
C16        45.000                                                                                                                                    38685959.392 6 201447898.86006     -1063.243 6        36.654    38685982.417 4 155772273.34404      -822.192 4        28.294
C09        46.000                                                                                                                                    38465480.552 6 200299858.90906      -449.382 6        39.544    38465475.122 7 154884554.70107      -347.229 7        43.543    38465473.622 6 162760002.21506      -364.983 6        37.671
C44        48.000                                                                                                                                    25114261.448 6 130776553.26506      1532.322 6        41.273                                                                    25114258.281 6 106266655.60006      1245.239 6        37.739
C35        51.000                                                                                                                                    22878238.308 7 119133216.96907      -865.782 7        44.051                                                                    22878236.172 5  96805330.77805      -703.666 5        34.957
I09        54.000    37212619.074 4 146030311.52804      -822.274 4        29.630
C20        55.000                                                                                                                                    22262340.088 6 115925853.09206     -2175.759 6        38.075                                                                    22262337.358 8  94199330.15308     -1767.986 8        50.418
I01        58.000   334064104.814 5   7798510.54305     -2939.427 5        34.467
> 2025 01 01 02 15 50.0000000  0 40
G02         1.000    22990641.594 7 120816685.18807     -3937.089 7        43.158                                    22990636.031 3  94142816.65303     -3067.864 3        22.533
G21         3.000    24756505.325 3                     -4127.117 3        19.821
G31         4.000    22204296.501 7 116684251.98207     -1584.426 7        44.796                                    22204291.386 5  90922760.08305     -1234.621 5        35.171    22204292.632 5  90922883.03505     -1234.637 5        35.695
E34         6.000    25551874.656 7 134276013.15807      1525.767 7        43.062                                                                    25551874.276 7 100271096.24507      1139.455 7        45.302    25551874.455 7 102886832.29507      1169.152 7        46.711
E04         7.000    25029791.265 5 131532423.35705     -2944.610 5        35.929                                                                    25029790.379 7  98222257.62507     -2198.951 7        46.215    25029788.945 6 100784577.39306     -2256.356 6        41.266
G03         8.000    20122225.406 8 105743226.34108     -1901.028 8        51.335                                    20122224.856 8  82397110.82908     -1481.322 8        51.688    20122223.961 7  82397170.84407     -1481.343 7        46.643
G09         9.000    21527739.259 6 113129008.64606      1888.892 6        38.291                                    21527736.512 5  88152483.40505      1471.871 5        31.638    21527736.905 6  88152472.41706      1471.930 6        38.099
R14        10.000                                                                                                                                    23293500.578 5                     -1610.324 5        30.921
G04        11.000    20200557.451 7 106154668.29807       297.077 7        46.697                                    20200552.898 5  82717869.37205       231.487 5        34.157    20200554.796 7  82717888.35207       231.601 7        44.486
E09        12.000    23372008.912 7 122820835.86607      -493.964 7        42.051                                                                    23372008.371 6  91716850.75606      -369.023 6        40.956    23372007.444 6  94109441.04406      -378.441 6        40.241
E06        14.000    23546757.825 7 123739070.49707     -1790.492 7        47.041                                                                    23546757.974 8  92402551.31008     -1337.042 8        50.902    23546757.096 8  94813020.87608     -1371.929 8        50.152
E11        15.000    25255441.610 4 132718294.25704     -3408.604 4        26.910                                                                    25255444.402 4  99107774.43004     -2545.243 4        29.346    25255444.825 5 101693160.89105     -2611.794 5        33.976
G19        16.000    22251147.447 7 116930742.80807     -1397.428 7        45.023                                    22251140.606 4  91114699.32304     -1088.906 4        25.850
G28        17.000    23916646.830 5                     -3137.461 5        32.671
G06        19.000    22913823.455 7 120413053.02607      2179.268 7        44.098                                    22913819.248 6  93828247.93006      1698.132 6        36.586    22913822.389 6  93828320.92306      1698.084 6        38.444
E36        20.000    23325408.914 7 122575994.91607     -1041.601 7        46.888                                                                    23325409.166 7  91533903.74107      -777.850 7        46.661    23325409.509 7  93921775.79507      -798.189 7        47.463
E05        21.000    24330824.360 5 127859309.72605      1763.143 5        32.832                                                                    24330813.630 5  95479389.80405      1316.627 5        32.048    24330820.171 6  97970144.25606      1351.008 6        36.820
G17        22.000    22962485.889 6 120668782.27306     -2913.090 6        40.727                                    22962481.117 3  94027584.19703     -2269.958 3        20.619    22962481.964 4  94027510.26804     -2269.653 4        26.515
R07        23.000    21900508.125 6 117235531.06006      2210.084 6        41.526                                                                    21900506.548 5  91182938.37605      1719.122 5        30.974
S23        24.000    38076815.693 6 200094931.68906      -825.522 6        39.973
S36        25.000    38129748.261 5 200373115.96305      -829.473 5        35.033
R20        27.000    22509199.522 5 120366786.37005     -5280.897 5        34.986                                                                    22509201.201 6  93618618.24506     -4107.387 6        40.021
R15        28.000    22657258.982 3                      1189.857 3        21.429                                                                    22657212.980 4                       924.944 4        26.467
R06        29.000    19385715.048 4                      -321.710 4        29.090
C05        32.000                                                                                                                                                                                                    39053117.295 5 157250702.66305      -650.782 5        35.862
C19        33.000                                                                                                                                    22323430.243 8 116244071.68408       420.355 8        51.122                                                                    22323423.827 7  94457711.51607       341.604 7        44.910
R21        34.000    19563491.150 8 104688295.94508     -2454.402 8        48.318                                                                    19563487.630 7  81424132.73307     -1909.056 7        44.939
C22        35.000                                                                                                                                                                                                                                                                    25893812.120 4                      1629.881 4        26.958
R05        36.000    21588379.577 6 115402240.07406     -4087.872 6        38.120                                                                    21588344.372 5  89757330.31405     -3179.484 5        33.156
R22        37.000    21027373.183 7 112245509.63807      2008.179 7        43.697                                                                    21027367.721 7  87302102.43007      1561.923 7        45.401
C39        38.000                                                                                                                                    39068981.277 5 203442397.51505     -1475.436 5        30.241                                                                    39068961.828 5 165313564.43005     -1199.160 5        33.635
C06        41.000                                                                                                                                    38195340.917 6 198893146.28706      -962.682 6        36.586    38195324.596 4 153796763.12304      -744.621 4        26.527    38195331.374 6 161616937.90206      -782.148 6        37.648
C29        43.000                                                                                                                                    23837466.866 6 124127926.51006     -3846.244 6        41.797                                                                    23837458.430 6 100864085.60606     -3125.390 6        37.743
C16        45.000                                                                                                                                    38686976.118 6 201453216.93106     -1063.898 6        36.363    38687009.577 4 155776385.64804      -823.131 4        25.895
C09        46.000                                                                                                                                    38465911.916 6 200302106.22306      -449.802 6        40.462    38465906.383 7 154886292.49507      -347.740 7        43.050    38465905.381 6 162761828.35106      -365.597 6        37.482
C44        48.000                                                                                                                                    25112791.068 6 130768895.98206      1530.600 6        41.235                                                                    25112787.780 6 106260433.41306      1243.965 6        37.546
C35        51.000                                                                                                                                    22879071.873 7 119137552.86407      -868.566 7        44.265                                                                    22879069.301 5  96808854.05405      -705.644 5        35.729
I09        54.000    37213666.715 4 146034422.23004      -822.599 4        28.654
C20        55.000                                                                                                                                    22264430.072 6 115936735.01006     -2176.978 6        40.026                                                                    22264427.192 8  94208172.61908     -1768.910 8        50.060
I01        58.000   334067849.462 5   7813206.80705     -2938.936 5        33.683
> 2025 01 01 02 15 55.0000000  0 39
G02         1.000    22994388.030 7 120836373.77707     -3938.547 7        43.263                                    22994383.251 3  94158158.41903     -3068.994 3        23.295
G31         4.000    22205805.962 7 116692183.05407     -1588.187 7        44.298                                    22205800.393 5  90928940.15005     -1237.552 5        34.367    22205802.437 5  90929063.08505     -1237.419 5        34.943
E34         6.000    25550423.064 7 134268386.51007      1524.592 7        42.754                                                                    25550422.783 7 100265401.03707      1138.409 7        45.211    25550423.170 7 102880988.50807      1168.184 7        46.648
E04         7.000    25032590.493 5 131547149.20505     -2945.964 5        33.533                                                                    25032592.452 7  98233254.21307     -2199.909 7        46.171    25032590.810 6 100795860.84006     -2257.326 6        40.753
G03         8.000    20124035.165 8 105752736.39008     -1903.213 8        51.371                                    20124034.683 8  82404521.26208     -1483.022 8        51.670    20124032.921 7  82404581.27107     -1482.999 7        46.288
G09         9.000    21525943.500 6 113119568.33306      1886.908 6        39.480                                    21525940.292 5  88145127.31705      1470.319 5        32.198    21525940.875 6  88145116.33706      1470.385 6        37.501
R14        10.000                                                                                                                                    23295437.359 5                     -1613.540 5        30.385
G04        11.000    20200275.990 7 106153189.26607       294.237 7        46.054                                    20200272.000 5  82716716.89005       229.269 5        34.800    20200273.462 7  82716735.86607       229.298 7        45.238
E09        12.000    23372479.834 6 122823310.90106      -496.219 6        41.383                                                                    23372479.135 6  91718698.98306      -370.506 6        40.796    23372478.246 6  94111337.49606      -380.194 6        39.757
E06        14.000    23548462.034 7 123748026.99007     -1792.301 7        46.465                                                                    23548462.355 8  92409239.60308     -1338.474 8        50.999    23548461.658 8  94819883.65008     -1373.361 8        50.339
E11        15.000    25258686.201 4 132735341.11304     -3411.622 4        24.331                                                                    25258688.450 4  99120504.17304     -2546.398 4        28.844    25258688.922 5 101706222.75705     -2612.825 5        33.162
G19        16.000    22252478.070 7 116937738.71507     -1401.047 7        43.446                                    22252471.951 4  91120150.67504     -1091.742 4        25.218
G28        17.000    23919632.586 5                     -3139.902 5        31.321
G06        19.000    22911750.599 7 120402160.86007      2177.448 7        43.367                                    22911746.812 6  93819760.53106      1696.714 6        36.862    22911749.974 6  93819833.53006      1696.782 6        39.330
E36        20.000    23326400.901 7 122581208.28107     -1043.929 7        46.686                                                                    23326401.275 7  91537796.83707      -779.561 7        46.799    23326401.358 7  93925770.44207      -799.897 7        47.048
E05        21.000    24329145.976 5 127850495.44605      1761.993 5        33.377                                                                    24329137.025 5  95472807.79105      1315.801 5        32.323    24329142.860 6  97963390.51106      1350.125 6        38.450
G17        22.000    22965257.177 6 120683352.74006     -2915.469 6        40.195                                    22965253.107 3  94038937.80503     -2271.816 3        19.582    22965255.044 4  94038863.85104     -2272.073 4        26.910
R07        23.000    21898445.556 6 117224484.25406      2208.278 6        40.744                                                                    21898441.522 4  91174346.53104      1717.077 4        26.240
S23        24.000    38077599.135 6 200099059.08006      -825.711 6        39.757
S36        25.000    38130537.950 5 200377263.22805      -829.525 5        35.695
R20        27.000    22514138.657 5 120393193.94405     -5282.213 5        34.014                                                                    22514138.942 6  93639157.47206     -4108.608 6        39.354
R15        28.000                                                                                                                                    22656103.186 4                       922.167 4        27.880
R06        29.000    19386011.915 4                      -324.628 4        26.216
C05        32.000                                                                                                                                                                                                    39053923.935 5 157253955.99505      -650.974 5        35.814
C19        33.000                                                                                                                                    22323027.599 8 116241973.30008       418.698 8        50.868                                                                    22323020.823 7  94456006.41107       340.298 7        44.959
R21        34.000    19565785.916 8 104700578.87508     -2459.010 8        48.469                                                                    19565783.445 7  81433686.14007     -1912.578 7        45.472
C22        35.000                                                                                                                                                                                                                                                                    25891881.153 4                      1629.979 4        26.587
R05        36.000    21592199.190 6 115422681.10406     -4088.907 6        38.096                                                                    21592168.872 5  89773228.85905     -3180.239 5        31.464
R22        37.000    21025494.853 7 112235476.61907      2004.796 7        44.877                                                                    21025488.379 7  87294298.98207      1559.266 7        44.892
C39        38.000                                                                                                                                    39070399.482 4 203449778.24304     -1476.808 4        29.564                                                                    39070379.316 5 165319561.84505     -1199.692 5        33.108
C06        41.000                                                                                                                                    38196264.464 6 198897961.48506      -963.798 6        37.463                                                                    38196256.207 6 161620850.63806      -782.940 6        37.573
C29        43.000                                                                                                                                    23841160.445 7 124147160.34807     -3847.646 7        43.010                                                                    23841152.519 6 100879714.70406     -3126.424 6        38.922
C16        45.000                                                                                                                                    38687994.188 6 201458538.20506     -1064.915 6        36.348    38688041.143 3                      -824.179 3        23.238
C09        46.000                                                                                                                                    38466344.709 6 200304356.94206      -450.963 6        41.404    38466338.866 7 154888032.91607      -348.743 7        43.033    38466337.352 6 162763657.22906      -366.094 6        37.524
C44        48.000                                                                                                                                    25111321.950 6 130761247.43006      1528.512 6        40.722                                                                    25111319.218 6 106254218.35106      1242.038 6        37.807
C35        51.000                                                                                                                                    22879907.608 7 119141902.43807      -871.582 7        44.388                                                                    22879905.387 6  96812388.45306      -708.218 6        36.726
I09        54.000    37214719.210 4 146038532.98304      -822.677 4        29.156
C20        55.000                                                                                                                                    22266521.862 6 115947622.72806     -2178.419 6        41.056                                                                    22266518.021 8  94217019.76308     -1770.090 8        50.106
I01        58.000   334071594.962 5   7827903.18305     -2939.549 5        34.162
> 2025 01 01 02 16  0.0000000  0 36
G02         1.000    22998136.001 7 120856069.23207     -3939.889 7        42.404                                    22998131.580 3  94173505.53603     -3070.054 3        23.600
G31         4.000    22207317.968 7 116700132.28707     -1591.724 7        44.087                                    22207312.428 5  90935134.35305     -1240.306 5        33.455    22207314.715 5  90935257.30405     -1240.271 5        34.633
E34         6.000    25548972.876 7 134260765.58707      1523.605 7        42.576                                                                    25548972.451 7 100259710.09107      1137.743 7        45.309    25548972.975 7 102875149.09707      1167.366 7        46.623
E04         7.000    25035393.427 5 131561880.53105     -2946.824 5        30.611                                                                    25035395.412 7  98244254.89007     -2200.508 7        46.012    25035393.957 6 100807148.50206     -2258.104 6        40.717
G03         8.000    20125846.958 8 105762256.40508     -1905.054 8        51.943                                    20125846.227 8  82411939.46308     -1484.457 8        51.590    20125844.487 7  82411999.46407     -1484.399 7        45.421
G09         9.000    21524150.183 6 113110137.55706      1885.165 6        41.032                                    21524145.830 5  88137778.66405      1468.955 5        32.707    21524145.310 6  88137767.69506      1468.984 6        36.000
G04        11.000    20199998.058 7 106151723.79707       291.660 7        45.029                                    20199993.619 5  82715574.96905       227.269 5        35.281    20199994.868 7  82715593.94607       227.273 7        46.118
E09        12.000    23372953.156 6 122825795.71806      -497.902 6        40.269                                                                    23372951.934 6  91720554.52506      -371.837 6        41.173    23372950.988 6  94113241.45506      -381.679 6        38.964
E06        14.000    23550167.628 7 123756992.15007     -1794.035 7        45.597                                                                    23550168.388 8  92415934.37008     -1339.670 8        51.259    23550167.733 8  94826753.06008     -1374.591 8        50.488
E11        15.000    25261925.422 3                     -3411.402 3        23.219                                                                    25261934.126 4  99133238.89104     -2547.261 4        27.629    25261933.604 5 101719289.67605     -2613.878 5        32.557
G19        16.000    22253812.037 6 116944752.25506     -1404.611 6        40.012                                    22253806.695 4  91125615.77204     -1094.516 4        24.541
G28        17.000    23922624.419 5                     -3142.404 5        30.143
G06        19.000    22909679.618 7 120391276.57907      2175.848 7        43.094                                    22909675.991 6  93811279.26306      1695.475 6        37.180    22909678.703 6  93811352.24206      1695.552 6        38.958
E36        20.000    23327395.292 7 122586432.58607     -1045.929 7        46.454                                                                    23327395.389 7  91541698.10307      -781.135 7        47.217    23327395.240 7  93929773.47407      -801.445 7        46.876
E05        21.000    24327467.783 5 127841686.49005      1761.151 5        34.119                                                                    24327460.701 5  95466229.71505      1315.285 5        32.263    24327467.507 6  97956640.86606      1349.431 6        40.322
G17        22.000    22968031.633 6 120697933.73806     -2917.250 6        40.629                                    22968026.559 3  94050299.65703     -2273.163 3        18.806
R07        23.000    21896384.421 6 117213445.19606      2207.052 6        39.348                                                                    21896379.000 4  91165760.61604      1716.033 4        24.180
S23        24.000    38078382.831 6 200103186.75206      -825.511 6        40.451
S36        25.000    38131321.933 5 200381411.02605      -829.601 5        35.505
R20        27.000    22519077.059 5 120419608.15205     -5283.375 5        33.287                                                                    22519078.987 6  93659701.83706     -4109.382 6        38.643
R15        28.000                                                                                                                                    22654996.089 4                       919.778 4        29.782
C05        32.000                                                                                                                                                                                                    39054731.211 5 157257209.65605      -650.830 5        35.914
C19        33.000                                                                                                                                    22322626.507 8 116239882.59408       417.289 8        50.871                                                                    22322619.157 7  94454307.55407       339.059 7        44.977
R21        34.000    19568085.237 7 104712883.99007     -2463.248 7        47.595                                                                    19568082.675 7  81443256.79607     -1915.879 7        45.887
R05        36.000    21596018.450 6 115443126.23406     -4089.445 6        38.453                                                                    21595993.379 4  89789130.58904     -3180.552 4        29.412
R22        37.000    21023618.166 7 112225459.72307      2001.642 7        44.062                                                                    21023612.032 7  87286508.08807      1556.946 7        44.783
C39        38.000                                                                                                                                    39071818.434 4 203457162.62404     -1477.004 4        29.810                                                                    39071797.544 5 165325562.26705     -1200.052 5        32.281
C06        41.000                                                                                                                                    38197190.313 6 198902781.08106      -964.373 6        38.138    38197174.427 4 153804213.29104      -745.791 4        26.024    38197181.684 6 161624766.96406      -783.804 6        37.966
C29        43.000                                                                                                                                    23844856.289 7 124166400.77407     -3848.752 7        42.959                                                                    23844847.767 6 100895349.14006     -3127.509 6        39.649
C16        45.000                                                                                                                                    38689016.861 6 201463863.67306     -1065.442 6        36.526
C09        46.000                                                                                                                                    38466778.360 6 200306612.07206      -451.608 6        41.385    38466771.730 7 154889776.71807      -349.247 7        42.652    38466770.383 6 162765489.74906      -367.090 6        37.709
C44        48.000                                                                                                                                    25109854.094 6 130753608.62706      1526.673 6        39.856                                                                    25109852.365 6 106248011.18706      1240.245 6        38.246
C35        51.000                                                                                                                                    22880746.254 7 119146266.66907      -874.357 7        44.802                                                                    22880744.253 6  96815934.75606      -710.706 6        37.569
I09        54.000    37215764.329 4 146042644.69204      -822.976 4        28.749
C20        55.000                                                                                                                                    22268615.503 7 115958517.16207     -2179.624 7        42.669                                                                    22268610.201 8  94225872.43108     -1771.252 8        49.881
I01        58.000   334075339.800 5   7842600.21405     -2939.461 5        34.271
> 2025 01 01 02 16  5.0000000  0 38
G02         1.000    23001885.209 7 120875771.33907     -3940.912 7        42.027                                    23001881.281 4  94188857.83304     -3070.841 4        24.120
G31         4.000    22208834.060 7 116708099.43207     -1595.088 7        43.975                                    22208827.847 5  90941342.51705     -1242.926 5        32.910    22208829.675 5  90941465.49405     -1243.047 5        34.005
E34         6.000    25547523.383 7 134253150.17107      1522.690 7        42.298                                                                    25547523.285 7 100254023.26007      1137.041 7        45.290    25547523.611 7 102869313.91007      1166.725 7        46.495
E04         7.000    25038199.701 5 131576617.12605     -2947.381 5        31.132                                                                    25038199.308 7  98255259.52307     -2201.176 7        45.687    25038198.034 6 100818440.20406     -2258.668 6        40.372
G03         8.000    20127660.295 8 105771786.19508     -1906.774 8        51.872                                    20127659.443 8  82419365.28308     -1485.799 8        51.381    20127657.902 7  82419425.28507     -1485.835 7        44.953
G09         9.000    21522357.782 7 113100716.06807      1883.594 7        42.536                                    21522353.031 5  88130437.25405      1467.732 5        33.234    21522351.991 5  88130426.27805      1467.801 5        35.881
R14        10.000    23299296.553 4                     -2082.753 4        26.156                                                                    23299320.462 4                     -1619.712 4        28.607
G04        11.000    20199721.932 7 106150271.66307       289.285 7        44.918                                    20199717.675 5  82714443.43705       225.417 5        35.881    20199718.611 7  82714462.42107       225.391 7        46.910
E09        12.000    23373428.380 6 122828290.12706      -499.647 6        39.886                                                                    23373426.660 6  91722417.23106      -373.148 6        41.533    23373425.292 6  94115152.75206      -382.907 6        38.889
E06        14.000    23551874.909 7 123765965.78007     -1795.413 7        44.790                                                                    23551876.014 8  92422635.46308     -1340.754 8        51.446    23551875.381 8  94833628.96908     -1375.676 8        50.755
E11        15.000    25265173.380 4                     -3412.265 4        24.917                                                                    25265180.599 4  99145978.35004     -2547.914 4        27.581    25265179.963 5 101732361.47805     -2614.756 5        30.981
G19        16.000    22255149.915 6 116951783.18306     -1407.749 6        39.012                                    22255144.895 3  91131094.41903     -1096.929 3        23.524
G28        17.000    23925622.060 4                     -3144.678 4        28.578                                                                                                    23925623.521 4                     -2451.528 4        24.586
G06        19.000    22907609.706 7 120380399.97907      2174.712 7        43.067                                    22907606.564 6  93802803.98006      1694.584 6        37.278    22907608.184 6  93802876.98306      1694.428 6        38.610
E36        20.000    23328391.772 7 122591667.61907     -1047.964 7        46.861                                                                    23328391.806 7  91545607.38307      -782.553 7        47.571    23328391.106 7  93933784.72707      -802.980 7        46.738
E05        21.000    24325790.687 5 127832882.66305      1760.661 5        34.176                                                                    24325784.243 5  95459655.44505      1314.676 5        32.503    24325792.409 6  97949895.11606      1348.858 6        41.673
G17        22.000    22970809.153 6 120712525.03706     -2919.144 6        41.094                                    22970802.417 2  94061669.50502     -2274.648 2        17.547
R07        23.000    21894323.011 6 117202413.77506      2205.845 6        39.075                                                                    21894321.995 4  91157180.53504      1715.294 4        26.431
S23        24.000    38079171.424 6 200107314.45506      -825.295 6        41.073
S36        25.000    38132109.900 5 200385558.86605      -829.247 5        35.067
R20        27.000    22524015.443 5 120446028.83205     -5284.771 5        32.539                                                                    22524019.976 6  93680251.24906     -4110.201 6        38.637
R15        28.000    22653894.086 3                      1180.060 3        22.400
R06        29.000    19386625.556 3                      -327.631 3        22.057
C05        32.000                                                                                                                                                                                                    39055538.477 5 157260463.42005      -650.541 5        35.524
C19        33.000                                                                                                                                    22322226.641 8 116237799.37208       416.046 8        50.925                                                                    22322219.093 7  94452614.77407       338.072 7        44.886
R21        34.000    19570387.502 7 104725211.01007     -2467.436 7        47.184                                                                    19570386.644 7  81452844.48707     -1919.121 7        45.365
R05        36.000    21599838.005 6 115463575.22506     -4090.077 6        38.483                                                                    21599821.445 4  89805035.26704     -3180.753 4        28.588
R22        37.000    21021740.674 7 112215458.76907      1998.685 7        43.084                                                                    21021739.094 7  87278729.57907      1554.591 7        45.466
C39        38.000                                                                                                                                    39073237.177 5 203464550.52705     -1477.242 5        30.619                                                                    39073215.926 5 165331565.57105     -1200.797 5        31.464
C06        41.000                                                                                                                                    38198117.039 6 198907604.92606      -965.201 6        38.523    38198101.337 4 153807943.42304      -745.560 4        24.902    38198108.101 6 161628686.76306      -784.201 6        37.909
C29        43.000                                                                                                                                    23848553.816 7 124185647.52807     -3849.793 7        42.817                                                                    23848544.404 6 100910988.73006     -3128.314 6        40.753
C16        45.000                                                                                                                                    38690040.698 6 201469193.11006     -1066.162 6        36.650    38690103.970 3                      -824.405 3        22.781
C09        46.000                                                                                                                                    38467211.925 7 200308871.40307      -452.140 7        42.182    38467205.414 7 154891523.76307      -349.585 7        42.368    38467204.278 6 162767325.61606      -367.334 6        37.656
C44        48.000                                                                                                                                    25108388.996 6 130745979.38706      1525.083 6        40.539                                                                    25108386.786 6 106241811.80006      1239.271 6        38.114
C35        51.000                                                                                                                                    22881587.539 7 119150645.39007      -877.058 7        45.219                                                                    22881585.265 6  96819492.83706      -712.544 6        38.586
I09        54.000    37216810.102 4 146046757.12904      -822.718 4        28.739
C20        55.000                                                                                                                                    22270709.203 7 115969418.18907     -2180.788 7        42.863                                                                    22270703.632 8  94234730.42408     -1772.009 8        49.853
I01        58.000   334079085.603 5   7857297.84405     -2939.243 5        34.314
> 2025 01 01 02 16 10.0000000  0 36
G02         1.000    23005635.654 6 120895479.96906     -3942.286 6        41.485                                    23005632.204 3  94204215.21803     -3071.913 3        23.619
G31         4.000    22210354.185 7 116716084.37007     -1598.622 7        43.649                                    22210347.054 5  90947564.55905     -1245.680 5        32.635    22210350.216 5  90947687.53505     -1245.700 5        34.410
E34         6.000    25546074.940 6 134245540.13106      1521.662 6        41.781                                                                    25546075.159 7 100248340.44807      1136.245 7        45.533    25546075.189 7 102863482.84807      1165.865 7        46.047
E04         7.000    25041007.615 5 131591358.92905     -2948.817 5        32.653                                                                    25041004.394 7  98266268.00007     -2202.049 7        45.580    25041003.364 6 100829735.86706     -2259.524 6        40.701
G03         8.000    20129475.350 8 105781325.63408     -1908.807 8        51.845                                    20129474.416 8  82426798.61808     -1487.385 8        50.730    20129473.594 7  82426858.61307     -1487.417 7        44.582
G09         9.000    21520565.845 7 113091303.79907      1881.679 7        42.711                                    21520562.057 5  88123103.02505      1466.245 5        33.222    21520561.879 6  88123092.01806      1466.362 6        36.004
R14        10.000    23301286.000 5                     -2086.356 5        34.609
G04        11.000    20199447.854 7 106148832.77307       286.586 7        46.039                                    20199444.218 6  82713322.21906       223.314 6        36.480    20199444.864 7  82713341.20907       223.303 7        47.617
E09        12.000    23373905.322 6 122830793.99706      -501.699 6        39.955                                                                    23373903.060 6  91724287.01006      -374.630 6        41.511    23373901.542 6  94117071.29806      -384.542 6        38.129
E06        14.000    23553584.202 7 123774947.76607     -1797.204 7        43.791                                                                    23553585.211 8  92429342.78008     -1342.052 8        51.707    23553584.545 8  94840511.26708     -1377.062 8        50.852
E11        15.000    25268422.193 4                     -3414.238 4        27.222                                                                    25268431.963 4  99158722.51504     -2549.337 4        26.982    25268427.508 4 101745438.08304     -2615.775 4        29.820
G19        16.000    22256492.211 6 116958831.36406     -1411.321 6        40.446                                    22256486.426 3  91136586.52003     -1099.734 3        22.800
G06        19.000    22905541.280 7 120369530.94407      2173.205 7        44.033                                    22905538.537 6  93794334.59606      1693.407 6        37.066    22905539.556 6  93794407.59206      1693.389 6        38.018
E36        20.000    23329390.170 7 122596913.26807     -1050.164 7        47.539                                                                    23329390.140 7  91549524.58507      -784.203 7        47.998    23329389.133 7  93937804.12007      -804.689 7        46.579
E05        21.000    24324115.567 5 127824083.85305      1759.515 5        34.343                                                                    24324109.821 5  95453084.93605      1313.553 5        31.464    24324118.010 7  97943153.18807      1348.116 7        42.411
G17        22.000    22973590.923 6 120727126.54806     -2921.390 6        40.112                                    22973580.663 2  94073047.34702     -2276.382 2        16.792    22973583.394 4  94072973.38604     -2276.308 4        27.605
R07        23.000    21892262.150 6 117191389.79006      2204.136 6        39.282                                                                    21892266.944 4  91148606.31904      1714.494 4        27.269
S23        24.000    38079955.604 6 200111442.18706      -825.427 6        41.173
S36        25.000    38132900.661 5 200389705.95405      -829.410 5        35.500
R20        27.000    22528959.770 5 120472455.72505     -5285.668 5        31.336                                                                    22528962.437 6  93700805.50406     -4111.179 6        38.745
R15        28.000    22652796.066 4                      1175.070 4        26.886
C05        32.000                                                                                                                                                                                                    39056346.727 5 157263717.28505      -650.644 5        35.662
C19        33.000                                                                                                                                    22321827.767 8 116235723.52208       414.497 8        50.610                                                                    22321820.532 7  94450927.95107       336.931 7        44.612
R21        34.000    19572695.540 7 104737559.77607     -2471.826 7        46.921                                                                    19572694.970 7  81462449.09807     -1922.581 7        45.368
R05        36.000    21603660.018 5 115484027.85605     -4090.726 5        35.967                                                                    21603646.763 4  89820942.74404     -3181.494 4        26.527
R22        37.000    21019866.188 6 112205473.64406      1995.506 6        41.259                                                                    21019868.820 7  87270963.40107      1552.064 7        46.147
C39        38.000                                                                                                                                    39074659.306 4 203471941.89904     -1478.391 4        28.379                                                                    39074634.415 5 165337571.56005     -1201.277 5        30.777
C06        41.000                                                                                                                                    38199043.415 6 198912432.83606      -965.969 6        38.640    38199026.886 3 153811676.63703      -746.886 3        23.448    38199035.482 6 161632609.82506      -785.046 6        37.909
C29        43.000                                                                                                                                    23852250.919 6 124204900.52406     -3851.156 6        41.559                                                                    23852241.641 6 100926633.34806     -3129.317 6        41.342
C16        45.000                                                                                                                                    38691065.403 6 201474526.41206     -1066.836 6        36.242
C09        46.000                                                                                                                                    38467646.641 7 200311134.83707      -452.984 7        42.311    38467639.934 6 154893273.99606      -350.305 6        41.723    38467639.154 6 162769164.85406      -368.162 6        37.754
C44        48.000                                                                                                                                    25106925.216 6 130738359.59606      1523.119 6        41.397                                                                    25106923.884 6 106235620.07206      1237.643 6        38.198
C35        51.000                                                                                                                                    22882430.979 7 119155038.47107      -879.963 7        45.077                                                                    22882429.475 6  96823062.56506      -714.992 6        39.066
I09        54.000    37217858.538 4 146050870.13804      -822.343 4        28.483
C20        55.000                                                                                                                                    22272804.830 7 115980325.65107     -2181.922 7        42.857                                                                    22272798.299 8  94243593.62408     -1773.031 8        49.586
I01        58.000   334082831.145 5   7871995.99405     -2939.547 5        33.928
> 2025 01 01 02 16 15.0000000  0 38
G02         1.000    23009387.333 7 120915195.69507     -3943.733 7        42.303                                    23009384.364 3  94219578.13603     -3073.025 3        22.914
G21         3.000    24776143.864 3                     -4132.514 3        20.762
G31         4.000    22211877.592 7 116724087.72607     -1602.425 7        42.601                                    22211870.098 5  90953800.94305     -1248.646 5        32.473    22211873.518 5  90953923.93005     -1248.496 5        35.062
E34         6.000    25544627.647 6 134237936.11606      1520.318 6        40.796                                                                    25544628.313 7 100242662.12607      1135.290 7        45.952    25544627.931 7 102857656.38507      1164.893 7        45.717
E04         7.000    25043813.088 5 131606106.41605     -2949.730 5        35.014                                                                    25043810.850 7  98277280.75107     -2202.898 7        45.356    25043809.676 6 100841035.89906     -2260.326 6        41.035
G03         8.000    20131292.309 8 105790875.32208     -1910.798 8        51.498                                    20131291.326 8  82434239.94208     -1488.933 8        50.321    20131290.897 7  82434299.93507     -1488.895 7        44.628
G09         9.000    21518774.166 7 113081901.31607      1879.653 7        42.777                                    21518772.925 5  88115776.42105      1464.653 5        33.623    21518773.422 6  88115765.42906      1464.672 6        36.250
R14        10.000    23303253.889 6 124219407.97816     -2090.499 6        36.567                                                                    23303260.024 5                     -1626.107 5        33.910
G04        11.000    20199176.437 7 106147407.70807       283.790 7        47.262                                    20199173.367 6  82712211.77806       221.132 6        37.202    20199173.343 8  82712230.78008       221.055 8        48.056
E09        12.000    23374383.232 6 122833307.92806      -503.552 6        39.381                                                                    23374381.482 6  91726164.29606      -376.057 6        41.585    23374379.504 6  94118997.53306      -385.816 6        37.611
E06        14.000    23555295.796 7 123783938.67507     -1798.945 7        42.948                                                                    23555296.131 8  92436056.77608     -1343.404 8        51.977    23555295.486 8  94847400.41408     -1378.416 8        50.933
E11        15.000    25271672.678 4                     -3414.960 4        28.635                                                                    25271685.535 4  99171471.76704     -2549.661 4        26.982    25271675.619 4 101758519.93904     -2616.929 4        28.389
G19        16.000    22257838.229 6 116965897.45306     -1414.879 6        41.595                                    22257831.227 3  91142092.55603     -1102.498 3        22.057
G28        17.000    23931628.187 4                     -3149.564 4        28.986
G06        19.000    22903474.818 7 120358670.08307      2171.457 7        44.959                                    22903472.044 6  93785871.58706      1692.043 6        37.263    22903473.045 6  93785944.59606      1692.065 6        37.645
E36        20.000    23330390.260 7 122602170.13207     -1052.389 7        47.424                                                                    23330390.744 8  91553450.16208      -785.842 8        48.367    23330389.385 7  93941832.10207      -806.310 7        46.519
E05        21.000    24322443.430 5 127815290.67505      1758.120 5        33.395                                                                    24322436.949 5  95446518.59805      1312.919 5        32.641    24322444.668 7  97936415.57007      1347.232 7        43.026
G17        22.000    22976376.896 6 120741738.89106     -2923.643 6        38.829                                    22976361.266 2  94084433.53902     -2278.162 2        15.857    22976365.209 4  94084359.53504     -2277.647 4        28.227
R07        23.000    21890203.728 6 117180373.82006      2202.549 6        39.631                                                                    21890206.209 5  91140038.44605      1713.184 5        31.441
S23        24.000    38080743.204 6 200115570.53306      -825.633 6        40.980
S36        25.000    38133702.902 6 200393853.93706      -829.469 6        36.745
R20        27.000    22533902.225 5 120498889.44405     -5287.355 5        30.317                                                                    22533905.381 6  93721365.05206     -4112.523 6        38.270
R06        29.000    19387245.300 4                      -333.186 4        25.714
C05        32.000                                                                                                                                                                                                    39057156.033 5 157266971.63705      -650.848 5        35.805
C19        33.000                                                                                                                                    22321429.997 8 116233655.62508       412.855 8        50.336                                                                    22321423.399 7  94449247.62207       335.460 7        44.494
R21        34.000    19575006.564 7 104749930.92307     -2476.358 7        45.550                                                                    19575007.088 7  81472071.11507     -1926.023 7        45.493
R05        36.000                                                                                                                                    21607464.896 4                     -3181.552 4        25.519
R22        37.000    21017998.074 6 112195505.02306      1992.207 6        39.886                                                                    21018001.578 7  87263210.02507      1549.504 7        46.276
C39        38.000                                                                                                                                    39076076.963 4 203479337.15804     -1479.359 4        28.275                                                                    39076053.584 4 165343580.83404     -1202.629 4        29.763
C06        41.000                                                                                                                                    38199972.645 6 198917265.45606      -966.759 6        38.219    38199951.122 3                      -747.967 3        23.352    38199963.172 6 161636536.72506      -785.618 6        38.363
C29        43.000                                                                                                                                    23855945.485 6 124224160.32106     -3852.481 6        39.018                                                                    23855940.473 6 100942283.50006     -3130.490 6        41.769
C16        45.000                                                                                                                                    38692090.304 6 201479864.19506     -1067.954 6        36.060    38692118.046 3                      -826.208 3        23.257
C09        46.000                                                                                                                                    38468082.029 6 200313402.92506      -454.040 6        41.971    38468075.266 7 154895027.83007      -351.212 7        42.222    38468074.817 6 162771007.85706      -369.128 6        37.754
C44        48.000                                                                                                                                    25105464.231 7 130730749.85407      1521.060 7        42.303                                                                    25105463.082 6 106229436.58006      1235.881 6        38.081
C35        51.000                                                                                                                                    22883276.691 7 119159446.49207      -883.056 7        44.826                                                                    22883276.428 6  96826644.45206      -717.577 6        39.267
I09        54.000    37218906.868 5 146054984.29705      -822.786 5        30.551
C20        55.000                                                                                                                                    22274901.647 7 115991240.16807     -2183.513 7        42.633                                                                    22274894.206 8  94252462.54808     -1774.339 8        49.468
I01        58.000   334086576.814 5   7886695.11505     -2939.842 5        34.490
> 2025 01 01 02 16 20.0000000  0 40
G02         1.000    23013140.343 7 120934917.60507     -3945.148 7        42.178                                    23013137.469 3  94234945.86303     -3074.142 3        22.210
G21         3.000    24780081.342 3                     -4131.488 3        21.357
G31         4.000    22213403.464 6 116732108.57506     -1605.941 6        41.878                                    22213396.786 5  90960050.96105     -1251.381 5        32.156    22213399.291 5  90960173.94505     -1251.322 5        35.910
E34         6.000    25543182.298 6 134230337.18006      1519.177 6        40.215                                                                    25543182.252 7 100236987.60107      1134.426 7        46.011    25543181.771 7 102851833.82707      1164.019 7        45.541
E04         7.000    25046620.001 5 131620858.76405     -2951.190 5        35.957                                                                    25046617.971 7  98288297.11307     -2203.745 7        45.290    25046616.783 6 100852339.64706     -2261.189 6        41.626
G03         8.000    20133111.054 8 105800434.34108     -1912.887 8        50.991                                    20133110.069 8  82441688.52908     -1490.559 8        49.911    20133109.954 7  82441748.51807     -1490.572 7        44.879
G09         9.000    21516986.179 7 113072507.74407      1877.765 7        43.575                                    21516985.439 5  88108456.75905      1463.186 5        34.257    21516985.285 6  88108445.82106      1463.116 6        36.170
R14        10.000    23305219.626 5 124229871.09205     -2094.717 5        34.233                                                                    23305223.428 5  96623291.35215     -1629.260 5        32.042
G04        11.000    20198907.445 8 106145995.58208       280.986 8        48.403                                    20198904.967 6  82711111.42206       218.949 6        37.720    20198904.438 7  82711130.41007       218.970 7        47.956
E09        12.000    23374862.948 6 122835831.03006      -505.684 6        39.727                                                                    23374861.543 6  91728048.41606      -377.593 6        41.447    23374859.680 6  94120930.82406      -387.411 6        37.066
E10        13.000    27865786.652 3                     -3906.633 3        20.167
E06        14.000    23557008.509 6 123792937.59206     -1800.593 6        41.688                                                                    23557008.576 8  92442776.75108     -1344.650 8        51.857    23557007.888 8  94854295.69908     -1379.747 8        51.055
E11        15.000    25274928.323 5                     -3416.516 5        32.509                                                                    25274935.050 4  99184225.55304     -2552.002 4        27.904    25274927.999 4 101771606.33604     -2617.606 4        26.012
G19        16.000    22259186.469 7 116972980.53607     -1418.445 7        42.144                                    22259179.278 3  91147611.87203     -1105.280 3        21.595
G28        17.000    23934623.651 4                     -3152.195 4        27.150
G06        19.000    22901409.581 7 120347816.51807      2169.959 7        45.184                                    22901406.820 6  93777414.26406      1690.876 6        37.043    22901407.508 6  93777487.27606      1690.851 6        37.580
E36        20.000    23331392.315 7 122607437.29807     -1054.528 7        47.296                                                                    23331393.276 8  91557383.44408      -787.506 8        48.516    23331391.568 7  93945867.98607      -808.018 7        46.313
E05        21.000    24320773.015 5 127806502.17105      1757.213 5        32.766                                                                    24320765.223 5  95439955.79405      1312.087 5        32.826    24320772.170 7  97929681.55407      1346.409 7        43.101
G17        22.000    22979164.335 6 120756361.09706     -2925.437 6        37.353                                    22979143.710 2  94095827.43502     -2279.572 2        14.476    22979148.082 4  94095753.45204     -2279.396 4        27.916
R07        23.000    21888148.557 6 117169365.03406      2200.959 6        40.570                                                                    21888154.911 5  91131476.05505      1712.010 5        34.176
S23        24.000    38081526.950 6 200119698.40306      -825.621 6        40.787
S36        25.000    38134479.377 5 200398001.61305      -829.395 5        35.462
R20        27.000    22538845.922 5 120525329.01205     -5288.796 5        31.094                                                                    22538849.695 6  93741929.14406     -4113.557 6        38.483
R15        28.000    22650630.772 3                      1167.547 3        22.648
R06        29.000    19387559.477 3                      -334.675 3        21.381
C05        32.000                                                                                                                                                                                                    39057964.440 5 157270225.80205      -650.917 5        35.633
C19        33.000                                                                                                                                    22321034.129 8 116231594.77408       411.368 8        50.099                                                                    22321027.778 7  94447573.00207       334.269 7        44.572
R21        34.000    19577321.081 7 104762323.48407     -2480.696 7        45.536                                                                    19577322.381 7  81481709.80407     -1929.507 7        45.150
R05        36.000    21611291.454 5 115524945.23805     -4092.001 5        30.815                                                                    21611300.283 4                     -3183.083 4        29.043
R22        37.000    21016135.908 7 112185551.96707      1988.927 7        43.160                                                                    21016135.425 7  87255468.74907      1547.058 7        45.211
C39        38.000                                                                                                                                    39077498.724 4 203486735.55504     -1480.248 4        27.713                                                                    39077473.998 4 165349592.51704     -1202.573 4        28.370
C06        41.000                                                                                                                                    38200901.569 6 198922101.85606      -967.901 6        38.183    38200884.743 4                      -749.551 4        25.504    38200892.026 6 161640466.68006      -786.470 6        38.123
C29        43.000                                                                                                                                    23859641.408 6 124243426.02806     -3853.946 6        37.236                                                                    23859640.322 6 100957938.42506     -3131.527 6        41.876
C16        45.000                                                                                                                                    38693115.433 6 201485205.53506     -1068.798 6        36.643    38693141.614 3                      -827.088 3        18.746
C09        46.000                                                                                                                                    38468518.064 7 200315674.77807      -454.813 7        42.383    38468511.862 6 154896784.55906      -351.534 6        41.554    38468511.101 6 162772853.92906      -369.730 6        37.660
C44        48.000                                                                                                                                    25104005.059 7 130723149.28207      1518.997 7        42.631                                                                    25104002.726 6 106223260.48806      1234.380 6        37.055
C35        51.000                                                                                                                                    22884126.297 7 119163868.54507      -885.901 7        45.302                                                                    22884125.646 6  96830237.75406      -719.985 6        39.384
I09        54.000    37219956.472 4 146059098.80604      -823.036 4        29.507
C20        55.000                                                                                                                                    22276999.428 7 116002160.78207     -2184.749 7        42.315                                                                    22276991.297 8  94261336.43008     -1775.371 8        49.175
I01        58.000   334090322.911 5   7901394.49905     -2939.548 5        33.844
> 2025 01 01 02 16 25.0000000  0 41
G02         1.000    23016895.007 7 120954646.40307     -3946.108 7        42.974                                    23016891.794 3  94250318.95103     -3074.881 3        21.048
G21         3.000    24784015.167 3                     -4134.033 3        20.976
G31         4.000    22214934.242 6 116740147.61206     -1609.374 6        41.788                                    22214927.239 5  90966315.14605     -1254.060 5        32.150    22214929.703 6  90966438.16406     -1254.068 6        36.098
E34         6.000    25541737.614 6 134222744.04106      1518.374 6        40.064                                                                    25541737.268 7 100231317.40207      1133.843 7        45.827    25541736.691 7 102846015.71107      1163.454 7        45.240
E04         7.000    25049427.442 6 131635616.62106     -2951.754 6        37.028                                                                    25049426.228 7  98299317.58107     -2204.321 7        45.038    25049424.913 7 100863647.60807     -2261.743 7        42.142
G03         8.000    20134931.926 8 105810003.38408     -1914.625 8        50.577                                    20134930.838 8  82449144.92508     -1491.914 8        49.756    20134931.047 7  82449204.90607     -1491.801 7        44.769
G09         9.000    21515201.646 7 113063123.77507      1876.107 7        44.256                                    21515199.625 5  88101144.58805      1461.895 5        34.957    21515199.483 5  88101133.63005      1462.014 5        35.210
R14        10.000    23307186.275 4 124240354.54704     -2098.402 4        25.444                                                                    23307192.518 5  96631445.20805     -1631.927 5        31.464
G04        11.000    20198641.150 8 106144597.05308       278.594 8        48.841                                    20198639.111 6  82710021.65706       217.085 6        38.297    20198638.300 7  82710040.64707       217.104 7        47.792
E09        12.000    23375344.912 6 122838363.94606      -507.290 6        40.687                                                                    23375343.260 6  91729939.88206      -378.882 6        40.918    23375341.496 6  94122871.63206      -388.493 6        36.798
E10        13.000    27869506.380 3                     -3907.281 3        21.429
E06        14.000    23558722.494 6 123801945.22806     -1802.107 6        41.917                                                                    23558722.615 8  92449503.23708     -1345.738 8        51.754    23558721.950 8  94861197.65908     -1380.847 8        51.213
E11        15.000    25278182.104 5 132837742.73515     -3417.531 5        34.824                                                                    25278188.112 4  99196984.13004     -2552.559 4        26.814    25278187.455 3                     -2618.952 3        22.095
G19        16.000    22260537.405 6 116980081.23506     -1421.605 6        41.316                                    22260530.629 3  91153144.89703     -1107.746 3        21.095
G28        17.000    23937621.279 4                     -3155.393 4        27.473
G06        19.000    22899345.606 7 120336970.96907      2168.651 7        45.600                                    22899342.929 6  93768963.18306      1689.853 6        37.062    22899343.629 6  93769036.20906      1689.669 6        37.490
E36        20.000    23332396.641 7 122612715.47107     -1056.516 7        47.219                                                                    23332397.760 8  91561324.93308      -788.912 8        48.569    23332395.924 7  93949912.29807      -809.464 7        46.236
E05        21.000    24319102.050 5 127797719.14705      1756.252 5        30.400                                                                    24319094.914 5  95433396.98705      1311.524 5        33.036    24319100.816 7  97922951.65507      1345.779 7        42.923
G17        22.000    22981947.679 6 120770993.84106     -2927.313 6        36.662                                    22981928.047 2  94107229.51502     -2281.078 2        12.909    22981930.097 4  94107155.62104     -2281.859 4        26.850
R07        23.000    21886098.357 7 117158363.98107      2199.772 7        42.688
S23        24.000    38082309.949 6 200123826.61406      -825.510 6        40.377
S36        25.000    38135271.229 5 200402150.34205      -829.422 5        35.624
R20        27.000    22543793.509 5 120551775.13305     -5289.769 5        30.981                                                                    22543795.176 6  93762498.36806     -4114.057 6        38.207
R15        28.000    22649537.116 4                      1164.827 4        26.503
R06        29.000    19387881.085 3                      -339.277 3        22.419
C05        32.000                                                                                                                                                                                                    39058770.964 5 157273480.29805      -650.595 5        34.848
C19        33.000                                                                                                                                    22320639.544 8 116229541.65708       410.134 8        50.088                                                                    22320633.636 7  94445904.68407       333.232 7        44.491
R21        34.000    19579641.433 7 104774738.26407     -2484.908 7        45.090                                                                    19579642.757 7  81491365.73407     -1932.592 7        44.974
C22        35.000                                                                                                                                    25880334.009 5 134765716.05515      2003.681 5        31.381
R05        36.000    21615123.448 5 115545409.80015     -4093.198 5        34.729                                                                    21615130.603 5                     -3183.650 5        30.604
R22        37.000    21014276.237 7 112175615.21807      1986.082 7        44.054                                                                    21014273.443 7  87247740.15207      1544.654 7        43.786
C39        38.000                                                                                                                                    39078921.702 4 203494137.59904     -1480.785 4        26.874                                                                    39078895.627 4 165355607.30304     -1203.172 4        28.569
C06        41.000                                                                                                                                    38201829.561 6 198926942.71706      -968.495 6        38.432    38201818.458 4                      -749.116 4        28.066    38201821.939 6 161644400.29706      -787.161 6        38.063
C29        43.000                                                                                                                                    23863340.311 6 124262698.25606     -3854.829 6        36.488                                                                    23863341.144 7 100973598.68607     -3132.326 7        42.053
C16        45.000                                                                                                                                    38694142.751 5 201490551.11605     -1069.154 5        35.900
C09        46.000                                                                                                                                    38468955.723 7 200317951.10307      -455.390 7        42.751    38468948.782 6 154898544.77706      -352.156 6        41.547    38468948.066 6 162774703.62606      -370.155 6        37.690
C44        48.000                                                                                                                                    25102547.034 7 130715558.57307      1517.483 7        43.323                                                                    25102544.085 6 106217092.44706      1232.911 6        36.514
C35        51.000                                                                                                                                    22884978.687 7 119168305.34107      -888.549 7        45.174                                                                    22884977.270 6  96833843.01406      -722.215 6        39.402
I09        54.000    37221003.251 4 146063214.22504      -822.577 4        26.599
C20        55.000                                                                                                                                    22279098.108 7 116013088.19807     -2185.907 7        42.074                                                                    22279089.808 8  94270215.84508     -1776.236 8        48.955
I01        58.000   334094069.072 5   7916094.70405     -2939.653 5        33.731
> 2025 01 01 02 16 30.0000000  0 41
G02         1.000    23020650.390 7 120974381.34107     -3947.727 7        44.674                                    23020647.098 3  94265696.81603     -3076.146 3        19.552
G21         3.000    24787943.304 3                     -4131.702 3        21.119
G31         4.000    22216466.765 7 116748204.11107     -1613.260 7        43.681                                    22216460.956 5  90972592.95405     -1257.088 5        31.924    22216463.243 5  90972715.94305     -1257.078 5        35.824
E34         6.000    25540293.524 6 134215155.95606      1517.085 6        39.063                                                                    25540293.452 7 100225650.97907      1132.739 7        46.280    25540292.545 7 102840201.46907      1162.319 7        44.877
E04         7.000    25052236.905 6 131650379.24506     -2953.136 6        37.773                                                                    25052235.602 7  98310341.60907     -2205.231 7        45.180    25052234.075 7 100874959.21207     -2262.743 7        42.591
G03         8.000    20136754.633 8 105819581.69208     -1916.795 8        49.833                                    20136753.395 8  82456608.54308     -1493.606 8        49.614    20136753.659 7  82456668.53307     -1493.576 7        45.068
G09         9.000    21513417.867 7 113053748.64907      1874.003 7        44.819                                    21513415.201 5  88093839.30505      1460.260 5        35.262    21513415.813 5  88093828.33905      1460.467 5        35.043
R14        10.000                                                                                                                                    23309163.034 4                     -1635.186 4        24.692
G04        11.000    20198376.793 8 106143211.38908       275.711 8        48.275                                    20198375.585 6  82708941.91906       214.840 6        38.658    20198374.838 8  82708960.91008       214.830 8        48.188
E09        12.000    23375828.734 6 122840905.93406      -509.439 6        41.478                                                                    23375827.031 6  91731838.12506      -380.394 6        40.753    23375825.250 6  94124819.40106      -390.258 6        36.491
E10        13.000    27873227.342 3                     -3908.374 3        20.667
E06        14.000    23560437.658 6 123810960.82206     -1804.068 6        41.423                                                                    23560438.166 8  92456235.65408     -1347.127 8        51.854    23560437.627 8  94868105.70708     -1382.341 8        51.163
E11        15.000    25281431.243 5 132854834.11705     -3419.353 5        35.076                                                                    25281442.726 4  99209747.16804     -2552.860 4        27.952    25281441.021 3                     -2620.588 3        22.705
G19        16.000    22261889.955 6 116987198.85806     -1425.268 6        40.348                                    22261885.455 3  91158691.11603     -1110.604 3        19.910
G28        17.000    23940613.971 4                     -3157.791 4        28.616                                                                                                    23940672.123 3                     -2460.478 3        20.333
G06        19.000    22897283.043 7 120326132.67207      2166.828 7        44.835                                    22897280.179 6  93760517.75606      1688.436 6        37.195    22897280.465 6  93760590.77706      1688.488 6        37.115
E36        20.000    23333403.135 7 122618003.89107     -1058.883 7        47.181                                                                    23333404.095 8  91565274.08008      -790.732 8        48.761    23333402.314 7  93953964.46407      -811.324 7        46.343
E05        21.000    24317430.276 4 127788940.68704      1754.750 4        27.713                                                                    24317425.105 5  95426841.66205      1310.713 5        33.904    24317430.034 7  97916225.31507      1344.831 7        42.423
G17        22.000    22984727.673 5 120785636.24705     -2929.643 5        34.738                                    22984714.212 1  94118639.24801     -2282.830 1         9.905
R07        23.000    21884049.950 6 117147370.06706      2197.966 6        39.129                                                                    21884062.004 5  91114368.88305      1709.403 5        34.143
S23        24.000    38083089.245 6 200127954.38406      -825.702 6        40.143
S36        25.000    38136074.051 5 200406299.71705      -829.940 5        35.671
R20        27.000    22548739.825 5 120578227.17105     -5291.455 5        32.874                                                                    22548741.730 6  93783072.10106     -4115.213 6        38.327
R15        28.000    22648444.905 4                      1161.250 4        26.647
R06        29.000    19388203.301 4                      -341.739 4        26.659
C05        32.000                                                                                                                                                                                                    39059577.332 5 157276734.60305      -650.865 5        35.838
C19        33.000                                                                                                                                    22320246.390 8 116227495.53208       408.406 8        50.419                                                                    22320240.682 7  94444242.04707       331.885 7        44.686
R21        34.000    19581964.237 7 104787174.40107     -2489.568 7        43.473                                                                    19581966.150 7  81501038.31707     -1936.278 7        44.430
C22        35.000                                                                                                                                    25878413.345 5 134755700.62205      2002.804 5        32.748
R05        36.000    21618958.570 5 115565877.64615     -4094.095 5        34.152                                                                    21618961.120 4                     -3184.165 4        27.162
R22        37.000    21012416.830 7 112165694.00507      1982.461 7        43.285                                                                    21012414.511 7  87240023.66407      1541.994 7        42.574
C39        38.000                                                                                                                                    39080337.301 3                     -1481.250 3        23.771                                                                    39080318.839 4 165361624.54104     -1203.715 4        27.856
C06        41.000                                                                                                                                    38202759.179 6 198931787.29806      -969.390 6        37.626    38202746.106 4                      -750.140 4        26.395    38202752.004 6 161648336.90206      -787.607 6        38.420
C29        43.000                                                                                                                                    23867041.742 6 124281976.32206     -3856.334 6        36.544                                                                    23867043.487 7 100989263.65807     -3133.491 7        42.011
C16        45.000                                                                                                                                    38695169.940 6 201495900.23506     -1070.496 6        36.692
C09        46.000                                                                                                                                    38469394.261 7 200320231.13807      -456.560 7        42.574    38469386.254 6 154900307.83906      -353.083 6        41.375    38469386.171 6 162776556.33806      -370.843 6        37.652
C44        48.000                                                                                                                                    25101090.758 7 130707976.98407      1515.373 7        43.706                                                                    25101088.277 5 106210931.78005      1231.380 5        35.771
C35        51.000                                                                                                                                    22885833.216 7 119172756.11507      -891.720 7        45.052                                                                    22885831.354 6  96837459.64006      -724.516 6        39.069
I09        54.000    37222050.470 4 146067330.12004      -823.775 4        28.815
C20        55.000                                                                                                                                    22281197.485 6 116024021.68806     -2187.455 6        41.940                                                                    22281189.500 8  94279100.17508     -1777.388 8        48.959
I01        58.000   334097815.169 5   7930795.13105     -2940.217 5        34.195
> 2025 01 01 02 16 35.0000000  0 39
G02         1.000    23024407.300 7 120994122.70407     -3949.010 7        44.915                                    23024403.480 3  94281079.68803     -3077.127 3        18.060
G21         3.000    24791877.894 3                     -4129.915 3        20.976
G31         4.000    22218003.731 7 116756278.35207     -1616.787 7        44.102                                    22217998.237 5  90978884.57705     -1259.832 5        31.826    22217999.280 6  90979007.59906     -1259.918 6        36.004
E34         6.000    25538850.722 6 134207573.25806      1515.844 6        39.168                                                                    25538850.635 7 100219988.56007      1131.951 7        46.549    25538849.418 7 102834391.33507      1161.495 7        44.138
E04         7.000    25055047.030 6 131665146.90206     -2954.105 6        38.039                                                                    25055045.649 7  98321369.40507     -2205.936 7        45.007    25055044.335 7 100886274.70107     -2263.619 7        42.836
G03         8.000    20138579.069 8 105829169.57308     -1918.672 8        49.290                                    20138577.839 8  82464079.61408     -1495.073 8        49.475    20138578.282 7  82464139.61207     -1495.047 7        45.169
G09         9.000    21511635.700 7 113044382.68607      1872.044 7        45.252                                    21511632.477 5  88086541.16805      1458.730 5        35.695    21511633.633 5  88086530.16605      1458.931 5        35.095
R14        10.000                                                                                                                                    23311135.925 4                     -1638.583 4        25.594
G04        11.000    20198115.411 8 106141838.90808       272.945 8        48.252                                    20198114.420 6  82707872.44806       212.683 6        38.697    20198113.312 7  82707891.43807       212.682 7        47.472
E09        12.000    23376314.098 7 122843457.36007      -511.470 7        42.349                                                                    23376312.836 6  91733743.39406      -381.812 6        40.627    23376310.440 6  94126774.37206      -391.701 6        36.113
E10        13.000    27876947.947 3                     -3910.696 3        22.038
E06        14.000    23562155.432 6 123819984.67006     -1805.750 6        41.037                                                                    23562155.186 8  92462974.23208     -1348.407 8        51.685    23562154.857 8  94875020.08208     -1383.605 8        51.187
E11        15.000    25284684.317 5 132871931.63505     -3420.191 5        35.024                                                                    25284702.803 4  99222514.78004     -2554.530 4        24.902
G19        16.000    22263246.437 6 116994333.67406     -1428.892 6        38.150                                    22263243.106 3  91164250.73003     -1113.404 3        18.298
G06        19.000    22895221.848 7 120315301.92507      2165.218 7        44.533                                    22895218.685 6  93752078.21906      1687.179 6        37.153    22895219.561 5  93752151.20805      1687.295 5        35.814
E36        20.000    23334411.899 7 122623302.87507     -1061.027 7        47.133                                                                    23334412.493 8  91569231.11108      -792.283 8        49.019    23334410.715 7  93958024.73207      -813.051 7        46.343
E05        21.000    24315761.158 4 127780167.12704      1753.906 4        29.422                                                                    24315755.970 5  95420290.02705      1310.038 5        34.505    24315760.138 7  97909502.75607      1343.960 7        42.066
G17        22.000    22987512.291 5 120800288.67705     -2931.596 5        32.982                                    22987502.286 1  94130056.85301     -2284.419 1         9.048    22987501.708 3  94129983.00003     -2286.323 3        22.781
R07        23.000                                                                                                                                    21882008.485 5  91105823.74005      1708.165 5        34.762
S23        24.000    38083874.731 6 200132082.29406      -825.873 6        39.237
S36        25.000    38136847.382 5 200410449.10005      -829.982 5        34.876
R20        27.000    22553686.666 5 120604685.22105     -5292.509 5        31.706                                                                    22553689.512 6  93803650.59906     -4116.417 6        38.817
R06        29.000    19388525.875 4                      -345.009 4        27.066
C05        32.000                                                                                                                                                                                                    39060386.646 5 157279988.89105      -651.140 5        35.429
C19        33.000                                                                                                                                    22319854.715 8 116225456.70908       406.853 8        50.899                                                                    22319849.424 7  94442585.32307       330.532 7        44.992
R21        34.000    19584291.317 7 104799632.12307     -2494.022 7        42.512                                                                    19584294.037 7  81510727.67907     -1939.683 7        43.278
C22        35.000                                                                                                                                    25876488.699 5 134745687.22905      2002.745 5        30.868
R05        36.000    21622789.458 6 115586349.04316     -4094.874 6        36.333                                                                    21622791.190 4                     -3184.803 4        26.419
R22        37.000    21010560.578 7 112155788.62307      1979.229 7        42.652                                                                    21010559.418 7  87232319.50507      1539.539 7        42.034
C39        38.000                                                                                                                                    39081764.648 4                     -1482.733 4        24.120                                                                    39081740.394 4 165367644.38104     -1204.160 4        27.174
C06        41.000                                                                                                                                    38203690.577 6 198936635.90706      -970.394 6        38.120    38203679.065 5                      -750.127 5        31.223    38203683.033 6 161652276.78006      -788.467 6        37.856
C29        43.000                                                                                                                                    23870746.528 6 124301260.44406     -3857.877 6        36.420                                                                    23870747.035 6 101004933.55806     -3134.700 6        41.731
C16        45.000                                                                                                                                    38696198.241 6 201501253.10606     -1071.078 6        36.272    38696172.476 4                      -828.010 4        24.617
C09        46.000                                                                                                                                    38469833.254 7 200322515.19807      -457.403 7        42.665    38469825.265 6 154902074.03106      -353.655 6        41.557    38469824.823 6 162778412.32406      -371.641 6        37.977
C44        48.000                                                                                                                                    25099637.237 7 130700404.83907      1513.244 7        43.482                                                                    25099633.944 5 106204778.78905      1229.729 5        35.224
C35        51.000                                                                                                                                    22886691.533 7 119177221.16907      -894.675 7        44.491                                                                    22886688.528 6  96841087.85406      -727.002 6        38.748
I09        54.000    37223101.960 4 146071446.45204      -823.445 4        29.062
C20        55.000                                                                                                                                    22283297.180 7 116034961.47907     -2188.768 7        42.709                                                                    22283290.467 8  94287989.65108     -1778.603 8        48.891
I01        58.000   334101562.424 5   7945496.07705     -2940.676 5        33.766
> 2025 01 01 02 16 40.0000000  0 39
G02         1.000    23028164.855 7 121013870.74907     -3950.363 7        44.134                                    23028161.190 2  94296467.77702     -3078.195 2        16.415
G21         3.000    24795800.831 3                     -4130.233 3        20.024
G31         4.000    22219542.950 7 116764370.52707     -1620.453 7        43.075                                    22219538.828 5  90985190.17105     -1262.689 5        31.487    22219539.261 6  90985313.17106     -1262.863 6        36.268
E34         6.000    25537409.674 6 134199996.16206      1514.634 6        40.329                                                                    25537408.645 7 100214330.33907      1131.109 7        46.745    25537407.214 7 102828585.50707      1160.594 7        43.809
E04         7.000    25057858.869 6 131679919.85406     -2955.208 6        38.420                                                                    25057856.855 7  98332401.16207     -2206.858 7        45.336    25057855.620 7 100897594.23207     -2264.458 7        42.999
G03         8.000    20140405.906 8 105838767.28508     -1920.661 8        49.473                                    20140404.247 8  82471558.34708     -1496.616 8        49.780    20140404.887 7  82471618.34607     -1496.638 7        45.616
G09         9.000    21509854.507 7 113035026.14407      1870.341 7        43.608                                    21509851.466 5  88079250.37005      1457.402 5        35.233    21509853.494 5  88079239.40305      1457.255 5        34.776
R14        10.000    23313185.949 4                     -2110.311 4        26.467                                                                    23313121.616 3                     -1640.930 3        23.543
G04        11.000    20197857.071 8 106140479.83408       270.266 8        48.191                                    20197855.692 6  82706813.42706       210.594 6        38.772    20197854.624 7  82706832.42307       210.583 7        47.378
E09        12.000    23376800.841 7 122846018.38807      -513.264 7        42.436                                                                    23376800.529 6  91735655.85906      -383.288 6        41.819    23376797.979 5  94128736.73005      -393.440 5        35.910
E10        13.000    27880669.030 3                     -3909.320 3        20.476
E06        14.000    23563874.454 6 123829017.01906     -1807.395 6        40.899                                                                    23563873.763 8  92469719.15808     -1349.741 8        51.669    23563873.649 8  94881940.96308     -1384.970 8        51.390
E11        15.000    25287939.066 5 132889035.62905     -3421.543 5        35.629
G19        16.000    22264606.839 5 117001485.95605     -1432.206 5        34.710                                    22264604.326 2  91169823.94502     -1116.002 2        16.491
G06        19.000    22893162.837 7 120304479.02807      2163.530 7        44.160                                    22893158.313 6  93743644.79106      1685.871 6        36.915    22893160.675 5  93743717.75205      1686.416 5        34.333
E36        20.000    23335422.381 7 122628612.66507     -1063.218 7        47.662                                                                    23335422.831 8  91573196.22008      -793.958 8        49.182    23335421.188 7  93962093.26907      -814.671 7        46.600
E05        21.000    24314097.079 4 127771398.83804      1752.748 4        29.611                                                                    24314087.704 5  95413742.28905      1309.092 5        35.410    24314090.584 6  97902784.19506      1343.165 6        41.468
G17        22.000    22990298.255 4 120814951.62404     -2933.834 4        29.905                                    22990292.534 1  94141482.56901     -2286.108 1        10.296    22990297.846 4  94141408.52104     -2285.710 4        25.579
R07        23.000    21879931.483 4                      2194.938 4        25.895                                                                    21879954.357 5  91097284.51905      1707.163 5        33.377
S23        24.000    38084653.508 6 200136210.16506      -825.694 6        39.312
S36        25.000    38137638.099 5 200414598.89105      -830.071 5        35.886
R20        27.000    22558634.690 5 120631149.63605     -5293.704 5        32.593                                                                    22558638.039 6  93824234.04206     -4117.293 6        37.724
R06        29.000    19388848.400 4                      -347.945 4        26.886
C05        32.000                                                                                                                                                                                                    39061194.624 5 157283243.35005      -651.259 5        35.967
C19        33.000                                                                                                                                    22319464.749 8 116223425.41808       405.347 8        51.841                                                                    22319459.345 7  94440934.73707       329.552 7        45.491
R21        34.000    19586624.264 6 104812111.89206     -2498.279 6        41.959                                                                    19586625.749 6  81520434.18206     -1943.133 6        40.539
C22        35.000                                                                                                                                    25874564.599 4 134735676.18704      2002.217 4        28.739
R05        36.000    21626615.600 6 115606824.38016     -4095.597 6        38.739                                                                    21626626.161 4                     -3185.403 4        27.868
R22        37.000    21008709.497 7 112145899.37607      1975.967 7        45.606                                                                    21008707.177 7  87224627.86607      1536.894 7        42.089
C39        38.000                                                                                                                                                                                                                                                                    39083163.075 4 165373667.11704     -1204.300 4        27.281
C06        41.000                                                                                                                                    38204623.035 6 198941488.72506      -971.169 6        37.656    38204618.821 5                      -750.801 5        33.593    38204615.195 6 161656220.11506      -788.967 6        37.452
C29        43.000                                                                                                                                    23874451.296 6 124320550.85906     -3859.043 6        37.905                                                                    23874451.544 6 101020608.63206     -3135.580 6        40.839
C16        45.000                                                                                                                                    38697227.234 6 201506610.02406     -1071.994 6        36.019    38697212.034 4                      -828.037 4        25.053
C09        46.000                                                                                                                                    38470272.342 7 200324803.47507      -458.213 7        42.317    38470265.099 7 154903843.48407      -354.287 7        42.082    38470264.002 6 162780271.75506      -372.466 6        37.429
C44        48.000                                                                                                                                    25098184.127 7 130692842.37407      1511.425 7        42.641                                                                    25098181.405 5 106198633.67205      1228.334 5        33.826
C35        51.000                                                                                                                                    22887552.213 7 119181700.75607      -897.425 7        43.103                                                                    22887548.460 6  96844727.87206      -729.039 6        38.673
I09        54.000    37224152.498 4 146075563.57304      -823.514 4        29.062
C20        55.000                                                                                                                                    22285399.196 7 116045907.88907     -2190.123 7        42.923                                                                    22285392.556 8  94296884.51208     -1779.495 8        48.709
I01        58.000   334105307.601 5   7960197.63405     -2940.609 5        33.102
> 2025 01 01 02 16 45.0000000  0 40
G02         1.000    23031923.005 7 121033625.03407     -3951.360 7        42.789                                    23031920.068 2  94311860.72702     -3078.956 2        14.238
G21         3.000    24799728.225 3                     -4131.936 3        20.381
G31         4.000    22221085.917 6 116772480.27706     -1623.533 6        39.012                                    22221083.000 5  90991509.46405     -1265.097 5        30.219    22221082.685 6  90991632.49206     -1265.108 6        36.510
E34         6.000    25535968.724 6 134192424.28406      1514.097 6        41.571                                                                    25535967.836 7 100208676.01507      1130.588 7        47.221    25535966.716 7 102822783.68507      1160.163 7        43.748
E04         7.000    25060670.818 6 131694697.69006     -2955.832 6        36.382                                                                    25060669.182 7  98343436.56307     -2207.368 7        45.359    25060667.815 7 100908917.52007     -2264.974 7        44.077
G03         8.000    20142234.361 8 105848374.40808     -1922.206 8        50.069                                    20142232.523 8  82479044.41708     -1497.822 8        50.222    20142232.921 7  82479104.41407     -1497.858 7        46.245
G09         9.000    21508074.922 6 113025678.60306      1868.811 6        40.789                                    21508072.042 5  88071966.59405      1456.213 5        33.814    21508074.053 5  88071955.60005      1456.028 5        32.850
R14        10.000    23315166.994 4                     -2114.583 4        29.062
G04        11.000    20197601.130 8 106139133.77708       268.110 8        49.180                                    20197599.338 6  82705764.55306       208.916 6        38.724    20197598.340 7  82705783.55507       208.892 7        47.450
E09        12.000    23377289.651 7 122848588.67707      -514.883 7        42.527                                                                    23377289.807 6  91737575.20906      -384.387 6        41.058    23377287.561 6  94130706.16106      -394.401 6        37.335
E06        14.000    23565594.218 7 123838057.41607     -1808.655 7        42.540                                                                    23565594.013 8  92476470.11608     -1350.621 8        51.400    23565593.955 8  94888868.03108     -1385.858 8        51.403
E11        15.000    25291196.337 6 132906145.61106     -3422.429 6        36.556                                                                    25291226.287 4  99248064.28304     -2555.659 4        24.256    25291194.363 3                     -2622.622 3        19.970
G19        16.000    22265969.942 5 117008655.17805     -1435.069 5        32.467                                    22265968.663 2  91175410.35802     -1118.232 2        14.429
G28        17.000    23949587.020 5                     -3165.107 5        30.792                                                                                                    23949616.660 4                     -2466.323 4        29.706
G06        19.000    22891104.937 7 120293663.55307      2162.500 7        44.448                                    22891099.431 6  93735217.16006      1685.071 6        37.006    22891102.780 5  93735290.14705      1685.409 5        33.617
E36        20.000    23336434.873 8 122633932.86608     -1064.865 8        48.774                                                                    23336435.061 8  91577169.09908      -795.208 8        48.822    23336433.641 7  93966169.78607      -815.993 7        46.759
E05        21.000    24312427.718 5 127762635.24205      1753.018 5        31.125                                                                    24312420.172 5  95407198.12905      1308.864 5        34.286    24312421.908 6  97896069.28506      1342.792 6        40.498
G17        22.000    22993082.439 3                     -2933.459 3        22.857                                                                                                    22993098.659 4  94152841.69204     -2286.855 4        26.012
R07        23.000                                                                                                                                    21877896.102 5                      1706.513 5        34.248
S23        24.000    38085454.211 6 200140337.82606      -825.423 6        38.763
S36        25.000    38138435.426 6 200418747.73906      -829.538 6        37.093
R20        27.000    22563585.191 5 120657620.03805     -5294.598 5        32.311                                                                    22563588.750 6  93844822.09506     -4117.890 6        39.075
R15        28.000    22645167.992 5                      1150.987 5        32.275
R06        29.000    19389178.146 4                      -350.336 4        29.744
C05        32.000                                                                                                                                                                                                    39062003.165 5 157286497.68705      -650.755 5        35.819
C19        33.000                                                                                                                                    22319075.602 8 116221401.27008       404.327 8        51.471                                                                    22319070.690 7  94439289.96107       328.481 7        46.105
R21        34.000    19588961.835 7 104824613.17907     -2502.209 7        43.338                                                                    19588961.828 6  81530157.37806     -1946.178 6        37.864
C22        35.000                                                                                                                                    25872643.966 4 134725667.00204      2001.852 4        27.234
R05        36.000    21630448.458 6 115627303.18716     -4095.904 6        40.431                                                                    21630445.526 5                     -3185.853 5        32.443
R22        37.000    21006860.765 7 112136025.85407      1973.336 7        45.406                                                                    21006858.719 7  87216948.46607      1534.810 7        43.575
C39        38.000                                                                                                                                    39084600.730 3                     -1483.253 3        22.324                                                                    39084585.594 4 165379692.55404     -1205.336 4        26.263
C06        41.000                                                                                                                                    38205555.351 6 198946345.45706      -971.653 6        37.671    38205553.940 5 153837933.91215      -751.418 5        35.248    38205547.831 6 161660166.58106      -789.332 6        37.505
C29        43.000                                                                                                                                    23878158.891 6 124339847.18106     -3859.534 6        38.387                                                                    23878157.066 6 101036288.46806     -3136.264 6        38.751
C16        45.000                                                                                                                                    38698257.141 5 201511970.62205     -1072.399 5        34.748    38698247.013 4                      -829.823 4        28.483
C09        46.000                                                                                                                                    38470712.834 7 200327095.61607      -458.741 7        43.551    38470704.549 6 154905615.90306      -354.685 6        41.866    38470704.487 6 162782134.29806      -372.661 6        37.992
C44        48.000                                                                                                                                    25096732.877 7 130685289.20907      1509.826 7        42.781                                                                    25096730.266 5 106192496.10305      1227.001 5        33.521
C35        51.000                                                                                                                                    22888417.057 6 119186194.50006      -899.980 6        41.652                                                                    22888411.389 6  96848379.40106      -731.354 6        38.132
I09        54.000    37225196.825 4 146079681.32204      -823.412 4        28.417
C20        55.000                                                                                                                                    22287502.084 7 116056860.46207     -2190.969 7        42.899                                                                    22287495.722 8  94305784.40108     -1780.367 8        48.522
I01        58.000   334109054.330 5   7974899.52505     -2940.229 5        34.271
> 2025 01 01 02 16 50.0000000  0 38
G02         1.000    23035682.509 6 121053386.00406     -3952.984 6        41.585                                    23035680.130 2  94327258.85102     -3080.211 2        12.121
G31         4.000    22222632.510 6 116780608.06306     -1627.535 6        39.952                                    22222630.704 4  90997842.83104     -1268.209 4        28.910    22222630.521 6  90997965.83306     -1268.231 6        37.066
E34         6.000    25534528.577 7 134184858.11507      1512.584 7        42.675                                                                    25534528.261 7 100203025.94307      1129.514 7        47.403    25534526.989 7 102816986.22907      1158.973 7        43.600
E04         7.000    25063482.454 6 131709480.81906     -2957.131 6        37.021                                                                    25063482.672 7  98354475.94907     -2208.341 7        45.538    25063480.854 7 100920244.89407     -2265.959 7        44.524
G03         8.000    20144064.724 8 105857991.40908     -1924.543 8        49.802                                    20144062.709 8  82486538.18308     -1499.646 8        50.260    20144062.947 7  82486598.19707     -1499.645 7        46.349
G09         9.000    21506298.343 6 113016340.58806      1866.529 6        39.009                                    21506294.612 5  88064690.22105      1454.440 5        32.527    21506297.085 5  88064679.26905      1454.169 5        32.742
G04        11.000    20197347.961 8 106137801.21308       265.054 8        49.355                                    20197345.515 6  82704726.18706       206.537 6        38.727    20197345.083 7  82704745.18407       206.542 7        47.883
E09        12.000    23377780.513 6 122851168.64306      -517.084 6        41.959                                                                    23377780.659 6  91739501.81406      -386.097 6        40.548    23377778.930 6  94132683.01006      -396.176 6        38.033
E06        14.000    23567315.446 7 123847106.38007     -1810.721 7        43.026                                                                    23567316.146 8  92483227.46908     -1352.217 8        51.347    23567315.930 8  94895801.65808     -1387.485 8        51.440
E11        15.000    25294451.192 5 132923262.05505     -3423.893 5        35.424                                                                    25294485.311 3                     -2560.204 3        20.452
G19        16.000    22267340.863 6 117015841.85806     -1439.257 6        37.418                                    22267336.224 2  91181010.35402     -1121.494 2        13.333
G28        17.000    23952604.028 4                     -3167.570 4        26.575                                                                                                    23952627.578 5                     -2468.250 5        32.234
G06        19.000    22889048.145 7 120282855.97007      2160.585 7        44.858                                    22889042.252 6  93726795.67606      1683.578 6        36.790    22889046.187 5  93726868.67305      1683.570 5        34.805
E36        20.000    23337449.375 8 122639263.95608     -1067.418 8        49.196                                                                    23337449.163 8  91581150.10308      -797.077 8        48.276    23337448.512 7  93970254.65207      -817.884 7        47.666
E05        21.000    24310761.109 5 127753877.00505      1751.033 5        32.545                                                                    24310753.648 5  95400657.90805      1307.867 5        35.271    24310754.413 6  97889358.44306      1341.683 6        39.787
G17        22.000    22995879.296 3                     -2938.596 3        19.522                                                                                                    22995892.978 4  94164283.04304     -2289.145 4        28.408
R07        23.000    21875887.803 5                      2191.836 5        30.853                                                                    21875839.659 5  91080223.43715      1705.029 5        33.473
S23        24.000    38086234.392 6 200144465.54706      -825.641 6        39.751
S36        25.000    38139233.463 6 200422895.68706      -829.879 6        39.369
R20        27.000    22568538.525 5 120684096.69805     -5295.698 5        31.358                                                                    22568539.484 6  93865415.10606     -4119.263 6        39.213
R15        28.000    22644101.828 6                      1147.244 6        36.367                                                                    22644089.187 5                       891.914 5        32.964
R06        29.000    19389507.588 4                      -352.920 4        29.829
C05        32.000                                                                                                                                                                                                    39062812.010 5 157289752.27305      -650.953 5        35.371
C19        33.000                                                                                                                                    22318687.730 8 116219384.74008       402.430 8        51.268                                                                    22318683.603 7  94437651.36307       326.971 7        46.048
R21        34.000    19591303.553 7 104837136.39807     -2506.962 7        45.752                                                                    19591302.976 5  81539897.63905     -1949.879 5        35.486
C22        35.000                                                                                                                                    25870717.905 3                      1999.904 3        21.071
R05        36.000    21634282.560 6 115647785.95506     -4096.901 6        36.798                                                                    21634280.662 5                     -3186.503 5        32.719
R22        37.000    21005013.386 7 112126168.54207      1969.729 7        45.636                                                                    21005011.552 7  87209281.66407      1532.070 7        44.897
C39        38.000                                                                                                                                    39086029.932 4                     -1484.050 4        28.171                                                                    39086005.791 3                     -1205.616 3        23.276
C06        41.000                                                                                                                                    38206487.649 6 198951206.50806      -972.743 6        36.064    38206482.142 5 153841692.98105      -752.402 5        33.976    38206480.676 6 161664116.60206      -790.537 6        37.062
C29        43.000                                                                                                                                    23881864.800 6 124359149.89306     -3861.280 6        37.766                                                                    23881863.016 6 101051973.54906     -3137.875 6        36.318
C16        45.000                                                                                                                                    38699287.401 5 201517335.28605     -1073.464 5        35.000    38699271.194 4                      -830.116 4        29.611
C09        46.000                                                                                                                                    38471153.933 7 200329392.07307      -459.810 7        42.671    38471145.874 7 154907391.67707      -355.557 7        42.032    38471145.880 6 162784000.37106      -373.604 6        38.685
C44        48.000                                                                                                                                    25095284.415 7 130677745.79407      1507.500 7        43.479                                                                    25095281.270 5 106186366.49605      1224.834 5        33.072
C35        51.000                                                                                                                                    22889284.806 6 119190702.82906      -903.255 6        40.851                                                                    22889277.222 6  96852042.78306      -734.025 6        37.769
I09        54.000    37226251.405 4 146083799.56504      -822.876 4        25.308
C20        55.000                                                                                                                                    22289606.908 7 116067819.68907     -2192.613 7        42.925                                                                    22289600.339 8  94314689.66108     -1781.684 8        48.217
I01        58.000   334112801.567 5   7989602.14305     -2940.757 5        33.533
> 2025 01 01 02 16 55.0000000  0 38
G02         1.000    23039444.498 7 121073153.71607     -3954.139 7        42.349                                    23039441.493 1  94342662.22001     -3081.126 1        10.370
G31         4.000    22224182.825 6 116788753.90706     -1630.933 6        38.000                                    22224182.102 4  91004190.24604     -1270.846 4        27.880    22224182.130 6  91004313.28106     -1270.945 6        37.698
E34         6.000    25533090.734 7 134177297.67707      1511.741 7        42.322                                                                    25533089.952 7 100197380.16207      1128.781 7        47.817    25533088.460 7 102811193.16207      1158.216 7        43.481
E04         7.000    25066296.944 5 131724269.41105     -2958.377 5        35.138                                                                    25066296.683 7  98365519.36007     -2209.014 7        45.643    25066295.376 7 100931576.38907     -2266.593 7        45.368
G03         8.000    20145896.636 8 105867618.33708     -1926.412 8        50.377                                    20145894.782 8  82494039.67908     -1501.099 8        50.385    20145895.200 7  82494099.68307     -1501.108 7        46.666
G09         9.000    21504523.894 6 113007012.10506      1864.814 6        39.766                                    21504519.092 5  88057421.25405      1453.106 5        32.012    21504522.615 5  88057410.25605      1452.958 5        32.347
R14        10.000                                                                                                                                    23319015.067 4                     -1650.750 4        27.042
G04        11.000    20197096.783 8 106136482.17708       262.535 8        48.213                                    20197094.282 6  82703698.36706       204.573 6        38.619    20197093.809 7  82703717.36607       204.511 7        47.788
E09        12.000    23378273.272 6 122853758.34906      -518.802 6        41.333                                                                    23378273.487 6  91741435.67006      -387.241 6        41.461    23378271.984 6  94134667.34906      -397.361 6        37.928
E06        14.000    23569039.575 7 123856163.93107     -1812.360 7        44.218                                                                    23569039.591 8  92489991.22108     -1353.313 8        51.047    23569039.563 8  94902741.86008     -1388.645 8        51.514
E11        15.000    25297707.391 5 132940385.02905     -3425.266 5        34.924                                                                    25297737.164 3                     -2556.234 3        20.214
G19        16.000    22268715.585 6 117023046.16706     -1442.470 6        36.597                                    22268707.040 2  91186624.09402     -1124.009 2        14.429
G28        17.000    23955625.150 5                     -3169.951 5        31.834
G06        19.000    22886993.196 7 120272056.37307      2159.249 7        45.506                                    22886986.727 6  93718380.41406      1682.524 6        36.820    22886991.132 5  93718453.42705      1682.399 5        34.576
E36        20.000    23338466.025 8 122644605.95908     -1069.422 8        49.381                                                                    23338465.627 8  91585139.26408      -798.524 8        48.166    23338465.348 8  93974347.87308      -819.347 8        48.296
E05        21.000    24309095.418 5 127745124.14905      1750.166 5        34.919                                                                    24309087.916 5  95394121.69505      1306.963 5        34.881    24309089.034 6  97882651.69106      1340.970 6        40.715
G17        22.000    22998677.320 4                     -2939.799 4        26.168                                                                                                    22998690.108 5  94175732.52905     -2290.620 5        31.555
R07        23.000                                                                                                                                    21873790.992 5  91071701.96705      1703.807 5        33.731
S23        24.000    38087014.525 6 200148593.59306      -825.749 6        38.835
S36        25.000    38140018.630 6 200427043.69106      -829.527 6        36.454
R20        27.000    22573490.028 5 120710579.71405     -5297.033 5        31.185                                                                    22573492.322 6  93886012.98006     -4120.101 6        40.312
R15        28.000    22643031.247 6 120997477.59616      1143.845 6        37.947                                                                    22643021.149 5  94109021.74415       889.995 5        34.005
R06        29.000    19389839.217 4                      -355.171 4        28.967
C05        32.000                                                                                                                                                                                                    39063620.054 5 157293007.15905      -651.073 5        34.976
C19        33.000                                                                                                                                    22318301.977 8 116217375.85908       401.112 8        51.789                                                                    22318297.240 7  94436018.97807       325.855 7        45.500
R21        34.000    19593649.325 7 104849681.62807     -2511.056 7        46.942                                                                    19593647.399 5  81549655.02405     -1953.494 5        33.575
R05        36.000    21638113.676 6 115668272.50906     -4097.436 6        37.074                                                                    21638115.865 5                     -3187.108 5        33.641
R22        37.000    21003169.724 7 112116327.53107      1966.733 7        44.122                                                                    21003167.745 7  87201627.53407      1529.648 7        44.528
C39        38.000                                                                                                                                    39087453.638 5                     -1484.711 5        30.083                                                                    39087431.013 3                     -1200.902 3        20.738
C06        41.000                                                                                                                                    38207420.435 6 198956071.89106      -973.596 6        36.408    38207412.693 5 153845455.19005      -753.064 5        32.341    38207415.083 6 161668070.11806      -791.020 6        37.520
C29        43.000                                                                                                                                    23885570.947 6 124378459.05606     -3862.308 6        37.274                                                                    23885569.989 5 101067663.81905     -3138.667 5        33.497
C16        45.000                                                                                                                                    38700318.995 5 201522704.10105     -1074.320 5        35.733    38700305.020 4                      -830.522 4        26.802
C09        46.000                                                                                                                                    38471595.488 7 200331692.91507      -460.537 7        43.067    38471588.632 7 154909170.85507      -356.306 7        42.347    38471587.501 6 162785870.01506      -374.415 6        38.396
C44        48.000                                                                                                                                    25093838.582 7 130670212.18007      1505.795 7        42.764                                                                    25093834.922 5 106180244.80705      1223.669 5        33.293
C35        51.000                                                                                                                                    22890154.181 6 119195225.78506      -905.894 6        39.550                                                                    22890145.693 6  96855718.03606      -736.277 6        36.786
I09        54.000    37227298.600 4 146087918.99404      -823.333 4        26.599
C20        55.000                                                                                                                                    22291712.852 7 116078785.61907     -2193.726 7        44.287                                                                    22291705.900 7  94323600.38907     -1782.710 7        47.791
I01        58.000   334116548.392 5   8004305.44505     -2940.520 5        33.611
> 2025 01 01 02 17  0.0000000  0 38
G02         1.000    23043207.787 6 121092928.18306     -3955.853 6        40.072                                    23043204.145 1  94358070.83001     -3082.434 1        11.630
G31         4.000    22225735.844 6 116796917.83606     -1634.765 6        39.856                                    22225736.845 4  91010551.76704     -1273.837 4        26.623    22225736.874 6  91010674.77006     -1273.969 6        37.550
E34         6.000    25531651.764 6 134169743.01306      1510.141 6        41.645                                                                    25531652.276 7 100191738.68207      1127.708 7        47.846    25531651.313 7 102805404.50407      1157.171 7        43.926
E04         7.000    25069112.902 5 131739063.35405     -2959.380 5        34.414                                                                    25069111.868 7  98376566.77907     -2210.013 7        45.792    25069110.548 7 100942912.00007     -2267.678 7        45.196
G03         8.000    20147730.787 8 105877255.19708     -1928.628 8        50.677                                    20147728.724 8  82501548.91608     -1502.828 8        50.797    20147729.029 7  82501608.92107     -1502.844 7        46.487
G09         9.000    21502750.586 6 112997693.15806      1862.507 6        38.694                                    21502745.543 5  88050159.73605      1451.292 5        30.989    21502748.870 5  88050148.68605      1451.523 5        32.431
G04        11.000    20196847.851 7 106135176.65807       259.563 7        47.983                                    20196845.637 6  82702681.08106       202.250 6        38.333    20196845.028 7  82702700.08307       202.232 7        47.597
E09        12.000    23378768.198 6 122856357.80406      -521.118 6        41.819                                                                    23378768.627 7  91743376.80707      -389.250 7        42.646    23378764.850 6  94136659.14806      -399.262 6        38.147
E06        14.000    23570765.097 7 123865230.08007     -1814.333 7        43.818                                                                    23570764.710 8  92496761.38308     -1354.832 8        51.113    23570764.625 8  94909688.63508     -1390.150 8        51.208
E11        15.000    25300967.512 5 132957514.55605     -3427.105 5        35.314
G19        16.000    22270086.588 5 117030267.90205     -1446.295 5        34.505                                    22270081.246 2  91192251.44502     -1127.002 2        13.212
G28        17.000    23958650.252 4                     -3172.299 4        28.028                                                                                                    23958647.008 4                     -2472.240 4        28.863
G06        19.000    22884939.326 7 120261264.76507      2157.258 7        44.441                                    22884932.996 6  93709971.37106      1680.971 6        36.801    22884939.086 6  93710044.37606      1681.084 6        37.202
E36        20.000    23339484.765 8 122649958.89608     -1071.870 8        49.209                                                                    23339484.293 8  91589136.58308      -800.404 8        48.430    23339483.938 8  93978449.47408      -821.284 8        48.741
E05        21.000    24307429.790 6 127736376.57006      1748.715 6        37.879                                                                    24307422.732 5  95387589.43305      1305.874 5        34.452    24307424.778 6  97875949.00506      1340.099 6        41.220
G17        22.000    23001479.516 5                     -2941.601 5        32.521                                                                                                    23001490.179 4  94187190.05004     -2291.958 4        28.114
R07        23.000    21871767.172 5                      2188.701 5        33.413                                                                    21871742.599 4  91063186.51214      1701.826 4        29.592
S23        24.000    38087799.666 6 200152721.93306      -825.854 6        39.553
S36        25.000    38140803.592 6 200431192.46706      -830.228 6        36.265
R20        27.000    22578440.891 5 120737069.02305     -5298.874 5        30.000                                                                    22578445.622 6  93906615.74406     -4121.046 6        40.274
R15        28.000    22641967.183 5 120991767.33105      1140.084 5        34.786                                                                    22641953.844 5  94104580.42505       887.008 5        32.389
R06        29.000    19390169.813 4                      -357.744 4        26.371
C37        30.000                                                                                                                                    25229814.152 5 131378258.53015       885.015 5        30.392
C05        32.000                                                                                                                                                                                                    39064427.388 5 157296262.30005      -651.086 5        35.157
C19        33.000                                                                                                                                    22317918.093 8 116215374.61308       399.298 8        51.764                                                                    22317912.489 7  94434392.78207       324.560 7        45.297
R21        34.000    19595999.420 8 104862248.87608     -2515.826 8        48.185                                                                    19595996.095 5  81559429.44205     -1956.858 5        30.317
R05        36.000    21641946.043 6 115688763.09606     -4098.574 6        37.233                                                                    21641950.206 5  89980039.52215     -3187.829 5        34.805
R22        37.000    21001329.406 7 112106502.81807      1963.235 7        46.214                                                                    21001327.056 7  87193986.09107      1526.869 7        45.103
C39        38.000                                                                                                                                    39088878.427 4                     -1485.127 4        27.329                                                                    39088859.782 3                     -1206.320 3        22.400
C06        41.000                                                                                                                                    38208355.911 6 198960941.63206      -974.577 6        36.650    38208347.048 5 153849220.73205      -753.312 5        34.586    38208350.314 6 161672027.17806      -791.881 6        37.471
C29        43.000                                                                                                                                    23889280.393 6 124397774.61906     -3863.915 6        37.796                                                                    23889277.506 4 101083359.23104     -3140.056 4        29.147
C16        45.000                                                                                                                                    38701351.247 5 201528077.06105     -1075.313 5        34.652    38701334.114 3                      -830.986 3        22.590
C09        46.000                                                                                                                                    38472038.715 7 200333998.12107      -461.747 7        43.554    38472031.607 7 154910953.37107      -357.055 7        42.406    38472029.678 6 162787743.15606      -375.063 6        37.970
C44        48.000                                                                                                                                    25092392.772 7 130662688.44307      1503.532 7        43.018                                                                    25092392.120 5 106174131.12005      1221.947 5        33.922
C35        51.000                                                                                                                                    22891024.448 6 119199763.40506      -909.246 6        37.947                                                                    22891016.950 6  96859405.20706      -738.728 6        37.822
I09        54.000    37228351.014 4 146092039.10504      -824.342 4        26.707
C20        55.000                                                                                                                                    22293821.072 7 116089758.23307     -2195.482 7        45.174                                                                    22293812.843 7  94332516.51707     -1783.802 7        47.224
I01        58.000   334120293.015 5   8019009.53705     -2940.872 5        33.335
> 2025 01 01 02 17  5.0000000  0 38
G02         1.000    23046971.845 6 121112708.87606     -3957.013 6        39.282                                    23046967.820 2  94373484.30602     -3083.397 2        12.121
G31         4.000    22227296.384 6 116805099.30706     -1638.270 6        38.279                                    22227294.960 4  91016926.98304     -1276.576 4        25.594    22227293.173 6  91017050.00806     -1276.743 6        36.170
E34         6.000    25530215.257 7 134162193.61407      1509.080 7        42.110                                                                    25530216.296 8 100186101.15408      1126.980 8        48.855    25530214.906 7 102799619.91607      1156.426 7        43.238
E04         7.000    25071927.256 5 131753862.19905     -2960.388 5        30.664                                                                    25071928.447 7  98387617.86107     -2210.835 7        46.173    25071926.745 7 100954251.38107     -2268.423 7        46.084
G03         8.000    20149566.257 8 105886901.50508     -1930.491 8        50.257                                    20149564.370 8  82509065.52608     -1504.280 8        50.823    20149564.393 7  82509125.53007     -1504.208 7        46.314
G09         9.000    21500978.199 5 112988383.32605      1860.666 5        35.971                                    21500974.065 5  88042905.31405      1449.884 5        30.483    21500978.674 5  88042894.33405      1449.781 5        34.076
G04        11.000    20196602.240 7 106133884.20707       256.994 7        47.246                                    20196599.443 6  82701673.97206       200.251 6        38.093    20196598.881 7  82701692.98307       200.281 7        47.449
E09        12.000    23379264.764 6 122858966.51306      -522.896 6        41.805                                                                    23379264.592 6  91745324.87206      -390.450 6        41.287    23379261.620 6  94138658.00306      -400.538 6        38.030
E06        14.000    23572491.916 7 123874304.32107     -1815.883 7        44.778                                                                    23572491.342 8  92503537.60208     -1356.054 8        50.916    23572491.439 8  94916641.62908     -1391.418 8        51.283
E11        15.000    25304228.430 5 132974650.08805     -3428.084 5        35.071                                                                    25304228.981 5                     -2559.759 5        30.279    25304227.538 4                     -2626.335 4        26.814
G19        16.000    22271459.444 5 117037506.79305     -1449.495 5        32.257                                    22271458.577 2  91197892.12602     -1129.433 2        12.182
G28        17.000    23961668.610 5                     -3175.094 5        31.660                                                                                                    23961669.950 4                     -2474.303 4        27.401
G06        19.000    22882886.662 7 120250480.68007      2155.759 7        43.714                                    22882880.924 6  93701568.19006      1679.804 6        36.064    22882886.237 6  93701641.18906      1679.927 6        36.722
E36        20.000    23340505.131 8 122655322.29008     -1073.919 8        48.818                                                                    23340505.262 8  91593141.71408      -802.012 8        49.062    23340504.384 8  93982559.09208      -822.877 8        48.864
E05        21.000    24305763.408 5 127727633.90005      1747.805 5        35.048                                                                    24305759.234 5  95381060.79705      1305.104 5        34.124    24305759.814 6  97869250.05906      1339.064 6        40.703
G17        22.000    23004280.782 5 120888310.17515     -2943.945 5        32.557                                                                                                    23004295.249 4  94198655.26404     -2293.707 4        29.242
R07        23.000    21869726.601 5 117070321.70815      2187.482 5        31.441
S23        24.000    38088593.755 6 200156850.18806      -825.682 6        39.772
S36        25.000    38141591.519 6 200435341.75406      -829.886 6        36.246
R20        27.000    22583397.784 4 120763564.33104     -5299.573 4        29.640                                                                    22583400.717 6  93927223.18006     -4122.101 6        40.841
R15        28.000    22640908.337 4 120986074.46804      1136.577 4        29.024                                                                    22640888.589 5  94100152.64805       884.248 5        31.042
R06        29.000    19390504.210 4                      -360.735 4        28.152
C37        30.000                                                                                                                                    25228969.347 4 131373836.35504       883.366 4        26.754
C05        32.000                                                                                                                                                                                                    39065235.459 5 157299517.38005      -650.937 5        35.538
C19        33.000                                                                                                                                    22317535.502 8 116213380.55608       397.859 8        52.100                                                                    22317529.955 7  94432772.47607       323.408 7        44.826
R21        34.000    19598351.476 8 104874837.64508     -2520.118 8        48.475                                                                    19598344.871 4  81569220.68504     -1960.548 4        29.194
R05        36.000    21645779.093 5 115709257.09905     -4099.243 5        32.545                                                                    21645782.240 6  89995979.39806     -3188.344 6        36.204
R22        37.000    20999493.571 8 112096693.96108      1960.003 8        48.980                                                                    20999488.736 7  87186356.99007      1524.421 7        43.763
C39        38.000                                                                                                                                    39090308.877 4                     -1486.240 4        28.417                                                                    39090287.799 3                     -1207.961 3        22.229
C06        41.000                                                                                                                                    38209292.567 5 198965815.32705      -975.362 5        35.429    38209291.246 5 153852989.43305      -754.194 5        35.767    38209286.808 6 161675987.48006      -792.387 6        37.618
C29        43.000                                                                                                                                    23892990.278 5 124417096.03605     -3865.315 5        35.986                                                                    23892985.939 4 101099059.59804     -3141.047 4        26.323
C16        45.000                                                                                                                                    38702381.100 5 201533453.67905     -1076.000 5        35.190    38702364.814 4                      -831.857 4        25.654
C09        46.000                                                                                                                                    38472482.166 7 200336307.22307      -462.468 7        43.194    38472474.313 7 154912738.91707      -357.580 7        42.095    38472473.206 6 162789619.53206      -375.839 6        38.330
C44        48.000                                                                                                                                    25090948.481 7 130655174.07907      1501.702 7        42.427                                                                    25090948.203 5 106168025.15505      1220.238 5        34.848
C35        51.000                                                                                                                                                                                                                                                                    22891890.203 6  96863103.92906      -741.246 6        36.140
I09        54.000    37229399.111 4 146096159.80404      -824.650 4        27.497
C20        55.000                                                                                                                                    22295928.495 7 116100737.07507     -2196.626 7        42.973                                                                    22295921.235 7  94341437.73807     -1784.822 7        47.235
I01        58.000   334124041.608 5   8033714.03205     -2941.349 5        34.067
> 2025 01 01 02 17 10.0000000  0 39
G02         1.000    23050737.496 6 121132497.17906     -3958.189 6        37.032                                    23050732.904 2  94388903.75002     -3084.304 2        13.455
G31         4.000    22228856.986 5 116813299.72205     -1641.933 5        35.590                                    22228856.321 3  91023316.95503     -1279.441 3        23.371    22228849.568 5  91023439.97905     -1279.656 5        34.881
E34         6.000    25528780.291 7 134154650.90507      1507.954 7        42.789                                                                    25528781.187 8 100180468.61808      1126.073 8        49.192    25528779.866 7 102793840.44507      1155.485 7        43.014
E04         7.000    25074743.286 5 131768667.32705     -2961.448 5        30.181                                                                    25074746.089 7  98398673.61907     -2211.607 7        46.614    25074744.504 7 100965595.55007     -2269.189 7        46.117
G03         8.000    20151403.710 8 105896558.62208     -1932.440 8        49.872                                    20151402.060 8  82516590.55208     -1505.798 8        50.607    20151402.365 7  82516650.56207     -1505.780 7        46.017
G09         9.000    21499207.400 6 112979083.92906      1859.014 6        36.121                                    21499204.957 4  88035659.01604      1448.605 4        28.635    21499208.652 5  88035648.02505      1448.429 5        34.590
R14        10.000                                                                                                                                    23325033.920 5                     -1660.379 5        30.830
G04        11.000    20196359.414 7 106132606.20207       254.243 7        47.260                                    20196355.999 6  82700678.12606       198.108 6        37.648    20196355.120 7  82700697.12807       198.104 7        46.597
E09        12.000    23379764.018 7 122861585.84107      -524.875 7        43.518                                                                    23379762.434 6  91747280.87106      -391.782 6        39.949    23379760.972 6  94140665.02206      -402.038 6        39.138
E06        14.000    23574220.403 7 123883388.04407     -1817.540 7        45.443                                                                    23574220.079 8  92510320.90008     -1357.325 8        50.876    23574219.876 8  94923601.88308     -1392.699 8        51.147
E11        15.000    25307490.631 5 132991793.01205     -3429.348 5        34.476                                                                    25307497.500 5                     -2560.846 5        31.841    25307490.682 4                     -2627.546 4        29.403
G19        16.000    22272840.670 5 117044764.05305     -1453.241 5        34.700                                    22272839.410 2  91203547.10802     -1132.408 2        12.424
G28        17.000    23964688.397 5 125935315.51015     -3177.783 5        35.814
G06        19.000    22880836.619 6 120239705.47606      2154.239 6        41.378                                    22880830.569 5  93693171.93805      1678.617 5        35.252    22880835.478 6  93693244.94406      1678.496 6        38.715
E36        20.000    23341528.004 8 122660697.52808     -1076.135 8        49.121                                                                    23341527.967 8  91597155.68408      -803.666 8        49.078    23341527.181 8  93986677.77308      -824.592 8        49.171
E05        21.000    24304100.706 5 127718897.45305      1746.694 5        35.300                                                                    24304096.716 5  95374536.81505      1304.508 5        33.892    24304096.716 6  97862555.87206      1338.380 6        40.496
G17        22.000    23007084.328 5 120903035.17105     -2945.945 5        35.605                                    23007074.109 1  94210116.08111     -2295.361 1         6.750    23007102.756 4  94210129.18104     -2295.235 4        27.760
S23        24.000    38089382.254 6 200160979.48706      -825.852 6        39.312
S36        25.000    38142379.875 5 200439491.72705      -829.790 5        35.790
R20        27.000    22588353.368 5 120790066.75305     -5300.813 5        30.717                                                                    22588356.723 6  93947836.20806     -4123.101 6        40.462
R15        28.000    22639850.442 3                      1132.436 3        23.010                                                                    22639829.959 5                       881.251 5        32.599
R06        29.000    19390845.297 4                      -363.211 4        29.991
C37        30.000                                                                                                                                    25228122.794 4 131369426.04604       880.887 4        24.406
C05        32.000                                                                                                                                                                                                    39066046.826 5 157302773.40805      -651.231 5        35.576
C19        33.000                                                                                                                                    22317154.161 8 116211395.03608       396.395 8        52.156                                                                    22317148.453 7  94431159.08807       321.975 7        44.591
R21        34.000    19600707.136 7 104887449.27907     -2524.568 7        47.797                                                                    19600701.497 5  81579029.69705     -1963.050 5        30.317
R05        36.000    21649613.339 4 115729755.99404     -4099.896 4        29.630                                                                    21649617.585 6  90011922.93506     -3189.018 6        36.004
R22        37.000    20997660.270 8 112086902.35908      1956.662 8        49.843                                                                    20997654.403 7  87178741.30107      1521.853 7        43.374
C39        38.000                                                                                                                                    39091730.146 4                     -1487.268 4        29.716                                                                    39091715.601 3                     -1209.188 3        21.881
C06        41.000                                                                                                                                    38210230.674 5 198970694.24205      -976.301 5        34.919    38210230.570 5 153856762.16805      -754.966 5        35.905    38210223.173 6 161679952.01806      -793.450 6        37.732
C23        42.000                                                                                                                                    26145265.031 5                     -1500.683 5        31.940
C29        43.000                                                                                                                                    23896701.897 6 124436424.71306     -3866.323 6        36.405                                                                    23896699.375 3                     -3141.608 3        22.819
C16        45.000                                                                                                                                    38703413.959 5 201538835.34205     -1076.592 5        35.981    38703398.645 3                      -831.112 3        23.314
C09        46.000                                                                                                                                    38472926.364 7 200338621.58807      -463.173 7        43.005    38472919.248 7 154914528.52207      -358.306 7        42.377    38472917.939 6 162791500.10906      -376.383 6        38.072
C44        48.000                                                                                                                                    25089508.748 7 130647670.46507      1499.767 7        42.550                                                                    25089508.418 5 106161927.86805      1218.387 5        35.929
C35        51.000                                                                                                                                    22892768.221 5 119208882.60405      -914.837 5        35.462                                                                    22892766.833 5  96866815.20605      -743.474 5        35.805
I09        54.000    37230448.410 4 146100281.97304      -824.779 4        28.114
C20        55.000                                                                                                                                    22298038.103 7 116111723.45407     -2197.956 7        43.507                                                                    22298031.242 7  94350365.07107     -1786.046 7        47.235
I01        58.000   334127789.919 5   8048419.92205     -2941.164 5        34.338
> 2025 01 01 02 17 15.0000000  0 39
G02         1.000    23054504.478 6 121152291.85306     -3959.619 6        37.660                                    23054499.302 2  94404328.15402     -3085.430 2        14.667
G31         4.000                                                                                                                                                                    22230411.130 5  91029843.77505     -1281.915 5        32.437
E34         6.000    25527345.874 7 134147113.66307      1506.886 7        42.984                                                                    25527346.707 8 100174840.15808      1125.234 8        49.179    25527345.770 7 102788065.16407      1154.630 7        43.541
E04         7.000    25077560.712 4                     -2962.501 4        26.072                                                                    25077564.346 7  98409733.15307     -2212.379 7        47.187    25077562.712 7 100976943.60207     -2270.066 7        46.191
G03         8.000    20153242.677 8 105906225.35208     -1934.385 8        48.859                                    20153241.538 8  82524123.07408     -1507.307 8        50.025    20153241.678 7  82524183.07907     -1507.310 7        46.181
G09         9.000    21497442.855 6 112969793.74306      1856.852 6        38.381                                    21497437.955 4  88028419.92604      1446.896 4        27.461    21497439.876 6  88028408.93406      1447.218 6        36.367
R14        10.000                                                                                                                                    23327035.660 4                     -1663.772 4        26.192
G04        11.000    20196118.771 7 106131341.41807       251.523 7        47.112                                    20196115.023 6  82699692.58406       195.994 6        37.395    20196114.479 7  82699711.58207       196.046 7        45.893
E09        12.000    23380264.279 7 122864214.59107      -526.705 7        44.611                                                                    23380262.418 6  91749243.91206      -393.233 6        40.024    23380261.193 6  94142679.26606      -403.573 6        39.574
E06        14.000    23575950.082 7 123892480.01807     -1819.304 7        46.448                                                                    23575950.243 8  92517110.35008     -1358.550 8        51.126    23575949.989 8  94930568.45308     -1394.044 8        50.738
E11        15.000    25310754.712 5 133008942.11505     -3430.484 5        34.429                                                                    25310761.342 5                     -2561.764 5        30.951    25310754.247 5                     -2628.468 5        31.668
G19        16.000    22274228.067 6 117052038.43806     -1456.549 6        36.658                                    22274223.466 2  91209215.45202     -1135.030 2        12.545
G28        17.000    23967711.656 6 125951210.79306     -3180.299 6        37.667                                                                                                    23967733.323 5                     -2478.128 5        30.762
G06        19.000    22878787.544 6 120228938.04206      2152.578 6        39.345                                    22878781.877 5  93684781.73305      1677.337 5        34.481    22878785.601 6  93684854.71206      1677.405 6        39.198
E36        20.000    23342552.943 8 122666083.37108     -1078.296 8        49.390                                                                    23342552.746 8  91601177.58008      -805.249 8        48.959    23342552.273 8  93990804.59208      -826.245 8        49.417
E05        21.000    24302440.467 5 127710166.04105      1745.654 5        34.624                                                                    24302434.871 5  95368016.60505      1303.510 5        33.778    24302435.370 6  97855865.55406      1337.622 6        40.119
G17        22.000    23009893.591 5 120917770.27405     -2948.047 5        33.263                                    23009879.820 1  94221597.88401     -2297.144 1         5.429    23009906.913 3                     -2297.457 3        22.629
R07        23.000    21865645.172 4 117048464.13614      2183.976 4        29.915                                                                    21865632.812 4                      1699.063 4        26.491
S23        24.000    38090160.656 6 200165108.66406      -826.007 6        39.207
S36        25.000    38143168.374 5 200443641.69805      -830.102 5        35.376
R20        27.000    22593309.892 5 120816575.18705     -5302.493 5        30.408                                                                    22593313.617 6  93968453.85806     -4124.073 6        41.035
R15        28.000                                                                                                                                    22638774.157 5  94091339.89915       878.876 5        31.192
R06        29.000    19391190.595 5                      -366.139 5        31.192
C05        32.000                                                                                                                                                                                                    39066857.415 5 157306029.46505      -651.368 5        35.462
C19        33.000                                                                                                                                    22316774.277 8 116209416.86008       394.822 8        52.346                                                                    22316768.623 7  94429551.65407       320.798 7        44.922
R21        34.000    19603066.897 7 104900082.61907     -2528.903 7        47.279                                                                    19603062.196 5  81588855.65805     -1966.815 5        32.760
R05        36.000    21653448.439 4 115750258.22604     -4101.087 4        29.953                                                                    21653453.501 5  90027869.16505     -3189.772 5        34.119
R22        37.000    20995828.515 8 112077126.79008      1953.438 8        49.632                                                                    20995823.290 7  87171138.06207      1519.368 7        43.932
C39        38.000                                                                                                                                    39093153.969 5                     -1487.787 5        30.423                                                                    39093144.795 3                     -1210.990 3        20.857
C06        41.000                                                                                                                                    38211168.393 5 198975577.21205      -976.915 5        35.052    38211162.624 5 153860537.93405      -755.747 5        35.576    38211161.254 6 161683919.81806      -794.013 6        37.955
C23        42.000                                                                                                                                    26146701.379 5                     -1503.243 5        32.084
C29        43.000                                                                                                                                    23900415.787 6 124455759.47506     -3867.566 6        37.017
C16        45.000                                                                                                                                    38704451.652 5 201544220.84605     -1077.677 5        35.857    38704435.332 3                      -833.318 3        22.705
C09        46.000                                                                                                                                    38473370.848 7 200340939.97707      -464.215 7        42.921    38473364.707 7 154916321.25807      -359.008 7        42.256    38473362.885 6 162793383.99706      -377.284 6        37.784
C44        48.000                                                                                                                                    25088070.561 7 130640176.38007      1497.810 7        42.311                                                                    25088070.139 5 106155838.29405      1217.068 5        35.557
C35        51.000                                                                                                                                    22893647.499 6 119213464.19906      -917.834 6        37.773                                                                    22893646.938 5  96870538.14705      -745.809 5        35.719
I09        54.000    37231501.320 4 146104404.72904      -824.627 4        26.012
C20        55.000                                                                                                                                    22300148.842 7 116122716.21007     -2199.302 7        43.839                                                                    22300142.363 7  94359297.56907     -1787.202 7        47.137
I01        58.000   334131537.667 5   8063126.29305     -2941.363 5        34.867
> 2025 01 01 02 17 20.0000000  0 39
G02         1.000    23058272.449 6 121172093.17806     -3960.934 6        38.141                                    23058267.051 2  94419757.75102     -3086.436 2        15.286
G31         4.000    22231978.846 6 116829754.17906     -1649.040 6        36.072                                    22231986.765 3  91036138.60403     -1284.983 3        20.929    22231979.052 5  91036261.61705     -1285.062 5        30.800
E34         6.000    25525912.526 7 134139582.13107      1505.772 7        43.117                                                                    25525913.480 8 100169215.96408      1124.402 8        49.187    25525912.601 7 102782294.25407      1153.776 7        43.854
E04         7.000                                                                                                                                    25080383.748 7  98420796.60707     -2213.098 7        47.237    25080382.091 7 100988295.66707     -2270.852 7        46.306
G03         8.000    20155083.604 7 105915901.91607     -1936.283 7        46.983                                    20155082.809 8  82531663.25808     -1508.794 8        48.807    20155082.752 7  82531723.25707     -1508.741 7        45.120
G09         9.000    21495677.011 6 112960513.07606      1855.159 6        39.820                                    21495672.809 4  88021188.21804      1445.579 4        28.284    21495674.407 6  88021177.22106      1445.665 6        36.465
R14        10.000    23329040.257 5 124356779.17315     -2143.177 5        33.389                                                                    23329039.385 4                     -1666.715 4        29.573
G04        11.000    20195880.821 7 106130090.07707       248.888 7        47.277                                    20195876.583 6  82698717.51506       193.936 6        37.229    20195876.601 7  82698736.50907       193.956 7        46.145
E09        12.000    23380766.413 7 122866852.99007      -528.605 7        44.933                                                                    23380764.450 6  91751214.15006      -394.773 6        40.005    23380763.136 6  94144700.90206      -404.988 6        38.841
E06        14.000    23577681.645 7 123901580.47207     -1820.988 7        45.825                                                                    23577682.075 8  92523906.13408     -1359.763 8        51.181    23577681.882 8  94937541.52108     -1395.292 8        50.587
E11        15.000    25314019.481 5 133026097.62005     -3431.646 5        34.624                                                                    25314024.084 4                     -2562.834 4        29.981    25314017.914 5                     -2629.563 5        32.521
G19        16.000    22275615.869 6 117059330.28406     -1460.156 6        36.828                                    22275610.742 2  91214897.40702     -1137.816 2        15.238
G28        17.000    23970736.963 6 125967118.63006     -3182.815 6        36.023                                                                                                    23970761.412 4                     -2480.473 4        27.497
G06        19.000    22876738.951 6 120218178.51306      2150.934 6        38.757                                    22876734.857 5  93676397.68905      1676.059 5        34.062    22876737.480 6  93676470.65206      1676.291 6        39.414
E36        20.000    23343580.101 8 122671480.06508     -1080.424 8        50.328                                                                    23343579.657 8  91605207.57108      -806.811 8        49.266    23343579.226 8  93994939.71508      -827.843 8        49.772
E05        21.000                                                                                                                                    24300773.796 5  95361500.30005      1302.713 5        34.010    24300775.073 6  97849179.25806      1336.822 6        40.229
G17        22.000    23012698.403 5 120932515.46605     -2950.094 5        32.305                                    23012686.058 1  94233087.39801     -2298.846 1         8.095
R07        23.000    21863607.868 6 117037546.88206      2182.602 6        37.879                                                                    21863590.639 3                      1697.280 3        23.581
S23        24.000    38090950.018 6 200169238.10106      -826.235 6        38.817
S36        25.000    38143961.850 5 200447791.11705      -829.563 5        34.905
R20        27.000    22598269.883 5 120843089.82705     -5303.546 5        30.762                                                                    22598272.476 6  93989076.33106     -4124.962 6        41.816
R15        28.000                                                                                                                                    22637712.945 5  94086954.11005       875.735 5        30.355
R06        29.000    19391535.773 5                      -368.692 5        31.253
C37        30.000                                                                                                                                    25226460.890 5 131360635.94005       876.922 5        31.117
C05        32.000                                                                                                                                                                                                    39067662.620 5 157309285.73505      -651.435 5        35.186
C19        33.000                                                                                                                                    22316395.515 8 116207446.24108       393.385 8        52.355                                                                    22316390.277 7  94427950.34107       319.737 7        45.052
R21        34.000    19605432.155 7 104912737.75407     -2533.268 7        46.964                                                                    19605425.744 5  81598698.55805     -1970.151 5        34.795
R05        36.000    21657284.357 4 115770764.83504     -4101.945 4        27.437                                                                    21657288.770 5  90043818.59405     -3190.068 5        34.810
R22        37.000    20993997.502 7 112067367.50507      1950.266 7        47.377                                                                    20993995.994 7  87163547.50907      1516.908 7        44.309
C39        38.000                                                                                                                                    39094583.582 5                     -1488.675 5        31.094                                                                    39094580.436 3                     -1211.026 3        23.562
C06        41.000                                                                                                                                    38212106.889 6 198980464.49006      -977.852 6        36.197    38212097.822 5 153864317.05305      -756.114 5        35.952    38212099.584 6 161687891.09506      -794.566 6        37.977
C23        42.000                                                                                                                                    26148146.916 5                     -1506.058 5        31.374
C29        43.000                                                                                                                                    23904130.271 5 124475100.50105     -3868.871 5        35.567                                                                    23904141.960 5                     -3143.617 5        30.068
C16        45.000                                                                                                                                    38705489.302 5 201549610.42905     -1078.381 5        35.810    38705471.121 4                      -834.414 4        27.701
C09        46.000                                                                                                                                    38473815.931 7 200343262.63007      -464.923 7        43.071    38473810.341 7 154918117.26707      -359.518 7        42.425    38473808.858 6 162795271.30106      -377.730 6        37.917
C44        48.000                                                                                                                                    25086634.283 6 130632692.07806      1495.982 6        41.707                                                                    25086632.537 5 106149756.71405      1215.489 5        35.557
C35        51.000                                                                                                                                    22894529.509 6 119218060.35406      -920.762 6        37.652                                                                    22894530.391 6  96874272.87406      -747.862 6        36.491
C20        55.000                                                                                                                                    22302261.150 7 116133715.53507     -2200.545 7        44.023                                                                    22302254.758 7  94368235.40407     -1788.008 7        47.301
I01        58.000   334135284.721 5   8077833.28005     -2941.226 5        34.848
> 2025 01 01 02 17 25.0000000  0 37
G02         1.000    23062042.010 6 121191901.13206     -3962.325 6        38.018                                    23062036.075 2  94435192.55502     -3087.515 2        16.189
G31         4.000    22233552.384 6 116838008.43406     -1652.739 6        37.724                                    22233555.053 3  91042570.51403     -1287.837 3        18.985    22233548.296 4  91042693.50304     -1287.576 4        27.198
E34         6.000    25524480.726 7 134132056.40807      1504.487 7        43.363                                                                    25524481.345 8 100163596.10008      1123.560 8        49.268    25524480.486 7 102776527.79007      1152.811 7        44.190
E04         7.000                                                                                                                                    25083204.009 7  98431864.06407     -2214.007 7        47.537    25083202.615 7 100999651.85007     -2271.774 7        46.648
G03         8.000    20156926.696 7 105925588.38707     -1938.325 7        45.330                                    20156925.859 7  82539211.15607     -1510.388 7        47.106    20156926.327 7  82539271.16607     -1510.406 7        44.396
G09         9.000    21493911.597 6 112951242.00106      1853.162 6        39.438                                    21493909.371 4  88013963.99004      1444.030 4        27.820    21493910.943 5  88013952.96805      1444.007 5        35.471
R14        10.000    23331049.464 4                     -2144.765 4        24.135                                                                    23331048.315 4                     -1669.897 4        26.503
G04        11.000    20195645.381 7 106128852.25707       246.171 7        47.174                                    20195640.727 6  82697752.98006       191.818 6        36.896    20195641.115 7  82697771.98607       191.777 7        47.019
E09        12.000    23381270.163 7 122869501.12007      -530.591 7        45.017                                                                    23381268.300 6  91753191.64106      -396.343 6        39.405    23381266.853 6  94146729.98306      -406.603 6        38.414
E06        14.000    23579415.110 7 123910689.46607     -1822.694 7        46.069                                                                    23579415.555 8  92530708.31108     -1361.105 8        51.316    23579415.372 8  94944521.14008     -1396.589 8        50.301
E11        15.000    25317285.178 5 133043259.62105     -3433.030 5        35.114                                                                    25317288.511 4                     -2563.874 4        28.275    25317282.266 5                     -2630.568 5        32.964
G19        16.000    22277007.711 5 117066639.58905     -1463.514 5        35.695                                    22277001.176 2  91220592.98102     -1140.396 2        17.283
G28        17.000    23973762.926 6 125983039.10306     -3185.407 6        36.953                                                                                                    23973790.516 4                     -2481.860 4        27.353
G06        19.000    22874693.693 6 120207427.00006      2149.454 6        39.213                                    22874689.443 5  93668019.89305      1674.903 5        33.665    22874691.519 6  93668092.86106      1674.948 6        39.330
E36        20.000    23344609.225 8 122676887.69108     -1082.614 8        50.547                                                                    23344608.674 8  91609245.73708      -808.472 8        48.850    23344608.329 8  93999083.22508      -829.553 8        49.801
E05        21.000                                                                                                                                    24299115.205 5  95354987.98205      1301.978 5        33.838    24299115.582 6  97842497.05706      1335.999 6        40.079
G17        22.000    23015505.389 5 120947270.96405     -2952.125 5        31.804                                    23015495.663 1  94244585.26801     -2300.384 1        10.370    23015499.433 4                     -2300.437 4        28.218
R07        23.000    21861565.261 6 117026637.43606      2181.046 6        36.533
S23        24.000    38091734.506 6 200173367.82206      -826.101 6        38.757
S36        25.000    38144757.969 5 200451940.69105      -829.690 5        34.743
R20        27.000    22603231.338 5 120869610.80305     -5304.956 5        31.600                                                                    22603231.978 6  94009703.77306     -4125.965 6        41.697
R15        28.000                                                                                                                                    22636656.829 4                       872.968 4        28.341
R06        29.000    19391882.176 5                      -371.378 5        31.064
C05        32.000                                                                                                                                                                                                    39068467.588 5 157312542.24905      -651.227 5        34.505
C19        33.000                                                                                                                                    22316018.444 8 116205483.27308       391.824 8        52.225                                                                    22316013.356 7  94426355.28207       318.374 7        45.320
R21        34.000    19607801.254 8 104925414.91208     -2537.613 8        48.427                                                                    19607797.798 6  81608558.55406     -1973.721 6        38.285
R05        36.000    21661128.189 5 115791274.99405     -4102.430 5        34.076                                                                    21661125.883 6  90059770.93906     -3190.760 6        37.225
R22        37.000    20992171.325 7 112057624.62607      1946.890 7        47.494                                                                    20992170.562 7  87155969.72307      1514.213 7        44.054
C39        38.000                                                                                                                                    39096017.247 5                     -1489.617 5        33.305
C06        41.000                                                                                                                                    38213046.361 5 198985356.10405      -978.876 5        35.800    38213038.137 6 153868099.56106      -756.705 6        37.233    38213038.947 6 161691865.94306      -795.294 6        37.803
C29        43.000                                                                                                                                    23907845.298 5 124494447.88505     -3870.290 5        34.157                                                                    23907856.434 5                     -3144.859 5        32.677
C16        45.000                                                                                                                                    38706523.418 5 201555004.06805     -1079.173 5        35.905    38706505.523 4                      -835.117 4        26.731
C09        46.000                                                                                                                                    38474263.205 7 200345589.65307      -465.814 7        42.872    38474257.597 7 154919916.67407      -360.268 7        42.286    38474255.708 6 162797162.21206      -378.411 6        38.066
C44        48.000                                                                                                                                    25085198.325 6 130625217.68206      1493.822 6        40.911                                                                    25085196.910 5 106143683.14505      1213.734 5        35.900
C35        51.000                                                                                                                                    22895416.277 6 119222671.17606      -923.739 6        39.661                                                                    22895416.486 6  96878019.57706      -750.584 6        36.760
C20        55.000                                                                                                                                    22304374.608 7 116144721.52207     -2201.985 7        44.621                                                                    22304368.135 7  94377178.69007     -1789.162 7        47.207
I01        58.000   334139033.234 5   8092541.03505     -2941.685 5        35.395
> 2025 01 01 02 17 30.0000000  0 38
G02         1.000    23065811.910 5 121211715.01505     -3963.475 5        34.290                                    23065806.547 2  94450631.89902     -3088.441 2        16.641
G31         4.000    22235128.935 6 116846279.97406     -1656.124 6        39.414                                    22235126.229 3  91049015.86503     -1290.467 3        19.134    22235122.424 4  91049138.87004     -1290.763 4        28.095
E34         6.000    25523048.205 7 134124535.68307      1503.675 7        42.326                                                                    25523050.369 8 100157979.97708      1122.826 8        49.530    25523049.135 7 102770765.16407      1152.087 7        44.524
E04         7.000    25086105.558 3                     -2966.297 3        20.929                                                                    25086025.340 7  98442934.90407     -2214.485 7        47.910    25086023.678 7 101011011.49807     -2272.259 7        46.620
G03         8.000    20158771.817 7 105935283.99307     -1940.028 7        44.479                                    20158770.623 7  82546766.18107     -1511.714 7        45.655    20158771.464 7  82546826.17307     -1511.721 7        44.552
G09         9.000    21492149.365 7 112941979.69107      1851.570 7        42.051                                    21492147.664 4  88006746.56704      1442.792 4        28.047    21492145.984 5  88006735.56905      1442.879 5        34.395
R14        10.000                                                                                                                                    23333067.342 5                     -1672.946 5        30.325
G04        11.000    20195412.268 8 106127627.21308       243.696 8        48.045                                    20195407.358 6  82696798.39806       189.892 6        37.263    20195407.896 7  82696817.39907       189.927 7        47.524
E09        12.000    23381775.779 7 122872158.19507      -532.375 7        45.803                                                                    23381773.989 6  91755175.80706      -397.546 6        40.412    23381772.637 6  94148765.95106      -407.939 6        38.237
E06        14.000    23581149.966 7 123919806.25507     -1824.266 7        46.341                                                                    23581150.474 8  92537516.29108     -1362.171 8        51.504    23581150.392 8  94951506.72208     -1397.706 8        50.333
E11        15.000    25320552.221 5 133060427.36805     -3434.383 5        32.940                                                                    25320553.833 4                     -2564.630 4        27.629    25320548.831 5                     -2621.545 5        34.071
G19        16.000    22278402.573 6 117073965.65106     -1466.949 6        36.159                                    22278394.860 2  91226301.60202     -1143.079 2        17.887
G28        17.000    23976795.285 5 125998971.46505     -3187.707 5        33.934                                                                                                    23976818.810 4                     -2483.694 4        25.865
G06        19.000    22872649.987 6 120196682.76906      2148.016 6        41.037                                    22872645.317 5  93659647.75305      1673.774 5        33.251    22872646.831 6  93659720.73206      1673.956 6        39.045
E36        20.000    23345640.111 8 122682305.48508     -1084.640 8        50.699                                                                    23345639.629 8  91613291.49208      -809.968 8        48.915    23345639.294 8  94003234.51808      -831.025 8        49.791
E05        21.000    24297455.484 4                      1742.878 4        28.768                                                                    24297456.361 5  95348479.08405      1301.203 5        34.700    24297457.580 6  97835818.37406      1335.244 6        39.955
G17        22.000    23018310.171 4 120962036.07804     -2953.648 4        27.772                                    23018306.485 1  94256090.45701     -2301.417 1        10.000    23018311.462 5                     -2301.760 5        31.419
R07        23.000    21859521.554 5 117015735.07115      2179.904 5        35.257                                                                    21859516.616 5                      1695.362 5        31.064
S23        24.000    38092526.788 6 200177497.02306      -825.753 6        39.198
S36        25.000    38145546.481 6 200456089.51406      -829.486 6        36.060
R20        27.000    22608189.352 5 120896137.25905     -5305.894 5        30.853                                                                    22608193.150 6  94030335.43506     -4126.759 6        41.683
R15        28.000    22635705.610 5                      1119.007 5        32.868                                                                    22635614.690 3                       871.041 3        21.952
R06        29.000    19392226.004 5                      -373.694 5        32.120
C05        32.000                                                                                                                                                                                                    39069277.055 5 157315798.47005      -651.242 5        34.105
C19        33.000                                                                                                                                    22315643.063 8 116203527.19008       390.492 8        52.382                                                                    22315637.881 7  94424765.80607       317.204 7        45.204
R21        34.000    19610174.166 7 104938113.23007     -2541.760 7        47.883                                                                    19610171.297 6  81618435.02506     -1976.902 6        39.739
R05        36.000    21664965.557 6 115811788.25706     -4103.028 6        36.321                                                                    21664964.588 6  90075725.69906     -3191.375 6        39.060
R22        37.000    20990350.547 8 112047897.38608      1943.898 8        48.175                                                                    20990348.357 7  87148404.10007      1511.811 7        43.907
C39        38.000                                                                                                                                    39097445.153 6 203590659.72716     -1489.835 6        36.514                                                                    39097458.909 3                     -1210.621 3        23.600
C06        41.000                                                                                                                                    38213986.421 5 198990251.29705      -979.145 5        34.686    38213978.394 6 153871884.82006      -757.244 6        37.807    38213979.312 6 161695843.72006      -796.070 6        37.550
C23        42.000                                                                                                                                    26151063.921 4                     -1511.355 4        24.030
C29        43.000                                                                                                                                    23911564.682 5 124513800.75905     -3871.189 5        35.652                                                                    23911572.979 5                     -3145.961 5        35.619
C16        45.000                                                                                                                                    38707559.117 5 201560401.12705     -1079.760 5        34.262    38707545.404 4                      -834.572 4        26.946
C09        46.000                                                                                                                                    38474710.634 6 200347920.27506      -466.425 6        41.914    38474704.943 7 154921718.85707      -360.795 7        42.256    38474703.808 6 162799056.05706      -379.219 6        38.483
C44        48.000                                                                                                                                    25083762.775 6 130617752.36406      1492.140 6        40.627                                                                    25083763.624 6 106137616.99106      1212.537 6        36.518
C35        51.000                                                                                                                                    22896305.125 7 119227295.85507      -926.460 7        42.203                                                                    22896305.530 6  96881777.52206      -752.878 6        38.456
C20        55.000                                                                                                                                    22306488.971 7 116155733.38907     -2202.987 7        44.942                                                                    22306482.860 7  94386126.76507     -1790.220 7        47.103
I01        58.000   334142781.084 5   8107248.90205     -2941.560 5        34.900
> 2025 01 01 02 17 35.0000000  0 39
G02         1.000    23069584.226 5 121231534.65605     -3964.446 5        34.776                                    23069578.182 2  94466075.79402     -3089.171 2        17.509
G31         4.000    22236707.207 7 116854568.63207     -1659.455 7        42.409                                    22236701.501 3  91055474.56703     -1293.083 3        21.500    22236699.080 5  91055597.64005     -1293.698 5        31.215
E34         6.000    25521617.948 6 134117019.88706      1502.530 6        41.790                                                                    25521620.099 8 100152367.52408      1122.077 8        49.341    25521618.787 7 102765006.31607      1151.364 7        44.739
E04         7.000                                                                                                                                    25088847.069 8  98454009.08208     -2215.129 8        48.045    25088845.666 7 101022374.56607     -2272.915 7        46.494
G03         8.000    20160618.982 7 105944988.64707     -1941.847 7        43.619                                    20160617.126 7  82554328.25907     -1513.132 7        44.576    20160617.962 7  82554388.25307     -1513.103 7        44.060
G09         9.000    21490389.627 7 112932726.10107      1849.854 7        42.470                                    21490387.481 4  87999535.96404      1441.450 4        29.735    21490385.677 5  87999525.00605      1441.192 5        34.176
R14        10.000    23335129.932 5                     -2154.672 5        31.321                                                                    23335093.904 5                     -1675.778 5        30.196
G04        11.000    20195181.411 8 106126414.81808       241.171 8        48.466                                    20195176.524 6  82695853.67606       187.928 6        37.444    20195176.692 7  82695872.68207       187.978 7        46.965
E09        12.000    23382283.325 7 122874824.08507      -534.114 7        46.481                                                                    23382281.410 6  91757166.57106      -398.839 6        39.889    23382280.646 6  94150808.64306      -409.266 6        38.261
E06        14.000    23582886.881 7 123928930.68407     -1825.648 7        45.765                                                                    23582886.703 8  92544329.99708     -1363.299 8        51.095    23582886.869 8  94958498.17608     -1398.854 8        50.594
E11        15.000    25323820.154 5 133077600.66205     -3435.543 5        32.054                                                                    25323819.343 4                     -2565.375 4        25.639    25323817.538 5 101968515.87915     -2632.303 5        34.700
G19        16.000    22279800.436 6 117081308.32906     -1470.157 6        38.222                                    22279791.768 3  91232023.16303     -1145.552 3        18.985
G28        17.000    23979828.540 5 126014915.53805     -3189.950 5        30.257                                                                                                    23979855.606 4                     -2485.918 4        27.102
G06        19.000    22870606.864 7 120185945.71807      2146.686 7        42.231                                    22870602.443 5  93651281.22905      1672.743 5        33.725    22870603.771 6  93651354.21606      1672.747 6        38.595
E36        20.000    23346672.834 8 122687733.34208     -1086.629 8        50.542                                                                    23346672.559 8  91617344.74908      -811.424 8        48.970    23346672.198 8  94007393.52108      -832.569 8        49.959
E05        21.000    24295804.628 5                      1741.942 5        32.742                                                                    24295797.752 5  95341973.51505      1300.788 5        34.186    24295799.374 6  97829143.10806      1334.586 6        39.634
G17        22.000    23021122.826 4 120976810.60204     -2956.103 4        28.019                                    23021118.782 1  94267602.98101     -2303.400 1         6.625    23021123.223 5                     -2303.385 5        32.862
R07        23.000    21857484.888 6 117004839.44606      2178.359 6        36.057                                                                    21857481.352 6  91003727.51516      1694.188 6        36.703
S23        24.000    38093302.154 6 200181625.39106      -825.797 6        37.297
S36        25.000    38146326.950 5 200460238.09905      -829.897 5        35.929
R20        27.000    22613152.249 5 120922669.00205     -5306.655 5        30.740                                                                    22613154.322 6  94050971.24806     -4127.597 6        41.454
R15        28.000    22634628.101 5                      1115.154 5        34.143
R06        29.000    19392580.344 5                      -376.511 5        30.460
C37        30.000                                                                                                                                    25223898.429 5 131347527.46605       870.956 5        34.148
C05        32.000                                                                                                                                                                                                    39070087.800 5 157319054.25105      -650.858 5        34.767
C19        33.000                                                                                                                                    22315268.881 8 116201577.88108       389.157 8        52.464                                                                    22315263.662 7  94423181.82907       316.257 7        45.478
R21        34.000    19612550.316 7 104950832.57607     -2546.010 7        47.414                                                                    19612548.481 6  81628327.85906     -1980.304 6        41.130
R05        36.000    21668800.730 6 115832304.45206     -4103.640 6        37.633                                                                    21668803.412 6  90091682.74306     -3191.580 6        40.594
R22        37.000    20988531.906 8 112038185.66308      1940.754 8        48.199                                                                    20988529.941 7  87140850.51707      1509.510 7        44.101
C39        38.000                                                                                                                                    39098875.767 5 203598109.48805     -1490.165 5        35.295                                                                    39098893.244 4                     -1211.108 4        27.018
C06        41.000                                                                                                                                    38214927.011 5 198995149.99805      -980.205 5        35.843    38214921.274 6 153875672.81306      -757.877 6        37.664    38214919.468 6 161699824.28506      -796.325 6        36.809
C23        42.000                                                                                                                                    26152521.750 4                     -1514.091 4        27.377
C29        43.000                                                                                                                                    23915285.546 6 124533159.08806     -3872.181 6        39.144                                                                    23915289.406 6                     -3146.560 6        36.219
C16        45.000                                                                                                                                    38708594.965 5 201565801.51605     -1080.435 5        35.376    38708583.308 5                      -835.417 5        32.114
C09        46.000                                                                                                                                    38475157.960 7 200350254.40007      -467.331 7        42.239    38475153.524 7 154923523.74307      -361.261 7        42.694    38475152.430 6 162800952.70606      -379.723 6        38.468
C44        48.000                                                                                                                                    25082332.066 6 130610296.03606      1490.292 6        39.643                                                                    25082332.079 6 106131558.13406      1211.038 6        36.794
C35        51.000                                                                                                                                    22897200.499 7 119231934.29607      -929.162 7        43.319                                                                    22897197.106 6  96885546.62506      -754.889 6        40.122
C20        55.000                                                                                                                                    22308604.733 7 116166751.06207     -2204.226 7        45.321                                                                    22308598.928 7  94395079.51507     -1791.066 7        46.905
I01        58.000   334146529.456 6   8121956.86006     -2941.517 6        36.507
