     3.04           OBSERVATION DATA    M                   RINEX VERSION / TYPE
ssrcrin-15.6.1x                         20250101 014500 UTC PGM / RUN BY / DATE 
(00000000023479385599111004) Septentrio proprietary         COMMENT             
ract                                                        MARKER NAME         
01                                                          MARKER NUMBER       
geodetic                                                    MARKER TYPE         
NFB                 CLIMERS@TUW                             OBSERVER / AGENCY   
3296359             SEPT ASTERX SB3 PROB4.14.4              REC # / TYPE / VERS 
Unknown             Unknown                                 ANT # / TYPE        
  4127446.1825  1206914.6282  4695542.9041                  APPROX POSITION XYZ 
        0.0000        0.0000        0.0000                  ANTENNA: DELTA H/E/N
G   23 X1  C1C L1C D1C S1C C1W S1W C2W L2W D2W S2W C2L L2L  SYS / # / OBS TYPES 
       D2L S2L C5Q L5Q D5Q S5Q C1L L1L D1L S1L              SYS / # / OBS TYPES 
E   21 X1  C1C L1C D1C S1C C6C L6C D6C S6C C5Q L5Q D5Q S5Q  SYS / # / OBS TYPES 
       C7Q L7Q D7Q S7Q C8Q L8Q D8Q S8Q                      SYS / # / OBS TYPES 
S    9 X1  C1C L1C D1C S1C C5I L5I D5I S5I                  SYS / # / OBS TYPES 
R   17 X1  C1C L1C D1C S1C C2P L2P D2P S2P C2C L2C D2C S2C  SYS / # / OBS TYPES 
       C3Q L3Q D3Q S3Q                                      SYS / # / OBS TYPES 
C   25 X1  C1P L1P D1P S1P C5P L5P D5P S5P C2I L2I D2I S2I  SYS / # / OBS TYPES 
       C7I L7I D7I S7I C6I L6I D6I S6I C7D L7D D7D S7D      SYS / # / OBS TYPES 
J   17 X1  C1C L1C D1C S1C C2L L2L D2L S2L C5Q L5Q D5Q S5Q  SYS / # / OBS TYPES 
       C1L L1L D1L S1L                                      SYS / # / OBS TYPES 
I    5 X1  C5A L5A D5A S5A                                  SYS / # / OBS TYPES 
SEPTENTRIO RECEIVERS OUTPUT ALIGNED CARRIER PHASES.         COMMENT             
NO FURTHER PHASE SHIFT APPLIED IN THE RINEX ENCODER.        COMMENT             
G L1C                                                       SYS / PHASE SHIFT   
G L2W                                                       SYS / PHASE SHIFT   
G L2L  0.00000                                              SYS / PHASE SHIFT   
G L5Q  0.00000                                              SYS / PHASE SHIFT   
G L1L  0.00000                                              SYS / PHASE SHIFT   
E L1C  0.00000                                              SYS / PHASE SHIFT   
E L6C  0.00000                                              SYS / PHASE SHIFT   
E L5Q  0.00000                                              SYS / PHASE SHIFT   
E L7Q  0.00000                                              SYS / PHASE SHIFT   
E L8Q  0.00000                                              SYS / PHASE SHIFT   
S L1C                                                       SYS / PHASE SHIFT   
S L5I                                                       SYS / PHASE SHIFT   
R L1C                                                       SYS / PHASE SHIFT   
R L2P  0.00000                                              SYS / PHASE SHIFT   
R L2C                                                       SYS / PHASE SHIFT   
R L3Q  0.00000                                              SYS / PHASE SHIFT   
C L1P  0.00000                                              SYS / PHASE SHIFT   
C L5P  0.00000                                              SYS / PHASE SHIFT   
C L2I                                                       SYS / PHASE SHIFT   
C L7I                                                       SYS / PHASE SHIFT   
C L6I                                                       SYS / PHASE SHIFT   
C L7D                                                       SYS / PHASE SHIFT   
J L1C                                                       SYS / PHASE SHIFT   
J L2L  0.00000                                              SYS / PHASE SHIFT   
J L5Q  0.00000                                              SYS / PHASE SHIFT   
J L1L  0.00000                                              SYS / PHASE SHIFT   
I L5A                                                       SYS / PHASE SHIFT   
  2025     1     1     1    45    0.0000000     GPS         TIME OF FIRST OBS   
 C1C    0.000 C2C    0.000 C2P    0.000                     GLONASS COD/PHS/BIS 
DBHZ                                                        SIGNAL STRENGTH UNIT
    18                                                      LEAP SECONDS        
 24 R01  1 R02 -4 R03  5 R04  6 R05  1 R06 -4 R07  5 R08  6 GLONASS SLOT / FRQ #
    R09 -2 R10 -7 R11  0 R12 -1 R13 -2 R14 -7 R15  0 R16 -1 GLONASS SLOT / FRQ #
    R17  4 R18 -3 R19  3 R20  2 R21  4 R22 -3 R23  3 R24  2 GLONASS SLOT / FRQ #
                                                            END OF HEADER       
> 2025 01 01 01 45  0.0000000  0 39
G21         3.000    23636530.248 5                     -3904.866 5        33.042
G31         4.000    22181460.872 7 116563871.20107      -251.689 7        42.643                                    22181454.780 4  90829318.43804      -196.121 4        29.280    22181461.123 6  90829449.43006      -195.803 6        36.193
G02         5.000    22003265.241 5 115628020.92205     -3341.515 5        30.694                                    22003263.360 2  90099591.30102     -2603.786 2        16.830
E34         6.000    26448074.133 7 138985558.81607      1830.535 7        43.386                                                                    26448070.486 6 103787964.05206      1366.872 6        37.890    26448071.485 6 106495444.49006      1402.631 6        41.578
E04         7.000    24371179.022 7 128071497.92607     -2471.111 7        43.162                                                                    24371177.434 7  95637727.50207     -1845.269 7        44.653    24371177.735 7  98132624.61807     -1893.529 7        44.387
G03         8.000    19881193.676 7 104476373.93707     -1166.796 7        46.698                                    19881192.439 7  81410196.30207      -909.192 7        43.771    19881192.708 7  81410186.32707      -909.203 7        42.828
G09         9.000    22602778.430 6 118778443.55206      2484.210 6        40.553                                    22602773.741 4  92554591.58004      1935.759 4        25.744    22602776.734 5  92554612.62805      1935.779 5        31.615
G04        11.000    20774710.433 6 109171855.82906      1247.370 6        39.994                                    20774708.828 4  85068924.80504       971.979 4        26.707    20774708.397 7  85068951.80507       971.960 7        45.928
E09        12.000    23624291.033 7 124146581.25707       227.922 7        45.366                                                                    23624290.151 7  92706854.71107       170.107 7        47.956    23624289.047 8  95125271.37508       174.676 8        48.691
E10        13.000                                                                                                                                    26807806.984 5                     -2734.600 5        31.517    26807800.892 5 107943937.19605     -2805.838 5        31.924
E06        14.000    23333228.364 8 122617009.73408     -1106.513 8        49.090                                                                    23333227.466 7  91564612.91007      -826.266 7        46.207    23333226.491 7  93953257.25107      -847.858 7        46.593
E11        15.000    24444031.523 6 128454297.42706     -2888.280 6        38.976                                                                    24444026.728 6  95923624.03106     -2156.749 6        41.716    24444026.369 7  98425945.85407     -2213.199 7        43.410
G19        16.000    22289613.065 7 117132908.49307       -83.511 7        42.645                                    22289601.517 3  91272249.18603       -65.070 3        22.629
G28        17.000    23291425.501 5 122397244.16605     -2079.604 5        34.538                                                                                                    23291439.532 4                     -1620.210 4        25.444
G06        19.000    24061598.077 6 126444623.71606      2588.382 6        36.280                                    24061587.312 2  98528172.04902      2016.950 2        16.151    24061594.726 5                      2016.712 5        31.200
E36        20.000    23392886.326 6 122930592.36206      -294.153 6        36.087                                                                    23392886.687 6  91798700.78606      -219.459 6        40.596    23392888.535 7  94193480.61007      -225.178 7        45.130
E05        21.000    25311028.120 6 133010365.93006      2083.129 6        36.488                                                                    25311032.215 5  99325917.29005      1555.529 5        35.457    25311029.823 5 101917033.74505      1596.331 5        34.029
G17        22.000    22387488.382 7 117647025.63007     -2013.819 7        42.768                                    22387480.940 4  91673075.86104     -1569.212 4        28.076    22387482.170 5  91672998.89805     -1569.121 5        32.742
R07        23.000                                                                                                                                    23053000.285 4                      2102.445 4        26.503
S23        24.000    38086200.126 6 200144272.01906      -824.619 6        41.266
S36        25.000    38137749.251 6 200415138.00206      -828.448 6        36.181
R20        27.000    21089471.893 5                     -4585.728 5        31.691                                                                    21089475.519 5                     -3566.422 5        34.910
R06        29.000    19745139.102 6 105363837.61206       671.860 6        36.223
R14        30.000    23140174.263 4                      -532.598 4        29.498                                                                    23140229.103 4                      -414.253 4        27.341
C19        33.000                                                                                                                                    22869646.804 8 119088363.49008       964.495 8        49.255                                                                    22869641.941 7  96768931.08707       783.910 7        46.145
R21        34.000    19302383.803 8 103291063.58908      -781.273 8        51.375                                                                    19302381.443 7  80337397.11507      -607.666 7        45.132
R05        36.000    20537741.976 7 109786101.67907     -3668.251 7        47.552                                                                    20537739.970 6  85389518.63206     -2852.970 6        41.571
R22        37.000    22198073.937 6 118494784.62206      2934.933 6        41.318                                                                    22198068.377 6  92162649.79206      2282.605 6        38.562
C39        38.000                                                                                                                                    38892836.795 5                     -1195.258 5        30.558
C06        41.000                                                                                                                                    38209704.684 6 198967965.16506      -639.265 6        40.236    38209699.302 7 153854617.35907      -494.314 7        43.336    38209698.185 6 161677734.00806      -519.377 6        38.018
C29        43.000                                                                                                                                    22870045.026 7 119090180.71807     -3243.275 7        43.727                                                                    22870036.966 7  96770638.11507     -2635.337 7        43.445
C16        45.000                                                                                                                                    38662780.030 6 201327298.36206      -754.260 6        39.333    38662776.503 6 155678965.77306      -583.125 6        40.963    38662774.102 5 163594846.64305      -612.772 5        30.792
C09        46.000                                                                                                                                    38661052.068 6 201318248.13206      -138.134 6        41.681    38661049.040 7 155672038.17007      -106.874 7        46.935    38661044.840 6 163587527.28206      -112.078 6        40.613
C32        47.000                                                                                                                                    25396971.516 5 132248644.21005     -3650.317 5        33.126                                                                    25396974.375 4                     -2966.307 4        29.327
C44        48.000                                                                                                                                    26065768.956 5 135731326.07005      2102.392 5        34.500                                                                    26065789.701 5 110292805.00205      1708.332 5        30.272
C35        51.000                                                                                                                                    23057623.567 6 120067130.08406       174.230 6        41.344                                                                    23057622.502 7  97564356.35807       141.590 7        43.600
I09        54.000    37138118.280 7 145737953.18807      -769.421 7        42.555
C20        55.000                                                                                                                                    21882983.930 7 113950433.86007     -1639.186 7        47.883                                                                    21882978.685 7  92594140.43307     -1331.881 7        46.630
I01        56.000   332991926.209 5   3591046.30505     -2896.540 5        33.653
> 2025 01 01 01 45  5.0000000  0 39
G21         3.000    23640244.262 5                     -3905.703 5        31.879
G31         4.000    22181700.873 6 116565138.21606      -255.037 6        40.949                                    22181698.140 4  90830305.75504      -198.737 4        29.735    22181697.621 6  90830436.75406      -198.920 6        36.159
G02         5.000    22006446.541 5 115644734.46605     -3343.449 5        30.543                                    22006443.507 2  90112614.86102     -2605.285 2        17.358
E34         6.000    26446332.893 7 138976407.18307      1830.130 7        43.295                                                                    26446328.146 6 103781130.05006      1366.636 6        36.730    26446329.861 6 106488432.20206      1402.312 6        41.297
E04         7.000    24373531.036 7 128083857.40707     -2472.650 7        42.360                                                                    24373529.624 7  95646956.98707     -1846.498 7        44.862    24373529.912 7  98142094.86007     -1894.608 7        45.074
G03         8.000    19882305.074 7 104482212.82507     -1168.768 7        47.164                                    19882303.624 7  81414746.08807      -910.725 7        44.110    19882303.533 7  81414736.11007      -910.722 7        43.488
G09         9.000    22600417.181 6 118766025.79106      2483.049 6        41.168                                    22600410.211 4  92544915.40404      1934.838 4        26.287    22600412.977 5  92544936.46105      1934.397 5        31.668
G04        11.000    20773524.101 6 109165624.96506      1245.009 6        40.698                                    20773523.190 4  85064069.58204       970.137 4        26.946    20773522.829 7  85064096.57407       970.162 7        46.037
E09        12.000    23624075.207 7 124145446.85607       225.946 7        45.583                                                                    23624074.312 8  92706007.59008       168.700 8        48.181    23624073.022 8  95124402.16008       173.145 8        48.272
E10        13.000                                                                                                                                    26811289.667 5                     -2735.205 5        31.691    26811285.474 5 107957968.85605     -2806.683 5        31.517
E06        14.000    23334282.199 8 122622547.46108     -1108.463 8        49.438                                                                    23334281.428 7  91568748.23007      -827.782 7        46.283    23334280.136 7  93957500.44907      -849.380 7        46.465
E11        15.000    24446779.868 6 128468743.09506     -2889.759 6        39.186                                                                    24446775.622 6  95934411.38906     -2158.004 6        41.893    24446775.341 7  98437014.61007     -2214.261 7        43.683
G19        16.000    22289694.091 6 117133334.79006       -87.012 6        41.969                                    22289683.057 3  91272581.34703       -67.802 3        22.248
G28        17.000    23293404.494 5 122407649.81305     -2082.572 5        34.943                                                                                                    23293414.768 4                     -1622.749 4        27.617
G06        19.000    24059135.993 6 126431685.15606      2587.470 6        36.367                                    24059125.228 2  98518090.05602      2016.204 2        16.453    24059134.471 5                      2016.390 5        31.441
E36        20.000    23393167.855 6 122932066.56006      -295.547 6        36.333                                                                    23393167.324 6  91799801.65706      -220.761 6        41.461    23393168.778 7  94194610.19107      -226.607 7        44.862
E05        21.000    25309045.972 6 132999951.22906      2082.884 6        36.669                                                                    25309050.288 5  99318140.07205      1555.346 5        35.381    25309047.378 5 101909053.65205      1595.837 5        33.808
G17        22.000    22389405.379 7 117657101.66907     -2016.480 7        42.138                                    22389399.007 4  91680927.29504     -1571.283 4        28.607    22389401.003 5  91680850.36905     -1571.602 5        32.551
R07        23.000    23050461.683 5 123391282.17715      2701.451 5        31.849                                                                    23050475.455 4                      2100.849 4        28.076
S23        24.000    38086983.537 6 200148394.66206      -824.456 6        41.430
S36        25.000    38138538.215 6 200419280.40206      -828.689 6        36.291
R20        27.000    21093760.711 5                     -4588.050 5        33.635                                                                    21093761.331 5  87731635.85015     -3568.531 5        34.700
R06        29.000    19744509.063 6 105360483.74006       669.623 6        36.219
R14        30.000    23140680.147 4                      -536.423 4        29.640
C19        33.000                                                                                                                                    22868721.729 8 119083544.42208       963.171 8        49.837                                                                    22868716.358 7  96765015.21907       782.585 7        46.415
R21        34.000    19303115.879 8 103294981.21508      -785.696 8        50.968                                                                    19303113.070 7  80340444.14407      -611.082 7        45.016
R05        36.000    20541173.991 7 109804446.28207     -3669.659 7        46.943                                                                    20541172.495 7  85403786.65907     -2854.120 7        42.201
R22        37.000    22195325.021 6 118480115.02306      2933.012 6        41.661                                                                    22195320.514 6  92151240.11106      2281.311 6        37.871
C39        38.000                                                                                                                                    38893985.765 5                     -1195.868 5        30.400
C06        41.000                                                                                                                                    38210318.713 6 198971163.92506      -640.204 6        39.943    38210313.472 7 153857090.85007      -495.060 7        43.247    38210312.264 6 161680333.27706      -520.136 6        37.996
C29        43.000                                                                                                                                    22873159.918 7 119106402.06207     -3245.093 7        45.169                                                                    22873151.906 7  96783819.31507     -2637.073 7        43.026
C16        45.000                                                                                                                                    38663504.827 6 201331072.07706      -755.112 6        39.276    38663501.918 6 155681883.85706      -583.971 6        41.206    38663499.012 5 163597913.08405      -613.523 5        31.215
C09        46.000                                                                                                                                    38661185.286 6 201318941.26206      -138.821 6        41.876    38661182.188 7 155672574.16907      -107.495 7        47.111    38661178.046 6 163588090.53106      -113.093 6        40.739
C32        47.000                                                                                                                                    25400482.123 5 132266897.53005     -3650.825 5        34.381                                                                    25400480.238 4                     -2966.519 4        28.654
C44        48.000                                                                                                                                    26063752.745 5 135720817.32605      2101.437 5        35.105                                                                    26063768.636 5 110284265.80105      1707.031 5        30.528
C35        51.000                                                                                                                                    23057456.836 6 120066265.97006       171.554 6        41.163                                                                    23057456.168 7  97563654.18307       139.293 7        43.371
I09        54.000    37139099.034 7 145741800.93807      -769.506 7        42.715
C20        55.000                                                                                                                                    21884558.857 7 113958633.59807     -1640.639 7        47.401                                                                    21884553.153 7  92600803.40107     -1333.260 7        46.428
I01        56.000   332995618.639 5   3605530.05905     -2896.618 5        34.038
> 2025 01 01 01 45 10.0000000  0 39
G21         3.000    23643959.621 5                     -3906.393 5        30.679
G31         4.000    22181944.049 6 116566422.40106      -258.544 6        40.346                                    22181944.463 4  90831306.44804      -201.474 4        29.602    22181944.335 5  90831437.40905      -201.634 5        35.152
G02         5.000    22009630.970 5 115661456.88805     -3345.583 5        33.174                                    22009625.335 2  90125645.33302     -2606.898 2        17.132
E34         6.000    26444591.121 7 138967257.92107      1829.643 7        42.519                                                                    26444586.293 5 103774297.82505      1366.108 5        35.929    26444588.503 6 106481421.72806      1402.036 6        41.268
E04         7.000    24375884.735 6 128096223.96006     -2473.981 6        41.383                                                                    24375883.063 7  95656191.73407     -1847.517 7        45.053    24375883.231 7  98151570.52807     -1895.675 7        45.446
G03         8.000    19883417.708 7 104488061.31607     -1170.635 7        47.479                                    19883416.602 7  81419303.35607      -912.181 7        44.482    19883416.071 7  81419293.37507      -912.186 7        43.494
G09         9.000    22598055.747 6 118753614.29206      2481.712 6        41.023                                    22598048.112 4  92535244.11704      1933.790 4        26.299    22598051.632 5  92535265.15805      1933.292 5        31.230
G04        11.000    20772340.512 6 109159405.75506      1242.672 6        40.501                                    20772339.704 4  85059223.43604       968.318 4        27.257    20772338.877 7  85059250.43007       968.269 7        45.670
E09        12.000    23623860.900 7 124144321.79007       223.969 7        45.464                                                                    23623860.101 8  92705167.43908       167.296 8        48.257    23623858.965 7  95123540.10207       171.644 7        47.986
E10        13.000                                                                                                                                    26814773.624 5                     -2735.691 5        31.049    26814771.204 5 107972003.26805     -2807.218 5        31.517
E06        14.000    23335337.828 8 122628094.65608     -1110.396 8        49.138                                                                    23335337.191 7  91572890.61107      -829.155 7        46.280    23335335.681 7  93961750.89007      -850.788 7        46.607
E11        15.000    24449529.750 6 128483195.86806     -2891.139 6        39.315                                                                    24449526.061 7  95945204.03807     -2159.059 7        42.154    24449525.655 7  98448088.81307     -2215.369 7        43.702
G19        16.000    22289778.159 6 117133778.26106       -90.405 6        41.209                                    22289768.223 3  91272926.89603       -70.454 3        21.952
G28        17.000    23295390.377 6 122418070.60306     -2085.729 6        36.416                                                                                                    23295401.349 4                     -1625.151 4        29.270
G06        19.000    24056672.582 6 126418749.64006      2586.867 6        36.113                                    24056663.993 2  98508010.43602      2015.728 2        17.736    24056671.639 5                      2015.713 5        30.974
E36        20.000    23393450.595 5 122933549.66505      -297.679 5        35.833                                                                    23393449.641 7  91800909.18607      -222.234 7        42.034    23393450.727 7  94195746.59207      -227.966 7        44.485
E05        21.000    25307065.035 6 132989539.58606      2082.074 6        36.518                                                                    25307069.242 5  99310365.14805      1554.557 5        34.729    25307064.968 5 101901075.91305      1595.223 5        33.683
G17        22.000    22391324.789 6 117667190.96806     -2019.172 6        41.464                                    22391319.627 4  91688789.07204     -1573.375 4        28.739    22391322.592 5  91688712.11205     -1573.248 5        32.575
R07        23.000                                                                                                                                    23047952.762 4                      2099.992 4        28.910
S23        24.000    38087769.040 6 200152516.87806      -824.327 6        41.292
S36        25.000    38139328.874 6 200423422.58006      -828.654 6        36.541
R20        27.000    21098055.222 5 112820771.38815     -4590.328 5        34.748                                                                    21098054.596 5  87749482.87505     -3570.485 5        33.862
R06        29.000    19743883.430 5 105357142.98305       667.079 5        35.452
R14        30.000    23141188.592 4                      -540.441 4        25.323
C19        33.000                                                                                                                                    22867797.637 8 119078732.10708       961.754 8        50.051                                                                    22867792.264 7  96761104.82807       781.521 7        46.687
R21        34.000    19303851.306 8 103298920.95808      -790.196 8        50.913                                                                    19303849.485 7  80343508.38307      -614.550 7        45.029
R05        36.000    20544605.615 7 109822798.12607     -3671.127 7        45.801                                                                    20544605.133 7  85418060.31707     -2855.314 7        42.400
R22        37.000    22192577.105 6 118465454.06606      2931.325 6        41.602                                                                    22192573.832 6  92139837.16506      2280.041 6        36.480
C39        38.000                                                                                                                                    38895134.002 5                     -1196.697 5        30.196
C06        41.000                                                                                                                                    38210933.726 6 198974366.74906      -640.928 6        39.913    38210928.590 7 153859567.47607      -495.668 7        43.183    38210927.192 6 161682935.84306      -520.827 6        37.841
C29        43.000                                                                                                                                    22876276.573 7 119122632.81307     -3247.085 7        45.880                                                                    22876268.794 7  96797008.12407     -2638.518 7        42.423
C16        45.000                                                                                                                                    38664228.837 6 201334849.69006      -755.892 6        39.658    38664226.860 6 155684804.92406      -584.427 6        41.204    38664224.351 5 163600982.69505      -613.887 5        32.036
C09        46.000                                                                                                                                    38661319.354 7 201319638.16907      -139.804 7        42.087    38661316.153 7 155673113.04007      -108.086 7        47.042    38661311.944 6 163588656.81406      -113.583 6        40.803
C32        47.000                                                                                                                                    25403988.222 5 132285151.40805     -3650.806 5        35.533                                                                    25403985.069 4                     -2966.607 4        26.539
C44        48.000                                                                                                                                    26061736.741 5 135710314.05905      2099.866 5        35.019                                                                    26061749.599 5 110275731.00705      1706.507 5        30.792
C35        51.000                                                                                                                                    23057292.703 6 120065414.79706       168.871 6        41.313                                                                    23057292.248 7  97562962.53107       137.198 7        42.940
I09        54.000    37140079.413 7 145745649.06107      -769.703 7        42.656
C20        55.000                                                                                                                                    21886135.376 7 113966840.89107     -1642.223 7        47.339                                                                    21886129.161 7  92607472.50107     -1334.501 7        45.920
I01        56.000   332999309.326 5   3620014.09405     -2896.856 5        34.719
> 2025 01 01 01 45 15.0000000  0 39
G21         3.000    23647675.848 4                     -3907.359 4        28.682
G31         4.000    22182192.358 6 116567724.12306      -262.145 6        41.120                                    22182193.877 4  90832320.80004      -204.273 4        28.284    22182195.640 5  90832451.72105      -204.448 5        33.060
G02         5.000    22012820.374 5 115678188.49705     -3347.375 5        33.928                                    22012808.946 2  90138682.95602     -2608.336 2        17.547
E34         6.000    26442849.378 6 138958111.39606      1829.026 6        41.731                                                                    26442845.715 5 103767467.62405      1365.984 5        35.086    26442847.671 6 106474413.36706      1401.369 6        41.008
E04         7.000    24378239.705 6 128108597.94906     -2475.650 6        41.082                                                                    24378237.999 7  95665432.03607     -1848.690 7        45.371    24378237.820 7  98161051.88407     -1896.947 7        45.770
G03         8.000    19884532.092 7 104493919.76607     -1172.761 7        47.848                                    19884531.485 7  81423868.38507      -913.841 7        44.522    19884530.703 7  81423858.41707      -913.888 7        42.959
G09         9.000    22595694.147 6 118741209.38706      2480.398 6        40.505                                    22595687.480 4  92525577.97004      1932.761 4        25.925    22595690.680 5  92525599.01005      1932.673 5        31.434
G04        11.000    20771160.048 6 109153198.57006      1240.101 6        38.619                                    20771158.426 4  85054386.65504       966.310 4        27.329    20771157.436 7  85054413.65307       966.311 7        45.368
E09        12.000    23623648.347 7 124143206.41507       222.073 7        45.541                                                                    23623647.870 8  92704334.53108       165.865 8        48.308    23623646.740 7  95122685.46207       170.174 7        47.432
E10        13.000                                                                                                                                    26818258.167 5                     -2736.401 5        31.117    26818257.395 5 107986040.72205     -2808.036 5        31.562
E06        14.000    23336395.215 8 122633651.68608     -1112.467 8        48.845                                                                    23336394.686 7  91577040.34007      -830.744 7        46.127    23336393.212 7  93966008.87107      -852.441 7        46.574
E11        15.000    24452281.249 6 128497656.12606     -2892.914 6        39.216                                                                    24452277.897 7  95956002.26207     -2160.193 7        42.345    24452277.535 7  98459168.74107     -2216.610 7        43.634
G19        16.000    22289866.176 6 117134239.22406       -94.024 6        40.749                                    22289856.788 3  91273286.06203       -73.252 3        21.429
G28        17.000    23297378.018 6 122428506.95306     -2088.700 6        37.047                                                                                                    23297394.347 4                     -1627.515 4        28.654
G06        19.000    24054210.556 5 126405817.52805      2586.117 5        35.609                                    24054203.733 3  98497933.48003      2015.150 3        18.209    24054207.999 5                      2015.078 5        30.045
E36        20.000    23393734.712 5 122935042.06205      -299.485 5        34.600                                                                    23393733.819 7  91802023.64507      -223.750 7        42.434    23393734.352 7  94196890.10507      -229.428 7        43.886
E05        21.000    25305084.641 6 132979131.30306      2081.195 6        36.306                                                                    25305089.342 5  99302592.73405      1554.004 5        34.033    25305084.471 5 101893100.76805      1594.726 5        32.940
G17        22.000    22393247.453 6 117677293.83206     -2022.018 6        40.858                                    22393242.505 4  91696661.41904     -1575.599 4        28.085    22393246.342 5  91696584.52405     -1575.642 5        32.683
R07        23.000    23045443.561 5 123364279.65915      2699.417 5        31.253                                                                    23045435.744 5                      2099.402 5        30.604
S23        24.000    38088552.160 6 200156639.06306      -824.461 6        41.337
S36        25.000    38140116.112 6 200427564.84506      -828.331 6        36.484
R20        27.000    21102348.046 5 112843729.71705     -4593.020 5        34.648                                                                    21102348.624 5  87767339.30705     -3572.289 5        33.617
R06        29.000    19743260.878 5 105353815.70505       663.717 5        34.771
R14        30.000    23141687.894 5                      -544.923 5        30.309                                                                    23141702.279 4                      -423.915 4        29.318
C19        33.000                                                                                                                                    22866875.113 8 119073926.88808       960.212 8        49.987                                                                    22866869.670 7  96757200.19007       780.296 7        46.978
R21        34.000    19304592.606 8 103302883.26508      -794.818 8        51.215                                                                    19304589.862 7  80346590.17807      -618.166 7        44.408
R05        36.000    20548040.116 7 109841157.50307     -3672.745 7        45.702                                                                    20548039.833 7  85432339.84607     -2856.547 7        42.828
R22        37.000    22189831.723 7 118450802.20207      2929.508 7        43.263                                                                    22189829.112 6  92128441.25506      2278.666 6        36.325
C39        38.000                                                                                                                                    38896283.249 5                     -1197.343 5        30.453
C06        41.000                                                                                                                                    38211549.139 6 198977573.99806      -641.932 6        39.186    38211544.428 7 153862047.52407      -496.424 7        43.551    38211543.302 6 161685542.00506      -521.773 6        37.263
C29        43.000                                                                                                                                    22879394.156 7 119138873.30607     -3249.123 7        45.959                                                                    22879387.302 7  96810204.84707     -2640.258 7        42.047
C16        45.000                                                                                                                                    38664956.147 6 201338631.56406      -756.935 6        39.231    38664953.350 6 155687729.34206      -585.411 6        41.275    38664950.670 5 163604055.80205      -615.035 5        31.857
C09        46.000                                                                                                                                    38661454.093 6 201320339.14606      -140.631 6        41.874    38661450.884 7 155673655.09507      -108.855 7        47.199    38661446.518 6 163589226.41406      -114.408 6        40.720
C32        47.000                                                                                                                                    25407493.697 5 132303406.25605     -3651.160 5        35.671                                                                    25407487.097 4                     -2967.152 4        26.048
C44        48.000                                                                                                                                    26059721.404 5 135699816.56005      2098.698 5        32.904                                                                    26059732.524 5 110267200.90605      1705.328 5        30.566
C35        51.000                                                                                                                                    23057131.842 6 120064576.96806       166.202 6        41.657                                                                    23057131.165 7  97562281.72607       135.065 7        42.470
I09        54.000    37141060.416 7 145749497.81207      -769.969 7        43.010
C20        55.000                                                                                                                                    21887713.451 7 113975056.07707     -1643.922 7        47.546                                                                    21887706.759 7  92614148.00907     -1335.896 7        45.236
I01        56.000   333003000.402 5   3634498.56305     -2896.632 5        34.876
> 2025 01 01 01 45 20.0000000  0 39
G21         3.000    23651396.225 4                     -3908.722 4        25.414
G31         4.000    22182444.580 6 116569043.75206      -265.881 6        41.111                                    22182446.609 4  90833349.11004      -207.182 4        26.874    22182446.693 5  90833479.94305      -206.993 5        30.875
G02         5.000    22016004.888 5 115694929.60705     -3349.363 5        32.521                                    22015994.284 2  90151728.02002     -2609.914 2        16.641
E34         6.000    26441107.805 6 138948968.02406      1828.270 6        40.601                                                                    26441105.804 5 103760639.81405      1365.246 5        33.832    26441107.635 6 106467407.39406      1400.907 6        40.675
E04         7.000    24380596.009 6 128120979.73006     -2477.193 6        40.958                                                                    24380594.391 7  95674678.17407     -1849.871 7        45.734    24380593.958 7  98170539.23207     -1898.195 7        46.123
G03         8.000    19885648.869 8 104499788.56808     -1174.872 8        48.127                                    19885648.309 7  81428441.48807      -915.488 7        44.573    19885647.136 7  81428431.51407      -915.594 7        42.866
G09         9.000    22593334.648 6 118728811.50606      2478.862 6        40.646                                    22593328.466 4  92515917.30804      1931.574 4        25.895    22593331.675 5  92515938.31205      1931.569 5        31.751
G04        11.000    20769981.877 6 109147003.79806      1237.574 6        38.138                                    20769979.649 4  85049559.55504       964.344 4        27.162    20769978.706 7  85049586.56407       964.334 7        45.258
E09        12.000    23623437.865 7 124142101.14307       219.967 7        45.795                                                                    23623437.577 8  92703509.16708       164.233 8        48.344    23623436.576 7  95121838.57007       168.539 7        47.022
E10        13.000    26821745.825 3                     -3666.767 3        23.390                                                                    26821743.958 5                     -2737.212 5        30.921    26821744.875 5 108000081.45305     -2808.346 5        30.694
E06        14.000    23337454.533 8 122639218.93208     -1114.517 8        48.646                                                                    23337454.057 7  91581197.69707      -832.295 7        46.123    23337452.649 7  93970274.68107      -854.043 7        46.426
E11        15.000    24455034.507 6 128512124.23406     -2894.590 6        39.258                                                                    24455031.114 7  95966806.37107     -2161.527 7        42.466    24455030.786 7  98470254.69207     -2217.783 7        43.877
G19        16.000    22289959.056 7 117134718.13607       -97.707 7        42.315                                    22289948.551 3  91273659.23103       -76.121 3        20.500
G28        17.000    23299364.349 6 122438959.21806     -2092.071 6        36.612                                                                                                    23299388.623 4                     -1630.322 4        25.774
G06        19.000    24051751.184 5 126392889.27105      2585.174 5        35.957                                    24051744.126 3  98487859.53503      2014.410 3        19.224    24051747.851 4                      2014.213 4        27.976
E36        20.000    23394020.759 5 122936544.11305      -301.180 5        33.228                                                                    23394019.816 7  91803145.31807      -225.121 7        42.508    23394019.748 7  94198041.03907      -231.036 7        43.391
E05        21.000    25303104.669 5 132968726.81205      2080.559 5        35.810                                                                    25303110.834 5  99294823.13505      1553.631 5        32.413    25303105.255 5 101885128.54705      1594.377 5        32.826
G17        22.000    22395172.336 6 117687410.69306     -2024.938 6        39.216                                    22395167.825 4  91704544.68104     -1577.880 4        27.509    22395173.001 5  91704467.81005     -1577.611 5        32.359
R07        23.000    23042925.224 5 123350787.20405      2697.762 5        33.521                                                                    23042917.407 5                      2098.269 5        30.332
S23        24.000    38089337.046 6 200160761.25006      -824.370 6        41.042
S36        25.000    38140901.315 6 200431707.01406      -828.616 6        36.798
R20        27.000    21106643.463 5 112866700.58305     -4595.497 5        33.228                                                                    21106643.877 5  87785205.55905     -3574.383 5        33.096
R06        29.000    19742639.151 5 105350502.23705       661.166 5        35.519
R14        30.000    23142210.072 5                      -549.166 5        34.267                                                                    23142215.487 4                      -427.234 4        28.635
C19        33.000                                                                                                                                    22865954.022 8 119069129.16008       958.778 8        49.997                                                                    22865948.700 7  96753301.65607       779.098 7        47.500
R21        34.000    19305337.014 8 103306868.42908      -799.461 8        49.694                                                                    19305334.328 7  80349689.74707      -621.810 7        44.065
R05        36.000    20551476.535 7 109859524.76507     -3674.305 7        46.452                                                                    20551476.583 7  85446625.49307     -2857.761 7        43.295
R22        37.000    22187089.262 7 118436159.79107      2927.469 7        45.020                                                                    22187087.451 6  92117052.71406      2276.966 6        38.048
C39        38.000                                                                                                                                    38897435.461 5                     -1198.320 5        30.709
C06        41.000                                                                                                                                    38212166.524 6 198980786.04106      -643.086 6        38.958    38212161.431 7 153864531.28607      -497.143 7        43.765    38212159.874 6 161688152.04706      -522.248 6        37.403
C29        43.000                                                                                                                                    22882513.646 7 119155123.90207     -3251.186 7        46.506                                                                    22882507.593 6  96823409.78606     -2641.922 6        41.526
C16        45.000                                                                                                                                    38665683.826 6 201342418.08106      -757.728 6        39.763    38665680.381 6 155690657.32206      -586.029 6        41.325    38665678.120 5 163607132.66505      -615.924 5        32.228
C09        46.000                                                                                                                                    38661589.943 6 201321044.60906      -141.572 6        41.678    38661586.400 7 155674200.60607      -109.473 7        47.231    38661582.024 6 163589799.67806      -115.069 6        40.980
C32        47.000                                                                                                                                    25411000.026 5 132321662.52405     -3651.637 5        34.876
C44        48.000                                                                                                                                    26057707.887 5 135689325.27205      2097.357 5        30.513                                                                    26057716.509 4 110258675.88604      1704.233 4        29.441
C35        51.000                                                                                                                                    23056974.201 7 120063752.88607       163.388 7        42.049                                                                    23056972.626 7  97561612.09307       132.930 7        42.356
I09        54.000    37142041.317 7 145753347.49207      -770.114 7        43.007
C20        55.000                                                                                                                                    21889292.813 7 113983279.54907     -1645.616 7        47.594                                                                    21889285.898 7  92620830.25007     -1337.109 7        44.879
I01        56.000   333006691.184 5   3648983.83705     -2897.275 5        34.671
> 2025 01 01 01 45 25.0000000  0 39
G21         3.000    23655112.679 3                     -3912.638 3        20.214
G31         4.000    22182698.204 6 116570380.86606      -269.367 6        41.189                                    22182702.645 4  90834391.03504      -209.899 4        24.872    22182702.859 4  90834521.84504      -210.412 4        27.078
G02         5.000    22019190.851 5 115711679.98405     -3351.403 5        33.078                                    22019181.617 2  90164780.22902     -2611.455 2        15.905
E34         6.000    26439367.766 6 138939827.39706      1827.658 6        40.045                                                                    26439366.524 5 103753814.00405      1364.880 5        33.467    26439368.084 6 106460403.54106      1400.425 6        40.408
E04         7.000    24382953.729 6 128133368.95506     -2478.896 6        40.961                                                                    24382952.172 7  95683929.85307     -1851.132 7        45.929    24382951.425 7  98180032.27307     -1899.433 7        46.360
G03         8.000    19886767.447 7 104505667.33807     -1177.090 7        47.756                                    19886767.028 7  81433022.35807      -917.212 7        44.754    19886765.846 7  81433012.37707      -917.301 7        42.758
G09         9.000    22590976.476 6 118716420.26406      2477.420 6        40.224                                    22590970.973 4  92506261.81104      1930.453 4        26.156    22590975.128 5  92506282.84005      1930.211 5        32.281
G04        11.000    20768804.763 6 109140821.04806      1235.052 6        37.282                                    20768803.111 4  85044741.83204       962.378 4        27.497    20768802.149 7  85044768.85107       962.403 7        45.074
E09        12.000    23623229.579 7 124141005.58707       217.835 7        45.898                                                                    23623229.086 8  92702691.05008       162.642 8        48.168    23623228.334 7  95120999.10807       166.913 7        46.789
E10        13.000    26825233.168 4                     -3665.878 4        24.932                                                                    26825231.082 5                     -2737.564 5        31.072    26825233.794 5 108014125.24505     -2809.274 5        30.332
E06        14.000    23338516.061 8 122644796.00508     -1116.663 8        48.351                                                                    23338515.346 7  91585362.40007      -833.874 7        45.970    23338514.014 7  93974548.02307      -855.684 7        46.613
E11        15.000    24457789.093 6 128526599.83406     -2896.087 6        39.072                                                                    24457785.877 7  95977616.06907     -2162.800 7        42.499    24457785.757 7  98481346.40907     -2219.289 7        44.080
G19        16.000    22290056.633 7 117135214.60007      -101.240 7        43.172                                    22290043.251 3  91274046.04403       -78.883 3        20.310
G28        17.000                                                                                                                                                                    23301383.808 3                     -1631.630 3        21.690
G06        19.000    24049294.089 6 126379964.48706      2584.273 6        36.597                                    24049285.096 3  98477788.28103      2013.710 3        20.262    24049285.731 4                      2013.661 4        26.467
E36        20.000    23394308.540 5 122938055.49405      -303.487 5        33.293                                                                    23394307.701 7  91804273.93807      -226.628 7        42.815    23394306.999 7  94199199.09107      -232.433 7        42.921
E05        21.000    25301124.927 5 132958325.77305      2079.676 5        34.638                                                                    25301134.704 5  99287056.12005      1553.023 5        30.302    25301126.579 5 101877158.94005      1593.733 5        32.311
G17        22.000    22397099.990 6 117697541.17406     -2027.747 6        36.586                                    22397095.715 4  91712438.56104     -1580.066 4        26.742    22397097.838 5  91712361.64605     -1580.036 5        32.102
R07        23.000    23040406.997 5                      2696.607 5        32.383                                                                    23040391.441 5                      2097.436 5        30.498
S23        24.000    38090121.882 6 200164883.34706      -824.650 6        40.875
S36        25.000    38141693.047 6 200435849.49806      -828.900 6        36.287
R20        27.000    21110939.309 5 112889683.55805     -4598.294 5        31.140                                                                    21110942.458 5  87803081.24105     -3576.167 5        32.443
R06        29.000    19742018.652 5 105347202.22705       658.344 5        35.938
R14        30.000    23142728.853 5 123363752.37515      -553.228 5        34.167                                                                    23142734.665 4                      -430.341 4        26.671
C19        33.000                                                                                                                                    22865034.459 8 119064338.56208       957.103 8        49.787                                                                    22865029.061 8  96749408.89908       777.801 8        48.014
R21        34.000    19306084.046 8 103310876.09708      -804.090 8        48.061                                                                    19306083.855 7  80352806.84907      -625.386 7        44.321
R05        36.000    20554913.930 7 109877899.61607     -3676.088 7        47.030                                                                    20554914.066 7  85460917.03107     -2859.136 7        43.437
R22        37.000    22184348.586 7 118421526.49607      2925.542 7        45.171                                                                    22184346.778 6  92105671.27206      2275.323 6        39.018
C39        38.000                                                                                                                                    38898585.916 5                     -1198.943 5        31.170
C06        41.000                                                                                                                                    38212783.921 6 198984002.49506      -643.867 6        38.931    38212779.550 7 153867018.46407      -498.051 7        44.009    38212777.505 6 161690765.68806      -523.191 6        37.100
C29        43.000                                                                                                                                    22885636.547 7 119171384.24307     -3253.383 7        47.010                                                                    22885629.959 6  96836622.63206     -2643.578 6        40.841
C16        45.000                                                                                                                                    38666412.237 6 201346208.89406      -758.920 6        39.661    38666408.424 6 155693588.61506      -586.784 6        41.676    38666406.363 5 163610213.03205      -616.808 5        32.072
C09        46.000                                                                                                                                    38661726.386 6 201321754.20906      -142.516 6        41.533    38661722.576 7 155674749.31907      -110.351 7        47.256    38661718.441 6 163590376.28106      -115.879 6        41.108
C32        47.000                                                                                                                                    25414505.316 5 132339919.76705     -3651.832 5        34.252                                                                    25414484.962 5                     -2967.005 5        30.053
C44        48.000                                                                                                                                    26055698.240 4 135678839.87304      2096.191 4        29.081                                                                    26055699.315 5 110250155.59505      1703.739 5        30.279
C35        51.000                                                                                                                                    23056818.333 6 120062942.17206       160.441 6        41.323                                                                    23056816.820 7  97560953.32507       130.436 7        42.269
I09        54.000    37143022.385 7 145757197.85107      -770.297 7        42.899
C20        55.000                                                                                                                                    21890873.242 7 113991510.94507     -1647.282 7        47.510                                                                    21890866.691 7  92627518.92507     -1338.618 7        44.527
I01        56.000   333010382.890 5   3663469.60605     -2897.546 5        35.271
> 2025 01 01 01 45 30.0000000  0 38
G31         4.000    22182955.424 6 116571736.51406      -272.894 6        41.549                                    22182962.249 3  90835447.40603      -212.638 3        22.609
G02         5.000    22022377.886 5 115728440.48205     -3353.128 5        33.802                                    22022370.809 2  90177840.37202     -2612.782 2        14.143
E34         6.000    26437629.366 6 138930690.56206      1827.185 6        38.979                                                                    26437627.906 5 103746991.05105      1364.591 5        33.659    26437629.249 6 106453402.61606      1399.839 6        40.117
E04         7.000    24385312.672 6 128145766.60006     -2480.379 6        41.428                                                                    24385311.463 7  95693187.83307     -1852.231 7        46.207    24385310.231 7  98189531.76907     -1900.497 7        46.287
G03         8.000    19887887.820 7 104511557.07307     -1178.994 7        47.797                                    19887887.813 7  81437611.77207      -918.697 7        44.647    19887886.636 7  81437601.77707      -918.735 7        43.342
G09         9.000    22588619.239 6 118704036.71006      2476.040 6        39.315                                    22588615.206 4  92496612.29604      1929.383 4        25.850    22588622.519 5  92496633.28905      1929.090 5        33.479
G04        11.000    20767631.320 6 109134651.39006      1232.643 6        39.601                                    20767629.122 4  85039934.30304       960.500 4        27.533    20767627.497 7  85039961.31907       960.492 7        44.922
E09        12.000    23623023.069 7 124139920.74807       215.996 7        46.033                                                                    23623022.678 8  92701880.94108       161.244 8        48.162    23623022.055 7  95120167.86807       165.491 7        46.573
E10        13.000    26828721.319 4                     -3667.292 4        28.246                                                                    26828719.864 5                     -2738.450 5        30.762    26828722.536 4 108028172.86204     -2809.586 4        29.043
E06        14.000    23339579.364 7 122650383.93207     -1118.615 7        47.726                                                                    23339578.565 7  91589535.20007      -835.339 7        45.985    23339577.460 7  93978829.68207      -857.148 7        46.577
E11        15.000    24460545.409 6 128541083.95206     -2897.823 6        39.261                                                                    24460542.167 7  95988432.11707     -2163.860 7        42.641    24460542.303 7  98492444.62107     -2220.327 7        44.269
G19        16.000    22290152.106 7 117135729.65707      -104.745 7        43.409                                    22290141.103 3  91274447.34303       -81.607 3        20.452
G28        17.000    23303339.155 4 122459911.18304     -2098.680 4        28.834                                                                                                    23303376.645 3                     -1636.846 3        22.400
G06        19.000    24046836.816 6 126367044.16006      2583.777 6        37.660                                    24046826.955 3  98467720.51503      2013.326 3        20.524    24046826.790 4                      2012.878 4        24.165
E36        20.000    23394597.536 5 122939577.17205      -305.205 5        34.371                                                                    23394597.359 7  91805410.26807      -227.990 7        43.079    23394596.357 7  94200365.05307      -234.019 7        42.428
E05        21.000    25299147.074 5 132947929.16605      2079.058 5        32.964                                                                    25299162.345 4  99279292.34504      1552.190 4        28.408    25299149.241 5 101869192.74105      1593.219 5        32.665
G17        22.000    22399030.416 6 117707686.18706     -2030.350 6        36.352                                    22399026.039 4  91720343.75704     -1582.095 4        26.108    22399027.923 5  91720266.88205     -1582.422 5        32.329
R07        23.000    23037889.535 4 123323820.15514      2695.243 4        29.545                                                                    23037871.650 5                      2096.351 5        30.664
S23        24.000    38090906.008 6 200169006.28606      -824.633 6        41.204
S36        25.000    38142481.868 6 200439992.00606      -828.441 6        36.522
R20        27.000    21115240.735 4 112912679.77804     -4600.170 4        28.844                                                                    21115242.712 5  87820967.19805     -3578.427 5        30.672
R06        29.000    19741404.516 5 105343916.67605       655.627 5        35.876
R14        30.000    23143250.589 5                      -557.292 5        33.473                                                                    23143260.680 4                      -433.417 4        27.677
C19        33.000                                                                                                                                    22864116.636 8 119059556.07308       955.786 8        49.300                                                                    22864111.043 8  96745522.74508       776.621 8        48.326
R21        34.000    19306837.625 7 103314907.33807      -808.540 7        47.484                                                                    19306837.568 7  80355942.27107      -628.865 7        44.847
R05        36.000    20558353.473 7 109896283.02907     -3677.453 7        47.323                                                                    20558352.208 7  85475215.22907     -2860.259 7        43.081
R22        37.000    22181608.698 7 118406903.37907      2923.559 7        44.957                                                                    22181606.625 6  92094297.75706      2273.972 6        39.420
C39        38.000                                                                                                                                    38899738.508 5                     -1200.086 5        32.036
C06        41.000                                                                                                                                    38213402.601 6 198987224.38606      -644.907 6        38.955    38213398.183 7 153869509.83107      -498.694 7        44.322    38213396.536 6 161693383.75006      -524.040 6        36.953
C29        43.000                                                                                                                                    22888761.651 7 119187655.30307     -3255.282 7        47.282                                                                    22888754.352 6  96849844.18906     -2645.157 6        40.679
C16        45.000                                                                                                                                    38667140.828 6 201350004.96406      -759.623 6        39.577    38667137.751 6 155696523.99106      -587.502 6        41.740    38667135.073 5 163613297.63805      -617.150 5        32.934
C09        46.000                                                                                                                                    38661863.051 6 201322468.93106      -143.478 6        41.373    38661859.888 7 155675301.97907      -110.810 7        47.468    38661855.611 6 163590957.04006      -116.466 6        41.035
C32        47.000                                                                                                                                    25418012.417 5 132358179.00205     -3652.006 5        34.729                                                                    25417994.426 5                     -2967.828 5        30.672
C44        48.000                                                                                                                                                                                                                                                                    26053682.516 5 110241640.96305      1702.017 5        30.279
C35        51.000                                                                                                                                    23056665.757 6 120062145.82806       157.831 6        40.002                                                                    23056663.922 7  97560306.21707       128.336 7        42.277
I09        54.000    37144003.948 7 145761049.62907      -770.515 7        42.940
C20        55.000                                                                                                                                    21892455.433 7 113999751.25407     -1648.901 7        47.350                                                                    21892449.182 7  92634214.84007     -1339.830 7        44.138
I01        56.000   333014073.926 5   3677956.65305     -2897.441 5        35.505
> 2025 01 01 01 45 35.0000000  0 38
G31         4.000    22183217.006 6 116573109.48706      -276.141 6        41.864                                    22183224.617 3  90836517.24703      -215.177 3        19.522    22183203.838 3                      -214.812 3        23.429
G02         5.000    22025565.817 5 115745210.04105     -3354.467 5        34.043                                    22025561.951 2  90190907.50302     -2613.889 2        15.333
E34         6.000    26435891.593 6 138921556.32606      1826.742 6        37.584                                                                    26435890.516 5 103740170.05605      1363.981 5        33.814    26435890.901 6 106446403.65506      1399.683 6        40.091
E04         7.000    24387673.058 6 128158171.46906     -2481.441 6        41.759                                                                    24387672.274 7  95702451.20007     -1853.015 7        46.515    24387670.709 7  98199036.81007     -1901.450 7        46.324
G03         8.000    19889010.874 8 104517456.58908     -1180.617 8        48.062                                    19889010.441 7  81442208.81507      -919.966 7        44.734    19889009.647 7  81442198.82607      -919.922 7        43.833
G09         9.000    22586263.882 6 118691659.62906      2474.723 6        37.353                                    22586260.714 4  92486967.81904      1928.355 4        25.128    22586272.831 5  92486988.81805      1928.394 5        34.281
G04        11.000    20766460.595 6 109128493.56806      1230.696 6        41.063                                    20766457.182 4  85035135.99904       958.981 4        27.892    20766455.437 7  85035163.02607       958.922 7        43.865
E09        12.000    23622818.462 7 124138845.43107       214.387 7        46.345                                                                    23622817.980 8  92701077.95308       160.073 8        48.268    23622817.631 7  95119343.92807       164.218 7        46.678
E10        13.000    26832213.339 5                     -3667.780 5        30.672                                                                    26832209.093 5                     -2738.638 5        31.479    26832212.480 4 108042223.32404     -2810.040 4        28.047
E06        14.000    23340644.394 7 122655981.48607     -1120.192 7        47.308                                                                    23340643.627 7  91593715.19307      -836.523 7        46.097    23340642.642 7  93983118.72307      -858.418 7        46.739
E11        15.000    24463303.245 6 128555575.32806     -2898.821 6        39.036                                                                    24463299.754 7  95999253.60907     -2164.712 7        42.753    24463300.214 7  98503548.41307     -2221.143 7        44.483
G19        16.000    22290251.423 7 117136262.02307      -107.982 7        44.430                                    22290242.300 3  91274862.13303       -84.157 3        20.833
G28        17.000    23305339.832 4 122470410.82104     -2100.949 4        29.820                                                                                                    23305369.808 4                     -1637.574 4        25.865
G06        19.000    24044379.682 6 126354127.14806      2583.232 6        38.988                                    24044368.708 3  98457655.32303      2012.894 3        21.024    24044364.370 3                      2012.169 3        20.429
E36        20.000    23394889.167 5 122941107.97405      -306.718 5        35.967                                                                    23394888.776 7  91806553.39807      -229.182 7        43.338    23394887.403 7  94201537.99707      -235.102 7        42.226
E05        21.000    25297169.043 5 132937535.75305      2078.923 5        31.789                                                                    25297190.835 4  99271530.96504      1551.923 4        27.437    25297171.983 5 101861229.04005      1592.673 5        33.156
G17        22.000    22400964.064 6 117717844.61206     -2032.837 6        36.231                                    22400958.844 4  91728259.43604     -1584.049 4        25.564    22400960.207 5  91728182.50505     -1584.038 5        33.922
R07        23.000                                                                                                                                    23035356.872 5                      2095.850 5        30.257
S23        24.000    38091691.838 6 200173129.06506      -824.230 6        41.445
S36        25.000    38143266.419 6 200444133.95706      -828.012 6        36.669
R20        27.000    21119543.547 4 112935688.04904     -4603.088 4        27.832                                                                    21119544.272 5  87838862.39605     -3580.074 5        30.672
R06        29.000    19740792.261 5 105340644.43905       653.209 5        35.210
R14        30.000    23143774.500 5 123369326.17015      -561.325 5        32.551                                                                    23143793.161 4                      -436.718 4        28.351
C19        33.000                                                                                                                                    22863199.340 8 119054780.51708       954.693 8        48.427                                                                    22863194.045 8  96741642.20408       775.750 8        48.603
R21        34.000    19307596.009 8 103318960.86408      -812.698 8        48.373                                                                    19307594.908 7  80359095.03607      -632.123 7        45.159
R05        36.000    20561794.012 7 109914673.79307     -3678.670 7        46.883                                                                    20561792.532 7  85489519.16607     -2861.126 7        42.754
R22        37.000    22178871.128 7 118392289.19207      2922.177 7        45.740                                                                    22178868.315 6  92082931.17506      2272.702 6        38.724
C39        38.000                                                                                                                                    38900892.280 5                     -1200.576 5        33.287
C06        41.000                                                                                                                                    38214022.695 6 198990450.52306      -645.373 6        39.051    38214017.993 7 153872004.48007      -499.084 7        44.450    38214015.780 6 161696005.24106      -524.657 6        36.839
C29        43.000                                                                                                                                    22891888.624 7 119203935.88307     -3256.801 7        47.188                                                                    22891881.051 6  96863073.48206     -2646.417 6        40.508
C16        45.000                                                                                                                                    38667870.073 6 201353805.10806      -760.281 6        39.706    38667867.234 7 155699462.50707      -587.805 7        42.004    38667864.880 5 163616385.55505      -617.962 5        33.066
C09        46.000                                                                                                                                    38662000.880 6 201323187.59506      -143.909 6        41.042    38661998.005 7 155675857.70307      -111.255 7        47.513    38661993.667 6 163591541.00906      -116.849 6        41.230
C32        47.000                                                                                                                                    25421520.528 5 132376439.04805     -3651.906 5        33.431                                                                    25421502.418 5                     -2967.528 5        31.789
C44        48.000                                                                                                                                                                                                                                                                    26051671.204 5 110233130.84305      1701.660 5        30.498
C35        51.000                                                                                                                                    23056515.813 6 120061362.69906       155.593 6        38.201                                                                    23056513.545 7  97559669.82007       126.338 7        42.449
I09        54.000    37144985.911 7 145764901.88307      -770.392 7        42.950
C20        55.000                                                                                                                                    21894039.043 7 114007999.25307     -1650.122 7        47.384                                                                    21894033.125 7  92640916.99807     -1340.923 7        43.987
I01        56.000   333017765.419 5   3692444.08305     -2897.214 5        35.248
> 2025 01 01 01 45 40.0000000  0 38
G31         4.000    22183481.374 6 116574499.76506      -279.760 6        41.838                                    22183488.162 2  90837600.49202      -217.978 2        17.849    22183473.776 4                      -217.922 4        26.683
G02         5.000    22028761.387 5 115761988.56405     -3356.503 5        35.538                                    22028754.972 2  90203981.64602     -2615.469 2        17.170
E34         6.000    26434154.892 6 138912424.66206      1826.034 6        37.206                                                                    26434153.807 5 103733350.95305      1363.853 5        34.924    26434153.613 6 106439406.66806      1399.194 6        40.122
E04         7.000    24390034.730 7 128170583.54807     -2483.103 7        42.574                                                                    24390034.046 7  95711719.94507     -1854.331 7        46.867    24390032.585 7  98208547.35807     -1902.692 7        46.276
G03         8.000    19890134.793 7 104523365.86407     -1182.832 7        47.666                                    19890134.907 7  81446813.45807      -921.690 7        44.784    19890134.168 7  81446803.46507      -921.651 7        43.702
G09         9.000    22583909.150 5 118679288.97905      2473.535 5        33.006                                    22583907.652 3  92477328.34603      1927.439 3        23.467    22583921.162 5  92477349.34505      1927.601 5        34.676
G04        11.000    20765291.563 7 109122347.60107      1228.114 7        42.847                                    20765287.298 4  85030346.93904       956.971 4        27.904    20765285.174 7  85030373.96907       956.872 7        42.777
E09        12.000    23622615.689 7 124137779.61607       212.214 7        46.751                                                                    23622615.170 8  92700282.05008       158.498 8        48.526    23622614.989 7  95118527.25907       162.678 7        46.618
E10        13.000    26835707.371 5                     -3668.523 5        32.569                                                                    26835699.888 5                     -2739.607 5        31.834    26835703.604 4 108056276.65604     -2810.952 4        26.862
E06        14.000    23341711.624 7 122661588.66107     -1122.342 7        46.984                                                                    23341710.687 7  91597902.37707      -838.083 7        46.241    23341709.685 7  93987415.12807      -859.955 7        46.852
E11        15.000    24466061.459 6 128570073.97206     -2900.395 6        38.520                                                                    24466058.757 7  96010080.50707     -2165.913 7        42.770    24466059.246 7  98514657.75807     -2222.342 7        44.596
G19        16.000    22290356.893 7 117136811.66907      -111.637 7        44.713                                    22290346.538 3  91275290.41103       -86.976 3        20.524
G28        17.000                                                                                                                                                                    23307377.472 4                     -1640.052 4        28.853
G06        19.000    24041922.763 6 126341213.38206      2582.514 6        39.664                                    24041910.760 3  98447592.68203      2012.350 3        21.071    24041908.390 3                      2012.226 3        23.238
E36        20.000    23395181.965 6 122942647.87106      -308.708 6        37.512                                                                    23395181.889 7  91807703.33007      -230.664 7        43.710    23395180.417 7  94202717.91307      -236.602 7        42.172
E05        21.000    25295190.528 5 132927145.62305      2077.768 5        30.355                                                                    25295214.020 4  99263771.99404      1551.704 4        28.967    25295195.319 5 101853267.79405      1592.187 5        33.431
G17        22.000    22402900.160 6 117728016.41806     -2035.789 6        37.773                                    22402894.507 4  91736185.53004     -1586.333 4        24.677    22402897.016 6  91736108.56806     -1586.124 6        36.178
R07        23.000    23032856.284 4                      2693.370 4        24.812                                                                    23032844.438 5                      2094.825 5        31.766
S23        24.000    38092476.165 6 200177251.60506      -824.395 6        41.533
S36        25.000    38144053.496 6 200448275.97106      -828.527 6        36.779
R20        27.000    21123849.242 4 112958707.96104     -4604.687 4        27.018                                                                    21123849.978 5  87856766.82805     -3581.861 5        30.875
R06        29.000    19740182.224 5 105337385.39805       650.605 5        34.662
R14        30.000    23144302.229 5 123372143.68115      -565.739 5        32.228
C19        33.000                                                                                                                                    22862283.508 7 119050011.88707       953.100 7        47.041                                                                    22862278.214 8  96737767.28308       774.449 8        48.821
R21        34.000    19308358.825 8 103323036.70808      -817.454 8        49.768                                                                    19308357.027 7  80362265.13407      -635.771 7        46.202
R05        36.000    20565235.207 7 109933071.79907     -3680.253 7        45.666                                                                    20565234.306 7  85503828.73807     -2862.494 7        42.299
R22        37.000    22176135.715 7 118377683.96407      2920.194 7        46.171                                                                    22176131.811 6  92071571.54806      2271.261 6        37.134
C39        38.000                                                                                                                                    38902046.903 5                     -1201.445 5        33.868
C06        41.000                                                                                                                                    38214643.035 6 198993680.86006      -646.340 6        38.853    38214638.386 7 153874502.39307      -499.838 7        44.674    38214635.841 6 161698630.13606      -525.268 6        36.575
C29        43.000                                                                                                                                    22895017.114 7 119220225.95707     -3258.881 7        46.555                                                                    22895009.913 6  96876310.46806     -2648.170 6        40.889
C16        45.000                                                                                                                                    38668599.959 6 201357609.30906      -761.136 6        39.405    38668597.620 7 155702404.16507      -588.648 7        42.161    38668595.354 5 163619476.79005      -618.549 5        33.341
C09        46.000                                                                                                                                    38662139.390 6 201323910.14306      -144.931 6        40.636    38662136.689 7 155676416.41807      -112.000 7        47.564    38662132.535 6 163592128.13006      -117.707 6        41.282
C32        47.000                                                                                                                                    25425027.532 5 132394699.87105     -3652.158 5        33.114                                                                    25425009.507 5                     -2967.768 5        31.660
C44        48.000                                                                                                                                                                                                                                                                    26049660.611 5 110224625.40205      1700.333 5        30.106
C35        51.000                                                                                                                                    23056368.427 5 120060592.73005       152.794 5        34.562                                                                    23056365.715 7  97559044.12407       124.083 7        42.692
I09        54.000    37145967.538 7 145768754.63607      -770.506 7        42.999
C20        55.000                                                                                                                                    21895624.055 7 114016254.94307     -1651.909 7        47.805                                                                    21895618.491 7  92647625.40407     -1342.351 7        43.998
I01        56.000   333021457.652 5   3706931.86005     -2897.479 5        35.686
> 2025 01 01 01 45 45.0000000  0 38
G31         4.000    22183748.530 6 116575907.68206      -283.241 6        40.379                                    22183754.389 3  90838697.51803      -220.700 3        19.164    22183744.028 5                      -220.746 5        30.800
G02         5.000    22031957.979 6 115778776.30306     -3358.424 6        37.172                                    22031949.807 3  90217063.00603     -2616.929 3        20.024
E34         6.000    26432418.430 6 138903295.87906      1825.482 6        36.665                                                                    26432417.531 6 103726534.02006      1363.193 6        36.038    26432416.834 6 106432411.88606      1398.829 6        40.062
E04         7.000    24392397.900 7 128183003.11207     -2484.436 7        42.887                                                                    24392397.196 7  95720994.28107     -1855.305 7        46.867    24392395.930 7  98218063.64307     -1903.717 7        46.380
G03         8.000    19891261.156 7 104529285.18807     -1184.768 7        46.797                                    19891261.268 7  81451425.92907      -923.199 7        44.996    19891260.982 7  81451415.93007      -923.159 7        43.494
G09         9.000    22581552.061 4 118666925.11804      2472.333 4        27.030                                    22581555.918 3  92467694.15203      1926.491 3        20.762    22581568.742 5  92467715.12505      1926.507 5        34.905
G04        11.000    20764123.913 7 109116213.78407      1225.643 7        44.128                                    20764119.538 4  85025567.34604       955.031 4        28.133    20764117.874 7  85025594.37007       955.140 7        42.159
E09        12.000    23622414.684 7 124136723.60307       210.375 7        47.036                                                                    23622414.121 8  92699493.47108       157.122 8        48.610    23622413.995 7  95117718.11207       161.136 7        46.904
E10        13.000    26839204.287 5                     -3669.387 5        33.880                                                                    26839190.325 5                     -2740.173 5        32.371    26839194.357 4 108070333.05904     -2811.392 4        26.012
E06        14.000    23342780.610 7 122667205.73707     -1124.202 7        46.619                                                                    23342779.530 7  91602096.95407      -839.543 7        46.371    23342778.587 7  93991719.13207      -861.513 7        47.112
E11        15.000    24468821.332 6 128584580.17006     -2901.887 6        38.303                                                                    24468819.173 7  96020913.04207     -2166.921 7        42.555    24468819.773 7  98525772.89907     -2223.493 7        44.570
G19        16.000    22290464.782 7 117137378.95307      -115.047 7        43.943                                    22290453.594 3  91275732.44103       -89.660 3        20.143
G28        17.000    23309370.522 5 122491456.13305     -2107.363 5        32.299                                                                                                    23309380.415 4                     -1642.503 4        28.919
G06        19.000    24039465.182 6 126328303.19206      2581.913 6        39.616                                    24039453.491 3  98437532.81403      2011.884 3        20.976    24039457.408 4                      2011.844 4        26.886
E36        20.000    23395476.361 6 122944197.18406      -310.649 6        38.697                                                                    23395476.771 7  91808860.27707      -231.967 7        43.903    23395475.224 7  94203905.03607      -237.997 7        42.110
E05        21.000    25293214.453 5 132916759.01805      2076.909 5        30.226                                                                    25293233.872 5  99256015.68605      1550.925 5        30.370    25293218.863 5 101845309.23505      1591.323 5        33.790
G17        22.000    22404838.261 5 117738201.91705     -2038.348 5        35.748                                    22404832.736 4  91744122.28604     -1588.342 4        24.376    22404833.862 6  91744045.29906     -1588.419 6        36.522
R07        23.000    23030347.623 4                      2692.205 4        28.777                                                                    23030330.634 5                      2093.862 5        31.630
S23        24.000    38093262.848 6 200181374.10506      -824.402 6        41.890
S36        25.000    38144845.304 6 200452418.38406      -828.553 6        36.915
R20        27.000    21128156.383 4 112981740.29604     -4608.071 4        26.599
R06        29.000    19739571.709 5 105334140.04205       647.876 5        33.515
R14        30.000    23144837.297 4 123374981.93504      -569.703 4        29.014
C19        33.000                                                                                                                                    22861369.253 7 119045250.45207       951.671 7        46.000                                                                    22861363.749 8  96733898.23408       773.218 8        48.977
R21        34.000    19309125.697 8 103327135.18208      -821.796 8        49.987                                                                    19309123.140 7  80365452.83807      -639.207 7        46.658
R05        36.000    20568677.547 7 109951477.24307     -3681.682 7        44.551                                                                    20568676.837 6  85518144.09806     -2863.557 6        41.356
R22        37.000    22173401.618 7 118363087.97907      2918.324 7        46.466                                                                    22173397.214 5  92060219.10205      2269.885 5        35.876
C39        38.000                                                                                                                                    38903204.622 5 202579175.02115     -1202.285 5        35.005
C06        41.000                                                                                                                                    38215263.884 6 198996915.69006      -647.226 6        38.592    38215259.401 7 153877003.78207      -500.446 7        44.928    38215257.046 6 161701258.73906      -526.101 6        36.291
C29        43.000                                                                                                                                    22898146.734 7 119236525.82307     -3260.874 7        45.254                                                                    22898140.577 6  96889555.44206     -2649.769 6        41.564
C16        45.000                                                                                                                                    38669331.240 6 201361417.88106      -762.043 6        39.462    38669329.435 7 155705349.18507      -589.129 7        42.445    38669326.849 5 163622571.56205      -619.490 5        33.557
C09        46.000                                                                                                                                    38662278.760 6 201324636.92106      -145.603 6        39.943    38662276.501 7 155676978.40407      -112.592 7        47.521    38662272.136 6 163592718.70006      -118.387 6        41.464
C32        47.000                                                                                                                                    25428532.468 5 132412961.80605     -3652.428 5        33.257                                                                    25428517.290 5                     -2967.952 5        31.517
C44        48.000                                                                                                                                                                                                                                                                    26047650.083 4 110216124.81404      1699.672 4        28.948
C35        51.000                                                                                                                                    23056223.612 5 120059836.26205       150.255 5        31.087                                                                    23056220.507 7  97558429.40807       121.834 7        42.883
I09        54.000    37146949.511 7 145772608.10807      -770.696 7        43.300
C20        55.000                                                                                                                                    21897210.635 7 114024518.59407     -1653.440 7        47.933                                                                    21897205.492 7  92654340.30207     -1343.634 7        44.078
I01        56.000   333025149.755 5   3721420.21605     -2897.536 5        35.771
> 2025 01 01 01 45 50.0000000  0 38
G31         4.000    22184019.746 6 116577333.52306      -286.684 6        39.712                                    22184023.366 3  90839808.55403      -223.409 3        21.310    22184018.867 5                      -223.404 5        31.917
G02         5.000    22035154.388 6 115795573.59906     -3360.427 6        38.441                                    22035146.485 3  90230151.79803     -2618.511 3        21.167
E34         6.000    26430683.298 6 138894170.30006      1825.084 6        37.860                                                                    26430681.347 6 103719719.46306      1362.714 6        37.134    26430680.516 6 106425419.57006      1398.324 6        40.212
E04         7.000    24394763.240 7 128195430.48107     -2486.114 7        42.980                                                                    24394761.801 7  95730274.45607     -1856.544 7        46.695    24394760.865 7  98227585.91807     -1904.948 7        46.532
G03         8.000    19892389.911 7 104535214.87707     -1186.859 7        46.441                                    19892389.637 7  81456046.48207      -924.828 7        45.267    19892389.568 7  81456036.47007      -924.702 7        43.482
G09         9.000    22579193.781 3                      2470.567 3        19.791                                                                                                    22579216.294 5  92458086.45205      1925.226 5        34.548
G04        11.000    20762958.456 7 109110092.45407      1223.086 7        45.377                                    20762953.961 4  85020797.48204       953.052 4        28.199    20762952.734 6  85020824.51506       953.055 6        41.015
E09        12.000    23622215.660 7 124135677.71007       208.289 7        47.488                                                                    23622215.059 8  92698712.45108       155.535 8        48.558    23622215.010 7  95116916.71707       159.571 7        47.229
E10        13.000    26842691.853 5 141059320.36315     -3669.981 5        34.114                                                                    26842682.219 5                     -2740.598 5        33.012    26842685.287 4 108084392.77604     -2812.780 4        25.353
E06        14.000    23343851.441 7 122672833.05007     -1126.390 7        46.441                                                                    23343850.445 7  91606299.17107      -841.147 7        46.503    23343849.398 7  93996030.96607      -863.073 7        47.340
E11        15.000    24471583.074 6 128599094.23606     -2903.338 6        38.498                                                                    24471581.129 7  96031751.46607     -2168.126 7        42.434    24471581.635 7  98536894.07207     -2224.764 7        44.614
G19        16.000    22290574.775 7 117137964.24407      -118.745 7        43.987                                    22290563.891 3  91276188.50203       -92.530 3        20.714
G28        17.000    23311372.543 5 122502002.57405     -2111.258 5        31.479                                                                                                    23311387.190 5                     -1644.612 5        30.468
G06        19.000    24037009.317 6 126315396.89806      2581.062 6        39.435                                    24036996.983 3  98427475.98603      2011.213 3        20.595    24037004.652 5                      2011.407 5        30.845
E36        20.000    23395772.952 6 122945756.21406      -312.691 6        39.444                                                                    23395773.396 7  91810024.49507      -233.532 7        43.975    23395771.540 7  94205099.62207      -239.627 7        42.013
E05        21.000    25291238.188 4 132906376.28604      2076.189 4        28.540                                                                    25291253.717 5  99248262.25305      1550.520 5        32.156    25291243.066 5 101837353.64105      1590.891 5        34.471
G17        22.000    22406777.169 5 117748401.37705     -2041.115 5        35.019                                    22406773.791 4  91752069.93104     -1590.471 4        24.586    22406774.282 6  91751992.95006     -1590.562 6        36.420
R07        23.000                                                                                                                                    23027813.317 4                      2092.975 4        29.299
S23        24.000    38094045.843 6 200185496.92206      -824.511 6        41.657
S36        25.000    38145634.300 6 200456560.77806      -828.423 6        36.684
R20        27.000    21132466.286 4 113004784.96304     -4609.756 4        29.289                                                                    21132476.655 4  87892604.17004     -3585.540 4        28.152
R06        29.000    19738963.486 5 105330908.56705       645.105 5        33.204
R14        30.000                                                                                                                                    23145431.644 4                      -446.482 4        28.209
C19        33.000                                                                                                                                    22860456.466 7 119040496.54007       950.153 7        45.527                                                                    22860450.604 8  96730035.29508       772.066 8        49.113
R21        34.000    19309895.245 8 103331256.61908      -826.530 8        49.248                                                                    19309893.018 7  80368658.40907      -642.876 7        46.415
R05        36.000    20572122.996 7 109969890.74307     -3683.431 7        45.246                                                                    20572121.316 6  85532465.71306     -2864.937 6        40.510
R22        37.000    22170669.074 7 118348501.61207      2916.445 7        46.340                                                                    22170666.247 5  92048874.18505      2268.265 5        35.862
C39        38.000                                                                                                                                    38904359.764 5 202585188.89805     -1203.316 5        35.733
C06        41.000                                                                                                                                    38215886.726 6 199000155.38806      -648.284 6        38.691    38215881.655 7 153879508.93107      -501.365 7        44.897    38215879.024 6 161703891.26806      -526.967 6        36.352
C29        43.000                                                                                                                                    22901277.112 7 119252835.76107     -3262.885 7        44.245                                                                    22901272.967 7  96902808.59507     -2651.442 7        42.133
C16        45.000                                                                                                                                    38670062.722 6 201365231.12406      -763.183 6        38.904    38670062.180 7 155708297.84207      -590.068 7        42.538    38670059.117 5 163625670.13805      -620.143 5        33.647
C09        46.000                                                                                                                                    38662419.179 6 201325368.23006      -146.497 6        38.739    38662417.057 7 155677543.90407      -113.387 7        47.348    38662412.597 6 163593312.95406      -119.140 6        41.814
C32        47.000                                                                                                                                    25432036.397 5 132431225.04405     -3652.549 5        34.381                                                                    25432024.875 5                     -2968.068 5        31.577
C44        48.000                                                                                                                                                                                                                                                                    26045641.589 4 110207629.42304      1698.275 4        29.374
C35        51.000                                                                                                                                    23056082.268 4 120059093.62704       147.151 4        28.739                                                                    23056077.875 7  97557825.88707       119.624 7        43.149
I09        54.000    37147932.056 7 145776462.54807      -770.965 7        43.388
C20        55.000                                                                                                                                    21898799.005 8 114032790.53308     -1655.106 8        48.024                                                                    21898794.170 7  92661061.93807     -1344.886 7        44.540
I01        56.000   333028842.330 5   3735909.36505     -2897.709 5        35.752
> 2025 01 01 01 45 55.0000000  0 39
G21         3.000    23677438.404 3                     -3914.168 3        21.976
G31         4.000    22184296.047 6 116578777.18106      -290.305 6        40.453                                    22184296.407 3  90840933.50903      -226.218 3        22.743    22184293.689 5                      -226.345 5        32.407
G02         5.000    22038353.351 6 115812380.29706     -3362.124 6        40.331                                    22038345.399 3  90243247.93503     -2619.838 3        22.857
E34         6.000    26428948.469 6 138885047.78906      1824.249 6        39.808                                                                    26428945.550 6 103712907.20906      1362.395 6        38.240    26428945.124 6 106418429.58506      1398.098 6        39.988
E04         7.000    24397129.633 7 128207865.51307     -2487.708 7        42.902                                                                    24397127.837 7  95739560.34807     -1857.738 7        46.660    24397127.258 7  98237114.06007     -1906.106 7        46.430
G03         8.000    19893520.602 7 104541154.79607     -1188.868 7        46.822                                    19893519.983 7  81460674.99907      -926.395 7        45.389    19893519.830 7  81460664.98707      -926.378 7        43.071
G09         9.000                                                                                                                                                                    22576865.684 5  92448463.15905      1924.087 5        34.029
G04        11.000    20761795.630 7 109103983.44007      1220.779 7        45.761                                    20761790.753 4  85016037.22304       951.256 4        27.748    20761789.512 6  85016064.25006       951.261 6        39.105
E09        12.000    23622018.719 8 124134641.78908       206.325 8        48.011                                                                    23622017.921 8  92697938.87608       154.058 8        48.516    23622017.945 7  95116122.95807       158.101 7        47.435
E10        13.000    26846181.605 5 141077673.67205     -3671.162 5        33.647                                                                    26846174.941 5                     -2741.354 5        33.144    26846177.999 4 108098455.74104     -2812.758 4        24.286
E06        14.000    23344924.290 7 122678470.43607     -1128.322 7        46.624                                                                    23344923.231 7  91610508.90807      -842.579 7        46.564    23344922.257 7  94000350.51707      -864.543 7        47.433
E11        15.000    24474347.135 6 128613616.05006     -2904.843 6        38.838                                                                    24474344.352 7  96042595.67507     -2169.299 7        42.332    24474345.000 7  98548021.18007     -2225.955 7        44.235
G19        16.000    22290690.452 7 117138567.36907      -122.193 7        43.122                                    22290678.011 3  91276658.47503       -95.227 3        20.167
G28        17.000    23313378.463 4 122512564.81104     -2114.215 4        28.578                                                                                                    23313398.181 5                     -1647.127 5        31.525
G06        19.000    24034553.033 6 126302494.42906      2580.322 6        39.763                                    24034541.575 3  98417422.14203      2010.613 3        20.738    24034555.097 5                      2010.451 5        33.072
E36        20.000    23396071.132 6 122947324.82006      -314.563 6        40.040                                                                    23396071.775 7  91811195.86307      -234.860 7        43.905    23396070.092 6  94206301.54706      -241.023 6        41.933
E05        21.000    25289262.980 4 132895997.24404      2075.444 4        28.114                                                                    25289275.659 5  99240511.62005      1549.968 5        33.742    25289267.775 5 101829400.87005      1590.354 5        34.033
G17        22.000    22408720.981 5 117758614.64905     -2043.885 5        35.571                                    22408717.691 4  91760028.33804     -1592.628 4        24.782    22408718.404 6  91759951.34606     -1592.650 6        36.601
R07        23.000                                                                                                                                    23025295.239 4                      2092.225 4        26.766
S23        24.000    38094829.124 6 200189619.70306      -824.396 6        41.509
S36        25.000    38146422.092 6 200460702.88406      -828.298 6        36.476
R20        27.000    21136776.911 5 113027841.91505     -4612.816 5        30.641                                                                    21136782.019 5  87910537.41905     -3587.054 5        31.230
R06        29.000    19738363.651 5 105327690.87005       642.509 5        32.228
R14        30.000    23145912.155 5                      -578.287 5        30.000                                                                    23145964.075 4                      -449.802 4        28.455
C19        33.000                                                                                                                                    22859544.722 7 119035750.01407       948.723 7        44.757                                                                    22859538.903 8  96726178.32808       770.867 8        49.398
R21        34.000    19310668.019 8 103335400.81508      -831.001 8        48.659                                                                    19310667.200 7  80371881.68107      -646.287 7        46.311
R05        36.000    20575569.915 7 109988311.96307     -3684.810 7        45.588                                                                    20575567.967 6  85546793.32406     -2865.938 6        38.766
R22        37.000    22167938.133 7 118333924.73107      2914.567 7        46.693                                                                    22167934.928 5  92037536.62305      2266.866 5        35.281
C39        38.000                                                                                                                                    38905516.459 5 202591206.99105     -1203.818 5        35.643
C06        41.000                                                                                                                                    38216509.635 6 199003399.75406      -649.213 6        38.513    38216504.979 7 153882017.67007      -501.951 7        45.053    38216501.710 5 161706527.53305      -527.338 5        35.971
C29        43.000                                                                                                                                    22904409.775 7 119269155.62407     -3264.835 7        43.266                                                                    22904407.354 7  96916069.78807     -2652.896 7        42.423
C16        45.000                                                                                                                                    38670794.487 6 201369048.89506      -763.753 6        39.240    38670795.410 7 155711249.98107      -590.668 7        42.482    38670792.347 5 163628772.34705      -620.397 5        33.868
C09        46.000                                                                                                                                    38662560.261 6 201326103.90506      -147.235 6        38.021    38662558.246 7 155678112.76307      -113.948 7        47.533    38662554.012 6 163593910.72406      -119.743 6        41.850
C32        47.000                                                                                                                                    25435543.191 5 132449489.51505     -3652.648 5        34.648                                                                    25435534.187 5                     -2968.209 5        31.434
C44        48.000                                                                                                                                                                                                                                                                    26043634.475 4 110199138.83704      1698.169 4        29.280
C35        51.000                                                                                                                                    23055933.618 3                       141.755 3        21.690                                                                    23055937.788 7  97557233.41607       117.578 7        43.141
I09        54.000    37148914.635 7 145780317.81707      -771.030 7        43.200
C20        55.000                                                                                                                                    21900389.117 8 114041070.60508     -1656.697 8        48.421                                                                    21900384.314 7  92667790.14607     -1346.135 7        44.656
I01        56.000   333032534.374 5   3750399.20005     -2897.959 5        35.857
> 2025 01 01 01 46  0.0000000  0 39
G21         3.000    23681166.553 3                     -3914.603 3        23.676
G31         4.000    22184574.651 6 116580238.35906      -294.323 6        41.132                                    22184573.156 3  90842072.10703      -229.353 3        22.914    22184571.108 5                      -229.257 5        32.186
G02         5.000    22041553.337 7 115829196.15907     -3364.296 7        42.045                                    22041545.856 3  90256351.19103     -2621.550 3        23.657
E34         6.000    26427212.958 6 138875928.06506      1823.314 6        40.639                                                                    26427210.322 6 103706097.02706      1361.735 6        39.465    26427209.963 6 106411441.74306      1397.249 6        39.886
E04         7.000    24399497.422 7 128220307.87507     -2489.606 7        42.497                                                                    24399495.406 7  95748851.71907     -1859.008 7        46.525    24399494.982 7  98246647.82907     -1907.596 7        46.601
G03         8.000    19894652.607 7 104547104.64907     -1191.256 7        47.017                                    19894652.243 7  81465311.25807      -928.250 7        45.366    19894652.326 7  81465301.24007      -928.233 7        42.707
G09         9.000    22574506.300 3                      2467.097 3        23.467                                                                                                    22574515.216 5  92438845.09605      1923.005 5        33.090
G04        11.000    20760634.700 7 109097886.48007      1217.984 7        46.133                                    20760629.674 4  85011286.36004       949.080 4        26.766    20760628.576 6  85011313.40206       948.919 6        36.609
E09        12.000    23621823.563 7 124133615.55407       204.002 7        47.763                                                                    23621822.635 8  92697172.53508       152.370 8        48.614    23621822.643 7  95115336.62607       156.325 7        47.731
E10        13.000    26849671.973 5 141096030.86905     -3672.345 5        32.251                                                                    26849668.673 5                     -2741.995 5        33.826    26849672.316 4 108112521.64504     -2813.714 4        24.857
E06        14.000    23345998.886 7 122684117.60007     -1130.645 7        46.491                                                                    23345997.953 7  91614725.95407      -844.326 7        46.671    23345997.113 7  94004677.57107      -866.380 7        47.744
E11        15.000    24477112.014 6 128628145.27506     -2906.531 6        38.733                                                                    24477108.969 7  96053445.42407     -2170.612 7        42.265    24477109.762 7  98559153.96207     -2227.300 7        44.063
G19        16.000    22290808.416 6 117139188.02706      -126.127 6        41.311                                    22290795.659 3  91277142.10903       -98.289 3        20.238
G28        17.000    23315392.006 4 122523142.49004     -2117.239 4        28.256                                                                                                    23315414.427 5                     -1649.745 5        30.762
G06        19.000    24032098.400 6 126289595.43906      2579.413 6        39.925                                    24032087.168 3  98407371.02403      2009.929 3        20.833    24032101.656 5  98407444.08915      2009.966 5        34.300
E36        20.000    23396371.928 6 122948902.74006      -316.727 6        39.429                                                                    23396371.944 7  91812374.18507      -236.594 7        43.839    23396370.225 6  94207510.60506      -242.678 6        41.855
E05        21.000    25287287.872 4 132885621.66904      2074.210 4        28.559                                                                    25287299.235 5  99232763.55105      1549.345 5        34.133    25287293.069 5 101821450.70605      1589.580 5        34.095
G17        22.000    22410666.615 6 117768841.45406     -2046.943 6        37.448                                    22410664.058 4  91767997.28704     -1595.021 4        25.624    22410664.266 6  91767920.28006     -1595.079 6        37.403
R07        23.000    23022832.927 4                      2688.548 4        29.801                                                                    23022784.633 4                      2090.765 4        26.611
S23        24.000    38095613.880 6 200193742.37706      -824.778 6        41.333
S36        25.000    38147207.653 6 200464844.21006      -828.558 6        36.405
R20        27.000    21141092.261 5 113050910.90905     -4615.149 5        31.857                                                                    21141097.131 5  87928479.95405     -3589.660 5        32.988
R06        29.000    19737762.042 5 105324486.48905       639.172 5        31.245
R14        30.000    23146460.654 5                      -582.475 5        34.352
C19        33.000                                                                                                                                    22858633.598 7 119031010.57407       946.934 7        43.774                                                                    22858628.628 8  96722327.16008       769.340 8        49.094
R21        34.000    19311447.566 8 103339567.54108      -835.793 8        49.461                                                                    19311446.165 7  80375122.47407      -650.076 7        46.561
R05        36.000    20579017.250 7 110006740.60607     -3686.695 7        45.574                                                                    20579016.147 6  85561126.68606     -2867.487 6        36.238
R22        37.000    22165209.599 7 118319357.06707      2912.332 7        46.548                                                                    22165205.373 5  92026206.21705      2265.068 5        34.800
C39        38.000                                                                                                                                    38906673.086 6 202597229.04106     -1205.015 6        36.197
C06        41.000                                                                                                                                    38217133.629 6 199006648.50506      -650.327 6        38.261    38217128.814 7 153884529.82607      -502.970 7        45.314    38217125.569 5 161709167.45105      -528.703 5        35.619
C29        43.000                                                                                                                                    22907545.252 7 119285485.11207     -3267.122 7        42.104                                                                    22907543.211 7  96929338.86607     -2654.968 7        42.442
C16        45.000                                                                                                                                    38671528.457 6 201372870.90006      -765.161 6        38.643    38671529.304 7 155714205.38807      -591.616 7        42.597    38671526.311 5 163631878.09705      -622.108 5        33.659
C09        46.000                                                                                                                                    38662702.455 6 201326843.68306      -148.652 6        37.550    38662700.120 7 155678684.79607      -114.951 7        47.425    38662696.003 6 163594511.86006      -120.948 6        41.709
C32        47.000                                                                                                                                    25439052.337 5 132467754.94505     -3653.460 5        34.581                                                                    25439042.711 5                     -2968.619 5        30.906
C44        48.000                                                                                                                                    26041629.128 5                      2087.919 5        32.844                                                                    26041628.807 5 110190653.21505      1696.376 5        30.664
C35        51.000                                                                                                                                    23055786.757 4                       141.763 4        24.211                                                                    23055800.115 7  97556651.85407       114.887 7        42.415
I09        54.000    37149896.974 7 145784173.72907      -771.400 7        42.990
C20        55.000                                                                                                                                    21901980.661 8 114049358.51108     -1658.614 8        48.817                                                                    21901976.114 7  92674524.77207     -1347.917 7        44.460
I01        56.000   333036227.757 6   3764889.53906     -2898.430 6        36.287
> 2025 01 01 01 46  5.0000000  0 39
G21         3.000    23684888.686 4                     -3916.344 4        26.204
G31         4.000    22184855.503 6 116581717.13806      -297.330 6        40.632                                    22184853.066 3  90843224.41703      -231.693 3        22.609    22184849.292 5                      -231.802 5        30.121
G02         5.000    22044754.646 6 115846021.20806     -3365.761 6        41.309                                    22044747.815 4  90269461.62204     -2622.684 4        24.060
E34         6.000    26425477.636 6 138866811.17406      1823.292 6        41.769                                                                    26425475.731 6 103699288.98106      1361.375 6        40.133    26425475.188 6 106404456.09706      1396.993 6        39.847
E04         7.000    24401865.819 6 128232757.62506     -2490.562 6        41.714                                                                    24401864.731 7  95758148.61707     -1859.856 7        46.351    24401864.150 7  98256187.25507     -1908.296 7        46.752
G03         8.000    19895787.070 7 104553064.47407     -1192.751 7        46.470                                    19895786.371 7  81469955.28607      -929.416 7        45.052    19895786.533 7  81469945.25507      -929.433 7        42.571
G09         9.000    22572155.308 4                      2466.506 4        27.856
G04        11.000    20759477.007 7 109091801.63407      1215.917 7        46.172                                    20759470.607 4  85006544.94204       947.465 4        26.012    20759471.772 5  85006571.96905       947.156 5        33.647
E09        12.000    23621630.282 7 124132599.06807       202.431 7        47.934                                                                    23621629.256 8  92696413.47308       151.183 8        48.387    23621629.231 8  95114557.75308       155.123 8        48.069
E10        13.000    26853166.294 5 141114392.01805     -3672.571 5        31.291                                                                    26853164.283 5 105377577.41215     -2742.697 5        33.898
E06        14.000    23347075.079 7 122689774.59507     -1132.297 7        46.246                                                                    23347074.482 7  91618950.33207      -845.457 7        46.802    23347073.748 8  94009012.14808      -867.546 8        48.113
E11        15.000    24479878.209 6 128642682.02606     -2907.891 6        38.381                                                                    24479875.189 7  96064300.78107     -2171.539 7        42.294    24479876.005 7  98570292.50207     -2228.306 7        43.879
G19        16.000    22290929.353 6 117139826.29406      -129.319 6        40.508                                    22290917.422 3  91277639.45303      -100.779 3        19.940
G28        17.000    23317408.034 4 122533735.62404     -2120.643 4        24.647                                                                                                    23317428.893 4                     -1652.319 4        26.623
G06        19.000    24029644.836 6 126276700.06006      2578.940 6        39.862                                    24029634.009 3  98397322.69103      2009.572 3        20.952    24029642.139 5  98397395.68405      2009.426 5        35.019
E36        20.000    23396673.606 6 122950490.02206      -318.235 6        39.171                                                                    23396673.838 7  91813559.48607      -237.679 7        43.513    23396672.399 7  94208726.82007      -243.825 7        42.049
E05        21.000    25285314.247 4 132875249.43804      2074.708 4        28.588                                                                    25285323.911 5  99225018.12005      1549.124 5        35.043    25285319.008 5 101813503.24805      1589.386 5        33.731
G17        22.000    22412616.093 6 117779081.86606     -2049.293 6        37.947                                    22412613.042 4  91775976.84004     -1596.863 4        26.551    22412613.538 6  91775899.83906     -1596.983 6        38.186
R07        23.000    23020319.218 4                      2687.310 4        24.180                                                                    23020276.509 4                      2090.307 4        27.066
S23        24.000    38096398.234 6 200197865.03806      -824.484 6        41.330
S36        25.000    38147991.945 6 200468985.43706      -827.968 6        36.295
R20        27.000    21145418.990 5 113073991.92205     -4617.177 5        32.695                                                                    21145413.848 5  87946431.86705     -3591.185 5        32.461
R06        29.000    19737163.859 5 105321295.64805       637.168 5        31.192
R14        30.000    23147010.249 5 123386581.05015      -586.298 5        34.524
C19        33.000                                                                                                                                    22857724.267 7 119026278.28707       945.905 7        43.264                                                                    22857719.660 8  96718481.80808       768.479 8        48.867
R21        34.000    19312232.170 8 103343756.80508      -839.922 8        49.946                                                                    19312229.160 7  80378380.77707      -653.285 7        46.568
R05        36.000    20582465.239 7 110025176.57907     -3687.764 7        45.919                                                                    20582466.153 5  85575465.68105     -2867.856 5        30.294
R22        37.000    22162482.856 7 118304798.66707      2910.910 7        46.553                                                                    22162477.667 5  92014883.02705      2264.037 5        35.152
C39        38.000                                                                                                                                    38907830.341 6 202603255.16606     -1205.612 6        36.370
C06        41.000                                                                                                                                    38217757.848 6 199009901.71506      -650.943 6        38.165    38217753.584 7 153887045.41707      -503.473 7        45.327    38217750.532 5 161711810.96305      -529.122 5        35.781
C29        43.000                                                                                                                                    22910682.710 6 119301824.31006     -3268.720 6        41.337                                                                    22910680.938 7  96942615.82207     -2656.260 7        42.711
C16        45.000                                                                                                                                    38672263.131 6 201376697.19006      -765.529 6        38.664    38672264.017 7 155717164.13507      -591.991 7        42.732    38672261.243 5 163634987.26705      -622.101 5        33.892
C09        46.000                                                                                                                                    38662845.069 6 201327587.59306      -148.908 6        37.705    38662843.000 7 155679260.05807      -115.253 7        47.253    38662838.845 6 163595116.38506      -121.201 6        41.521
C32        47.000                                                                                                                                    25442561.572 5 132486021.41505     -3653.592 5        34.643                                                                    25442550.627 5                     -2968.679 5        30.528
C44        48.000                                                                                                                                    26039626.449 5                      2087.212 5        33.868                                                                    26039624.031 5 110182172.31705      1695.381 5        30.226
C35        51.000                                                                                                                                                                                                                                                                    23055664.835 7  97556081.23407       112.950 7        42.078
I09        54.000    37150879.252 7 145788030.32507      -771.332 7        42.961
C20        55.000                                                                                                                                    21903573.788 8 114057654.34608     -1659.815 8        49.127                                                                    21903569.280 7  92681265.83107     -1348.738 7        44.424
I01        56.000   333039920.725 6   3779380.37606     -2898.149 6        36.658
> 2025 01 01 01 46 10.0000000  0 38
G31         4.000    22185139.844 6 116583213.71806      -301.095 6        39.523                                    22185135.995 3  90844390.58203      -234.609 3        21.548    22185133.942 4                      -234.614 4        29.005
G02         5.000    22047958.537 6 115862855.57306     -3367.955 6        40.105                                    22047951.576 4  90282579.29004     -2624.374 4        24.030
E34         6.000    26423742.725 7 138857697.31907      1822.378 7        42.254                                                                    26423741.555 6 103692483.17706      1360.845 6        41.099    26423741.391 6 106397472.77306      1396.262 6        39.739
E04         7.000    24404235.878 6 128245214.97706     -2492.394 6        40.672                                                                    24404235.461 7  95767451.18307     -1861.088 7        46.409    24404234.726 7  98265732.51407     -1909.685 7        46.833
G03         8.000    19896922.706 7 104559034.48107     -1195.112 7        46.026                                    19896922.338 7  81474607.23507      -931.255 7        44.767    19896922.561 7  81474597.21307      -931.242 7        42.347
G09         9.000    22569809.160 4                      2465.263 4        28.531                                                                                                    22569804.392 4  92419624.81004      1920.759 4        29.810
G04        11.000    20758321.472 7 109085729.08207      1213.192 7        46.379                                    20758313.999 4  85001813.10804       945.331 4        24.812    20758315.408 5  85001840.13605       945.326 5        31.426
E09        12.000    23621438.598 8 124131592.49608       200.189 8        48.032                                                                    23621437.571 8  92695661.81408       149.516 8        48.448    23621437.758 8  95113786.48608       153.428 8        48.416
E10        13.000    26856663.263 5 141132757.23105     -3673.047 5        30.860                                                                    26856659.315 5 105391291.74205     -2743.298 5        34.186    26856695.663 4 108140662.63404     -2814.881 4        28.512
E06        14.000    23348153.213 7 122695441.61207     -1134.508 7        46.198                                                                    23348152.927 7  91623182.19807      -847.164 7        46.965    23348152.361 8  94013354.40208      -869.263 8        48.410
E11        15.000    24482646.260 6 128657226.43806     -2909.696 6        38.970                                                                    24482642.538 7  96075161.85907     -2172.899 7        42.421    24482643.776 7  98581436.91707     -2229.623 7        43.810
G19        16.000    22291054.203 6 117140482.37506      -133.093 6        40.288                                    22291042.663 3  91278150.70403      -103.719 3        19.761
G28        17.000    23319414.805 4                     -2123.451 4        26.000                                                                                                    23319440.224 3                     -1655.140 3        23.467
G06        19.000    24027189.562 6 126263808.42306      2577.834 6        39.384                                    24027181.691 3  98387277.27703      2008.689 3        21.524    24027187.225 5  98387350.26805      2008.487 5        35.790
E36        20.000    23396976.839 6 122952086.83806      -320.298 6        38.952                                                                    23396977.569 7  91814751.92507      -239.249 7        43.227    23396976.595 7  94209950.37307      -245.509 7        42.074
E05        21.000    25283341.222 5 132864881.03305      2073.055 5        30.075                                                                    25283349.102 5  99217275.43505      1548.233 5        35.648    25283346.174 5 101805558.56205      1588.613 5        33.216
G17        22.000    22414568.869 6 117789336.04406     -2052.324 6        38.859                                    22414564.641 4  91783967.11404     -1599.210 4        27.281    22414565.021 6  91783890.10206     -1599.326 6        38.177
R07        23.000    23017779.743 3                      2684.020 3        21.405                                                                    23017773.030 4                      2089.291 4        27.904
S23        24.000    38097181.667 6 200201987.81006      -824.661 6        41.154
S36        25.000    38148779.970 6 200473126.88606      -828.072 6        36.125
R20        27.000    21149741.614 5 113097085.19005     -4620.090 5        32.287                                                                    21149729.681 5  87964393.36305     -3593.389 5        31.396
R06        29.000    19736569.742 5 105318118.45505       633.716 5        30.491
R14        30.000    23147562.871 5 123389523.56415      -590.846 5        30.536
C19        33.000                                                                                                                                    22856816.411 7 119021553.33207       944.093 7        42.990                                                                    22856811.999 8  96714642.37608       767.161 8        48.449
R21        34.000    19313019.730 8 103347968.78308      -844.747 8        49.782                                                                    19313016.078 7  80381656.76807      -657.096 7        46.305
R05        36.000    20585915.744 7                     -3689.599 7        46.172                                                                    20585908.125 4                     -2869.626 4        24.361
R22        37.000    22159756.825 7 118290249.77007      2908.711 7        45.872                                                                    22159752.195 6  92003567.17906      2262.549 6        36.454
C39        38.000                                                                                                                                    38908988.901 6 202609285.42506     -1206.445 6        36.790
C06        41.000                                                                                                                                    38218383.774 6 199013159.53606      -652.220 6        38.171    38218379.130 7 153889564.57207      -504.231 7        45.184    38218376.112 5 161714458.20405      -530.006 5        35.295
C29        43.000                                                                                                                                    22913821.065 6 119318173.35606     -3270.806 6        40.021                                                                    22913820.589 7  96955900.74107     -2657.864 7        42.792
C16        45.000                                                                                                                                    38672998.802 6 201380527.96006      -766.697 6        38.381    38672999.655 7 155720126.31607      -592.848 7        42.514    38672996.707 5 163638100.06205      -623.149 5        33.814
C09        46.000                                                                                                                                    38662987.816 6 201328335.84706      -150.103 6        37.112    38662986.559 7 155679838.63807      -116.137 7        47.074    38662982.605 6 163595724.38406      -122.062 6        41.702
C32        47.000                                                                                                                                    25446071.292 5 132504289.00405     -3653.905 5        33.557                                                                    25446059.362 4                     -2968.486 4        29.024
C44        48.000                                                                                                                                    26037622.211 5                      2085.431 5        35.486                                                                    26037620.922 4 110173696.33404      1694.635 4        28.853
C35        51.000                                                                                                                                    23055533.211 6                       136.387 6        36.805                                                                    23055532.506 6  97555521.60306       110.709 6        41.473
I09        54.000    37151862.769 7 145791887.71407      -771.577 7        43.031
C20        55.000                                                                                                                                    21905169.021 8 114065958.25108     -1661.676 8        48.900                                                                    21905163.906 7  92688013.41807     -1350.208 7        44.190
I01        56.000   333043613.153 6   3793871.88706     -2898.413 6        36.904
> 2025 01 01 01 46 15.0000000  0 39
G21         3.000    23692326.189 4                     -3917.660 4        27.772
G31         4.000    22185428.084 6 116584728.18306      -304.377 6        38.637                                    22185422.586 3  90845570.71403      -237.178 3        20.619    22185424.079 5                      -237.079 5        30.219
G02         5.000    22051163.705 6 115879699.37206     -3369.396 6        39.886                                    22051156.987 3  90295704.32203     -2625.504 3        23.829
E34         6.000    26422009.176 7 138848586.59407      1822.137 7        42.768                                                                    26422007.678 6 103685679.73406      1360.703 6        41.893    26422007.822 6 106390491.83306      1396.275 6        40.102
E04         7.000    24406608.156 6 128257679.99106     -2493.191 6        40.129                                                                    24406607.664 7  95776759.48507     -1861.951 7        46.482    24406606.660 7  98275283.64407     -1910.502 7        46.805
G03         8.000    19898060.938 7 104565014.75307     -1196.797 7        46.686                                    19898060.124 7  81479267.18907      -932.570 7        44.537    19898060.529 6  81479257.16706      -932.506 6        41.805
G09         9.000    22567458.754 4                      2464.052 4        26.742                                                                                                    22567461.712 4  92410022.84204      1920.184 4        29.090
G04        11.000    20757168.431 7 109079668.93507      1211.147 7        46.870                                    20757159.735 4  84997090.92604       943.731 4        24.120    20757162.297 5  84997117.94205       943.738 5        30.589
E09        12.000    23621248.674 7 124130595.94607       198.643 7        47.816                                                                    23621247.973 8  92694917.64308       148.368 8        48.355    23621248.220 8  95113022.89908       152.174 8        48.554
E10        13.000    26860160.896 5 141151126.75405     -3674.009 5        30.438                                                                    26860154.685 5 105405009.19705     -2743.256 5        34.233
E06        14.000    23349233.668 7 122701118.72707     -1136.146 7        46.103                                                                    23349233.288 7  91627421.60907      -848.385 7        46.931    23349232.855 8  94017704.41008      -870.493 8        48.535
E11        15.000    24485415.985 6 128671778.60306     -2911.003 6        39.865                                                                    24485411.781 7  96086028.73307     -2173.739 7        42.552    24485413.028 7  98592587.26007     -2230.462 7        43.752
G19        16.000    22291183.012 6 117141156.34106      -136.187 6        40.412                                    22291171.267 3  91278675.86603      -106.144 3        20.262
G28        17.000    23321442.748 4                     -2126.314 4        28.749                                                                                                    23321457.812 3                     -1659.469 3        20.500
G06        19.000    24024736.196 6 126250920.64206      2577.454 6        38.745                                    24024730.374 3  98377234.86203      2008.393 3        21.952    24024734.467 6  98377307.85806      2008.159 6        36.393
E36        20.000    23397283.031 6 122953693.30606      -321.903 6        38.790                                                                    23397283.231 7  91815951.56707      -240.393 7        42.923    23397282.575 7  94211181.31007      -246.589 7        42.237
E05        21.000    25281369.924 5 132854516.31305      2072.791 5        30.211                                                                    25281375.645 6  99209535.55806      1547.931 6        36.163    25281374.500 5 101797616.78905      1588.469 5        32.341
G17        22.000    22416525.414 6 117799604.05106     -2054.643 6        40.760                                    22416518.655 4  91791968.17104     -1601.025 4        27.653    22416518.065 6  91791891.16106     -1601.078 6        37.747
R07        23.000    23015267.116 4                      2685.900 4        26.683                                                                    23015263.529 4                      2088.493 4        27.293
S23        24.000    38097966.557 6 200206110.81406      -824.306 6        41.106
S36        25.000    38149570.436 5 200477268.89105      -828.247 5        35.952
R20        27.000    21154058.945 5 113120190.79005     -4622.029 5        31.230                                                                    21154042.204 5  87982364.33305     -3594.687 5        31.117
R06        29.000    19735975.983 5 105314955.19205       631.645 5        30.611
R14        30.000                                                                                                                                    23148109.882 4                      -462.695 4        26.347
C19        33.000                                                                                                                                    22855910.502 7 119016835.79907       943.074 7        43.572                                                                    22855905.763 7  96710809.00707       766.293 7        47.851
R21        34.000    19313810.254 8 103352203.61208      -848.924 8        48.959                                                                    19313806.947 7  80384950.54007      -660.311 7        46.147
R05        36.000    20589367.250 7 110062071.65717     -3690.722 7        46.013
R22        37.000    22157031.412 7 118275710.43407      2907.294 7        44.962                                                                    22157028.074 5  91992258.83605      2261.003 5        35.743
C39        38.000                                                                                                                                    38910148.604 6 202615319.97006     -1206.842 6        37.225
C06        41.000                                                                                                                                    38219009.927 6 199016422.07506      -652.732 6        38.054    38219005.720 7 153892087.37607      -504.639 7        45.594    38219002.851 5 161717109.29205      -530.170 5        35.410
C29        43.000                                                                                                                                    22916961.307 6 119334532.32606     -3272.350 6        37.410                                                                    22916962.421 7  96969193.77507     -2659.206 7        42.969
C16        45.000                                                                                                                                    38673734.557 6 201384363.29406      -767.212 6        37.592    38673736.275 7 155723092.04507      -593.273 7        42.652    38673733.495 5 163641216.57405      -623.349 5        33.910
C09        46.000                                                                                                                                    38663131.925 6 201329088.53906      -150.687 6        37.146    38663131.045 7 155680420.66207      -116.500 7        47.075    38663127.331 6 163596335.99706      -122.494 6        41.661
C32        47.000                                                                                                                                    25449577.479 5 132522557.86505     -3653.588 5        31.766                                                                    25449568.575 4                     -2968.977 4        29.526
C44        48.000                                                                                                                                    26035621.594 6 135574312.12916      2084.668 6        36.053                                                                    26035618.854 4 110165225.58304      1693.569 4        29.052
C35        51.000                                                                                                                                    23055407.024 6 120055531.92116       134.079 6        40.679                                                                    23055402.776 6  97554973.16406       108.801 6        40.665
I09        54.000    37152845.936 7 145795745.99707      -771.526 7        42.938
C20        55.000                                                                                                                                    21906765.670 8 114074270.32208     -1662.908 8        49.188                                                                    21906759.975 7  92694767.66407     -1351.308 7        43.799
I01        56.000   333047306.350 6   3808364.15206     -2898.353 6        37.077
> 2025 01 01 01 46 20.0000000  0 39
G21         3.000    23696058.822 4                     -3918.082 4        28.152
G31         4.000    22185719.268 6 116586259.80906      -308.217 6        36.922                                    22185712.883 3  90846764.17503      -240.150 3        19.463    22185720.391 5                      -239.962 5        31.517
G02         5.000    22054370.605 6 115896551.85006     -3371.593 6        40.222                                    22054363.927 3  90308836.09603     -2627.216 3        23.067
E34         6.000    26420275.602 7 138839478.23807      1821.235 7        42.887                                                                    26420274.204 7 103678878.04807      1359.945 7        42.428    26420274.769 6 106383512.73006      1395.530 6        40.303
E04         7.000    24408981.772 6 128270151.91506     -2495.426 6        40.358                                                                    24408981.279 7  95786072.93407     -1863.365 7        46.631    24408979.886 7  98284840.04707     -1911.916 7        46.979
G03         8.000    19899200.950 7 104571004.52607     -1199.072 7        46.672                                    19899199.641 7  81483934.54407      -934.341 7        44.203    19899200.492 6  81483924.51806      -934.351 6        41.225
G09         9.000    22565118.826 5                      2462.665 5        30.702                                                                                                    22565120.702 4  92400425.71304      1918.562 4        28.047
G04        11.000    20756017.292 7 109073620.43007      1208.311 7        47.133                                    20756008.136 3  84992377.82703       941.542 3        22.800    20756013.256 5  84992404.80405       941.848 5        31.819
E09        12.000    23621060.930 7 124129608.65707       196.310 7        47.698                                                                    23621060.048 8  92694180.38308       146.611 8        48.378    23621060.378 8  95112266.40208       150.445 8        48.781
E10        13.000    26863657.578 5 141169499.66305     -3675.122 5        30.234                                                                    26863651.140 5 105418729.28005     -2744.513 5        34.014
E06        14.000    23350315.648 7 122706805.18607     -1138.427 7        45.713                                                                    23350315.415 7  91631667.99407      -850.082 7        47.253    23350315.017 8  94022061.56108      -872.270 8        48.521
E11        15.000    24488186.774 6 128686337.75806     -2912.745 6        40.622                                                                    24488182.127 7  96096900.81807     -2175.206 7        42.663    24488183.549 7  98603742.96507     -2231.890 7        43.659
G19        16.000    22291315.189 6 117141847.47806      -140.068 6        39.841                                    22291303.184 3  91279214.41803      -109.145 3        19.791
G28        17.000    23323477.855 5                     -2129.527 5        30.030
G06        19.000    24022283.612 6 126238036.00406      2576.383 6        38.111                                    24022279.670 3  98367194.89203      2007.566 3        22.419    24022283.616 6  98367267.86806      2007.653 6        36.767
E36        20.000    23397590.968 6 122955308.66606      -324.209 6        39.090                                                                    23397590.796 7  91817157.84807      -242.045 7        43.007    23397590.274 7  94212419.06607      -248.494 7        42.318
E05        21.000    25279396.815 4 132844154.67404      2072.025 4        29.498                                                                    25279402.739 6  99201797.95206      1547.000 6        36.382    25279403.406 5 101789677.32605      1587.708 5        31.291
G17        22.000    22418483.206 6 117809885.15706     -2057.678 6        40.994                                    22418474.610 4  91799979.42104     -1603.382 4        27.473    22418475.430 6  91799902.39906     -1603.617 6        37.009
R07        23.000                                                                                                                                    23012753.750 4                      2087.501 4        27.928
S23        24.000    38098750.392 6 200210233.10506      -824.527 6        41.051
S36        25.000    38150358.868 5 200481410.35305      -828.735 5        35.971
R20        27.000    21158374.530 4 113143307.83404     -4624.487 4        29.706                                                                    21158365.700 5  88000344.26805     -3596.997 5        33.012
R06        29.000    19735387.257 5 105311804.81805       628.394 5        30.196
R14        30.000    23148658.258 4                      -598.917 4        27.844                                                                    23148677.277 4                      -466.047 4        28.142
C19        33.000                                                                                                                                    22855005.290 7 119012124.92607       941.398 7        44.242                                                                    22855000.870 7  96706981.03207       764.826 7        47.374
R21        34.000    19314604.961 8 103356460.55908      -853.842 8        48.591                                                                    19314603.174 7  80388261.50707      -664.078 7        46.338
R05        36.000    20592820.197 7 110080530.11907     -3692.575 7        45.135
R22        37.000    22154308.233 7 118261179.97607      2904.977 7        43.850                                                                    22154304.234 5  91980957.37505      2259.363 5        34.443
C39        38.000                                                                                                                                    38911308.644 6 202621358.05006     -1208.144 6        37.331
C06        41.000                                                                                                                                    38219637.327 6 199019688.57606      -653.814 6        38.297    38219633.140 7 153894613.25207      -505.563 7        45.839    38219630.142 5 161719763.55605      -531.213 5        35.424
C29        43.000                                                                                                                                    22920103.276 5 119350900.49405     -3274.899 5        32.641                                                                    22920105.953 7  96982494.22307     -2660.941 7        42.976
C16        45.000                                                                                                                                    38674471.147 6 201388202.45206      -768.392 6        36.975    38674473.699 7 155726060.70407      -594.164 7        42.609    38674470.668 5 163644336.17405      -624.586 5        33.976
C09        46.000                                                                                                                                    38663276.165 6 201329844.87306      -151.762 6        36.692    38663276.212 7 155681005.49907      -117.352 7        46.946    38663272.559 6 163596950.57006      -123.510 6        41.850
C32        47.000                                                                                                                                    25453081.113 5 132540827.23305     -3653.996 5        31.540                                                                    25453077.837 5                     -2969.160 5        30.423
C44        48.000                                                                                                                                    26033621.257 5 135563893.03905      2083.121 5        35.952                                                                    26033617.917 4 110156759.17704      1692.957 4        29.223
C35        51.000                                                                                                                                    23055282.921 7 120054869.94707       130.876 7        42.527                                                                    23055275.783 6  97554435.22406       106.314 6        40.169
I09        54.000    37153829.106 7 145799604.56907      -771.850 7        43.048
C20        55.000                                                                                                                                    21908363.750 8 114082589.79108     -1664.820 8        49.858                                                                    21908357.308 7  92701527.90607     -1352.898 7        43.310
I01        56.000   333050999.891 6   3822856.54106     -2898.676 6        37.153
> 2025 01 01 01 46 25.0000000  0 39
G21         3.000    23699792.681 4                     -3919.224 4        29.507
G31         4.000    22186014.469 6 116587809.37706      -311.693 6        36.359                                    22186007.460 3  90847971.60803      -242.866 3        19.254    22186017.897 5                      -242.893 5        33.186
G02         5.000    22057580.555 6 115913413.82806     -3373.282 6        41.359                                    22057572.607 3  90321975.29503     -2628.539 3        22.438
E34         6.000    26418543.110 7 138830373.10107      1820.790 7        43.139                                                                    26418541.430 7 103672078.76207      1359.586 7        42.783    26418542.286 6 106376536.08306      1395.163 6        40.482
E04         7.000    24411357.161 6 128282631.54506     -2496.754 6        40.412                                                                    24411356.235 7  95795392.14807     -1864.283 7        46.661    24411354.794 7  98294402.37407     -1912.993 7        47.045
G03         8.000    19900342.316 7 104577004.63807     -1200.980 7        46.257                                    19900341.041 7  81488609.94707      -935.829 7        44.147    19900341.884 6  81488599.92506      -935.781 6        40.663
G09         9.000    22562781.147 5                      2461.164 5        33.719                                                                                                    22562778.701 4  92390834.14604      1917.972 4        28.000
G04        11.000    20754868.401 7 109067584.40807      1205.956 7        47.084                                    20754858.888 3  84987674.45303       939.708 3        23.067    20754863.427 5  84987701.40805       939.821 5        33.437
E09        12.000    23620875.320 7 124128631.45007       194.507 7        47.743                                                                    23620873.902 8  92693450.65808       145.198 8        48.188    23620874.620 8  95111517.63608       149.041 8        49.128
E10        13.000    26867155.752 4 141187876.86604     -3675.736 4        28.227                                                                    26867148.274 5 105432452.51505     -2744.745 5        33.557    26867153.772 4 108182897.03504     -2816.459 4        29.232
E06        14.000    23351399.053 7 122712501.81207     -1140.278 7        45.255                                                                    23351399.558 7  91635921.97407      -851.514 7        47.056    23351399.091 8  94026426.51408      -873.721 8        48.737
E11        15.000    24490959.020 6 128700904.73006     -2913.977 6        41.032                                                                    24490954.203 7  96107778.74907     -2176.194 7        42.555    24490955.362 7  98614904.66707     -2232.997 7        43.446
G19        16.000    22291448.845 6 117142556.55706      -143.463 6        38.192                                    22291438.791 3  91279766.95503      -111.788 3        19.582
G28        17.000    23325509.917 5                     -2132.292 5        30.921                                                                                                    23325496.782 4                     -1661.824 4        27.916
G06        19.000    24019831.793 6 126225155.28706      2576.014 6        36.809                                    24019829.919 3  98357157.97003      2007.281 3        22.648    24019833.333 6  98357230.94806      2007.125 6        36.836
E36        20.000    23397900.543 6 122956933.75706      -325.986 6        38.769                                                                    23397899.823 7  91818371.38607      -243.379 7        42.565    23397899.762 7  94213664.26307      -249.798 7        42.368
E05        21.000    25277426.367 4 132833796.84204      2071.259 4        27.964                                                                    25277430.614 5  99194063.21205      1546.535 5        35.814    25277433.477 4 101781740.78404      1587.134 4        28.161
G17        22.000    22420440.024 6 117820180.13306     -2060.273 6        39.072                                    22420433.176 4  91808001.48304     -1605.406 4        27.880    22420434.176 6  91807924.42806     -1605.485 6        36.427
R07        23.000                                                                                                                                    23010250.053 4                      2086.540 4        29.678
S23        24.000    38099536.714 6 200214355.58706      -824.363 6        41.263
S36        25.000    38151147.636 5 200485551.97505      -828.150 5        35.862
R20        27.000    21162687.176 4 113166437.35804     -4627.208 4        26.683                                                                    21162693.654 5  88018333.87505     -3599.073 5        34.862
R06        29.000    19734798.803 5 105308668.30705       625.808 5        30.891
R14        30.000                                                                                                                                    23149239.964 4                      -468.602 4        26.970
C19        33.000                                                                                                                                    22854101.461 7 119007421.54607       940.071 7        45.097                                                                    22854097.476 7  96703159.17307       763.877 7        46.738
R21        34.000    19315403.884 8 103360740.47308      -858.188 8        48.400                                                                    19315403.350 7  80391590.34307      -667.502 7        46.623
R05        36.000    20596273.059 7 110098996.18907     -3693.881 7        44.631                                                                    20596287.218 6  85632470.02816     -2873.041 6        38.814
R22        37.000    22151586.576 7 118246659.21707      2903.152 7        42.436                                                                    22151583.635 5  91969663.44805      2257.988 5        33.335
C39        38.000                                                                                                                                    38912469.673 6 202627400.49306     -1208.886 6        37.890
C06        41.000                                                                                                                                    38220266.559 6 199022959.84906      -654.583 6        38.438    38220261.332 7 153897142.81007      -506.246 7        45.801    38220258.053 5 161722421.74405      -531.839 5        34.676
C29        43.000                                                                                                                                    22923246.554 4 119367278.71204     -3276.710 4        27.593                                                                    22923251.213 7  96995802.84907     -2662.506 7        42.815
C16        45.000                                                                                                                                    38675209.344 6 201392046.19306      -769.076 6        37.149    38675211.686 7 155729032.95207      -594.740 7        42.519    38675208.816 5 163647459.56605      -625.070 5        33.946
C09        46.000                                                                                                                                    38663422.417 6 201330605.67506      -152.590 6        36.820    38663422.218 7 155681593.80107      -117.978 7        46.777    38663418.599 6 163597568.78906      -123.939 6        41.728
C32        47.000                                                                                                                                    25456587.908 5 132559097.94105     -3654.675 5        31.102                                                                    25456587.578 5                     -2969.485 5        30.740
C44        48.000                                                                                                                                    26031620.643 6 135553480.28306      2081.850 6        36.526                                                                    26031618.481 4 110148297.95904      1691.707 4        28.474
C35        51.000                                                                                                                                    23055160.752 7 120054221.74207       128.249 7        43.191                                                                    23055151.137 6  97553908.52206       104.305 6        39.126
I09        54.000    37154812.695 7 145803464.07907      -771.839 7        43.202
C20        55.000                                                                                                                                    21909963.302 8 114090917.47308     -1666.287 8        50.777                                                                    21909956.354 7  92708294.85307     -1353.940 7        42.724
I01        56.000   333054692.191 6   3837349.73306     -2898.800 6        37.130
> 2025 01 01 01 46 30.0000000  0 39
G21         3.000    23703526.020 5                     -3920.162 5        30.325
G31         4.000    22186313.089 6 116589376.46106      -315.404 6        36.095                                    22186306.008 3  90849192.71103      -245.738 3        18.836    22186316.119 5  90849257.63015      -245.583 5        33.826
G02         5.000    22060790.770 7 115930284.80607     -3375.377 7        42.607                                    22060782.544 3  90335121.49503     -2630.157 3        22.152
E34         6.000    26416811.143 7 138821270.70707      1819.833 7        42.993                                                                    26416809.155 7 103665281.51907      1358.958 7        42.908    26416809.870 6 106369561.54006      1394.311 6        40.529
E04         7.000    24413733.684 6 128295118.42906     -2498.473 6        41.108                                                                    24413732.595 7  95804716.76207     -1865.760 7        46.707    24413730.941 7  98303970.23407     -1914.384 7        46.952
G03         8.000    19901485.921 7 104583014.58707     -1203.288 7        46.306                                    19901484.345 7  81493293.02107      -937.627 7        43.632    19901485.667 6  81493282.99706      -937.661 6        40.803
G09         9.000    22560441.901 6 118555915.65416      2459.531 6        36.348                                    22560447.311 2  92381259.72712      1916.519 2        14.286    22560437.502 4  92381247.74604      1916.977 4        27.449
G04        11.000    20753722.033 7 109061560.37407      1203.265 7        46.797                                    20753712.333 3  84982980.42203       937.611 3        22.286    20753715.836 5  84983007.35305       937.668 5        34.171
E09        12.000    23620691.410 7 124127663.85207       192.207 7        47.602                                                                    23620689.699 8  92692728.10208       143.502 8        48.041    23620690.570 8  95110776.22708       147.289 8        49.138
E10        13.000                                                                                                                                    26870646.376 5 105446178.59605     -2745.749 5        33.353    26870645.716 4 108196981.19004     -2817.529 4        28.929
E06        14.000    23352484.913 7 122718208.10907     -1142.567 7        44.557                                                                    23352485.442 7  91640183.16507      -853.250 7        46.956    23352484.889 8  94030798.87108      -875.496 8        48.667
E11        15.000    24493732.111 6 128715479.04506     -2915.872 6        41.189                                                                    24493727.540 7  96118662.15707     -2177.356 7        42.415    24493728.717 7  98626071.98207     -2234.196 7        43.418
G19        16.000    22291586.805 6 117143283.09906      -147.330 6        38.231                                    22291577.482 3  91280333.10903      -114.824 3        18.657
G28        17.000    23327539.600 5                     -2135.873 5        32.186                                                                                                    23327530.065 4                     -1664.552 4        27.617
G06        19.000    24017381.568 5 126212278.08605      2574.725 5        35.210                                    24017380.856 3  98347123.77003      2006.283 3        22.495    24017381.664 6  98347196.74806      2006.266 6        36.008
E36        20.000    23398211.067 6 122958568.09806      -328.035 6        38.162                                                                    23398210.369 6  91819591.81706      -244.912 6        41.857    23398211.088 7  94214916.53607      -251.436 7        42.648
E05        21.000    25275455.893 4 132823442.42804      2069.812 4        27.748                                                                    25275459.393 5  99186330.97505      1545.801 5        35.038    25275463.790 4 101773806.78704      1585.730 4        25.278
G17        22.000    22422396.708 6 117830488.53406     -2063.416 6        37.089                                    22422394.354 4  91816033.97904     -1607.857 4        28.379    22422395.639 5  91815956.91505     -1607.751 5        35.981
R07        23.000    23007778.177 5                      2681.649 5        30.302                                                                    23007749.736 5                      2085.741 5        31.879
S23        24.000    38100321.430 6 200218477.93506      -824.868 6        41.371
S36        25.000    38151932.146 6 200489693.33206      -828.780 6        36.121
R20        27.000    21167016.183 4 113189578.59704     -4629.687 4        24.797                                                                    21167023.347 6  88036332.63406     -3600.884 6        36.457
R06        29.000    19734216.202 5 105305545.18805       622.665 5        32.778
R14        30.000    23149804.433 4 123401501.58514      -608.090 4        25.429                                                                    23149805.132 4                      -472.085 4        27.078
C19        33.000                                                                                                                                    22853199.818 7 119002725.19007       938.211 7        46.307                                                                    22853195.486 7  96699342.99107       762.457 7        46.151
R21        34.000    19316206.988 7 103365042.78407      -863.094 7        47.952                                                                    19316207.242 7  80394936.59507      -671.269 7        46.663
R05        36.000    20599729.026 7 110117469.55207     -3695.804 7        45.102                                                                    20599743.675 6  85646838.20206     -2874.438 6        39.468
R22        37.000    22148867.539 7 118232147.67307      2901.120 7        42.347                                                                    22148867.394 5  91958376.68205      2256.281 5        35.033
C39        38.000                                                                                                                                    38913632.582 6 202633446.81106     -1209.954 6        37.796
C06        41.000                                                                                                                                    38220895.104 6 199026235.41006      -655.981 6        38.423    38220890.208 7 153899675.69007      -507.195 7        45.967    38220887.022 5 161725083.40305      -532.876 5        34.948
C29        43.000                                                                                                                                    22926398.565 4 119383666.36904     -3278.956 4        29.744                                                                    22926398.051 7  97009119.15007     -2664.353 7        42.540
C16        45.000                                                                                                                                    38675949.268 6 201395894.12406      -770.428 6        37.357    38675950.836 7 155732008.39007      -595.640 7        42.459    38675947.523 5 163650586.26105      -625.909 5        33.587
C09        46.000                                                                                                                                    38663568.806 6 201331370.51406      -153.863 6        37.104    38663568.994 7 155682185.21007      -118.863 7        46.571    38663565.596 6 163598190.24706      -124.750 6        41.602
C32        47.000                                                                                                                                    25460096.341 5 132577369.38005     -3654.589 5        30.287                                                                    25460096.778 5                     -2969.616 5        30.974
C44        48.000                                                                                                                                    26029620.829 6 135543073.42706      2080.365 6        36.707                                                                    26029619.098 4 110139841.53304      1690.246 4        28.607
C35        51.000                                                                                                                                    23055038.068 7 120053586.86107       125.339 7        42.830                                                                    23055028.979 6  97553392.57506       102.035 6        37.921
I09        54.000    37155796.156 7 145807324.15807      -772.356 7        43.103
C20        55.000                                                                                                                                    21911563.798 8 114099252.89708     -1668.243 8        51.405                                                                    21911557.157 7  92715068.04307     -1355.488 7        42.626
I01        56.000   333058386.219 6   3851843.34306     -2899.138 6        37.429
> 2025 01 01 01 46 35.0000000  0 39
G21         3.000    23707260.930 4                     -3921.034 4        28.701
G31         4.000    22186612.236 5 116590961.63605      -318.911 5        34.252                                    22186608.111 3  90850427.91803      -248.502 3        19.701    22186612.058 5  90850492.95505      -248.527 5        33.599
G02         5.000    22064001.984 7 115947165.36707     -3377.171 7        43.827                                    22063994.050 3  90348275.17303     -2631.577 3        21.452
E34         6.000    26415079.538 7 138812171.68407      1819.387 7        43.077                                                                    26415077.608 7 103658486.79507      1358.527 7        43.300    26415078.416 6 106362589.56806      1394.007 6        40.524
E04         7.000    24416111.603 6 128307613.15506     -2499.850 6        41.302                                                                    24416110.403 7  95814047.24707     -1866.807 7        46.960    24416108.698 7  98313544.11907     -1915.502 7        46.690
G03         8.000    19902631.962 7 104589035.00707     -1205.251 7        47.105                                    19902629.751 7  81497984.25007      -939.154 7        43.281    19902630.950 6  81497974.23006      -939.109 6        41.051
G09         9.000    22558104.458 6 118543620.35516      2458.167 6        38.306                                    22558105.192 2  92371678.98812      1915.430 2        13.212    22558096.769 4  92371667.01504      1915.647 4        26.970
G04        11.000    20752578.209 7 109055548.95907      1200.891 7        46.732                                    20752568.447 3  84978296.22403       935.750 3        22.362    20752571.826 5  84978323.16605       935.499 5        34.090
E09        12.000    23620509.073 7 124126706.48307       190.302 7        47.345                                                                    23620507.527 8  92692013.18208       142.085 8        48.204    23620508.382 8  95110042.65808       145.780 8        48.989
E10        13.000    26874147.487 3                     -3676.718 3        23.067                                                                    26874144.753 5 105459907.96905     -2746.315 5        33.240    26874142.151 4 108211068.71804     -2818.301 4        28.417
E06        14.000    23353572.783 7 122723924.72107     -1144.497 7        44.149                                                                    23353573.273 7  91644452.06307      -854.675 7        46.978    23353572.672 8  94035179.12808      -876.974 8        48.393
E11        15.000    24496507.080 6 128730061.33006     -2917.290 6        41.135                                                                    24496502.544 7  96129551.52807     -2178.529 7        42.688    24496503.414 7  98637245.40507     -2235.389 7        43.143
G19        16.000    22291730.682 6 117144027.73406      -150.773 6        39.141                                    22291719.966 3  91280913.35403      -117.501 3        18.119
G28        17.000    23329575.136 5                     -2139.006 5        31.977                                                                                                    23329562.592 4                     -1666.889 4        26.084
G06        19.000    24014931.222 5 126199404.99605      2574.440 5        33.946                                    24014932.151 3  98337092.75603      2006.055 3        21.500    24014932.001 5  98337165.72405      2005.786 5        35.967
E36        20.000    23398522.422 6 122960212.31506      -329.928 6        37.467                                                                    23398522.956 6  91820819.63906      -246.526 6        41.495    23398524.329 7  94216176.38807      -252.883 7        42.737
E05        21.000    25273485.961 4 132813091.98204      2069.550 4        28.360                                                                    25273488.798 5  99178601.72805      1545.654 5        34.119    25273494.563 4 101765875.84704      1585.784 4        25.368
G17        22.000    22424359.915 6 117840810.86906     -2066.033 6        37.580                                    22424358.255 4  91824077.34304     -1609.902 4        28.569    22424358.766 5  91824000.31305     -1609.933 5        35.629
R07        23.000    23005268.903 4                      2680.166 4        29.621                                                                    23005251.490 5                      2084.855 5        32.311
S23        24.000    38101105.162 6 200222600.70506      -824.876 6        41.297
S36        25.000    38152721.361 5 200493835.20005      -828.533 5        35.829
R20        27.000    21171348.455 4 113212732.40804     -4633.009 4        24.090                                                                    21171352.577 6  88054341.08606     -3602.801 6        37.599
R06        29.000    19733631.820 5 105302436.05905       620.239 5        33.731
R14        30.000    23150378.204 5 123404548.09905      -611.196 5        32.455                                                                    23150376.615 4                      -475.249 4        27.150
C19        33.000                                                                                                                                    22852299.468 7 118998036.48007       936.870 7        46.881                                                                    22852295.025 7  96695533.05107       761.341 7        45.771
R21        34.000    19317015.059 8 103369368.18108      -867.545 8        48.094                                                                    19317015.326 7  80398300.78107      -674.711 7        46.433
R05        36.000    20603187.524 7 110135950.74707     -3697.171 7        46.338                                                                    20603200.449 6  85661212.50206     -2875.644 6        39.907
R22        37.000    22146152.814 7 118217646.03807      2899.148 7        43.380                                                                    22146150.602 6  91947097.64506      2254.896 6        36.590
C39        38.000                                                                                                                                    38914799.402 6 202639497.58406     -1210.646 6        37.195
C06        41.000                                                                                                                                    38221525.065 6 199029515.93106      -656.762 6        38.526    38221520.454 7 153902212.39707      -507.865 7        45.982    38221517.442 5 161727749.12105      -533.624 5        34.581
C29        43.000                                                                                                                                    22929553.853 5 119400064.17405     -3280.563 5        32.575                                                                    22929546.691 7  97022443.71307     -2665.794 7        42.220
C16        45.000                                                                                                                                    38676690.109 6 201399746.78706      -771.092 6        37.558    38676690.381 7 155734987.53207      -596.280 7        42.322    38676687.412 5 163653716.90105      -626.360 5        33.653
C09        46.000                                                                                                                                    38663716.909 6 201332139.94006      -154.500 6        37.664    38663716.562 7 155682780.18807      -119.474 7        46.120    38663713.258 6 163598815.51206      -125.536 6        41.442
C32        47.000                                                                                                                                    25463606.487 4 132595642.34404     -3654.537 4        28.777                                                                    25463605.124 5                     -2969.484 5        30.158
C44        48.000                                                                                                                                    26027623.841 6 135532673.02506      2079.469 6        36.575                                                                    26027621.706 4 110131390.35804      1689.979 4        29.100
C35        51.000                                                                                                                                    23054916.980 7 120052965.92307       122.713 7        42.298                                                                    23054909.291 6  97552888.01506        99.819 6        37.516
I09        54.000    37156780.637 7 145811185.25607      -772.463 7        43.105
C20        55.000                                                                                                                                    21913165.395 8 114107596.67908     -1669.763 8        51.167                                                                    21913159.525 7  92721848.08707     -1356.823 7        42.430
I01        56.000   333062080.381 6   3866337.80106     -2899.075 6        37.720
> 2025 01 01 01 46 40.0000000  0 39
G21         3.000    23710990.947 4                     -3921.966 4        26.000
G31         4.000    22186916.319 5 116592564.15205      -322.330 5        32.898                                    22186913.939 3  90851676.62503      -251.144 3        20.310    22186915.850 5  90851741.66205      -251.001 5        33.024
G02         5.000    22067215.773 7 115964054.80707     -3378.789 7        44.411                                    22067206.964 3  90361435.76803     -2632.823 3        21.429
E34         6.000    26413348.528 7 138803075.30507      1818.937 7        43.308                                                                    26413346.594 7 103651694.05207      1358.190 7        43.816    26413347.170 6 106355619.63506      1393.686 6        40.725
E04         7.000    24418490.334 6 128320114.98906     -2501.054 6        41.409                                                                    24418489.435 7  95823383.04407     -1867.707 7        47.250    24418487.771 7  98323123.45807     -1916.487 7        46.553
G03         8.000    19903779.241 7 104595065.15507     -1207.014 7        47.989                                    19903777.134 7  81502683.05307      -940.530 7        43.075    19903778.050 6  81502673.05006      -940.545 6        41.518
G09         9.000    22555768.014 6 118531331.61406      2457.107 6        39.766                                    22555763.094 2  92362103.36702      1914.616 2        15.524
G04        11.000    20751436.664 7 109049549.44607      1198.671 7        47.066                                    20751427.227 3  84973621.29703       934.029 3        22.590    20751429.499 5  84973648.25205       933.903 5        34.214
E09        12.000    23620328.536 7 124125758.60807       188.575 7        47.094                                                                    23620327.149 8  92691305.36108       140.783 8        48.243    23620327.898 8  95109316.36608       144.524 8        49.056
E10        13.000    26877643.415 3                     -3679.327 3        21.143                                                                    26877644.007 5 105473640.09805     -2746.890 5        33.156    26877642.307 4 108225159.08004     -2819.043 4        28.389
E06        14.000    23354662.395 7 122729650.87907     -1146.227 7        43.399                                                                    23354662.874 7  91648728.09307      -855.939 7        46.959    23354662.288 8  94039566.70708      -878.255 8        48.347
E11        15.000    24499283.622 6 128744650.82206     -2918.650 6        41.754                                                                    24499278.916 7  96140446.27107     -2179.439 7        42.635    24499279.734 7  98648424.34907     -2236.356 7        43.179
G19        16.000    22291880.356 6 117144789.75406      -154.258 6        39.835                                    22291865.558 2  91281507.15602      -120.200 2        16.604
G28        17.000    23331611.303 5                     -2142.218 5        30.098                                                                                                    23331593.889 3                     -1669.083 3        20.952
G06        19.000    24012481.702 5 126186535.27705      2573.834 5        32.431                                    24012483.982 3  98327064.41203      2005.577 3        19.582    24012482.609 5  98327137.40005      2005.373 5        35.971
E36        20.000    23398837.518 6 122961865.65606      -331.476 6        37.013                                                                    23398837.336 6  91822054.27106      -247.632 6        41.204    23398839.160 7  94217443.23907      -254.127 7        42.991
E05        21.000    25271518.153 4 132802744.72404      2069.048 4        29.763                                                                    25271519.316 5  99170874.97205      1544.809 5        32.994    25271528.342 4 101757947.38404      1585.145 4        25.248
G17        22.000    22426329.707 6 117851146.45206     -2068.376 6        38.595                                    22426324.544 4  91832131.03704     -1611.722 4        28.607    22426325.611 5  91832054.01405     -1612.024 5        35.462
R07        23.000    23002757.908 5                      2679.532 5        31.623                                                                    23002754.272 5                      2083.908 5        32.216
S23        24.000    38101890.983 6 200226723.29006      -824.529 6        41.302
S36        25.000    38153513.433 6 200497977.17106      -828.403 6        36.257
R20        27.000    21175685.366 3 113235897.92703     -4632.930 3        23.695                                                                    21175684.022 6  88072358.67806     -3604.343 6        37.970
R06        29.000    19733051.990 5 105299340.21305       617.886 5        34.162
R14        30.000                                                                                                                                    23150946.581 4                      -478.806 4        24.722
C19        33.000                                                                                                                                    22851400.960 7 118993354.67907       935.724 7        47.158                                                                    22851395.945 7  96691728.66007       760.473 7        45.377
R21        34.000    19317828.039 8 103373715.83808      -871.801 8        48.561                                                                    19317827.874 7  80401682.28607      -678.099 7        46.444
R05        36.000    20606646.751 7 110154439.16607     -3698.383 7        47.194                                                                    20606656.336 6  85675592.40806     -2876.547 6        40.391
R22        37.000    22143437.908 7 118203153.54607      2897.494 7        44.426                                                                    22143436.354 6  91935825.68306      2253.778 6        37.546
C39        38.000                                                                                                                                    38915968.995 6 202645552.13206     -1211.161 6        37.183
C06        41.000                                                                                                                                    38222156.783 6 199032800.62006      -657.448 6        38.814    38222151.278 7 153904752.33307      -508.291 7        46.104    38222148.005 5 161730418.17505      -534.209 5        34.533
C29        43.000                                                                                                                                    22932705.591 5 119416471.24505     -3282.424 5        34.643                                                                    22932697.321 6  97035775.84306     -2667.085 6        41.628
C16        45.000                                                                                                                                    38677430.893 6 201403603.52206      -771.728 6        37.769    38677430.919 7 155737969.79907      -596.888 7        42.404    38677427.658 5 163656850.75405      -626.990 5        33.551
C09        46.000                                                                                                                                    38663865.520 6 201332913.31306      -155.271 6        38.279    38663864.807 7 155683378.19507      -119.930 7        45.959    38663861.800 6 163599443.88306      -125.925 6        41.340
C32        47.000                                                                                                                                    25467115.131 4 132613916.03504     -3654.446 4        27.856                                                                    25467115.039 4                     -2969.736 4        29.308
C44        48.000                                                                                                                                    26025627.357 5 135522278.39805      2078.158 5        35.957                                                                    26025624.946 4 110122943.86204      1688.547 4        28.493
C35        51.000                                                                                                                                    23054798.896 6 120052358.19506       120.252 6        40.884                                                                    23054792.555 6  97552394.13206        97.835 6        37.009
I09        54.000    37157764.625 7 145815046.85707      -772.394 7        43.139
C20        55.000                                                                                                                                    21914768.336 8 114115948.08708     -1671.059 8        50.721                                                                    21914763.492 7  92728634.24007     -1357.715 7        42.019
I01        56.000   333065773.592 6   3880832.57506     -2899.084 6        37.856
> 2025 01 01 01 46 45.0000000  0 38
G21         3.000    23714721.586 3                     -3922.031 3        21.095
G31         4.000    22187225.058 5 116594184.45705      -325.891 5        32.814                                    22187223.044 3  90852939.19003      -253.947 3        20.238    22187222.699 5  90853004.25305      -254.169 5        32.521
G02         5.000    22070431.205 7 115980953.52707     -3380.668 7        44.301                                    22070422.239 3  90374603.62003     -2634.283 3        22.190
E34         6.000    26411618.314 7 138793981.97307      1818.342 7        43.477                                                                    26411616.234 7 103644903.57007      1357.951 7        43.797    26411616.533 6 106348652.03006      1393.223 6        40.784
E04         7.000    24420869.927 6 128332624.32306     -2502.565 6        41.220                                                                    24420869.866 7  95832724.43107     -1868.807 7        47.295    24420868.088 7  98332708.52607     -1917.536 7        46.246
G03         8.000    19904928.618 8 104601105.45908     -1209.062 8        48.113                                    19904926.547 7  81507389.77207      -942.120 7        43.219    19904926.944 6  81507379.75906      -942.064 6        41.466
G09         9.000    22553430.298 6 118519049.81406      2455.599 6        40.100                                    22553423.000 3  92352533.14203      1913.455 3        18.716    22553421.938 4  92352521.21804      1913.033 4        25.639
G04        11.000    20750297.379 7 109043562.23407      1196.216 7        46.357                                    20750288.568 3  84968955.94003       932.115 3        22.933    20750291.472 5  84968982.89005       932.263 5        35.943
E09        12.000    23620150.130 7 124124820.63907       186.627 7        47.179                                                                    23620148.709 7  92690604.92607       139.311 7        47.958    23620149.324 8  95108597.66008       142.965 8        49.070
E10        13.000    26881145.120 3                     -3680.338 3        23.333                                                                    26881144.048 5 105487375.22105     -2747.136 5        32.748    26881143.170 4 108239252.47604     -2818.740 4        28.521
E06        14.000    23355753.453 7 122735387.01307     -1148.124 7        42.093                                                                    23355754.360 7  91653011.56807      -857.358 7        46.689    23355753.693 8  94043961.93108      -879.804 8        48.226
E11        15.000    24502061.682 6 128759247.93406     -2920.219 6        41.774                                                                    24502056.873 7  96151346.71807     -2180.644 7        42.633    24502057.371 7  98659609.14407     -2237.567 7        43.101
G19        16.000    22292031.859 6 117145569.52006      -157.656 6        38.462                                    22292014.293 2  91282114.78002      -122.845 2        15.810
G06        19.000    24010031.679 4 126173669.47604      2572.410 4        29.365                                    24010036.435 3  98317039.08003      2004.491 3        20.524    24010035.072 5  98317112.02105      2004.765 5        35.852
E36        20.000    23399155.279 6 122963528.55506      -333.532 6        36.957                                                                    23399153.597 6  91823296.04306      -249.084 6        40.596    23399155.911 7  94218717.40807      -255.561 7        43.302
E05        21.000    25269551.610 5 132792401.21805      2068.115 5        31.826                                                                    25269550.199 5  99163150.90105      1544.564 5        30.875
G17        22.000    22428300.531 6 117861495.73506     -2071.176 6        38.634                                    22428293.618 4  91840195.38604     -1613.897 4        28.474    22428295.699 5  91840118.35505     -1613.726 5        35.876
R07        23.000    23000254.149 5                      2678.181 5        32.808                                                                    23000252.847 5                      2083.146 5        32.234
S23        24.000    38102673.293 6 200230845.88806      -824.530 6        41.302
S36        25.000    38154298.712 6 200502119.99706      -828.594 6        36.310
R20        27.000    21180014.971 4                     -4638.171 4        24.541                                                                    21180018.569 6  88090385.70306     -3606.375 6        37.361
R06        29.000    19732473.747 5 105296257.93705       615.038 5        35.062
R14        30.000                                                                                                                                    23151524.744 3                      -481.566 3        22.305
C19        33.000                                                                                                                                    22850503.505 7 118988680.20507       934.114 7        46.395                                                                    22850498.396 7  96687930.29907       759.100 7        45.234
R21        34.000    19318645.329 8 103378086.28008      -876.391 8        48.654                                                                    19318644.562 7  80405081.52307      -681.568 7        46.724
R05        36.000    20610107.128 7 110172935.23307     -3699.932 7        47.851                                                                    20610115.253 6  85689978.27106     -2877.900 6        41.013
R22        37.000    22140724.495 7 118188670.61607      2895.646 7        44.975                                                                    22140722.713 6  91924561.18206      2252.137 6        37.720
C39        38.000                                                                                                                                    38917135.965 6 202651610.84106     -1212.109 6        36.764
C06        41.000                                                                                                                                    38222788.754 6 199036089.94406      -658.391 6        38.955    38222782.647 7 153907295.83707      -508.989 7        46.013    38222779.805 5 161733091.03405      -535.027 5        34.524
C29        43.000                                                                                                                                    22935857.470 5 119432888.15405     -3284.255 5        35.700                                                                    22935849.947 6  97049115.98806     -2668.886 6        41.647
C16        45.000                                                                                                                                    38678171.756 6 201407464.67606      -772.877 6        38.132    38678172.728 7 155740955.49207      -597.451 7        42.180    38678169.237 5 163659988.32705      -628.101 5        33.587
C09        46.000                                                                                                                                    38664015.096 6 201333690.96106      -155.860 6        38.901    38664014.254 7 155683979.53107      -120.546 7        45.467    38664011.051 6 163600075.82606      -126.657 6        41.514
C32        47.000                                                                                                                                    25470622.329 4 132632190.79204     -3654.241 4        25.669                                                                    25470624.467 4                     -2969.999 4        29.204
C44        48.000                                                                                                                                    26023632.263 5 135511889.98905      2076.907 5        35.086                                                                    26023629.882 4 110114502.51104      1687.515 4        28.341
C35        51.000                                                                                                                                    23054683.721 6 120051764.11806       117.511 6        39.009                                                                    23054678.473 6  97551911.39806        95.482 6        36.801
I09        54.000    37158748.257 7 145818909.23407      -772.607 7        43.016
C20        55.000                                                                                                                                    21916373.444 8 114124307.51908     -1672.698 8        50.327                                                                    21916368.665 6  92735427.00106     -1359.281 6        41.697
I01        56.000   333069467.520 6   3895327.98306     -2899.072 6        37.853
> 2025 01 01 01 46 50.0000000  0 38
G31         4.000    22187537.200 5 116595822.85305      -330.058 5        32.287                                    22187535.432 3  90854215.86503      -257.179 3        19.313    22187535.219 5  90854280.91405      -256.822 5        32.329
G02         5.000    22073648.154 7 115997861.77107     -3382.921 7        44.460                                    22073639.885 3  90387778.86703     -2636.041 3        22.857
E34         6.000    26409888.495 7 138784891.97507      1817.294 7        43.725                                                                    26409886.507 7 103638115.59107      1357.103 7        44.053    26409886.474 6 106341686.96906      1392.538 6        40.787
E04         7.000    24423251.154 6 128345141.47106     -2504.505 6        40.622                                                                    24423251.731 7  95842071.63907     -1870.217 7        47.481    24423249.847 7  98342299.57407     -1919.066 7        45.886
G03         8.000    19906079.860 7 104607156.16307     -1211.523 7        47.986                                    19906077.972 7  81512104.59507      -944.037 7        43.338    19906077.490 6  81512094.58906      -944.169 6        41.073
G09         9.000    22551093.352 6 118506775.20906      2453.970 6        39.946                                    22551085.348 3  92342968.52503      1912.178 3        20.333    22551088.716 4  92342956.57204      1912.816 4        26.910
G04        11.000    20749159.969 7 109037587.61007      1193.346 7        45.586                                    20749152.427 3  84964300.39803       929.882 3        23.752    20749155.529 6  84964327.33806       929.870 6        37.456
E09        12.000    23619973.430 7 124123892.83807       184.222 7        47.198                                                                    23619972.244 7  92689912.08407       137.613 7        47.988    23619972.591 8  95107886.74308       141.178 8        48.932
E10        13.000    26884646.915 4                     -3680.257 4        25.383                                                                    26884645.212 5 105501113.58505     -2748.141 5        32.713    26884643.379 4 108253349.23604     -2819.830 4        26.886
E06        14.000    23356846.632 6 122741133.37906     -1150.614 6        40.367                                                                    23356847.701 7  91657302.67607      -859.180 7        46.466    23356847.042 8  94048364.99508      -881.665 8        48.014
E11        15.000    24504840.423 6 128773852.93506     -2922.227 6        41.442                                                                    24504836.271 7  96162253.04007     -2182.049 7        42.675    24504836.314 7  98670799.98207     -2239.075 7        43.187
G19        16.000    22292179.397 5 117146367.36505      -161.698 5        35.829                                    22292166.471 2  91282736.51502      -125.986 2        14.524
G28        17.000    23335711.656 4                     -2148.057 4        28.711                                                                                                    23335663.302 3                     -1674.324 3        23.505
G06        19.000    24007582.710 4 126160807.53404      2571.735 4        29.801                                    24007589.438 3  98307016.86703      2003.958 3        23.657    24007587.218 5  98307089.79805      2003.982 5        35.395
E36        20.000    23399473.951 5 122965201.31005      -335.819 5        35.910                                                                    23399472.103 6  91824545.15906      -250.838 6        40.462    23399474.234 7  94219999.11007      -257.243 7        43.168
E05        21.000    25267587.003 5 132782061.62805      2067.343 5        33.449                                                                    25267581.894 4  99155429.82604      1543.746 4        28.351    25267594.011 4 101742099.28104      1583.313 4        27.006
G17        22.000    22430271.890 6 117871858.98006     -2074.429 6        38.303                                    22430265.407 4  91848270.61004     -1616.424 4        28.303    22430267.741 6  91848193.59406     -1616.461 6        36.722
R07        23.000    22997750.299 4                      2677.142 4        28.502                                                                    22997748.295 5                      2082.097 5        32.114
S23        24.000    38103461.600 6 200234968.73006      -824.968 6        41.395
S36        25.000    38155087.024 6 200506263.70206      -829.094 6        36.541
R20        27.000    21184353.674 4                     -4640.075 4        24.722                                                                    21184354.705 5  88108422.26805     -3608.559 5        35.352
R06        29.000    19731899.191 5 105293189.60505       612.062 5        34.852
R14        30.000                                                                                                                                    23152105.277 3                      -484.868 3        23.410
C19        33.000                                                                                                                                    22849606.521 7 118984013.31507       932.353 7        44.998                                                                    22849602.265 7  96684138.05007       757.549 7        45.288
R21        34.000    19319465.845 8 103382479.67008      -881.331 8        48.651                                                                    19319466.046 7  80408498.61107      -685.475 7        46.960
R05        36.000    20613568.510 7 110191438.97807     -3701.778 7        47.621                                                                    20613575.360 6  85704370.06706     -2879.144 6        40.143
R22        37.000    22138013.173 7 118174197.57807      2893.367 7        44.664                                                                    22138011.166 6  91913304.38206      2250.375 6        37.875
C39        38.000                                                                                                                                    38918299.436 6 202657673.94306     -1213.368 6        36.518
C06        41.000                                                                                                                                    38223421.481 6 199039384.07406      -659.505 6        39.387    38223415.224 7 153909843.10007      -510.065 7        46.354    38223412.300 5 161735767.79705      -535.939 5        34.371
C29        43.000                                                                                                                                    22939011.753 5 119449315.11805     -3286.581 5        34.762                                                                    22939004.894 6  97062464.23506     -2670.700 6        41.905
C16        45.000                                                                                                                                    38678914.966 6 201411330.53206      -773.932 6        38.276    38678914.911 7 155743944.82607      -598.465 7        42.093    38678911.754 5 163663129.61005      -629.003 5        33.814
C09        46.000                                                                                                                                    38664165.715 6 201334473.19806      -157.127 6        39.267    38664164.217 7 155684584.39907      -121.534 7        45.523    38664161.485 6 163600711.45006      -127.569 6        41.616
C32        47.000                                                                                                                                    25474134.181 4 132650466.99604     -3656.166 4        26.850                                                                    25474133.393 4                     -2970.207 4        28.445
C44        48.000                                                                                                                                    26021636.872 5 135501507.98605      2075.562 5        35.595                                                                    26021635.692 4 110106066.26604      1686.192 4        28.796
C35        51.000                                                                                                                                    23054571.276 5 120051183.96505       114.242 5        35.652                                                                    23054567.430 6  97551439.88406        93.022 6        37.372
I09        54.000    37159733.128 7 145822772.59007      -772.952 7        42.986
C20        55.000                                                                                                                                    21917980.333 8 114132675.22308     -1674.645 8        49.480                                                                    21917975.240 6  92742226.42106     -1360.770 6        41.235
I01        56.000   333073162.129 6   3909824.24606     -2899.562 6        37.871
> 2025 01 01 01 46 55.0000000  0 38
G31         4.000    22187854.350 5 116597479.17205      -333.611 5        33.647                                    22187851.432 3  90855506.52303      -259.976 3        18.746    22187850.236 5  90855571.56905      -260.104 5        32.305
G02         5.000    22076867.002 7 116014779.41107     -3384.768 7        44.451                                    22076859.717 3  90400961.43803     -2637.468 3        23.371
E34         6.000    26408159.258 7 138775805.15807      1816.643 7        43.943                                                                    26408157.433 7 103631329.98307      1356.586 7        43.846    26408156.976 6 106334724.35206      1391.985 6        40.484
E04         7.000    24425634.586 6 128357666.19506     -2505.962 6        40.100                                                                    24425634.828 7  95851424.52507     -1871.394 7        47.210    24425633.104 7  98351896.44307     -1920.240 7        45.503
G03         8.000    19907233.078 8 104613217.12008     -1213.583 8        48.190                                    19907231.311 7  81516827.40107      -945.643 7        43.441    19907231.201 6  81516817.39406      -945.625 6        41.035
G09         9.000    22548757.559 6 118494507.67106      2452.457 6        39.697                                    22548750.240 3  92333409.40603      1910.993 3        20.714    22548754.702 4  92333397.42604      1911.411 4        28.559
G04        11.000    20748025.327 7 109031625.39607      1190.825 7        44.730                                    20748018.741 4  84959654.51804       927.923 4        24.331    20748022.636 6  84959681.47806       927.809 6        37.819
E09        12.000    23619798.610 7 124122975.04607       182.249 7        47.228                                                                    23619797.546 7  92689226.71507       136.100 7        47.922    23619797.735 8  95107183.50008       139.633 8        48.743
E10        13.000    26888149.577 4                     -3681.177 4        25.474                                                                    26888146.792 5 105514855.11705     -2748.838 5        32.162    26888144.299 4 108267449.27004     -2821.138 4        25.729
E06        14.000    23357942.309 6 122746889.83606     -1152.724 6        38.901                                                                    23357942.859 7  91661601.31507      -860.780 7        46.231    23357942.287 7  94052775.77307      -883.219 7        47.808
E11        15.000    24507620.755 6 128788465.69506     -2923.724 6        40.722                                                                    24507617.099 7  96173165.16907     -2183.321 7        42.554    24507616.815 7  98681996.76107     -2240.261 7        42.957
G19        16.000    22292328.753 5 117147183.09805      -165.278 5        34.324                                    22292322.043 2  91283372.12602      -128.805 2        13.939
G28        17.000                                                                                                                                                                    23337711.780 4                     -1676.546 4        27.832
G06        19.000    24005139.344 5 126147949.66205      2570.753 5        33.874                                    24005142.960 4  98296997.71004      2003.195 4        25.654    24005140.598 5  98297070.68505      2003.242 5        34.871
E36        20.000    23399793.902 5 122966883.71505      -337.773 5        35.157                                                                    23399792.509 6  91825801.48506      -252.227 6        40.374    23399794.260 7  94221288.21907      -258.779 7        42.980
E05        21.000    25265623.630 5 132771725.90505      2066.389 5        34.562                                                                    25265614.041 4  99147711.59804      1543.236 4        26.671    25265630.420 4 101734179.57104      1583.671 4        28.493
G17        22.000    22432244.839 6 117882235.97806     -2077.172 6        39.847                                    22432239.843 4  91856356.55304     -1618.559 4        28.559    22432242.566 6  91856279.56306     -1618.539 6        37.270
R07        23.000                                                                                                                                    22995241.316 4                      2081.036 4        29.270
S23        24.000    38104244.483 6 200239091.59706      -824.886 6        41.681
S36        25.000    38155877.852 6 200510408.02006      -829.055 6        36.325
R20        27.000    21188700.391 3                     -4641.550 3        22.971                                                                    21188692.593 5  88126468.29805     -3610.390 5        32.778
R06        29.000    19731326.177 5 105290135.04905       609.255 5        34.352
R14        30.000                                                                                                                                    23152694.073 3                      -483.201 3        19.791
C19        33.000                                                                                                                                    22848711.626 7 118979353.86107       930.749 7        43.856                                                                    22848707.490 7  96680351.83707       756.376 7        45.425
R21        34.000    19320290.833 8 103386896.05208      -885.951 8        48.417                                                                    19320291.584 7  80411933.58107      -689.078 7        47.350
R05        36.000    20617031.240 7 110209950.38807     -3703.434 7        47.195                                                                    20617036.002 6  85718767.82406     -2880.394 6        37.936
R22        37.000    22135303.723 7 118159734.27907      2891.320 7        43.769                                                                    22135302.388 6  91902055.12706      2248.775 6        37.834
C39        38.000                                                                                                                                    38919463.650 5 202663741.30705     -1214.248 5        35.900
C06        41.000                                                                                                                                    38224056.199 6 199042682.95206      -660.613 6        40.150    38224048.901 7 153912393.99307      -510.826 7        46.415    38224045.869 5 161738448.40205      -536.735 5        34.652
C29        43.000                                                                                                                                    22942166.999 5 119465751.97705     -3288.472 5        33.868                                                                    22942161.750 7  97075820.49507     -2672.258 7        42.313
C16        45.000                                                                                                                                    38679657.642 6 201415200.93806      -774.834 6        38.231    38679658.540 7 155746937.67607      -599.119 7        42.159    38679654.827 5 163666274.62805      -629.628 5        33.665
C09        46.000                                                                                                                                    38664316.814 6 201335259.80906      -158.187 6        39.664    38664315.465 7 155685192.65607      -122.244 7        45.264    38664312.332 6 163601350.63406      -128.449 6        41.595
C32        47.000                                                                                                                                    25477644.110 4 132668744.31604     -3655.302 4        28.483                                                                    25477641.851 4                     -2970.927 4        29.223
C44        48.000                                                                                                                                    26019644.442 5 135491132.28605      2073.990 5        34.652                                                                    26019643.505 4 110097635.15704      1685.385 4        29.536
C35        51.000                                                                                                                                    23054461.274 5 120050617.57905       111.487 5        32.976                                                                    23054459.098 6  97550979.56606        90.731 6        38.033
I09        54.000    37160717.886 7 145826636.81607      -773.079 7        43.208
C20        55.000                                                                                                                                    21919588.787 8 114141051.06108     -1676.342 8        48.968                                                                    21919583.513 6  92749032.46206     -1362.031 6        40.799
I01        56.000   333076856.164 6   3924321.20206     -2899.648 6        37.992
> 2025 01 01 01 47  0.0000000  0 37
G31         4.000    22188174.308 5 116599153.72405      -336.227 5        35.981                                    22188170.545 3  90856811.39703      -261.961 3        18.209    22188166.560 5  90856876.42805      -261.990 5        32.144
G02         5.000    22080088.189 7 116031706.79207     -3385.915 7        43.875                                    22080081.646 3  90414151.58703     -2638.371 3        23.581
E34         6.000    26406430.927 7 138766721.90607      1816.819 7        44.230                                                                    26406428.953 7 103624547.04407      1356.732 7        43.873    26406428.361 6 106327764.45906      1392.065 6        40.510
E04         7.000    24428020.134 6 128370198.92906     -2507.016 6        39.547                                                                    24428019.415 7  95860783.37907     -1871.993 7        47.155    24428017.693 7  98361499.43007     -1920.762 7        45.014
G03         8.000    19908388.874 8 104619288.69608     -1214.833 8        48.999                                    19908386.594 7  81521558.48407      -946.620 7        43.884    19908386.293 6  81521548.50206      -946.575 6        40.400
G09         9.000    22546424.626 6 118482247.58806      2451.729 6        39.817                                    22546417.260 3  92323856.09903      1910.440 3        21.095    22546423.016 5  92323844.10305      1910.486 5        30.181
G04        11.000    20746893.412 7 109025675.98607      1189.138 7        45.365                                    20746887.394 4  84955018.62204       926.603 4        25.203    20746890.887 6  84955045.59006       926.482 6        38.102
E09        12.000    23619625.914 7 124122067.64307       180.960 7        46.894                                                                    23619624.958 8  92688549.11608       135.186 8        48.035    23619624.887 8  95106488.21808       138.682 8        48.669
E10        13.000    26891647.821 4                     -3681.088 4        25.113                                                                    26891649.275 5 105528600.01905     -2748.988 5        31.758    26891646.928 4 108281552.70904     -2820.416 4        24.602
E06        14.000    23359039.794 6 122752656.72006     -1154.010 6        37.811                                                                    23359039.966 7  91665907.74307      -861.722 7        46.027    23359039.752 7  94057194.54807      -884.158 7        47.843
E11        15.000    24510402.922 6 128803086.53906     -2924.595 6        39.700                                                                    24510399.370 7  96184083.31607     -2183.876 7        42.645    24510399.078 7  98693199.73207     -2240.809 7        43.031
G19        16.000    22292486.908 5 117148017.12805      -168.314 5        32.263                                    22292481.050 1  91284022.02001      -131.122 1        11.852
G28        17.000    23339786.489 5                     -2154.363 5        32.742                                                                                                    23339764.804 5                     -1679.027 5        32.042
G06        19.000    24002695.343 6 126135096.09906      2570.833 6        36.892                                    24002697.013 4  98286981.93704      2003.247 4        26.910    24002694.370 5  98287054.94905      2003.058 5        35.081
E36        20.000    23400115.992 5 122968576.18605      -338.942 5        34.686                                                                    23400114.803 6  91827065.31606      -253.038 6        40.627    23400115.896 7  94222585.04707      -259.890 7        42.842
E05        21.000    25263659.532 6 132761394.36306      2066.401 6        36.004                                                                                                                                    25263668.480 4 101726263.11604      1583.555 4        28.512
G17        22.000    22434223.356 6 117892627.12006     -2079.208 6        40.784                                    22434217.226 4  91864453.52904     -1620.155 4        29.412    22434219.365 6  91864376.55306     -1620.150 6        38.063
R07        23.000                                                                                                                                    22992739.041 4                      2080.307 4        27.066
S23        24.000    38105029.127 6 200243215.05506      -824.239 6        41.809
S36        25.000    38156664.424 6 200514550.89906      -827.779 6        36.231
R20        27.000    21193039.372 3                     -4643.729 3        21.976                                                                    21193032.561 5  88144524.11605     -3611.541 5        32.707
R06        29.000    19730755.796 5 105287094.64405       607.211 5        33.940
C19        33.000                                                                                                                                    22847818.594 7 118974702.20507       930.039 7        42.125                                                                    22847814.144 7  96676571.97907       755.641 7        45.577
R21        34.000    19321120.890 8 103391335.61608      -889.758 8        48.806                                                                    19321120.915 7  80415386.57407      -692.090 7        47.298
R05        36.000    20620495.196 7 110228469.71107     -3704.151 7        46.946                                                                    20620493.505 5  85733171.71905     -2880.854 5        35.176
R22        37.000    22132594.894 7 118145281.11107      2890.113 7        43.393                                                                    22132595.403 6  91890813.76906      2247.675 6        37.743
C39        38.000                                                                                                                                    38920629.656 5 202669813.28505     -1214.183 5        34.943
C06        41.000                                                                                                                                    38224690.693 6 199045986.88006      -660.836 6        40.596    38224683.363 7 153914948.80907      -510.963 7        46.530    38224680.368 5 161741133.12805      -537.068 5        34.210
C29        43.000                                                                                                                                    22945324.207 5 119482198.99005     -3289.648 5        35.929                                                                    22945320.245 7  97089185.08007     -2673.452 7        42.246
C16        45.000                                                                                                                                    38680402.843 6 201419076.25206      -774.927 6        38.712    38680402.675 6 155749934.31506      -599.279 6        41.928    38680398.942 5 163669423.67105      -630.041 5        33.641
C09        46.000                                                                                                                                    38664468.210 6 201336051.21706      -158.278 6        40.212    38664467.481 7 155685804.62807      -122.483 7        45.163    38664464.379 6 163601993.73306      -128.703 6        41.540
C32        47.000                                                                                                                                    25481155.230 5 132687023.27905     -3655.452 5        30.574                                                                    25481150.335 4                     -2970.266 4        28.929
C44        48.000                                                                                                                                    26017652.944 5 135480763.26205      2073.707 5        35.105                                                                    26017652.159 5 110089209.48405      1684.989 5        30.400
C35        51.000                                                                                                                                    23054353.253 5 120050065.23405       109.568 5        35.810                                                                    23054353.526 6  97550530.73806        88.767 6        38.381
I09        54.000    37161702.813 7 145830502.20307      -772.740 7        43.242
C20        55.000                                                                                                                                    21921199.592 8 114149435.37408     -1677.155 8        49.004                                                                    21921193.531 6  92755845.40906     -1362.994 6        40.234
I01        56.000   333080550.870 6   3938819.14306     -2899.118 6        37.890
> 2025 01 01 01 47  5.0000000  0 39
G21         3.000    23729679.418 4                     -3926.210 4        24.586
G31         4.000    22188494.788 6 116600845.00206      -339.975 6        36.926                                    22188492.797 2  90858129.30202      -264.914 2        17.358    22188491.446 5  90858194.31405      -264.820 5        31.102
G02         5.000    22083310.370 7 116048642.32007     -3388.012 7        42.582                                    22083305.176 3  90427348.10003     -2640.010 3        23.562
E34         6.000    26404702.428 7 138757640.65407      1815.891 7        44.292                                                                    26404700.804 7 103617765.59107      1355.994 7        43.985    26404700.159 6 106320806.10506      1391.417 6        40.558
E04         7.000    24430406.771 6 128382738.04306     -2508.710 6        38.850                                                                    24430405.445 7  95870147.01507     -1873.367 7        47.260    24430403.568 7  98371107.33007     -1922.238 7        44.424
G03         8.000    19909546.266 8 104625369.33908     -1217.147 8        49.863                                    19909543.533 7  81526296.63507      -948.425 7        44.209    19909543.455 6  81526286.65006      -948.417 6        39.961
G09         9.000    22544095.179 6 118469993.40406      2450.021 6        39.775                                    22544085.863 3  92314307.38403      1909.087 3        20.738    22544092.158 5  92314295.41805      1908.928 5        31.706
G04        11.000    20745763.618 7 109019737.83307      1186.456 7        46.421                                    20745758.041 4  84950391.50104       924.511 4        26.132    20745760.709 6  84950418.45106       924.562 6        39.357
E09        12.000    23619454.804 7 124121169.07607       178.649 7        46.704                                                                    23619453.954 8  92687878.10608       133.374 8        48.138    23619453.803 8  95105799.69708       136.917 8        48.538
E10        13.000    26895150.881 4                     -3682.531 4        24.602                                                                    26895152.661 5 105542347.08505     -2749.774 5        31.298
E06        14.000    23360138.621 6 122758432.46606     -1156.253 6        36.862                                                                    23360138.945 7  91670220.79007      -863.356 7        45.872    23360138.845 7  94061620.12207      -885.926 7        47.926
E11        15.000    24513186.316 6 128817713.91206     -2926.313 6        39.318                                                                    24513182.728 7  96195006.35207     -2185.152 7        42.504    24513182.520 7  98704407.72507     -2242.112 7        43.170
G19        16.000    22292653.153 5 117148867.84505      -172.164 5        32.305                                    22292643.119 1  91284684.92201      -134.119 1         9.714
G28        17.000    23341837.627 5                     -2157.559 5        32.796                                                                                                    23341816.590 5                     -1681.047 5        33.940
G06        19.000    24000251.609 6 126122245.32206      2569.666 6        38.964                                    24000251.402 4  98276968.33004      2002.339 4        28.209    24000249.388 6  98277041.33806      2002.303 6        36.253
E36        20.000    23400440.209 5 122970277.13905      -341.256 5        35.462                                                                    23400438.954 6  91828335.50406      -254.856 6        40.758    23400439.222 7  94223888.35907      -261.463 7        42.514
E05        21.000    25261692.160 6 132751065.40406      2065.348 6        36.484                                                                    25261673.017 3                      1542.118 3        21.429    25261704.851 4 101718348.64804      1583.054 4        27.713
G17        22.000    22436203.785 6 117903030.80606     -2082.114 6        40.851                                    22436197.113 5  91872560.27205     -1622.421 5        30.045    22436198.998 6  91872483.30206     -1622.467 6        38.267
R07        23.000                                                                                                                                    22990238.809 4                      2079.193 4        27.653
S23        24.000    38105812.989 6 200247337.56906      -824.581 6        41.638
S36        25.000    38157450.880 6 200518692.00306      -828.336 6        36.174
R20        27.000                                                                                                                                    21197376.428 5  88162588.59005     -3614.007 5        33.623
R06        29.000    19730188.758 5 105284066.81105       604.202 5        34.319
R14        30.000    23153879.411 5 123423266.56015      -636.720 5        34.914
C19        33.000                                                                                                                                    22846925.946 6 118970056.80406       928.311 6        39.823                                                                    22846921.920 7  96672797.20307       754.326 7        45.807
R21        34.000    19321954.942 8 103395796.89208      -894.571 8        49.246                                                                    19321954.331 7  80418856.44107      -695.758 7        46.607
R05        36.000    20623960.779 7 110246995.46507     -3705.901 7        46.392                                                                    20623961.028 5  85747580.56505     -2882.067 5        31.555
R22        37.000    22129891.237 7 118130836.51407      2887.879 7        43.837                                                                    22129889.853 6  91879579.09806      2246.030 6        38.273
C39        38.000                                                                                                                                    38921797.576 5 202675888.39205     -1215.537 5        33.126
C06        41.000                                                                                                                                    38225325.588 6 199049294.33006      -661.950 6        40.577    38225318.453 7 153917506.34307      -511.803 7        46.691    38225315.351 5 161743820.72005      -537.683 5        34.395
C29        43.000                                                                                                                                    22948484.974 6 119498654.67906     -3292.039 6        37.267                                                                    22948480.178 7  97102556.70607     -2675.085 7        42.087
C16        45.000                                                                                                                                    38681146.939 6 201422954.96406      -776.428 6        38.892    38681147.391 6 155752933.56406      -600.204 6        41.564    38681144.059 5 163672575.39705      -630.595 5        33.365
C09        46.000                                                                                                                                    38664621.264 6 201336845.86606      -159.446 6        40.386    38664620.061 7 155686419.10307      -123.310 7        45.177    38664616.987 6 163602639.46606      -129.548 6        41.385
C32        47.000                                                                                                                                    25484669.116 5 132705302.20105     -3655.989 5        31.457                                                                    25484659.226 4                     -2970.700 4        28.559
C44        48.000                                                                                                                                    26015662.781 5 135470399.39705      2072.006 5        35.567                                                                    26015661.409 5 110080788.02405      1683.641 5        30.581
C35        51.000                                                                                                                                    23054249.639 6 120049525.41906       106.499 6        39.081                                                                    23054250.246 6  97550092.09606        86.626 6        39.069
I09        54.000    37162687.905 7 145834367.56407      -773.123 7        43.378
C20        55.000                                                                                                                                    21922811.592 8 114157826.61708     -1679.003 8        49.414                                                                    21922805.099 6  92762663.98806     -1364.346 6        40.126
I01        56.000   333084245.367 6   3953316.97406     -2899.786 6        38.255
> 2025 01 01 01 47 10.0000000  0 38
G21         3.000    23733418.692 4                     -3926.974 4        27.198
G31         4.000    22188819.114 6 116602554.13206      -343.710 6        36.790                                    22188818.381 2  90859461.14302      -267.805 2        15.714    22188818.638 5  90859526.10005      -267.329 5        30.158
G02         5.000    22086534.796 6 116065587.22006     -3390.048 6        41.399                                    22086530.285 3  90440551.91703     -2641.595 3        23.505
E34         6.000    26402974.481 7 138748562.57807      1815.205 7        44.251                                                                    26402973.281 7 103610986.51107      1355.466 7        43.793    26402972.609 6 106313850.19306      1390.770 6        40.884
E04         7.000    24432794.111 6 128395284.70506     -2510.084 6        38.282                                                                    24432792.961 7  95879516.29307     -1874.457 7        47.290    24432791.038 7  98380721.00307     -1923.299 7        44.114
G03         8.000    19910705.376 8 104631460.20808     -1219.285 8        50.004                                    19910702.412 7  81531042.75807      -950.089 7        44.712    19910702.693 6  81531032.77306      -950.046 6        40.472
G09         9.000    22541771.063 6 118457746.27706      2448.688 6        38.673                                    22541756.515 3  92304764.19503      1908.053 3        20.095    22541762.774 5  92304752.25205      1908.154 5        32.048
G04        11.000    20744635.892 7 109013812.11207      1183.852 7        46.175                                    20744631.000 4  84945774.06004       922.483 4        27.018    20744634.243 6  84945801.01806       922.417 6        40.656
E09        12.000    23619285.484 7 124120280.49507       176.692 7        46.714                                                                    23619284.784 8  92687214.55708       131.845 8        48.256    23619284.609 8  95105118.84208       135.375 8        48.449
E10        13.000    26898655.355 4                     -3683.410 4        26.060                                                                    26898656.711 5 105556097.32805     -2750.387 5        30.981    26898653.863 4 108309767.31804     -2822.257 4        24.376
E06        14.000    23361239.463 6 122764218.23606     -1157.970 6        36.896                                                                    23361239.930 7  91674541.35307      -864.962 7        45.837    23361239.971 8  94066053.38608      -887.479 8        48.115
E11        15.000    24515971.219 6 128832349.00106     -2927.874 6        39.216                                                                    24515967.531 7  96205935.14807     -2186.374 7        42.402    24515967.675 7  98715621.61707     -2243.373 7        43.422
G19        16.000    22292821.033 5 117149736.42505      -175.798 5        34.952                                    22292808.601 1  91285361.69101      -137.033 1         8.762
G28        17.000    23343895.686 5                     -2160.888 5        30.264                                                                                                    23343871.168 5  95589248.92015     -1683.661 5        35.105
G06        19.000    23997805.413 6 126109398.49006      2568.998 6        40.241                                    23997806.382 4  98266957.80404      2001.820 4        29.336    23997804.497 6  98267030.79006      2001.955 6        36.896
E36        20.000    23400766.241 5 122971987.72905      -343.129 5        35.952                                                                    23400764.972 6  91829612.89306      -256.291 6        41.032    23400764.385 7  94225199.08807      -263.017 7        42.303
E05        21.000    25259725.708 6 132740740.20806      2064.621 6        36.994                                                                    25259707.887 3                      1540.354 3        20.595    25259741.330 4 101710437.12104      1582.105 4        28.521
G17        22.000    22438186.615 6 117913448.22206     -2084.927 6        40.837                                    22438179.817 5  91880677.72205     -1624.608 5        30.098    22438181.179 6  91880600.75906     -1624.765 6        38.135
R07        23.000    22987833.564 5                      2672.153 5        30.860                                                                    22987750.203 4                      2078.603 4        27.808
S23        24.000    38106597.799 6 200251460.21606      -824.672 6        41.607
S36        25.000    38158243.864 6 200522832.34906      -828.207 6        36.000
R20        27.000                                                                                                                                    21201722.381 5  88180662.51305     -3615.825 5        34.767
R06        29.000    19729622.869 5 105281052.66705       601.447 5        33.413
C19        33.000                                                                                                                                    22846035.016 6 118965418.79506       926.743 6        38.586                                                                    22846031.143 7  96669028.41607       753.027 7        45.791
R21        34.000    19322792.679 8 103400281.05908      -899.238 8        49.840                                                                    19322791.816 7  80422344.11807      -699.402 7        45.252
R05        36.000    20627427.834 7 110265528.65607     -3707.455 7        46.423
R22        37.000    22127188.353 7 118116401.66307      2885.939 7        45.306                                                                    22127187.364 6  91868351.96806      2244.615 6        39.943
C39        38.000                                                                                                                                    38922966.041 5 202681967.71405     -1216.488 5        31.298
C06        41.000                                                                                                                                    38225961.646 6 199052606.45906      -662.933 6        40.784    38225954.704 7 153920067.49807      -512.580 7        46.666    38225951.641 5 161746512.08105      -538.717 5        34.281
C29        43.000                                                                                                                                    22951646.335 6 119515120.23506     -3294.214 6        37.788                                                                    22951641.835 6  97115936.28806     -2676.764 6        41.275
C16        45.000                                                                                                                                    38681891.888 6 201426838.16606      -777.059 6        38.595    38681893.523 6 155755936.31306      -600.907 6        41.645    38681889.414 5 163675730.82705      -631.556 5        33.251
C09        46.000                                                                                                                                    38664774.762 6 201337644.91906      -160.384 6        40.405    38664773.634 7 155687036.97907      -123.939 7        44.755    38664770.377 6 163603288.73906      -130.139 6        41.170
C32        47.000                                                                                                                                    25488188.475 5 132723582.30605     -3656.441 5        31.781                                                                    25488169.450 4                     -2971.224 4        26.922
C44        48.000                                                                                                                                    26013674.603 6 135460041.87306      2070.762 6        36.650                                                                    26013671.974 5 110072371.72705      1682.544 5        31.223
C35        51.000                                                                                                                                    23054152.091 6 120048999.33206       103.784 6        41.230                                                                    23054149.162 6  97549664.60006        84.393 6        39.426
I09        54.000    37163673.111 7 145838233.80807      -773.371 7        43.162
C20        55.000                                                                                                                                    21924424.900 8 114166225.96408     -1680.740 8        49.510                                                                    21924418.226 6  92769489.12006     -1365.633 6        40.141
I01        56.000   333087940.139 6   3967815.51106     -2899.925 6        38.565
> 2025 01 01 01 47 15.0000000  0 40
G21         3.000    23737158.654 4                     -3927.753 4        29.043
G31         4.000    22189148.016 5 116604281.50805      -347.230 5        35.843                                    22189147.260 2  90860807.17402      -270.579 2        13.576    22189148.110 4  90860872.09604      -270.454 4        27.317
G02         5.000    22089761.016 6 116082541.74606     -3391.778 6        40.503                                    22089757.026 3  90453763.22803     -2642.939 3        23.524
E34         6.000    26401247.013 7 138739488.00007      1814.481 7        43.691                                                                    26401246.432 7 103604210.03707      1355.011 7        43.625    26401245.598 6 106306896.93906      1390.410 6        40.870
E04         7.000    24435183.408 6 128407839.27106     -2511.593 6        38.120                                                                    24435181.973 7  95888891.46407     -1875.597 7        47.215    24435180.199 7  98390340.74207     -1924.488 7        43.414
G03         8.000    19911866.300 8 104637561.60808     -1221.245 8        50.872                                    19911863.375 7  81535797.08907      -951.618 7        45.338    19911864.512 6  81535787.11206      -951.629 6        41.118
G09         9.000    22539449.258 5 118445506.54205      2447.229 5        35.624                                    22539428.668 3  92295226.77303      1906.902 3        18.418    22539436.063 5  92295214.79305      1906.875 5        32.605
G04        11.000    20743510.214 7 109007899.13607      1181.379 7        45.094                                    20743506.373 4  84941166.53804       920.560 4        27.353    20743508.266 6  84941193.49406       920.522 6        41.321
E09        12.000    23619118.241 7 124119402.22807       174.665 7        46.680                                                                    23619117.635 8  92686558.69908       130.415 8        48.347    23619117.535 8  95104445.87808       133.870 8        48.267
E10        13.000    26902163.092 4                     -3683.924 4        28.237                                                                    26902161.837 5 105569850.80805     -2751.308 5        30.566    26902158.580 4 108323879.66604     -2822.984 4        24.977
E06        14.000    23362343.055 5 122770014.38405     -1160.095 5        35.695                                                                    23362342.885 7  91678869.63407      -866.410 7        45.747    23362343.135 8  94070494.58708      -889.046 8        48.017
E11        15.000    24518757.950 6 128846992.08206     -2929.374 6        38.631                                                                    24518753.913 7  96216869.91307     -2187.398 7        42.354    24518754.415 7  98726841.65207     -2244.598 7        43.361
G19        16.000    22292996.469 5 117150623.21105      -179.142 5        35.490                                    22292977.579 1  91286052.62001      -139.541 1         6.000
G28        17.000    23345954.332 3                     -2162.984 3        22.990                                                                                                    23345929.673 5  95597673.51105     -1686.025 5        35.719
G06        19.000    23995360.955 6 126096555.92006      2568.196 6        39.709                                    23995362.229 5  98256950.58405      2001.200 5        30.264    23995361.290 6  98257023.59206      2001.106 6        37.800
E36        20.000    23401093.160 5 122973708.33105      -345.061 5        35.281                                                                    23401092.663 6  91830897.74506      -257.744 6        41.933    23401091.475 6  94226517.46906      -264.525 6        41.604
E05        21.000    25257760.701 6 132730419.12606      2063.991 6        36.824                                                                    25257739.997 3                      1543.249 3        21.286    25257778.937 4 101702528.78704      1581.592 4        27.976
G17        22.000    22440172.024 6 117923879.66206     -2087.733 6        40.527                                    22440165.235 4  91888806.09804     -1626.795 4        29.744    22440166.865 6  91888729.11506     -1626.768 6        38.213
R07        23.000    22985326.361 5 123042267.27015      2671.140 5        35.667                                                                    22985253.419 5                      2077.464 5        30.015
S23        24.000    38107381.921 6 200255583.38406      -824.752 6        41.661
S36        25.000    38159033.383 6 200526972.96706      -828.023 6        36.416
C23        26.000                                                                                                                                    26092677.301 5 135871418.48815      -545.680 5        35.167
R20        27.000                                                                                                                                    21206071.264 5  88198745.98805     -3617.838 5        34.510
R06        29.000    19729058.728 5 105278052.73205       598.226 5        33.162
R14        30.000    23155107.534 4 123429673.29304      -645.023 4        27.880
C19        33.000                                                                                                                                    22845146.156 6 118960788.48806       925.269 6        38.186                                                                    22845141.868 7  96665265.92907       751.923 7        45.696
R21        34.000    19323635.581 8 103404788.30308      -903.701 8        50.341                                                                    19323633.961 7  80425849.75607      -702.808 7        44.083
R05        36.000    20630896.124 7 110284069.84117     -3709.007 7        46.738
R22        37.000    22124486.499 7 118101976.90807      2883.948 7        46.469                                                                    22124485.779 6  91857132.69006      2243.063 6        40.796
C39        38.000                                                                                                                                    38924134.640 4 202688051.57504     -1217.091 4        29.564
C06        41.000                                                                                                                                    38226598.341 6 199055923.60906      -663.977 6        40.775    38226591.678 7 153922632.52407      -513.400 7        46.757    38226588.475 5 161749207.54405      -539.606 5        34.024
C29        43.000                                                                                                                                    22954808.843 6 119531595.88606     -3296.097 6        38.405                                                                    22954805.419 6  97129324.12406     -2678.307 6        40.560
C16        45.000                                                                                                                                    38682638.525 6 201430726.21706      -778.019 6        38.757    38682639.944 6 155758942.80206      -601.673 6        41.526    38682635.977 5 163678890.19405      -632.255 5        33.072
C09        46.000                                                                                                                                    38664928.939 6 201338448.62306      -161.167 6        40.663    38664927.647 7 155687658.45907      -124.616 7        44.561    38664924.749 6 163603941.83306      -130.833 6        41.082
C32        47.000                                                                                                                                                                                                                                                                    25491678.784 4                     -2970.856 4        26.623
C44        48.000                                                                                                                                    26011688.696 6 135449690.95706      2069.512 6        37.270                                                                    26011684.517 5 110063960.84805      1681.665 5        31.034
C35        51.000                                                                                                                                    23054053.233 7 120048487.35607       101.082 7        42.199                                                                    23054050.886 6  97549248.58606        82.177 6        39.940
I09        54.000    37164658.487 7 145842101.11907      -773.547 7        43.189
C20        55.000                                                                                                                                    21926039.108 8 114174633.69308     -1682.314 8        49.230                                                                    21926033.004 6  92776321.09706     -1367.067 6        40.246
I01        56.000   333091635.392 6   3982314.98106     -2899.992 6        38.814
> 2025 01 01 01 47 20.0000000  0 40
G21         3.000    23740894.892 4                     -3928.509 4        29.308
G31         4.000    22189479.849 5 116606027.08605      -350.822 5        33.377                                    22189479.577 2  90862167.44502      -273.360 2        12.242
G02         5.000    22092989.873 6 116099505.94306     -3393.684 6        39.910                                    22092985.144 3  90466982.08203     -2644.430 3        23.790
E34         6.000    26399520.540 7 138730416.95107      1813.914 7        42.546                                                                    26399520.432 7 103597436.21507      1354.442 7        43.327    26399519.380 6 106299946.41506      1389.798 6        41.178
E04         7.000    24437573.945 6 128420401.74506     -2513.286 6        37.682                                                                    24437572.594 7  95898272.53607     -1876.792 7        47.158    24437570.950 7  98399966.54007     -1925.741 7        43.003
G03         8.000    19913029.714 8 104643673.60008     -1223.362 8        51.984                                    19913026.462 7  81540559.67407      -953.268 7        45.902    19913027.641 6  81540549.69406      -953.276 6        41.909
G09         9.000    22537124.216 5 118433274.28205      2445.701 5        30.498                                    22537102.124 2  92285695.14902      1905.796 2        15.476    22537109.635 5  92285683.16905      1905.736 5        32.922
G04        11.000    20742387.082 7 109001998.93307      1178.846 7        44.944                                    20742384.072 4  84936568.97104       918.580 4        27.617    20742385.249 6  84936595.92406       918.675 6        41.397
E09        12.000    23618952.876 7 124118534.28907       172.604 7        46.791                                                                    23618952.382 8  92685910.56808       128.885 8        48.443    23618952.431 8  95103780.84108       132.203 8        48.249
E10        13.000    26905672.457 4                     -3684.611 4        29.223                                                                    26905667.537 4 105583607.63204     -2751.649 4        29.915    26905665.016 4 108337995.34404     -2823.068 4        24.947
E06        14.000    23363448.301 5 122775820.89605     -1162.287 5        34.810                                                                    23363448.068 7  91683205.67207      -867.927 7        45.797    23363448.176 8  94074943.73908      -890.491 8        48.120
E11        15.000    24521546.092 6 128861643.21406     -2930.963 6        38.459                                                                    24521541.770 7  96227810.70307     -2188.770 7        42.366    24521542.531 7  98738067.83807     -2245.749 7        43.558
G19        16.000    22293172.950 5 117151528.32105      -182.740 5        34.795                                    22293149.924 1  91286757.96001      -142.558 1         4.000
G28        17.000                                                                                                                                                                    23347992.425 5  95606110.64405     -1688.553 5        35.819
G06        19.000    23992917.061 6 126083717.67106      2567.156 6        39.183                                    23992918.934 5  98246946.74105      2000.384 5        30.808    23992918.768 6  98247019.75406      2000.325 6        37.414
E36        20.000    23401422.342 5 122975438.91905      -347.060 5        34.652                                                                    23401422.543 7  91832190.07407      -259.125 7        42.527    23401420.595 6  94227843.50906      -265.905 6        40.803
E05        21.000    25255796.557 6 132720102.18906      2063.207 6        36.370                                                                    25255775.998 3                      1541.221 3        20.476    25255816.710 4 101694623.53104      1581.399 4        26.695
G17        22.000    22442159.378 6 117934325.16606     -2090.529 6        40.405                                    22442153.301 4  91896945.44004     -1628.973 4        29.469    22442154.118 6  91896868.44606     -1628.838 6        37.856
R07        23.000                                                                                                                                    22982759.582 5                      2076.740 5        30.272
S23        24.000    38108167.236 6 200259706.91006      -824.747 6        41.492
S36        25.000    38159817.790 6 200531115.15906      -828.304 6        36.257
C23        26.000                                                                                                                                    26093193.608 5 135874154.04505      -548.294 5        33.838
R20        27.000                                                                                                                                    21210421.066 5  88216839.09405     -3619.591 5        34.043
R06        29.000    19728500.925 5 105275066.80805       595.878 5        33.515
R14        30.000    23155718.598 3 123432908.61603      -649.111 3        23.810
C19        33.000                                                                                                                                    22844259.581 6 118956165.94006       923.769 6        39.192                                                                    22844254.057 7  96661509.73807       750.727 7        45.840
R21        34.000    19324481.822 8 103409318.87008      -908.381 8        50.326                                                                    19324480.884 7  80429373.52807      -706.481 7        43.433
R05        36.000    20634366.061 7 110302618.92507     -3710.588 7        47.246                                                                    20634420.065 5                     -2885.904 5        34.538
R22        37.000    22121786.328 7 118087562.30007      2881.985 7        47.371                                                                    22121784.452 6  91845921.30206      2241.522 6        41.549
C39        38.000                                                                                                                                    38925303.846 4 202694140.05704     -1217.996 4        28.341
C06        41.000                                                                                                                                    38227235.713 6 199059245.75706      -664.909 6        40.756    38227229.481 7 153925201.43507      -514.135 7        46.904    38227226.711 5 161751907.07105      -540.293 5        34.195
C29        43.000                                                                                                                                    22957975.527 6 119548081.66906     -3298.192 6        39.390                                                                    22957970.749 6  97142720.19806     -2679.957 6        39.303
C16        45.000                                                                                                                                    38683385.895 6 201434619.14706      -779.086 6        38.883    38683387.627 6 155761953.06806      -602.487 6        41.385    38683383.711 5 163682053.50705      -633.076 5        33.054
C09        46.000                                                                                                                                    38665084.122 6 201339257.11006      -162.230 6        40.808    38665083.015 7 155688283.63707      -125.386 7        44.557    38665080.081 6 163604598.82106      -131.752 6        40.968
C32        47.000                                                                                                                                    25495232.472 4 132760147.26504     -3656.780 4        29.422                                                                    25495188.780 4                     -2971.027 4        27.066
C44        48.000                                                                                                                                    26009704.313 6 135439346.74306      2068.141 6        37.066                                                                    26009697.810 5 110055555.33505      1680.594 5        31.766
C35        51.000                                                                                                                                    23053956.404 7 120047989.44407        98.123 7        43.372                                                                    23053955.032 6  97548843.99606        79.948 6        40.067
I09        54.000    37165644.509 7 145845969.52807      -773.721 7        43.067
C20        55.000                                                                                                                                    21927654.988 8 114183049.87708     -1684.032 8        48.999                                                                    21927649.463 6  92783159.92406     -1368.302 6        40.639
I01        56.000   333095329.933 6   3996815.41906     -2900.292 6        39.009
> 2025 01 01 01 47 25.0000000  0 37
G31         4.000    22189815.802 5 116607789.89005      -354.412 5        31.706                                    22189815.190 1  90863541.13901      -276.204 1        10.074    22189815.204 3                      -275.108 3        20.786
G02         5.000    22096220.379 6 116116478.72906     -3395.545 6        39.096                                    22096214.755 3  90480207.65503     -2645.895 3        23.257
E34         6.000    26397794.692 7 138721348.40307      1813.306 7        42.019                                                                    26397794.780 7 103590664.23707      1354.035 7        42.811    26397793.544 6 106292997.78806      1389.282 6        41.104
E04         7.000    24439966.526 6 128432971.07906     -2514.822 6        37.323                                                                    24439964.394 7  95907658.72807     -1877.921 7        47.068    24439962.883 7  98409597.57907     -1926.905 7        42.497
G03         8.000    19914194.581 8 104649795.10908     -1225.504 8        52.168                                    19914191.539 7  81545329.67407      -954.937 7        46.359    19914192.769 7  81545319.69207      -954.854 7        42.322
G09         9.000                                                                                                                                                                    22534784.265 5  92276156.49805      1904.851 5        31.245
G04        11.000    20741266.854 7 108996110.47907      1176.277 7        45.132                                    20741263.832 4  84931980.55204       916.579 4        27.737    20741264.281 6  84932007.50506       916.652 6        40.706
E09        12.000    23618789.946 7 124117675.65407       170.562 7        46.860                                                                    23618788.975 8  92685269.37608       127.439 8        48.426    23618789.128 8  95103122.92208       130.806 8        48.217
E10        13.000    26909180.995 5                     -3685.459 5        30.785                                                                    26909174.567 4 105597367.06704     -2752.183 4        29.621    26909170.859 3 108352113.57103     -2821.445 3        23.219
E06        14.000    23364554.192 5 122781636.77405     -1164.444 5        34.305                                                                    23364554.985 7  91687548.67207      -869.454 7        45.785    23364554.913 8  94079400.03908      -892.082 8        48.129
E11        15.000    24524335.350 6 128876301.35906     -2932.537 6        38.535                                                                    24524331.115 7  96238756.71007     -2189.855 7        42.146    24524332.144 7  98749299.40307     -2246.969 7        43.494
G19        16.000    22293347.742 4 117152450.60104      -186.215 4        28.569                                    22293325.699 1  91287476.49601      -145.068 1         4.429
G28        17.000                                                                                                                                                                    23350061.844 6  95614559.43506     -1691.108 6        36.144
G06        19.000    23990474.311 6 126070882.68306      2566.486 6        38.793                                    23990476.225 5  98236945.43905      1999.853 5        30.574    23990475.904 6  98237018.48506      1999.867 6        37.214
E36        20.000    23401753.056 5 122977178.50105      -348.859 5        35.176                                                                    23401753.833 7  91833489.12307      -260.627 7        43.175    23401751.703 6  94229176.44906      -267.386 6        40.110
E05        21.000    25253831.193 5 132709788.40005      2062.094 5        35.871                                                                    25253820.222 3                      1540.043 3        21.286    25253851.379 4 101686720.63104      1580.308 4        24.842
G17        22.000    22444150.308 6 117944783.63406     -2093.081 6        40.083                                    22444143.973 4  91905094.90104     -1630.970 4        29.327    22444144.366 6  91905017.93706     -1631.192 6        38.495
R07        23.000                                                                                                                                    22980264.886 4                      2075.612 4        29.791
S23        24.000    38108948.755 6 200263829.89006      -824.753 6        41.390
S36        25.000    38160600.328 6 200535256.09406      -828.117 6        36.548
C23        26.000                                                                                                                                    26093716.475 5 135876902.30505      -550.982 5        32.222
R20        27.000    21214783.996 4                     -4655.915 4        26.934                                                                    21214772.704 5  88234941.04905     -3621.619 5        32.653
R06        29.000    19727945.408 5 105272093.88305       592.885 5        34.010
C19        33.000                                                                                                                                    22843373.793 6 118951550.10006       922.289 6        40.334                                                                    22843367.607 7  96657758.98007       749.299 7        45.943
R21        34.000    19325332.579 8 103413871.50308      -912.941 8        50.208                                                                    19325332.058 7  80432914.47607      -710.094 7        42.963
R05        36.000    20637837.728 7 110321174.93407     -3712.118 7        47.806
R22        37.000    22119087.570 8 118073156.82608      2880.071 8        48.288                                                                    22119085.125 6  91834717.04506      2240.059 6        41.168
C39        38.000                                                                                                                                    38926473.797 4 202700232.06104     -1218.853 4        26.874
C06        41.000                                                                                                                                    38227874.455 6 199062571.91406      -665.813 6        40.524    38227868.320 7 153927773.43007      -514.870 7        46.811    38227865.491 5 161754609.81105      -541.041 5        34.033
C29        43.000                                                                                                                                    22961147.300 6 119564576.56606     -3300.184 6        40.107                                                                    22961138.172 6  97156123.62906     -2681.558 6        38.483
C16        45.000                                                                                                                                    38684134.975 6 201438515.89406      -779.866 6        38.967    38684135.957 6 155764966.28006      -603.061 6        41.240    38684132.101 5 163685219.89305      -633.458 5        32.946
C09        46.000                                                                                                                                    38665240.647 6 201340069.28906      -163.043 6        40.651    38665239.026 7 155688911.65407      -126.011 7        44.316    38665235.900 6 163605258.74806      -132.559 6        41.216
C44        48.000                                                                                                                                    26007724.865 6 135429008.12906      2066.992 6        36.998                                                                    26007712.257 5 110047154.39905      1679.449 5        32.353
C35        51.000                                                                                                                                    23053865.026 7 120047504.59607        95.504 7        43.695                                                                    23053861.364 6  97548449.99406        77.514 6        40.098
I09        54.000    37166629.983 7 145849838.27307      -773.856 7        43.204
C20        55.000                                                                                                                                    21929272.328 8 114191473.41708     -1685.616 8        49.048                                                                    21929267.149 6  92790004.71206     -1369.808 6        41.309
I01        56.000   333099024.962 6   4011316.01506     -2900.269 6        38.841
> 2025 01 01 01 47 30.0000000  0 37
G31         4.000    22190151.337 4 116609569.78704      -357.576 4        28.654                                    22190154.099 1  90864928.13201      -278.622 1        10.074    22190157.609 4                      -278.694 4        25.383
G02         5.000    22099451.543 6 116133460.02506     -3397.171 6        39.577                                    22099445.748 3  90493439.84603     -2647.146 3        22.724
E34         6.000    26396069.141 6 138712282.26006      1812.764 6        40.701                                                                    26396069.490 7 103583894.06107      1353.811 7        42.574    26396068.121 6 106286050.99506      1389.083 6        41.435
E04         7.000    24442359.795 6 128445547.10006     -2516.008 6        38.186                                                                    24442357.536 7  95917049.93907     -1878.905 7        46.777    24442355.966 7  98419233.76407     -1927.804 7        42.336
G03         8.000    19915360.758 8 104655926.02308     -1227.289 8        51.915                                    19915358.547 7  81550107.00507      -956.328 7        46.812    19915359.110 7  81550097.01607      -956.290 7        42.760
G09         9.000    22532456.141 5                      2443.343 5        30.657                                                                                                    22532459.597 4  92266634.71604      1903.803 4        28.114
G04        11.000    20740148.542 7 108990233.64107      1174.056 7        44.981                                    20740145.824 4  84927401.18704       914.850 4        27.437    20740145.768 6  84927428.13806       914.926 6        40.315
E09        12.000    23618628.437 7 124116826.19707       168.890 7        46.421                                                                    23618627.356 8  92684635.04308       126.103 8        48.384    23618627.420 8  95102472.04508       129.376 8        48.330
E10        13.000    26912688.428 5                     -3686.166 5        31.985                                                                    26912682.652 4 105611128.93904     -2752.988 4        28.682    26912676.868 3                     -2824.198 3        22.724
E06        14.000    23365662.939 5 122787461.83505     -1166.123 5        34.176                                                                    23365663.460 7  91691898.55907      -870.743 7        45.839    23365663.409 8  94083863.40108      -893.472 8        48.009
E11        15.000    24527126.448 6 128890966.37606     -2933.801 6        38.910                                                                    24527121.716 7  96249707.86107     -2190.781 7        42.140    24527122.945 7  98760536.24007     -2247.988 7        43.748
G28        17.000                                                                                                                                                                    23352136.245 5  95623019.83605     -1693.453 5        35.533
G06        19.000    23988032.319 6 126058050.92206      2565.835 6        39.396                                    23988033.950 5  98226946.66105      1999.351 5        30.196    23988033.046 6  98227019.69206      1999.540 6        36.873
E36        20.000    23402085.543 5 122978927.00305      -350.486 5        34.857                                                                    23402086.688 7  91834794.78607      -261.840 7        43.503    23402084.422 6  94230516.17406      -268.709 6        39.501
E05        21.000    25251867.573 5 132699477.53405      2061.864 5        34.952                                                                    25251862.421 3                      1538.461 3        21.381    25251883.326 4 101678820.02104      1579.697 4        26.395
G17        22.000    22446144.539 6 117955254.99206     -2095.833 6        39.003                                    22446137.150 4  91913254.41404     -1633.105 4        28.844    22446137.542 6  91913177.40706     -1632.979 6        38.658
R07        23.000                                                                                                                                    22977773.678 4                      2075.000 4        26.299
S23        24.000    38109734.258 6 200267952.28306      -824.566 6        41.168
S36        25.000    38161396.689 6 200539396.51606      -828.464 6        36.711
C23        26.000                                                                                                                                    26094245.946 5 135879663.00805      -553.549 5        30.287
R20        27.000    21219134.062 4                     -4658.426 4        28.815                                                                    21219129.103 5                     -3623.274 5        31.675
R06        29.000    19727388.967 5 105269133.92005       590.790 5        35.071
C19        33.000                                                                                                                                    22842487.290 6 118946940.86006       921.178 6        40.706                                                                    22842482.561 7  96654013.62107       748.456 7        46.019
R21        34.000    19326187.926 8 103418446.22908      -917.324 8        50.607                                                                    19326186.138 6  80436472.58106      -713.471 6        41.650
R05        36.000    20641310.722 7 110339737.55107     -3713.358 7        47.675
R22        37.000    22116390.450 8 118058760.33908      2878.231 8        48.072                                                                    22116387.073 6  91823519.76506      2238.659 6        40.253
C39        38.000                                                                                                                                    38927646.501 4 202706327.56004     -1219.894 4        25.925
C06        41.000                                                                                                                                    38228514.694 6 199065901.93106      -666.638 6        40.384    38228507.749 7 153930348.41407      -515.466 7        46.724    38228504.467 5 161757315.75705      -541.708 5        34.333
C29        43.000                                                                                                                                    22964320.491 6 119581080.40206     -3301.976 6        39.646                                                                    22964307.236 6  97169534.39706     -2682.942 6        38.099
C16        45.000                                                                                                                                    38684884.249 6 201442416.37206      -780.628 6        39.042    38684884.931 6 155767982.36406      -603.640 6        41.101    38684880.688 5 163688389.38305      -634.320 5        32.904
C09        46.000                                                                                                                                    38665396.841 6 201340885.06406      -163.734 6        41.013    38665395.569 7 155689542.46407      -126.550 7        44.021    38665392.488 6 163605921.64606      -132.873 6        40.975
C32        47.000                                                                                                                                                                                                                                                                    25502195.450 4                     -2971.767 4        25.789
C44        48.000                                                                                                                                    26005747.454 6 135418675.10306      2065.805 6        36.639                                                                    26005728.027 5 110038757.95405      1678.595 5        32.222
C35        51.000                                                                                                                                    23053775.201 7 120047032.70007        92.979 7        43.888                                                                    23053770.441 6  97548066.55606        75.512 6        40.260
I09        54.000    37167616.204 7 145853707.28107      -773.836 7        43.380
C20        55.000                                                                                                                                    21930891.452 8 114199904.22908     -1687.005 8        49.357                                                                    21930886.301 7  92796855.45207     -1370.882 7        42.366
I01        56.000   333102720.644 6   4025816.73506     -2900.308 6        39.147
> 2025 01 01 01 47 35.0000000  0 39
G21         3.000    23752056.799 4                     -3930.841 4        27.198
G31         4.000    22190493.944 4 116611367.87304      -361.521 4        29.583                                    22190496.455 1  90866329.26101      -281.701 1        11.778    22190499.138 4                      -281.561 4        29.242
G02         5.000    22102685.726 6 116150450.83506     -3399.333 6        41.101                                    22102678.495 3  90506679.43303     -2648.820 3        22.629
E34         6.000    26394344.580 6 138703219.55106      1812.091 6        39.300                                                                    26394344.867 7 103577126.44307      1353.163 7        42.102    26394343.631 6 106279106.83506      1388.416 6        41.540
E04         7.000    24444754.024 6 128458130.92506     -2517.843 6        39.363                                                                    24444752.033 7  95926446.95707     -1880.040 7        46.513    24444750.746 7  98428875.92107     -1929.073 7        42.172
G03         8.000    19916529.377 8 104662067.40408     -1229.501 8        51.606                                    19916527.604 7  81554892.49007      -958.049 7        47.236    19916528.569 7  81554882.51307      -958.100 7        42.781
G09         9.000    22530134.819 5                      2441.545 5        35.919                                                                                                    22530137.384 4  92257118.64204      1902.482 4        25.278
G04        11.000    20739032.568 7 108984369.49307      1171.344 7        44.539                                    20739029.944 4  84922831.69904       912.748 4        27.245    20739029.909 6  84922858.65806       912.851 6        40.038
E09        12.000    23618468.404 7 124115986.97007       166.632 7        46.100                                                                    23618467.690 8  92684008.34008       124.494 8        48.574    23618467.720 8  95101828.99908       127.720 8        48.610
E10        13.000    26916197.056 5                     -3686.885 5        32.126                                                                    26916190.370 4 105624894.01104     -2753.199 4        28.654    26916185.321 3                     -2825.492 3        23.467
E06        14.000    23366774.379 5 122793297.15905     -1168.119 5        35.471                                                                    23366774.048 7  91696256.09007      -872.387 7        45.840    23366773.783 8  94088334.61408      -895.183 8        48.097
E11        15.000    24529918.606 6 128905639.32106     -2935.595 6        39.802                                                                    24529913.806 7  96260664.93007     -2192.221 7        42.159    24529915.199 7  98771779.13907     -2249.383 7        43.771
G19        16.000    22293689.029 6 117154347.59506      -193.401 6        37.085                                    22293687.091 1  91288954.36001      -150.689 1         3.400
G28        17.000    23354162.045 5                     -2176.165 5        33.737
G06        19.000    23985591.485 6 126045223.36006      2565.042 6        39.841                                    23985592.315 4  98216951.15704      1998.736 4        29.488    23985591.680 6  98217024.21506      1998.447 6        36.215
E36        20.000    23402420.345 5 122980685.38905      -352.694 5        34.595                                                                    23402421.624 7  91836107.86007      -263.490 7        43.973    23402419.107 6  94231863.51206      -270.368 6        39.372
E05        21.000    25249904.165 5 132689170.75705      2060.888 5        33.659                                                                    25249903.492 4                      1538.705 4        24.105    25249911.275 4 101670922.54904      1579.006 4        28.787
G17        22.000    22448146.189 6 117965740.30306     -2098.694 6        40.188                                    22448133.009 4  91921424.76004     -1635.335 4        28.190    22448132.391 6  91921347.76106     -1635.178 6        38.529
S23        24.000    38110518.277 6 200272075.16306      -824.905 6        40.951
S36        25.000    38162184.101 6 200543537.82406      -828.360 6        36.756
C23        26.000                                                                                                                                    26094784.432 4 135882437.13204      -556.237 4        28.502
R20        27.000    21223489.315 4                     -4660.354 4        29.536                                                                    21223486.891 5                     -3624.817 5        31.275
R06        29.000    19726838.058 6 105266188.06406       587.793 6        36.405
R14        30.000    23157593.518 4                      -661.349 4        26.419
C19        33.000                                                                                                                                    22841602.332 6 118942339.26206       919.411 6        40.899                                                                    22841599.080 7  96650274.43307       747.258 7        46.244
R21        34.000    19327046.878 8 103423044.09608      -922.074 8        49.783                                                                    19327044.571 6  80440048.70906      -717.217 6        39.240
R05        36.000    20644784.329 7 110358307.77007     -3714.964 7        46.751
R22        37.000    22113694.852 7 118044373.95807      2876.143 7        47.206                                                                    22113692.199 6  91812330.36206      2237.057 6        38.703
C39        38.000                                                                                                                                    38928816.741 4 202712427.43004     -1220.848 4        24.992
C06        41.000                                                                                                                                    38229154.719 6 199069236.85806      -667.581 6        40.188    38229148.290 7 153932927.19607      -516.245 7        46.750    38229144.997 5 161760025.62505      -542.307 5        34.067
C29        43.000                                                                                                                                    22967492.675 6 119597594.23106     -3303.793 6        36.265                                                                    22967479.035 6  97182953.23706     -2684.574 6        37.856
C16        45.000                                                                                                                                    38685634.467 6 201446321.56706      -781.580 6        39.117    38685635.056 6 155771002.11606      -604.504 6        40.896    38685630.656 5 163691562.62005      -634.742 5        32.539
C09        46.000                                                                                                                                    38665555.164 6 201341705.42006      -164.643 6        41.261    38665553.088 7 155690176.81607      -127.347 7        43.752    38665549.930 6 163606588.25006      -133.669 6        40.834
C32        47.000                                                                                                                                                                                                                                                                    25505709.296 4                     -2971.952 4        25.594
C44        48.000                                                                                                                                    26003766.720 5 135408348.68705      2064.283 5        35.924                                                                    26003745.548 5 110030366.88105      1678.006 5        33.084
C35        51.000                                                                                                                                    23053687.653 7 120046574.78307        90.111 7        43.545                                                                    23053682.519 6  97547694.44606        73.360 6        40.374
I09        54.000    37168602.537 7 145857577.31107      -774.217 7        43.122
C20        55.000                                                                                                                                    21932512.405 8 114208343.32908     -1688.816 8        49.422                                                                    21932506.985 7  92803712.87507     -1372.036 7        43.122
I01        56.000   333106415.733 6   4040318.29406     -2900.544 6        39.144
