     3.04           OBSERVATION DATA    M                   RINEX VERSION / TYPE
ssrcrin-15.6.1x                         20250101 024500 UTC PGM / RUN BY / DATE 
(00000000023479385599111004) Septentrio proprietary         COMMENT             
ract                                                        MARKER NAME         
01                                                          MARKER NUMBER       
geodetic                                                    MARKER TYPE         
NFB                 CLIMERS@TUW                             OBSERVER / AGENCY   
3296359             SEPT ASTERX SB3 PROB4.14.4              REC # / TYPE / VERS 
Unknown             Unknown                                 ANT # / TYPE        
  4127445.2402  1206914.4159  4695542.2671                  APPROX POSITION XYZ 
        0.0000        0.0000        0.0000                  ANTENNA: DELTA H/E/N
G   23 X1  C1C L1C D1C S1C C1W S1W C2W L2W D2W S2W C2L L2L  SYS / # / OBS TYPES 
       D2L S2L C5Q L5Q D5Q S5Q C1L L1L D1L S1L              SYS / # / OBS TYPES 
E   21 X1  C1C L1C D1C S1C C6C L6C D6C S6C C5Q L5Q D5Q S5Q  SYS / # / OBS TYPES 
       C7Q L7Q D7Q S7Q C8Q L8Q D8Q S8Q                      SYS / # / OBS TYPES 
S    9 X1  C1C L1C D1C S1C C5I L5I D5I S5I                  SYS / # / OBS TYPES 
R   17 X1  C1C L1C D1C S1C C2P L2P D2P S2P C2C L2C D2C S2C  SYS / # / OBS TYPES 
       C3Q L3Q D3Q S3Q                                      SYS / # / OBS TYPES 
C   25 X1  C1P L1P D1P S1P C5P L5P D5P S5P C2I L2I D2I S2I  SYS / # / OBS TYPES 
       C7I L7I D7I S7I C6I L6I D6I S6I C7D L7D D7D S7D      SYS / # / OBS TYPES 
J   17 X1  C1C L1C D1C S1C C2L L2L D2L S2L C5Q L5Q D5Q S5Q  SYS / # / OBS TYPES 
       C1L L1L D1L S1L                                      SYS / # / OBS TYPES 
I    5 X1  C5A L5A D5A S5A                                  SYS / # / OBS TYPES 
SEPTENTRIO RECEIVERS OUTPUT ALIGNED CARRIER PHASES.         COMMENT             
NO FURTHER PHASE SHIFT APPLIED IN THE RINEX ENCODER.        COMMENT             
G L1C                                                       SYS / PHASE SHIFT   
G L2W                                                       SYS / PHASE SHIFT   
G L2L  0.00000                                              SYS / PHASE SHIFT   
G L5Q  0.00000                                              SYS / PHASE SHIFT   
G L1L  0.00000                                              SYS / PHASE SHIFT   
E L1C  0.00000                                              SYS / PHASE SHIFT   
E L6C  0.00000                                              SYS / PHASE SHIFT   
E L5Q  0.00000                                              SYS / PHASE SHIFT   
E L7Q  0.00000                                              SYS / PHASE SHIFT   
E L8Q  0.00000                                              SYS / PHASE SHIFT   
S L1C                                                       SYS / PHASE SHIFT   
S L5I                                                       SYS / PHASE SHIFT   
R L1C                                                       SYS / PHASE SHIFT   
R L2P  0.00000                                              SYS / PHASE SHIFT   
R L2C                                                       SYS / PHASE SHIFT   
R L3Q  0.00000                                              SYS / PHASE SHIFT   
C L1P  0.00000                                              SYS / PHASE SHIFT   
C L5P  0.00000                                              SYS / PHASE SHIFT   
C L2I                                                       SYS / PHASE SHIFT   
C L7I                                                       SYS / PHASE SHIFT   
C L6I                                                       SYS / PHASE SHIFT   
C L7D                                                       SYS / PHASE SHIFT   
J L1C                                                       SYS / PHASE SHIFT   
J L2L  0.00000                                              SYS / PHASE SHIFT   
J L5Q  0.00000                                              SYS / PHASE SHIFT   
J L1L  0.00000                                              SYS / PHASE SHIFT   
I L5A                                                       SYS / PHASE SHIFT   
  2025     1     1     2    45    0.0000000     GPS         TIME OF FIRST OBS   
 C1C    0.000 C2C    0.000 C2P    0.000                     GLONASS COD/PHS/BIS 
DBHZ                                                        SIGNAL STRENGTH UNIT
    18                                                      LEAP SECONDS        
 24 R01  1 R02 -4 R03  5 R04  6 R05  1 R06 -4 R07  5 R08  6 GLONASS SLOT / FRQ #
    R09 -2 R10 -7 R11  0 R12 -1 R13 -2 R14 -7 R15  0 R16 -1 GLONASS SLOT / FRQ #
    R17  4 R18 -3 R19  3 R20  2 R21  4 R22 -3 R23  3 R24  2 GLONASS SLOT / FRQ #
                                                            END OF HEADER       
> 2025 01 01 02 45  0.0000000  0 42
G02         1.000    24066815.480 4                     -4286.722 4        24.481
G31         4.000    22633342.093 5 118938981.76005     -2762.814 5        34.038                                    22633333.650 3  92679717.11903     -2152.836 3        20.048    22633333.635 5  92679719.14205     -2152.860 5        35.514
E34         6.000    24817093.735 8 130414713.01408      1058.464 8        48.903                                                                    24817092.824 7  97387658.47607       790.413 7        46.186    24817091.430 7  99928174.30707       811.042 7        45.278
E04         7.000    25763037.878 6 135385676.85806     -3233.255 6        40.956                                                                    25763037.935 7 101099676.67807     -2414.427 7        44.343    25763036.147 7 103737059.58307     -2477.466 7        42.798
G03         8.000    20566329.478 7 108076834.42407     -2557.151 7        42.218                                    20566327.211 5  84215711.04405     -1992.586 5        35.109    20566326.350 6  84215666.06206     -1992.519 6        38.571
G09         9.000    20713461.528 7 108849963.04007      1184.150 7        47.445                                    20713458.214 7  84818162.47207       922.719 7        44.336    20713458.771 7  84818153.46807       922.656 7        42.722
R14        10.000    23891686.728 4                     -3351.076 4        29.972                                                                    23891714.788 4                     -2606.399 4        24.526
G04        11.000    19956576.740 8 104872545.57008      -626.662 8        49.046                                    19956573.995 6  81718813.22006      -488.304 6        39.147    19956573.633 7  81718832.21407      -488.308 7        47.237
E09        12.000    23344309.820 7 122675274.71607     -1126.215 7        46.556                                                                    23344309.396 7  91608152.84607      -841.005 7        47.944    23344306.769 7  93997907.55707      -862.930 7        44.065
E06        14.000    23934135.202 6 125774771.91006     -2312.854 6        40.591                                                                    23934135.295 8  93922703.79808     -1727.205 8        50.066    23934135.624 8  96372829.58808     -1772.219 8        49.862
E11        15.000    26157985.379 5 137461150.15905     -3789.239 5        33.084                                                                    26157981.925 6 102649552.61006     -2829.661 6        36.344    26157980.767 5 105327371.38605     -2903.363 5        31.064
G28        17.000    24793350.425 4                     -3879.091 4        28.464
G06        19.000    21992522.855 7 115571593.62307      1508.237 7        44.769                                    21992517.718 5  90055682.82005      1175.244 5        32.305    21992520.082 5  90055755.89605      1174.929 5        34.190
E36        20.000    23498689.404 7 123486586.97207     -1800.662 7        43.820                                                                    23498689.974 7  92213890.96307     -1344.702 7        44.856    23498690.145 7  94619501.88107     -1379.758 7        46.053
E05        21.000    23506770.716 7 123528926.87107      1375.797 7        45.645                                                                    23506768.827 7  92245655.58707      1027.389 7        42.427    23506771.942 6  94652051.57406      1054.217 6        39.673
G17        22.000    23736266.237 5 124734902.31805     -3481.568 5        34.029                                    23736256.527 1  97196002.18001     -2712.916 1         7.625
R07        23.000    20968257.625 8 112244679.68408      1649.102 8        48.939                                                                    20968252.299 6  87301513.62406      1282.618 6        39.372
S23        24.000    38051959.875 6 199964321.87906      -823.691 6        40.961
S36        25.000    38106280.913 5 200249785.30505      -827.573 5        35.662
G11        26.000    25293792.486 4                      2759.959 4        25.383                                                                                                    25293761.684 5                      2150.354 5        31.789
R15        28.000    22185004.908 6 118549910.06306      -180.809 6        36.503
R06        29.000    19336144.104 5 103181389.27705     -1185.736 5        33.964
C05        32.000                                                                                                                                                                                                    39037378.185 5 157187366.29705      -655.045 5        33.904
C19        33.000                                                                                                                                    21969355.894 7 114400322.39707       -94.620 7        45.395                                                                    21969352.032 7  92959514.78007       -76.935 7        45.386
R21        34.000    20302700.645 6 108643951.90106     -3846.187 6        39.910                                                                    20302700.253 6  84500763.15706     -2991.509 6        41.809
R05        36.000    22659435.348 4 121127609.52504     -4254.225 4        27.748                                                                    22659413.290 5                     -3309.030 5        33.341
R22        37.000    20272655.631 7 108216797.85207       708.272 7        47.033                                                                    20272654.006 6  84168660.48306       550.889 6        40.970
C39        38.000                                                                                                                                    39302572.686 5 204658787.05305     -1687.667 5        34.843                                                                    39302592.935 4 166302102.84704     -1371.615 4        28.768
R16        39.000    22929093.241 5 122483131.48305      2757.154 5        35.367
C06        41.000                                                                                                                                    38265702.937 5                     -1231.386 5        34.138    38265701.340 6 154080049.08906      -952.359 6        36.677    38265683.543 4 161914655.22904     -1000.609 4        28.863
C29        43.000                                                                                                                                    24889586.699 6 129606606.27206     -4153.573 6        39.595                                                                    24889585.082 6 105315976.34606     -3374.982 6        40.865
R23        44.000    23505908.919 3                      3260.379 3        23.010
C16        45.000                                                                                                                                    38788582.090 6 201982377.43406     -1315.902 6        38.144    38788581.513 6 156185702.79106     -1017.587 6        36.238    38788579.303 5                     -1069.446 5        31.540
C09        46.000                                                                                                                                    38364757.454 6 199775369.28906      -726.710 6        36.688    38364758.588 7 154478990.28407      -561.939 7        44.730    38364751.678 6 162333824.69806      -590.391 6        37.682
C44        48.000                                                                                                                                    24421795.726 7 127170802.75407       766.749 7        43.702                                                                    24421792.813 7 103336594.06607       622.961 7        42.076
C37        49.000                                                                                                                                    24765903.777 4 128962575.29604       105.201 4        29.858                                                                    24765905.561 5 104792647.09505        85.417 5        31.781
C22        50.000                                                                                                                                    24947534.387 5 129908380.42705      1835.866 5        34.362                                                                    24947550.840 4                      1491.871 4        29.156
C35        51.000                                                                                                                                    23038689.736 7 119968715.38707     -1853.104 7        47.021                                                                    23038686.338 6  97484292.16106     -1505.714 6        37.996
C20        55.000                                                                                                                                    22767285.722 7 118555216.54907     -2582.666 7        45.163                                                                    22767277.979 6  96335903.26206     -2098.691 6        40.996
C12        56.000                                                                                                                                    26296340.452 5 136931951.90905      1893.971 5        33.413    26296340.425 7 105884340.60707      1464.669 7        43.128    26296320.909 5 111268348.93805      1539.255 5        35.862
C23        57.000                                                                                                                                    26464045.970 3                     -2328.709 3        18.060
I01        60.000   335087252.969 6  11813557.16506     -2975.509 6        39.441
> 2025 01 01 02 45  5.0000000  0 40
G02         1.000    24070893.922 3                     -4287.667 3        20.833
G31         4.000    22635973.178 5 118952803.74105     -2765.880 5        34.857                                    22635963.715 3  92690487.46603     -2155.231 3        20.119    22635962.908 5  92690489.49805     -2155.166 5        34.690
E34         6.000    24816087.388 8 130409425.21408      1056.799 8        48.685                                                                    24816086.551 7  97383709.79507       789.179 7        46.069    24816085.015 7  99924122.61707       809.777 7        45.117
E04         7.000    25766114.825 7 135401845.31907     -3233.962 7        42.076                                                                    25766114.463 7 101111750.53807     -2414.972 7        44.325    25766112.906 7 103749448.41107     -2477.867 7        43.001
G03         8.000    20568764.483 7 108089625.42007     -2559.038 7        42.324                                    20568761.357 5  84225678.09105     -1994.062 5        34.852    20568760.527 6  84225633.12206     -1994.039 6        39.216
G09         9.000    20712336.036 7 108844047.98707      1182.043 7        47.060                                    20712332.917 7  84813553.33707       921.074 7        44.278    20712333.574 7  84813544.32307       921.171 7        42.967
R14        10.000    23894830.645 3                     -3354.790 3        20.262                                                                    23894857.802 3                     -2608.079 3        20.810
G04        11.000    19957174.691 8 104875685.89408      -629.338 8        48.703                                    19957171.457 6  81721260.23006      -490.398 6        38.802    19957171.187 7  81721279.23207      -490.400 7        47.173
E09        12.000    23345382.388 7 122680910.68507     -1127.987 7        46.414                                                                    23345381.862 8  91612361.52208      -842.321 8        48.047    23345379.143 7  94002226.03307      -864.355 7        43.977
E06        14.000    23936335.881 6 125786340.14706     -2314.190 6        40.756                                                                    23936336.662 8  93931342.42308     -1728.137 8        49.945    23936337.112 8  96381693.57108     -1773.275 8        50.106
E11        15.000    26161591.301 5 137480098.98205     -3789.869 5        31.698                                                                    26161587.816 5 102663702.72605     -2830.563 5        35.805    26161586.101 5 105341890.60605     -2904.136 5        30.445
G28        17.000    24797041.642 4                     -3880.575 4        28.379
G06        19.000    21991088.502 7 115564058.46807      1505.954 7        45.499                                    21991083.105 5  90049811.28305      1173.464 5        32.210    21991084.641 5  90049884.32505      1173.368 5        34.357
E36        20.000    23500404.116 7 123495596.62807     -1802.910 7        44.635                                                                    23500404.582 7  92220618.96607     -1346.366 7        45.088    23500404.651 7  94626405.39107     -1381.446 7        46.045
E05        21.000    23505462.057 7 123522051.62807      1374.567 7        45.765                                                                    23505460.488 7  92240521.49007      1026.423 7        42.413    23505463.612 6  94646783.55306      1053.203 6        41.008
G17        22.000                                                                                                                                                                    23739645.570 3                     -2715.309 3        18.687
R07        23.000    20966716.551 8 112236439.25408      1647.333 8        49.568                                                                    20966712.785 6  87295104.42706      1281.399 6        37.894
S23        24.000    38052743.473 6 199968440.64506      -823.688 6        40.839
S36        25.000    38107061.618 5 200253924.74305      -827.928 5        35.005
G11        26.000    25291171.275 4                      2758.306 4        27.641                                                                                                    25291138.246 5                      2149.866 5        31.525
R06        29.000    19337256.859 5 103187324.90705     -1188.502 5        33.742
C05        32.000                                                                                                                                                                                                    39038191.162 5 157190641.15305      -654.935 5        34.257
C19        33.000                                                                                                                                    21969447.567 7 114400799.90607       -96.149 7        44.187                                                                    21969443.594 7  92959902.82007       -78.195 7        45.264
R21        34.000    20306295.458 6 108663192.63306     -3849.773 6        39.877                                                                    20306295.384 6  84515728.18606     -2994.301 6        41.580
R05        36.000    22663419.308 5 121148883.15215     -4254.987 5        30.951                                                                    22663390.253 5                     -3309.410 5        33.018
R22        37.000    20271994.153 7 108213267.30107       704.047 7        46.091                                                                    20271991.936 6  84165914.52206       547.624 6        40.906
C39        38.000                                                                                                                                    39304193.502 5 204667226.91605     -1688.617 5        33.958                                                                    39304214.741 4 166308960.89504     -1371.477 4        28.967
R16        39.000    22926508.706 5 122469350.74705      2755.164 5        35.638
C06        41.000                                                                                                                                    38266885.605 5 199265714.75115     -1232.316 5        34.510    38266881.223 6 154084812.57806      -952.917 6        36.794    38266866.191 4 161919660.95704     -1001.219 4        28.701
C29        43.000                                                                                                                                    24893575.921 6 129627375.45206     -4153.965 6        39.841                                                                    24893573.802 6 105332853.02806     -3375.621 6        41.318
R23        44.000    23502865.385 3                      3257.419 3        22.781
C16        45.000                                                                                                                                    38789845.506 6 201988959.00106     -1316.493 6        38.291    38789844.674 6 156190792.07006     -1017.950 6        36.745    38789843.136 5                     -1070.107 5        31.336
C09        46.000                                                                                                                                    38365454.092 6 199779005.34806      -727.394 6        36.715    38365456.375 7 154481801.92007      -562.487 7        45.112    38365449.920 6 162336779.31006      -591.426 6        37.996
C44        48.000                                                                                                                                    24421059.506 7 127166976.00407       764.182 7        42.762                                                                    24421057.345 6 103333484.50606       620.910 6        41.569
C37        49.000                                                                                                                                    24765800.930 4 128962055.74804       102.821 4        27.401                                                                    24765805.569 5 104792224.93405        83.417 5        30.558
C22        50.000                                                                                                                                    24945776.563 5 129899203.03505      1835.490 5        34.224                                                                    24945788.574 4                      1490.994 4        28.284
C35        51.000                                                                                                                                    23040470.476 7 119977987.95807     -1855.868 7        46.654                                                                    23040467.853 6  97491826.85706     -1508.108 6        39.027
C20        55.000                                                                                                                                    22769766.656 7 118568133.09907     -2583.775 7        45.070                                                                    22769758.651 6  96346399.01606     -2099.434 6        41.178
C12        56.000                                                                                                                                    26294524.238 5 136922485.26705      1892.873 5        33.012    26294522.574 6 105877020.43306      1463.386 6        41.838    26294502.221 5 111260656.57105      1537.744 5        35.190
I01        60.000   335091043.608 6  11828435.10906     -2975.530 6        39.069
> 2025 01 01 02 45 10.0000000  0 39
G31         4.000    22638607.913 5 118966640.72305     -2768.333 5        32.545                                    22638596.463 3  92701269.54403     -2157.119 3        20.143    22638595.663 5  92701271.56905     -2157.592 5        34.114
E34         6.000    24815082.235 8 130404144.95008      1055.635 8        48.449                                                                    24815081.766 7  97379766.74107       788.273 7        45.806    24815079.990 7  99920076.68807       808.837 7        44.969
E04         7.000    25769192.020 7 135418016.45407     -3234.087 7        42.521                                                                    25769191.463 7 101123826.38007     -2415.078 7        44.436    25769190.089 7 103761839.27807     -2478.092 7        42.811
G03         8.000    20571200.001 6 108102425.05406     -2560.479 6        40.894                                    20571197.094 5  84235651.84305     -1995.178 5        34.114    20571195.995 6  84235606.83806     -1994.927 6        39.637
G09         9.000    20711211.231 7 108838143.31607      1180.310 7        44.974                                    20711209.673 7  84808952.28807       919.723 7        44.161    20711210.330 7  84808943.27907       919.717 7        43.410
R14        10.000                                                                                                                                    23898009.593 3                     -2608.990 3        21.000
G04        11.000    19957774.669 8 104878838.71908      -631.468 8        48.929                                    19957771.236 6  81723716.98106      -492.054 6        38.544    19957771.573 7  81723735.98607      -492.090 7        47.412
E09        12.000    23346456.232 7 122686554.69107     -1129.283 7        46.424                                                                    23346455.940 8  91616576.20208      -843.277 8        48.367    23346453.058 7  94006550.66007      -865.357 7        43.752
E06        14.000    23938537.975 6 125797914.49206     -2315.179 6        40.753                                                                    23938539.180 8  93939985.59908     -1728.856 8        49.813    23938539.736 8  96390562.21408     -1773.926 8        50.347
E11        15.000    26165197.578 5 137499051.79605     -3790.184 5        30.287                                                                    26165194.425 5 102677855.82105     -2830.666 5        35.748    26165192.637 4 105356412.94504     -2904.405 4        29.972
G28        17.000    24800735.305 4                     -3882.308 4        28.976                                                                                                    24800717.797 3                     -3024.976 3        22.000
G06        19.000    21989656.415 7 115556534.47707      1504.018 7        45.845                                    21989650.702 5  90043948.46105      1171.961 5        32.563    21989652.308 5  90044021.46105      1171.922 5        34.162
E36        20.000    23502120.824 7 123504616.76707     -1804.795 7        44.919                                                                    23502121.258 7  92227354.77107     -1347.813 7        45.451    23502121.244 7  94633316.92107     -1382.863 7        45.801
E05        21.000    23504154.460 7 123515181.94207      1373.710 7        45.567                                                                    23504153.322 7  92235391.53707      1025.795 7        42.736    23504156.271 7  94641519.77407      1052.597 7        42.199
R07        23.000    20965178.331 8 112228206.81408      1646.002 8        50.705                                                                    20965175.563 6  87288701.42406      1280.259 6        36.450
S23        24.000    38053522.032 6 199972559.04906      -823.351 6        40.899
S36        25.000    38107845.051 5 200258064.42505      -827.622 5        35.138
G11        26.000    25288549.567 5                      2758.341 5        30.325                                                                                                    25288514.628 5                      2149.375 5        33.317
R15        28.000    22185373.005 6 118551761.93206      -188.965 6        37.894
R06        29.000    19338371.789 5 103193271.63505     -1190.089 5        33.180
C05        32.000                                                                                                                                                                                                    39039005.100 5 157193915.75605      -654.566 5        34.319
C19        33.000                                                                                                                                    21969539.836 7 114401284.30807       -97.250 7        42.984                                                                    21969536.519 7  92960296.43807       -79.054 7        45.216
R21        34.000    20309892.771 6 108682450.30506     -3852.850 6        39.976                                                                    20309894.113 7  84530706.40007     -2996.743 7        42.210
R05        36.000    22667403.871 5 121170157.49215     -4254.687 5        33.671                                                                    22667371.763 5                     -3309.347 5        33.323
R22        37.000    20271336.112 7 108209757.30907       700.240 7        45.270                                                                    20271332.845 6  84163184.54906       544.574 6        39.826
C39        38.000                                                                                                                                    39305815.475 5 204675668.97105     -1688.355 5        34.171                                                                    39305837.229 4 166315820.83904     -1371.663 4        27.677
R16        39.000    22923930.845 5 122455578.10805      2754.089 5        34.638
C06        41.000                                                                                                                                    38268068.546 5 199271878.12205     -1232.843 5        34.390    38268062.123 6 154089578.47406      -953.127 6        37.096    38268049.320 4 161924669.21004     -1002.035 4        28.559
C29        43.000                                                                                                                                    24897565.227 6 129648146.72206     -4154.034 6        40.417                                                                    24897562.747 6 105349731.38306     -3375.708 6        41.685
R23        44.000    23499819.289 3                      3255.856 3        20.619
C16        45.000                                                                                                                                    38791110.132 6 201995543.42406     -1316.902 6        38.273    38791109.236 6 156195883.55806     -1018.065 6        36.488    38791107.487 5                     -1070.444 5        31.336
C09        46.000                                                                                                                                    38366153.835 6 199782644.80606      -727.909 6        37.032    38366155.331 7 154484616.16607      -562.871 7        45.079    38366148.754 6 162339736.66506      -591.681 6        37.951
C44        48.000                                                                                                                                    24420325.264 6 127163161.07506       762.211 6        41.425                                                                    24420324.516 6 103330384.53806       619.322 6        41.304
C37        49.000                                                                                                                                    24765705.582 4 128961548.59404       100.455 4        28.796                                                                    24765708.839 4 104791812.84704        81.638 4        29.336
C22        50.000                                                                                                                                    24944013.779 5 129890028.09905      1835.257 5        35.038                                                                    24944030.797 4                      1490.823 4        27.772
C35        51.000                                                                                                                                    23042253.140 7 119987273.55107     -1858.084 7        46.302                                                                    23042251.412 6  97499372.16606     -1510.036 6        40.355
C20        55.000                                                                                                                                    22772247.966 7 118581054.36207     -2584.406 7        46.094                                                                    22772240.159 6  96356898.61606     -2100.044 6        41.409
C12        56.000                                                                                                                                    26292710.364 5 136913025.97105      1891.525 5        33.527    26292706.289 6 105869705.88506      1462.573 6        41.128    26292685.665 5 111252970.10105      1536.982 5        34.386
I01        60.000   335094835.457 6  11843313.27606     -2975.509 6        39.471
> 2025 01 01 02 45 15.0000000  0 41
G31         4.000    22641244.256 5 118980492.38305     -2771.901 5        30.272                                    22641232.096 3  92712063.07503     -2159.944 3        18.806    22641231.290 5  92712065.08305     -2159.911 5        32.539
E34         6.000    24814078.338 8 130398871.98208      1053.930 8        48.359                                                                    24814078.440 7  97375829.13207       786.968 7        45.582    24814076.426 7  99916036.36107       807.537 7        44.674
E04         7.000    25772270.054 7 135434190.00107     -3234.752 7        42.993                                                                    25772269.103 7 101135904.03507     -2415.664 7        44.533    25772267.773 7 103774231.99807     -2478.715 7        43.045
G03         8.000    20573636.578 6 108115233.04406     -2562.305 6        37.524                                    20573634.316 5  84245632.09405     -1996.599 5        32.467    20573633.175 6  84245587.09106     -1996.678 6        40.029
G09         9.000    20710088.723 7 108832248.77307      1177.984 7        43.932                                    20710088.342 7  84804359.13807       917.916 7        44.077    20710088.460 7  84804350.12307       917.897 7        43.795
R14        10.000    23901147.702 4                     -3360.539 4        25.158                                                                    23901141.742 4                     -2613.510 4        24.556
G04        11.000    19958376.983 8 104882003.79708      -634.139 8        48.811                                    19958373.295 6  81726183.28006      -494.138 6        38.348    19958373.718 7  81726202.28707      -494.189 7        47.414
E09        12.000    23347531.874 7 122692206.48707     -1131.054 7        46.118                                                                    23347531.382 8  91620796.70308      -844.638 8        48.373    23347528.839 7  94010881.26507      -866.653 7        43.469
E06        14.000    23940741.982 6 125809494.66806     -2316.457 6        41.731                                                                    23940742.774 8  93948633.13108     -1729.923 8        49.554    23940743.422 8  96399435.33708     -1775.056 8        50.529
E11        15.000    26168804.066 4 137518008.54104     -3792.251 4        29.384                                                                    26168801.989 5 102692011.79605     -2831.385 5        35.333    26168800.635 4 105370938.21204     -2905.491 4        29.867
G28        17.000    24804432.250 5                     -3883.712 5        31.102                                                                                                    24804406.081 3                     -3027.045 3        22.171
G06        19.000    21988226.368 7 115549021.41307      1501.618 7        45.944                                    21988220.480 5  90038094.14005      1170.095 5        32.820    21988223.182 5  90038167.15005      1170.061 5        31.841
E36        20.000    23503838.750 7 123513647.10507     -1806.987 7        44.728                                                                    23503839.776 7  92234098.20807     -1349.450 7        45.812    23503839.728 7  94640236.27607     -1384.592 7        45.770
E05        21.000    23502848.422 7 123508317.55907      1372.347 7        45.579                                                                    23502847.024 7  92230265.52007      1024.986 7        42.586    23502849.904 7  94636260.06307      1051.579 7        42.861
G17        22.000    23746252.230 4 124787151.17504     -3484.606 4        26.563                                    23746200.173 1  97236715.82901     -2715.366 1         1.778
R07        23.000    20963642.657 8 112219982.31308      1644.173 8        50.799                                                                    20963641.737 6  87282304.59406      1278.909 6        38.066
S23        24.000    38054311.349 6 199976676.72406      -823.469 6        41.225
S36        25.000    38108633.407 6 200262202.69206      -827.536 6        36.038
G11        26.000    25285920.324 4                      2758.108 4        29.848                                                                                                    25285889.366 5 103541487.45815      2148.964 5        33.886
R15        28.000                                                                                                                                    22185584.425 5  92207707.28915      -150.175 5        31.049
R06        29.000    19339486.479 5 103199229.23505     -1192.452 5        32.156
C05        32.000                                                                                                                                                                                                    39039817.911 5 157197189.90105      -654.915 5        34.586
C19        33.000                                                                                                                                    21969634.545 6 114401775.37506       -98.946 6        41.883                                                                    21969630.702 7  92960695.46907       -80.291 7        44.906
R21        34.000    20313494.365 7 108701724.72007     -3856.437 7        43.238                                                                    20313495.975 7  84545697.62107     -2999.412 7        42.123
R05        36.000    22671382.381 5 121191432.36205     -4255.030 5        32.467                                                                    22671351.333 5                     -3309.252 5        32.072
R22        37.000    20270682.190 7 108206267.64807       695.992 7        43.890                                                                    20270677.938 6  84160470.38906       541.293 6        36.733
C39        38.000                                                                                                                                    39307436.897 5 204684113.05005     -1688.846 5        34.067                                                                    39307459.903 4 166322682.34004     -1372.736 4        27.186
R16        39.000    22921354.998 5 122441813.18705      2752.600 5        32.641
C06        41.000                                                                                                                                    38269251.622 5 199278044.37305     -1233.715 5        34.733    38269244.827 6 154094346.61106      -953.782 6        37.660    38269233.261 4 161929679.79904     -1002.489 4        28.246
C29        43.000                                                                                                                                    24901554.363 6 129668919.80406     -4154.755 6        40.796                                                                    24901551.968 6 105366611.19106     -3376.044 6        41.783
R23        44.000    23496779.243 3                      3255.366 3        22.038
C16        45.000                                                                                                                                    38792375.756 6 202002130.45906     -1317.540 6        38.309    38792374.563 6 156200977.06706     -1018.935 6        36.242    38792372.433 5                     -1070.822 5        31.094
C09        46.000                                                                                                                                    38366855.172 6 199786287.33206      -728.678 6        37.584    38366854.519 7 154487432.79307      -563.510 7        44.968    38366848.323 6 162342696.52306      -592.131 6        37.807
C44        48.000                                                                                                                                    24419594.698 6 127159357.71006       759.610 6        41.020                                                                    24419593.882 6 103327293.99406       617.204 6        41.435
C37        49.000                                                                                                                                    24765609.472 4 128961053.55404        98.394 4        24.241                                                                    24765615.194 4 104791410.61404        79.940 4        28.569
C22        50.000                                                                                                                                    24942252.974 6 129880855.16806      1834.437 6        36.567
C35        51.000                                                                                                                                    23044038.580 7 119996571.94207     -1860.905 7        46.338                                                                    23044037.434 6  97506927.86306     -1512.273 6        40.963
C20        55.000                                                                                                                                    22774729.944 7 118593980.12607     -2585.597 7        46.701                                                                    22774722.649 6  96367401.86606     -2100.958 6        41.549
C12        56.000                                                                                                                                    26290900.497 5 136903573.57505      1889.745 5        31.864    26290891.478 6 105862396.72806      1461.336 6        41.230    26290870.677 5 111245289.29605      1535.759 5        33.946
C23        57.000                                                                                                                                    26470807.211 4                     -2346.448 4        25.880
I01        60.000   335098627.007 6  11858191.44906     -2975.704 6        39.628
> 2025 01 01 02 45 20.0000000  0 38
G31         4.000    22643884.197 4 118994359.32504     -2774.635 4        29.934                                    22643870.192 2  92722868.46602     -2162.049 2        17.811    22643870.155 4  92722870.51804     -2162.063 4        28.559
E34         6.000    24813076.467 8 130393606.82908      1052.358 8        48.082                                                                    24813076.657 7  97371897.36107       785.884 7        45.386    24813074.508 7  99912002.02507       806.333 7        44.379
E04         7.000    25775348.204 7 135450366.50007     -3235.408 7        43.173                                                                    25775347.148 7 101147983.88307     -2416.072 7        44.140    25775345.952 7 103786626.96007     -2479.083 7        42.876
G03         8.000    20576074.369 5 108128049.93605     -2564.181 5        33.365                                    20576073.171 5  84255619.27705     -1998.054 5        30.249    20576072.646 6  84255574.25506     -1998.066 6        39.958
G09         9.000    20708970.959 7 108826364.84707      1175.843 7        42.783                                    20708968.951 7  84799774.26207       916.247 7        43.746    20708969.362 7  84799765.24907       916.193 7        43.778
R14        10.000    23904294.088 4                     -3363.731 4        27.677                                                                    23904293.990 4                     -2616.412 4        27.701
G04        11.000    19958981.556 8 104885181.64808      -636.686 8        48.653                                    19958977.778 6  81728659.54006      -496.122 6        38.069    19958978.286 7  81728678.52807      -496.102 7        47.276
E09        12.000    23348608.985 7 122697866.59507     -1132.657 7        45.974                                                                    23348608.329 8  91625023.41208      -845.846 8        48.135    23348606.200 7  94015218.24407      -867.881 7        43.122
E06        14.000    23942947.444 7 125821081.20007     -2317.793 7        42.663                                                                    23942947.500 8  93957285.39908     -1730.776 8        49.107    23942948.221 8  96408313.31208     -1775.927 8        50.518
E11        15.000    26172411.638 4 137536969.52104     -3792.386 4        28.351                                                                    26172410.233 5 102706170.98305     -2831.836 5        34.976    26172408.743 5 105385466.73905     -2905.863 5        30.204
G28        17.000    24808127.474 5                     -3885.284 5        31.389                                                                                                    24808106.174 3                     -3028.366 3        21.905
G06        19.000    21986799.070 7 115541519.81207      1499.368 7        45.699                                    21986792.579 5  90032248.74905      1168.337 5        32.731    21986796.098 4  90032321.78404      1168.539 4        29.251
E36        20.000    23505558.941 7 123522688.18407     -1809.077 7        44.281                                                                    23505560.414 7  92240849.65307     -1350.883 7        46.041    23505560.120 7  94647163.85707     -1386.152 7        45.601
E05        21.000    23501543.619 7 123501459.01307      1371.216 7        45.685                                                                    23501542.074 7  92225143.90307      1023.903 7        42.504    23501544.647 7  94631004.81907      1050.716 7        43.010
R07        23.000    20962107.422 8 112211766.07408      1642.643 8        49.678                                                                    20962107.716 6  87275914.23806      1277.514 6        40.548
S23        24.000    38055096.812 6 199980794.12106      -823.322 6        41.278
S36        25.000    38109420.462 5 200266341.13005      -827.441 5        35.609
G11        26.000    25283292.164 4                      2757.560 4        27.916                                                                                                    25283262.906 5 103530743.04605      2148.735 5        33.832
R06        29.000    19340606.015 5 103205198.34605     -1194.894 5        32.335
C05        32.000                                                                                                                                                                                                    39040631.639 5 157200463.97505      -654.778 5        34.648
C19        33.000                                                                                                                                    21969730.971 6 114402273.59206      -100.285 6        41.359                                                                    21969726.256 7  92961100.32307       -81.638 7        44.716
R21        34.000    20317099.335 7 108721016.37107     -3859.960 7        45.645                                                                    20317100.269 6  84560702.21706     -3002.116 6        41.831
R05        36.000    22675355.871 5 121212708.12015     -4254.982 5        30.008                                                                    22675329.709 5                     -3309.564 5        31.834
R22        37.000    20270030.954 6 108202798.86806       691.815 6        41.049                                                                    20270029.678 5  84157772.44505       538.162 5        31.879
C39        38.000                                                                                                                                    39309057.236 5 204692559.57705     -1689.532 5        33.407                                                                    39309081.562 4 166329545.83004     -1373.020 4        27.593
R16        39.000    22918781.567 4 122428057.02604      2750.624 4        29.697
C06        41.000                                                                                                                                    38270435.912 5 199284214.05105     -1234.331 5        34.124    38270428.108 6 154099117.34706      -954.340 6        37.437    38270418.482 4 161934693.07404     -1003.097 4        28.483
C29        43.000                                                                                                                                    24905544.009 6 129689695.19306     -4155.162 6        40.546                                                                    24905541.552 6 105383492.90606     -3376.654 6        41.914
C16        45.000                                                                                                                                    38793641.845 6 202008720.62406     -1318.413 6        37.482    38793639.915 6 156206073.00006     -1019.343 6        36.276    38793638.707 5                     -1071.157 5        31.540
C09        46.000                                                                                                                                    38367554.301 6 199789933.50506      -729.533 6        37.406    38367554.637 7 154490252.23907      -563.981 7        44.965    38367548.493 6 162345659.32406      -592.892 6        38.237
C44        48.000                                                                                                                                    24418867.220 6 127155566.40506       757.225 6        41.297                                                                    24418865.561 6 103324213.27106       615.116 6        41.104
C37        49.000                                                                                                                                                                                                                                                                    24765524.969 4 104791018.73004        76.583 4        27.653
C22        50.000                                                                                                                                    24940493.951 5 129871684.79605      1833.955 5        35.952                                                                    24940528.921 4                      1490.341 4        29.043
C35        51.000                                                                                                                                    23045827.186 7 120005883.61607     -1863.503 7        46.464                                                                    23045825.977 6  97514494.34706     -1514.351 6        41.712
C20        55.000                                                                                                                                    22777212.230 7 118606910.89907     -2586.510 7        46.735                                                                    22777206.204 6  96377909.19706     -2101.883 6        41.940
C12        56.000                                                                                                                                    26289089.303 5 136894128.73205      1888.610 5        30.536    26289077.673 6 105855093.41006      1460.214 6        40.453    26289056.646 5 111237614.67305      1534.236 5        33.347
C23        57.000                                                                                                                                    26473060.019 4                     -2348.399 4        27.066
I01        60.000   335102418.590 6  11873070.03606     -2975.651 6        39.739
> 2025 01 01 02 45 25.0000000  0 43
G02         1.000    24087203.517 4                     -4289.769 4        26.683
G31         4.000                                                                                                                                                                    22646505.543 3                     -2166.704 3        20.238
E34         6.000    24812076.417 8 130388349.62908      1050.651 8        48.321                                                                    24812076.339 7  97367971.53607       784.616 7        45.312    24812074.132 7  99907973.78707       805.032 7        44.214
E04         7.000    25778426.676 7 135466546.03807     -3236.259 7        43.094                                                                    25778425.777 7 101160066.01707     -2416.602 7        43.901    25778424.733 7 103799024.27507     -2479.757 7        42.785
G03         8.000                                                                                                                                                                    20578513.923 6  84265568.40106     -1999.493 6        40.474
G09         9.000    20707853.699 7 108820491.72107      1173.598 7        42.645                                    20707851.471 7  84795197.79207       914.492 7        44.047    20707851.544 7  84795188.78707       914.576 7        43.852
R14        10.000    23907453.441 5                     -3367.055 5        31.268                                                                    23907453.723 4                     -2619.217 4        28.777
G04        11.000    19959588.400 8 104888372.40508      -639.425 8        48.869                                    19959584.819 6  81731145.84206      -498.253 6        38.237    19959585.724 7  81731164.82707      -498.219 7        47.547
E09        12.000    23349687.282 7 122703535.15607     -1134.532 7        45.880                                                                    23349686.925 8  91629256.42708      -847.246 8        48.067    23349685.392 7  94019561.68807      -869.265 7        43.136
E06        14.000    23945153.734 7 125832674.19707     -2319.239 7        43.369                                                                    23945153.343 8  93965942.51308     -1731.897 8        48.701    23945154.210 8  96417196.26808     -1777.120 8        50.364
E11        15.000                                                                                                                                    26176019.494 5 102720333.50405     -2832.647 5        35.157    26176017.589 5 105399998.72205     -2906.682 5        30.219
G19        16.000    22621818.475 5 118878471.41615     -2534.587 5        34.867
G28        17.000    24811821.915 5                     -3887.073 5        31.683                                                                                                    24811804.523 3                     -3030.594 3        19.075
G06        19.000    21985374.050 7 115534029.82407      1496.902 7        45.788                                    21985367.223 5  90026412.41005      1166.419 5        33.168    21985371.788 5  90026485.36605      1166.431 5        30.551
E36        20.000    23507281.750 7 123531740.13607     -1811.440 7        44.146                                                                    23507283.120 7  92247609.22307     -1352.661 7        46.564    23507282.583 7  94654099.77507     -1388.030 7        45.302
E05        21.000    23500240.005 7 123494606.42807      1369.985 7        46.117                                                                    23500238.092 7  92220026.71807      1022.967 7        43.037    23500240.426 7  94625754.14707      1049.683 7        43.187
G17        22.000                                                                                                                                                                    23752815.473 3                     -2720.114 3        21.429
R07        23.000    20960574.505 8 112203558.16408      1640.816 8        48.766                                                                    20960574.905 7  87269530.34907      1276.144 7        42.980
S23        24.000    38055875.429 6 199984911.18806      -823.289 6        41.406
S36        25.000    38110210.969 5 200270479.49805      -827.444 5        35.924
G11        26.000                                                                                                                                                                    25280641.531 5 103520000.91705      2148.362 5        34.690
R15        28.000    22185880.588 6 118554696.53206      -201.896 6        38.195
R06        29.000    19341727.653 5 103211178.89105     -1196.978 5        32.988
C05        32.000                                                                                                                                                                                                    39041444.133 5 157203738.09405      -654.896 5        34.333
C19        33.000                                                                                                                                    21969829.314 6 114402779.06106      -101.624 6        40.443                                                                    21969823.284 7  92961511.07707       -82.847 7        44.501
R21        34.000    20320710.823 7 108740325.39407     -3863.449 7        47.689                                                                    20320708.457 6  84575720.32706     -3004.941 6        40.939
R05        36.000    22679329.453 5 121233985.11605     -4255.695 5        31.804                                                                    22679308.237 5                     -3309.746 5        30.015
R22        37.000    20269383.428 6 108199351.05506       687.411 6        39.736                                                                    20269386.485 5  84155090.82605       534.795 5        33.222
C39        38.000                                                                                                                                    39310679.595 5 204701008.66205     -1689.967 5        33.024                                                                    39310704.047 4 166336411.42404     -1372.628 4        28.768
R16        39.000    22916209.831 4 122414309.36204      2748.961 4        28.995
C06        41.000                                                                                                                                    38271620.621 5 199290387.16805     -1234.854 5        34.286    38271613.222 6 154103890.81606      -955.003 6        37.259    38271603.183 4 161939709.32204     -1003.756 4        28.180
C29        43.000                                                                                                                                    24909534.063 6 129710473.01506     -4155.760 6        40.470                                                                    24909531.471 7 105400376.58007     -3377.012 7        42.078
R23        44.000    23490714.824 3                      3252.893 3        23.448
C16        45.000                                                                                                                                    38794907.412 6 202015314.03006     -1318.847 6        37.017    38794905.672 6 156211171.46906     -1020.062 6        36.575    38794904.543 5                     -1071.800 5        31.313
C09        46.000                                                                                                                                    38368254.894 6 199793583.40806      -730.097 6        37.781    38368255.612 7 154493074.60107      -564.850 7        44.880    38368249.482 6 162348625.19306      -593.682 6        38.342
C44        48.000                                                                                                                                    24418142.571 7 127151787.35507       754.611 7        42.226                                                                    24418139.985 6 103321142.49706       613.013 6        40.932
C37        49.000                                                                                                                                                                                                                                                                    24765439.253 4 104790637.14604        74.995 4        26.024
C22        50.000                                                                                                                                    24938731.577 5 129862517.16505      1833.394 5        35.052                                                                    24938765.139 4                      1489.782 4        26.754
C35        51.000                                                                                                                                    23047618.146 7 120015208.72207     -1866.392 7        46.454                                                                    23047616.684 7  97522071.75307     -1516.700 7        42.150
C20        55.000                                                                                                                                    22779695.445 7 118619846.82307     -2587.729 7        46.276                                                                    22779690.494 7  96388420.68407     -2102.734 7        42.246
C12        56.000                                                                                                                                    26287276.796 5 136884691.66305      1886.572 5        31.109    26287265.738 6 105847796.16406      1458.889 6        39.784    26287243.988 5 111229946.33905      1533.012 5        32.994
C23        57.000                                                                                                                                    26475309.125 4                     -2351.186 4        24.767
I01        60.000   335106209.704 6  11887949.09206     -2975.974 6        39.435
> 2025 01 01 02 45 30.0000000  0 42
G02         1.000    24091286.967 4                     -4290.578 4        28.133
G31         4.000    22649163.607 3                     -2779.559 3        22.038
E34         6.000    24811077.890 8 130383100.27708      1048.760 8        48.531                                                                    24811077.395 7  97364051.56207       783.131 7        45.090    24811075.368 7  99903951.55107       803.651 7        44.044
E04         7.000    25781506.261 7 135482728.49707     -3237.008 7        42.880                                                                    25781505.010 7 101172150.32507     -2417.316 7        43.750    25781504.157 7 103811423.82707     -2480.504 7        42.789
G03         8.000                                                                                                                                                                    20580957.020 6  84275569.45506     -2001.123 6        41.318
G09         9.000    20706738.897 7 108814629.23907      1171.200 7        43.833                                    20706735.881 7  84790629.62107       912.620 7        44.551    20706735.803 7  84790620.62407       912.545 7        44.023
R14        10.000    23910618.407 5                     -3370.870 5        34.433                                                                    23910614.579 4                     -2621.635 4        29.336
G04        11.000    19960197.863 8 104891575.89708      -642.249 8        48.440                                    19960194.368 6  81733642.07406      -500.454 6        38.444    19960195.211 7  81733661.06407      -500.444 7        47.295
E09        12.000    23350767.434 7 122709212.00307     -1136.475 7        46.038                                                                    23350767.020 7  91633495.63207      -848.732 7        47.919    23350766.273 7  94023911.49307      -870.784 7        43.475
E06        14.000    23947360.843 7 125844273.53207     -2320.781 7        44.027                                                                    23947360.417 8  93974604.34908     -1733.047 8        48.300    23947361.234 8  96426084.06608     -1778.252 8        50.230
E11        15.000    26179630.512 4 137574904.76504     -3794.963 4        26.575                                                                    26179629.382 5 102734499.21605     -2833.576 5        34.500    26179627.497 5 105414533.99805     -2907.479 5        30.966
G28        17.000    24815517.568 5                     -3888.707 5        30.808
G06        19.000    21983951.080 7 115526551.29407      1494.307 7        44.834                                    21983944.232 5  90020584.99005      1164.395 5        33.796    21983950.009 5  90020657.96005      1164.345 5        32.958
E36        20.000    23509006.289 7 123540802.81407     -1813.914 7        44.606                                                                    23509007.848 7  92254376.80707     -1354.555 7        46.952    23509007.085 7  94661043.90407     -1389.925 7        45.144
E05        21.000    23498937.493 7 123487759.68807      1368.496 7        46.568                                                                    23498935.295 7  92214913.89507      1021.880 7        43.346    23498937.117 7  94620507.93707      1048.592 7        43.075
G17        22.000    23756163.447 4 124839450.16204     -3488.227 4        24.872                                    23756150.575 1  97277467.86501     -2718.291 1         2.600    23756133.931 3                     -2719.323 3        23.486
R07        23.000    20959043.045 7 112195358.75207      1638.757 7        47.305                                                                    20959043.260 7  87263153.08607      1274.518 7        44.144
S23        24.000    38056657.641 6 199989028.13506      -823.784 6        41.499
S36        25.000    38110996.262 5 200274617.99805      -828.231 5        35.957
G11        26.000    25278005.915 4                      2755.753 4        26.719                                                                                                    25278019.064 6 103509260.93206      2147.511 6        36.064
R15        28.000    22186078.869 6 118555716.96216      -206.489 6        37.958
R06        29.000    19342851.321 5 103217170.99005     -1200.050 5        33.575
C05        32.000                                                                                                                                                                                                    39042256.792 5 157207012.12305      -655.194 5        34.481
C19        33.000                                                                                                                                    21969927.991 6 114403291.73406      -103.649 6        39.111                                                                    21969921.636 7  92961927.64707       -84.062 7        44.193
R21        34.000    20324327.414 8 108759651.59808     -3867.234 8        48.825                                                                    20324320.251 6  84590751.81106     -3007.863 6        41.223
R05        36.000                                                                                                                                    22683284.801 4                     -3309.900 4        29.517
R22        37.000    20268742.177 6 108195924.16706       682.951 6        40.215                                                                    20268747.276 5  84152425.43105       531.272 5        34.629
C39        38.000                                                                                                                                    39312303.245 5 204709460.25605     -1690.773 5        33.132                                                                    39312326.873 4 166343279.08804     -1374.292 4        27.042
R16        39.000    22913638.698 4 122400570.12404      2747.139 4        26.263
C06        41.000                                                                                                                                    38272804.957 5 199296563.66505     -1236.025 5        35.205    38272800.080 6 154108666.87706      -955.749 6        37.028    38272789.468 4 161944728.24304     -1004.468 4        28.218
C29        43.000                                                                                                                                    24913524.958 6 129731253.12006     -4156.529 6        39.928                                                                    24913522.035 6 105417262.13106     -3377.471 6        41.728
R23        44.000    23487681.172 4                      3250.697 4        26.707
C16        45.000                                                                                                                                    38796173.724 6 202021910.56306     -1320.046 6        36.238    38796172.669 5 156216272.27705     -1020.658 5        35.276    38796171.045 5                     -1072.339 5        31.132
C09        46.000                                                                                                                                    38368957.069 6 199797236.96206      -731.270 6        38.000    38368956.654 7 154495899.75707      -565.628 7        44.733    38368951.254 6 162351594.01406      -594.346 6        38.559
C44        48.000                                                                                                                                    24417419.411 7 127148020.41007       751.900 7        43.496                                                                    24417416.795 6 103318081.57706       611.013 6        41.054
C37        49.000                                                                                                                                    24765343.076 4                        89.829 4        25.248
C22        50.000                                                                                                                                    24936968.818 5 129853352.10505      1832.266 5        34.519                                                                    24937006.276 3                      1488.480 3        23.886
C35        51.000                                                                                                                                    23049411.294 7 120024547.12107     -1869.259 7        46.368                                                                    23049409.742 7  97529659.96307     -1518.850 7        42.282
C20        55.000                                                                                                                                    22782179.438 7 118632787.71707     -2588.954 7        46.402                                                                    22782175.702 7  96398936.24307     -2103.799 7        42.447
C12        56.000                                                                                                                                    26285465.722 4 136875262.08904      1884.487 4        27.904    26285455.424 6 105840504.66806      1457.499 6        38.345    26285432.412 5 111222284.16405      1531.558 5        31.751
C23        57.000                                                                                                                                    26477564.562 3                     -2352.875 3        20.119
I01        60.000   335110001.426 6  11902828.53106     -2976.201 6        39.820
> 2025 01 01 02 45 35.0000000  0 40
G02         1.000    24095373.328 4                     -4291.685 4        29.431
G31         4.000    22651805.410 4                     -2784.254 4        26.192
E34         6.000    24810080.583 8 130377858.83608      1047.515 8        48.784                                                                    24810079.908 7  97360137.49207       782.315 7        44.849    24810078.222 7  99899935.38607       802.661 7        44.077
E04         7.000    25784585.780 7 135498913.93407     -3237.312 7        42.275                                                                    25784584.805 7 101184236.86507     -2417.571 7        43.158    25784584.194 7 103823825.63807     -2480.601 7        42.726
G03         8.000                                                                                                                                                                    20583401.185 6  84285577.45206     -2002.137 6        40.951
G09         9.000    20705625.128 7 108808777.47407      1169.266 7        45.935                                    20705622.273 7  84786069.80307       911.116 7        45.029    20705621.985 7  84786060.80007       911.092 7        44.020
R14        10.000    23913781.480 5 127473909.84915     -3373.570 5        32.234                                                                    23913780.143 4                     -2623.684 4        29.403
G04        11.000    19960809.787 7 104894792.22507      -644.521 7        47.689                                    19960806.493 6  81736148.30406      -502.224 6        38.538    19960807.153 7  81736167.29207      -502.255 7        47.157
E09        12.000    23351849.432 7 122714897.21307     -1137.845 7        46.035                                                                    23351848.695 7  91637741.08507      -849.774 7        47.620    23351848.648 7  94028267.69807      -871.773 7        43.623
E06        14.000    23949569.242 7 125855879.27607     -2321.722 7        44.187                                                                    23949568.719 7  93983270.97607     -1733.820 7        47.830    23949569.500 8  96434976.76808     -1779.011 8        50.054
E11        15.000    26183242.326 4 137593878.85204     -3794.770 4        26.754                                                                    26183239.884 5 102748668.22005     -2834.338 5        33.892    26183237.876 5 105429072.58805     -2907.848 5        31.004
G28        17.000    24819212.792 4                     -3890.417 4        29.194
G06        19.000    21982529.565 7 115519084.31707      1492.324 7        44.056                                    21982523.673 5  90014766.56705      1162.847 5        34.109    21982531.284 5  90014839.54105      1162.842 5        35.871
E36        20.000    23510733.196 7 123549876.28807     -1815.726 7        44.767                                                                    23510734.622 7  92261152.45607     -1355.946 7        47.085    23510733.635 7  94667996.31407     -1391.328 7        45.044
E05        21.000    23497635.689 7 123480918.85107      1367.666 7        46.800                                                                    23497633.588 7  92209805.47607      1021.345 7        43.702    23497634.832 7  94615266.23907      1047.961 7        42.800
G17        22.000                                                                                                                                                                    23759453.087 3                     -2718.000 3        22.362
R07        23.000    20957512.878 8 112187167.59208      1637.428 8        48.483                                                                    20957512.651 7  87256782.15907      1273.556 7        44.181
S23        24.000    38057443.439 6 199993145.12806      -823.345 6        41.259
S36        25.000    38111782.127 5 200278756.79405      -827.870 5        35.852
G11        26.000    25275388.893 4                      2755.526 4        29.223                                                                                                    25275397.083 6 103498523.08106      2147.476 6        36.064
R15        28.000    22186274.402 6 118556758.75506      -210.225 6        37.036
R06        29.000    19343974.757 5 103223174.46305     -1201.670 5        32.683
C05        32.000                                                                                                                                                                                                    39043070.860 5 157210286.10305      -654.747 5        34.167
C19        33.000                                                                                                                                    21970028.831 6 114403811.58606      -104.654 6        39.517                                                                    21970021.509 7  92962350.07807       -85.007 7        43.666
R21        34.000    20327944.505 8 108778995.03108     -3870.415 8        48.809                                                                    20327934.431 6  84605796.71406     -3010.339 6        41.008
R05        36.000    22687276.048 5 121276541.95715     -4256.062 5        31.253                                                                    22687269.683 4                     -3310.132 4        28.436
R22        37.000    20268104.835 6 108192518.24806       679.176 6        39.198                                                                    20268104.882 5  84149776.42905       528.203 5        35.367
C39        38.000                                                                                                                                    39313927.843 5 204717914.37205     -1691.047 5        33.605                                                                    39313951.077 4 166350148.73804     -1374.014 4        26.431
C06        41.000                                                                                                                                    38273993.843 5 199302743.62105     -1236.271 5        35.186    38273986.457 6 154113445.60706      -956.030 6        36.673    38273976.958 4 161949749.96504     -1004.548 4        28.142
C29        43.000                                                                                                                                    24917516.139 6 129752035.59306     -4156.641 6        39.931                                                                    24917512.976 6 105434149.58506     -3377.686 6        41.421
R23        44.000    23484642.562 4                      3248.627 4        25.759
C16        45.000                                                                                                                                    38797441.242 5 202028510.21905     -1320.197 5        35.414    38797440.068 5 156221375.58205     -1020.868 5        35.352    38797438.478 5                     -1073.020 5        31.019
C09        46.000                                                                                                                                    38369659.666 6 199800894.19106      -731.709 6        38.375    38369658.928 7 154498727.75807      -565.913 7        44.158    38369653.559 6 162354565.79606      -594.475 6        38.465
C44        48.000                                                                                                                                    24416698.897 7 127144265.64707       749.765 7        43.537                                                                    24416695.724 6 103315030.52406       609.364 6        41.251
C37        49.000                                                                                                                                    24765252.307 5                        87.626 5        30.189                                                                    24765286.576 4 104789904.76604        71.599 4        28.256
C22        50.000                                                                                                                                    24935210.234 5 129844189.64005      1832.293 5        35.510                                                                    24935248.602 4                      1487.738 4        24.105
C35        51.000                                                                                                                                    23051207.010 7 120033898.85707     -1871.572 7        45.804                                                                    23051205.453 7  97537258.99907     -1520.701 7        42.089
C20        55.000                                                                                                                                    22784665.530 7 118645733.67907     -2589.678 7        45.973                                                                    22784661.912 7  96409455.89807     -2104.368 7        42.652
C12        56.000                                                                                                                                    26283652.653 4 136865840.19304      1883.593 4        27.413    26283646.580 6 105833219.15306      1456.291 6        36.817    26283621.707 5 111214628.18505      1530.450 5        30.951
I01        60.000   335113793.674 6  11917708.37606     -2975.935 6        39.510
> 2025 01 01 02 45 40.0000000  0 41
G02         1.000    24099459.304 5                     -4292.430 5        31.879
E34         6.000    24809084.549 8 130372625.33108      1046.019 8        49.021                                                                    24809084.074 7  97356229.36607       781.071 7        44.834    24809082.462 7  99895925.30507       801.484 7        43.932
E04         7.000    25787665.962 6 135515102.38406     -3237.891 6        41.409                                                                    25787665.152 7 101196325.64007     -2417.896 7        42.607    25787664.774 7 103836229.77607     -2480.967 7        42.885
G03         8.000    20585930.395 5                     -2571.581 5        30.400                                                                                                    20585846.125 6  84295592.44106     -2003.514 6        40.341
G09         9.000    20704513.498 7 108802936.45907      1167.259 7        47.172                                    20704510.717 7  84781518.36407       909.554 7        45.543    20704510.974 7  84781509.36307       909.525 7        44.163
R14        10.000    23916950.801 5 127490785.57505     -3376.553 5        31.094                                                                    23916949.263 5                     -2626.419 5        30.906
G04        11.000    19961424.383 7 104898021.39107      -647.024 7        47.865                                    19961421.117 6  81738664.53806      -504.176 6        38.667    19961421.891 7  81738683.53307      -504.232 7        47.595
E09        12.000    23352932.567 7 122720590.80107     -1139.472 7        45.747                                                                    23352932.056 7  91641992.79007      -850.920 7        47.297    23352932.337 7  94032630.32707      -873.132 7        44.086
E06        14.000    23951778.829 7 125867491.43407     -2323.101 7        44.099                                                                    23951778.339 7  93991942.37707     -1734.725 7        47.247    23951779.170 8  96443874.38308     -1779.922 8        49.813
E11        15.000    26186855.648 4 137612857.41004     -3795.874 4        28.417                                                                    26186851.234 5 102762840.50005     -2834.836 5        33.539    26186849.554 5 105443614.58705     -2908.647 5        30.891
G28        17.000    24822909.916 4                     -3892.295 4        27.677                                                                                                    24822931.436 3                     -3036.352 3        19.851
G06        19.000    21981111.255 7 115511628.95207      1489.989 7        42.946                                    21981105.458 5  90008957.19205      1161.027 5        34.724    21981111.616 6  90009030.16006      1161.081 6        37.871
E36        20.000    23512462.339 7 123558960.58507     -1817.864 7        45.234                                                                    23512463.367 7  92267936.18307     -1357.509 7        47.264    23512462.454 7  94674957.00407     -1392.855 7        44.969
E05        21.000    23496334.783 7 123474083.95807      1366.465 7        46.784                                                                    23496332.922 7  92204701.49707      1020.415 7        43.903    23496333.763 7  94610029.10407      1047.056 7        42.574
G17        22.000                                                                                                                                                                    23762776.656 3                     -2720.280 3        23.810
R07        23.000    20955985.195 8 112178984.82908      1635.767 8        49.990                                                                    20955983.281 7  87250417.78607      1272.233 7        44.334
S23        24.000    38058225.987 6 199997262.10006      -823.326 6        40.775
S36        25.000    38112577.660 5 200282895.87905      -827.776 5        35.990
G11        26.000    25272769.922 4                      2755.032 4        28.701                                                                                                    25272773.976 5 103487787.43005      2147.031 5        35.633
R15        28.000    22186471.806 6 118557821.83006      -214.535 6        36.363
R06        29.000    19345099.692 5 103229189.49505     -1204.009 5        31.675
C05        32.000                                                                                                                                                                                                    39043884.239 5 157213560.13705      -654.770 5        34.371
C19        33.000                                                                                                                                    21970130.413 6 114404338.70406      -106.171 6        39.550                                                                    21970122.690 7  92962778.40807       -86.284 7        43.505
R21        34.000    20331557.282 7 108798355.70307     -3873.836 7        47.723                                                                    20331553.031 6  84620855.01006     -3013.064 6        39.850
R05        36.000    22691259.964 5                     -4256.180 5        31.841                                                                    22691249.056 4                     -3309.808 4        24.120
R22        37.000    20267472.312 6 108189133.32206       674.966 6        38.940                                                                    20267473.071 6  84147143.72006       525.008 6        36.601
C39        38.000                                                                                                                                    39315551.145 5 204726371.05605     -1691.603 5        33.916                                                                    39315578.881 4 166357020.49004     -1374.976 4        26.958
R16        39.000    22908488.916 4                      2743.197 4        26.814
C06        41.000                                                                                                                                    38275180.954 5 199308927.07605     -1237.098 5        34.171    38275174.097 6 154118227.02506      -956.498 6        36.571    38275164.757 4 161954774.47004     -1004.856 4        27.725
C29        43.000                                                                                                                                    24921506.706 6 129772820.43306     -4157.195 6        38.483                                                                    24921504.096 6 105451038.93906     -3377.852 6        41.015
R23        44.000    23481606.706 3                      3247.386 3        21.214
C16        45.000                                                                                                                                    38798707.894 5 202035113.12405     -1320.876 5        35.362    38798706.781 5 156226481.33105     -1021.203 5        35.000    38798706.263 5                     -1073.388 5        30.589
C09        46.000                                                                                                                                    38370363.437 6 199804555.11006      -732.440 6        38.520    38370362.141 7 154501558.61907      -566.436 7        44.360    38370356.669 6 162357540.60406      -595.081 6        38.841
C44        48.000                                                                                                                                    24415980.153 7 127140523.13107       747.339 7        43.653                                                                    24415977.297 6 103311989.43006       607.279 6        41.373
C37        49.000                                                                                                                                    24765166.313 4                        84.844 4        29.991                                                                    24765200.825 4 104789554.18504        69.327 4        28.313
C22        50.000                                                                                                                                    24933455.662 6 129835029.84606      1831.800 6        36.556
C35        51.000                                                                                                                                    23053004.986 7 120043263.96707     -1874.256 7        45.493                                                                    23053003.771 7  97544868.91807     -1523.074 7        42.214
C20        55.000                                                                                                                                    22787153.191 7 118658684.70507     -2590.616 7        45.786                                                                    22787149.384 7  96419979.67407     -2105.085 7        42.834
C12        56.000                                                                                                                                    26281840.626 4 136856425.87104      1882.552 4        27.030    26281838.526 5 105825939.50605      1455.494 5        33.701    26281812.375 4 111206978.39104      1529.269 4        29.336
C23        57.000                                                                                                                                    26482064.562 3                     -2358.995 3        22.781
I01        60.000   335117585.242 6  11932588.70906     -2976.126 6        39.114
> 2025 01 01 02 45 45.0000000  0 43
G02         1.000    24103541.703 5                     -4293.042 5        32.054
G31         4.000    22657132.262 5 119064012.29915     -2790.371 5        35.790                                                                                                    22657126.384 3                     -2173.233 3        23.600
E34         6.000    24808090.062 8 130367400.29708      1044.118 8        49.259                                                                    24808089.627 7  97352327.55807       779.646 7        44.625    24808088.496 7  99891921.70807       799.998 7        43.937
E04         7.000    25790746.907 6 135531294.35206     -3238.850 6        40.291                                                                    25790746.076 7 101208417.04307     -2418.568 7        42.229    25790746.122 7 103848636.60307     -2481.742 7        43.122
G03         8.000                                                                                                                                                                    20588294.252 6  84305614.80506     -2005.258 6        39.784
G09         9.000    20703404.147 8 108797106.71508      1164.660 8        48.205                                    20703401.303 7  84776975.70607       907.529 7        45.923    20703400.998 7  84776966.69807       907.624 7        43.917
R14        10.000                                                                                                                                    23920118.413 4                     -2628.948 4        28.844
G04        11.000    19962041.629 8 104901263.92408      -649.856 8        48.578                                    19962038.331 6  81741191.18806      -506.382 6        38.544    19962038.957 8  81741210.18708      -506.437 8        48.025
E09        12.000    23354017.398 7 122726293.29607     -1141.525 7        45.473                                                                    23354017.177 7  91646251.14307      -852.342 7        47.189    23354017.699 7  94036999.78207      -874.636 7        44.736
E06        14.000    23953990.406 7 125879110.51907     -2324.576 7        44.418                                                                    23953989.219 7  94000618.96307     -1735.897 7        46.809    23953990.036 8  96452777.31308     -1781.156 8        49.576
E11        15.000    26190469.298 5 137631840.83505     -3797.377 5        30.498                                                                    26190463.983 5 102777016.43705     -2836.094 5        32.210    26190463.610 5 105458160.30805     -2909.580 5        31.472
G19        16.000    22631409.010 6 118929276.35506     -2546.069 6        40.660                                    22631411.669 2  92671854.79912     -1983.942 2        16.679
G28        17.000    24826613.202 4                     -3891.512 4        24.226
G06        19.000    21979695.294 6 115504185.70106      1487.374 6        41.979                                    21979689.657 5  90003157.26005      1158.999 5        35.381    21979694.852 6  90003230.22106      1159.135 6        39.877
E36        20.000    23514193.203 7 123568056.20707     -1820.258 7        45.387                                                                    23514194.206 7  92274728.37507     -1359.282 7        47.225    23514193.096 7  94681926.38707     -1394.748 7        44.867
E05        21.000    23495035.005 7 123467255.50707      1364.973 7        46.618                                                                    23495033.468 7  92199602.33707      1019.238 7        44.045    23495034.005 7  94604796.90807      1045.958 7        42.777
G17        22.000    23766096.163 5 124891800.38105     -3491.497 5        31.962                                                                                                    23766098.446 4                     -2721.569 4        25.684
R07        23.000    20954459.503 8 112170811.11808      1633.812 8        50.816                                                                    20954456.120 7  87244060.45207      1270.642 7        44.510
S23        24.000    38059016.614 6 200001379.31006      -823.328 6        40.982
S36        25.000    38113365.229 6 200287035.06106      -828.052 6        36.231
G11        26.000    25270152.270 5                      2754.350 5        31.608                                                                                                    25270151.847 5 103477054.48405      2146.306 5        35.986
R15        28.000    22186672.775 5 118558906.54205      -219.185 5        35.381                                                                    22186745.994 3                      -173.323 3        22.133
R06        29.000    19346230.207 5 103235216.44905     -1206.426 5        33.359
C05        32.000                                                                                                                                                                                                    39044696.045 5 157216834.52405      -654.934 5        33.533
C19        33.000                                                                                                                                    21970231.986 6 114404873.59406      -107.778 6        38.778                                                                    21970225.301 7  92963213.00507       -87.421 7        43.486
R21        34.000    20335173.461 7 108817734.13207     -3877.492 7        46.338                                                                    20335174.517 6  84635927.15006     -3015.889 6        39.075
R05        36.000    22695245.570 5 121319103.28315     -4257.037 5        30.377                                                                    22695232.400 3                     -3310.609 3        22.724
R22        37.000    20266843.491 6 108185769.88406       670.545 6        41.764                                                                    20266847.984 6  84144527.73006       521.470 6        38.261
C39        38.000                                                                                                                                    39317177.006 5 204734830.74505     -1691.981 5        33.946                                                                    39317203.720 4 166363894.71804     -1374.620 4        25.880
R16        39.000    22905920.806 4                      2742.858 4        25.383
C06        41.000                                                                                                                                    38276368.078 5 199315114.45205     -1237.766 5        34.148    38276361.571 6 154123011.50306      -957.270 6        36.907    38276353.145 4 161959802.24904     -1005.736 4        27.820
C29        43.000                                                                                                                                    24925498.179 6 129793608.12006     -4157.906 6        37.319                                                                    24925496.032 6 105467930.63406     -3378.547 6        40.841
R23        44.000    23478577.029 3                      3245.312 3        20.500
C16        45.000                                                                                                                                    38799976.706 5 202041719.74505     -1321.887 5        34.686    38799974.904 5 156231589.99305     -1022.055 5        35.190    38799976.182 5                     -1073.870 5        31.223
C09        46.000                                                                                                                                    38371066.818 6 199808220.27706      -733.415 6        38.498    38371065.485 7 154504392.75407      -567.223 7        44.024    38371060.413 6 162360518.83806      -595.832 6        39.027
C44        48.000                                                                                                                                    24415262.949 7 127136793.33807       744.605 7        43.247                                                                    24415260.994 6 103308958.66406       605.221 6        41.366
C37        49.000                                                                                                                                    24765087.742 5                        82.447 5        31.245                                                                    24765123.775 4 104789214.35104        67.298 4        26.515
C22        50.000                                                                                                                                    24931700.798 6 129825873.26606      1830.971 6        37.845
C35        51.000                                                                                                                                    23054805.345 7 120052642.94607     -1877.225 7        45.017                                                                    23054804.804 7  97552490.09307     -1525.187 7        42.428
C20        55.000                                                                                                                                    22789642.171 7 118671641.33607     -2591.963 7        45.479                                                                    22789637.735 7  96430507.98707     -2106.064 7        43.122
C12        56.000                                                                                                                                                                                                    26280031.734 5 105818666.25905      1454.461 5        30.672    26280004.777 5 111199335.33005      1527.895 5        30.362
C23        57.000                                                                                                                                    26484331.178 4                     -2360.500 4        26.395
I01        60.000   335121377.146 6  11947469.89006     -2976.263 6        39.027
> 2025 01 01 02 45 50.0000000  0 42
G02         1.000    24107625.073 5                     -4293.758 5        31.955
G31         4.000    22659790.995 6 119077972.01206     -2793.487 6        36.200                                                                                                    22659776.889 3                     -2175.036 3        23.790
E34         6.000    24807097.396 8 130362183.58508      1042.630 8        49.453                                                                    24807096.929 7  97348431.96507       778.558 7        44.331    24807095.921 7  99887924.50007       798.818 7        43.943
E04         7.000    25793829.647 6 135547489.67006     -3239.223 6        40.207                                                                    25793827.843 6 101220510.95806     -2418.981 6        41.676    25793827.963 7 103861045.99407     -2481.986 7        42.728
G03         8.000                                                                                                                                                                    20590743.698 6  84315644.41106     -2006.630 6        39.144
G09         9.000    20702296.404 8 108791288.07208      1162.645 8        48.179                                    20702294.044 7  84772441.69907       905.953 7        46.130    20702293.581 7  84772432.70907       905.970 7        43.695
R14        10.000    23923264.929 5                     -3382.924 5        32.126                                                                    23923291.383 3                     -2633.140 3        23.390
G04        11.000    19962661.382 8 104904519.67508      -652.372 8        48.678                                    19962658.071 6  81743728.13606      -508.338 6        38.682    19962658.486 8  81743747.13308      -508.302 8        48.359
E09        12.000    23355104.207 7 122732004.53907     -1143.038 7        45.166                                                                    23355103.846 7  91650516.03407      -853.639 7        46.929    23355104.630 7  94041375.92807      -875.886 7        45.008
E06        14.000    23956203.009 7 125890736.37507     -2325.672 7        44.795                                                                    23956201.469 7  94009300.60107     -1736.737 7        46.446    23956202.314 8  96461685.43208     -1782.073 8        49.199
E11        15.000    26194082.240 5 137650828.95205     -3798.125 5        31.615                                                                    26194076.940 5 102791195.84705     -2836.094 5        31.706    26194077.289 5 105472709.65405     -2910.278 5        31.585
G19        16.000    22633839.766 6 118942013.87106     -2548.870 6        39.901                                    22633834.247 2  92681780.18002     -1986.116 2        16.943
G06        19.000    21978281.678 7 115496754.42907      1485.118 7        42.131                                    21978276.195 6  89997366.66306      1157.235 6        36.310    21978280.594 6  89997439.63806      1157.269 6        40.524
E36        20.000    23515926.180 7 123577163.04007     -1822.429 7        45.726                                                                    23515927.227 7  92281528.93707     -1360.892 7        47.136    23515925.812 7  94688904.35407     -1396.428 7        44.315
E05        21.000    23493736.398 7 123460433.37207      1363.878 7        46.286                                                                    23493735.168 7  92194507.89107      1018.380 7        44.012    23493735.591 7  94599569.54507      1045.110 7        42.790
G17        22.000    23769428.380 5 124909262.73005     -3492.979 5        34.176                                                                                                    23769423.786 4                     -2721.759 4        27.293
R07        23.000    20952935.016 8 112162646.25308      1632.223 8        49.873                                                                    20952930.547 7  87237709.99807      1269.479 7        44.250
S23        24.000    38059794.448 6 200005496.96606      -823.574 6        41.008
S36        25.000    38114147.660 6 200291173.97806      -827.456 6        36.212
G11        26.000    25267532.194 5                      2753.781 5        32.898                                                                                                    25267532.696 5 103466324.04605      2145.894 5        35.467
R15        28.000    22186879.774 5 118560012.94205      -223.237 5        34.548
R06        29.000    19347362.057 5 103241255.23905     -1208.824 5        34.767
C05        32.000                                                                                                                                                                                                    39045509.437 5 157220109.23605      -654.777 5        33.760
C19        33.000                                                                                                                                    21970335.234 6 114405416.10106      -109.045 6        38.447                                                                    21970329.419 7  92963653.82507       -88.711 7        43.060
R21        34.000    20338799.065 7 108837130.19707     -3880.893 7        46.264                                                                    20338799.841 6  84651012.96606     -3018.524 6        39.315
R05        36.000    22699231.152 5 121340386.29905     -4256.684 5        32.725                                                                    22699214.554 3                     -3309.622 3        21.619
R22        37.000    20266217.005 6 108182427.83806       666.449 6        41.847                                                                    20266219.756 6  84141928.38106       518.296 6        39.150
C39        38.000                                                                                                                                    39318803.605 5 204743293.41605     -1692.550 5        34.048                                                                    39318828.445 4                     -1375.619 4        24.917
R16        39.000    22903345.696 3                      2738.022 3        20.714
C06        41.000                                                                                                                                    38277554.528 5 199321305.68105     -1238.325 5        33.958    38277550.531 6 154127798.97706      -957.784 6        37.210    38277541.460 4 161964833.14604     -1006.187 4        28.009
C29        43.000                                                                                                                                    24929489.760 5 129814398.49905     -4158.096 5        35.448                                                                    24929488.307 6 105484824.52206     -3378.782 6        40.384
R23        44.000    23475546.499 4                      3243.393 4        25.504
C16        45.000                                                                                                                                    38801246.295 5 202048329.92905     -1322.206 5        34.105    38801246.206 5 156236701.39905     -1022.447 5        34.976    38801245.662 5                     -1074.663 5        31.313
C09        46.000                                                                                                                                    38371771.152 6 199811889.47206      -734.099 6        38.682    38371769.843 7 154507230.00607      -567.723 7        43.975    38371765.018 6 162363500.37506      -596.467 6        39.069
C44        48.000                                                                                                                                    24414549.105 7 127133076.15007       742.295 7        43.391                                                                    24414546.918 6 103305938.14306       603.132 6        41.082
C37        49.000                                                                                                                                    24765009.838 5                        79.712 5        33.072                                                                    24765044.043 3                        65.417 3        20.929
C22        50.000                                                                                                                                    24929942.987 6 129816719.73106      1830.462 6        37.713
C35        51.000                                                                                                                                    23056608.883 7 120062035.66007     -1879.865 7        45.202                                                                    23056608.565 7  97560122.43707     -1527.529 7        42.269
C20        55.000                                                                                                                                    22792132.493 7 118684603.41107     -2592.933 7        45.400                                                                    22792127.173 7  96441040.73607     -2106.953 7        43.056
C12        56.000                                                                                                                                                                                                    26278224.232 4 105811399.28204      1452.737 4        26.862    26278199.996 4 111191698.77004      1526.499 4        29.469
C23        57.000                                                                                                                                    26486599.355 4                     -2362.668 4        25.444
I01        60.000   335125169.543 6  11962351.81406     -2976.309 6        38.520
> 2025 01 01 02 45 55.0000000  0 42
G02         1.000    24111710.687 5                     -4294.323 5        32.521
G31         4.000    22662453.139 5 119091947.32305     -2796.795 5        34.586                                    22662438.922 1  92798899.90311     -2179.303 1        10.889    22662437.286 4                     -2178.826 4        26.994
E34         6.000    24806106.188 8 130356975.13408      1040.996 8        49.128                                                                    24806105.628 7  97344542.53907       777.370 7        44.427    24806105.006 7  99883933.60307       797.643 7        44.023
E04         7.000    25796913.071 6 135563688.26506     -3240.013 6        39.913                                                                    25796910.368 6 101232607.30506     -2419.396 6        41.235    25796910.397 7 103873457.89807     -2482.638 7        42.713
G03         8.000                                                                                                                                                                    20593193.886 6  84325681.22006     -2007.976 6        38.288
G09         9.000    20701190.658 7 108785480.50507      1160.565 7        47.659                                    20701188.851 7  84767916.32407       904.328 7        46.151    20701188.522 7  84767907.34607       904.293 7        43.443
R14        10.000    23926443.265 4 127541509.24714     -3386.741 4        28.085
G04        11.000    19963283.269 8 104907788.55408      -655.012 8        48.471                                    19963280.275 6  81746275.32106      -510.401 6        38.925    19963280.780 8  81746294.31808      -510.367 8        48.585
E09        12.000    23356192.865 7 122737724.43607     -1144.783 7        44.758                                                                    23356192.419 7  91654787.38107      -854.796 7        46.715    23356193.114 7  94045758.70807      -877.155 7        45.232
E06        14.000    23958416.595 7 125902368.92407     -2327.011 7        44.826                                                                    23958415.247 7  94017987.24307     -1737.767 7        46.322    23958415.900 8  96470598.68508     -1783.110 8        48.901
E11        15.000    26197695.442 5 137669821.74805     -3798.723 5        32.527                                                                    26197690.754 5 102805378.82305     -2836.771 5        30.770    26197691.886 5 105487262.58105     -2910.806 5        30.219
G19        16.000    22636267.428 6 118954765.89406     -2551.804 6        39.126                                    22636260.665 2  92691716.80102     -1988.388 2        16.830
G28        17.000                                                                                                                                                                    24834054.732 3                     -3036.429 3        21.690
G06        19.000    21976870.750 7 115489335.04707      1482.872 7        42.929                                    21976865.125 6  89991585.33106      1155.480 6        37.240    21976868.346 6  89991658.32706      1155.509 6        40.429
E36        20.000    23517661.592 7 123586280.97307     -1824.643 7        46.220                                                                    23517662.283 7  92288337.79207     -1362.589 7        47.030    23517660.483 7  94695890.82707     -1398.171 7        43.714
E05        21.000    23492439.105 7 123453617.44907      1362.688 7        45.586                                                                    23492438.173 7  92189418.07207      1017.678 7        43.911    23492438.588 7  94594346.96307      1044.179 7        43.735
G17        22.000                                                                                                                                                                    23772746.957 4                     -2722.438 4        29.071
R07        23.000    20951409.610 8 112154490.12108      1630.502 8        48.622                                                                    20951406.261 7  87231366.35007      1268.122 7        43.520
S23        24.000    38060580.180 6 200009614.94306      -823.548 6        41.385
S36        25.000    38114934.093 6 200295312.22106      -827.321 6        36.170
G11        26.000    25264911.837 5 132768010.44715      2753.420 5        34.195                                                                                                    25264913.103 5 103455596.08405      2145.484 5        35.833
R15        28.000    22187091.574 5 118561140.89615      -227.567 5        34.157
R06        29.000    19348498.396 5 103247305.83405     -1211.351 5        35.143
C05        32.000                                                                                                                                                                                                    39046324.422 5 157223384.15705      -654.976 5        34.671
C19        33.000                                                                                                                                    21970439.924 6 114405966.14806      -110.756 6        38.937                                                                    21970435.281 7  92964100.76007       -89.929 7        42.929
R21        34.000    20342428.521 7 108856543.76007     -3884.327 7        47.276                                                                    20342427.716 6  84666112.39206     -3021.152 6        39.739
R05        36.000    22703219.613 5 121361670.46705     -4256.964 5        31.389                                                                    22703199.731 3                     -3310.441 3        23.410
R22        37.000    20265593.595 7 108179107.13707       662.145 7        42.616                                                                    20265593.831 6  84139345.59706       514.957 6        40.548
C39        38.000                                                                                                                                    39320428.020 5 204751758.87705     -1693.297 5        32.790                                                                    39320456.138 3                     -1375.102 3        23.714
C06        41.000                                                                                                                                    38278744.505 5 199327500.67905     -1239.436 5        32.162    38278740.302 6 154132589.31706      -958.235 6        37.104    38278731.982 4 161969867.08604     -1007.166 4        27.713
C29        43.000                                                                                                                                    24933482.124 5 129835191.50505     -4158.710 5        32.587                                                                    24933480.882 6 105501720.56006     -3379.385 6        39.775
R23        44.000    23472512.704 5                      3242.521 5        30.113
C16        45.000                                                                                                                                    38802514.462 5 202054943.57005     -1322.799 5        33.689    38802516.492 5 156241815.48205     -1023.132 5        35.490    38802515.164 5                     -1074.971 5        31.011
C09        46.000                                                                                                                                    38372476.320 6 199815562.71106      -735.122 6        38.459    38372474.639 7 154510070.36907      -568.300 7        43.901    38372470.660 6 162366485.17206      -597.322 6        39.321
C44        48.000                                                                                                                                    24413838.976 7 127129371.46907       739.748 7        43.991                                                                    24413835.404 6 103302927.81306       601.073 6        41.323
C37        49.000                                                                                                                                    24764935.755 5                        77.429 5        34.200                                                                    24764943.149 5                        62.730 5        34.452
C22        50.000                                                                                                                                    24928185.233 6 129807569.16206      1829.922 6        38.832
C35        51.000                                                                                                                                    23058415.406 7 120071441.96807     -1882.402 7        45.895                                                                    23058414.963 7  97567765.87407     -1529.742 7        42.256
C20        55.000                                                                                                                                    22794623.513 7 118697570.84207     -2593.958 7        45.759                                                                    22794617.634 7  96451577.84707     -2107.815 7        43.374
C12        56.000                                                                                                                                    26276402.211 4 136828231.98804      1877.202 4        26.575    26276415.877 4                      1451.962 4        24.481    26276395.641 4 111184068.67104      1525.012 4        28.322
C23        57.000                                                                                                                                    26488867.563 3                     -2364.725 3        22.952
I01        60.000   335128961.508 6  11977234.38006     -2976.472 6        37.815
> 2025 01 01 02 46  0.0000000  0 41
G02         1.000    24115796.753 5                     -4294.771 5        33.120
G31         4.000    22665118.991 4 119105937.45704     -2799.314 4        26.766                                    22665099.967 1  92809801.23201     -2181.286 1        10.222    22665099.623 5                     -2181.498 5        30.053
E34         6.000    24805116.474 8 130351774.14808      1039.552 8        49.297                                                                    24805115.599 7  97340658.69307       776.226 7        44.400    24805115.361 7  99879948.42207       796.610 7        44.027
E04         7.000    25799996.239 6 135579889.32906     -3240.402 6        37.819                                                                    25799993.137 6 101244705.49206     -2419.647 6        41.285    25799993.397 7 103885871.69107     -2482.793 7        42.521
G03         8.000                                                                                                                                                                    20595646.823 6  84335724.59406     -2009.321 6        38.432
G09         9.000    20700087.593 7 108779683.20807      1158.590 7        46.983                                    20700085.546 7  84763398.94107       902.794 7        45.837    20700085.390 7  84763389.95207       902.750 7        42.540
R14        10.000                                                                                                                                    23929608.216 4                     -2636.068 4        28.085
G04        11.000    19963907.798 7 104911069.75807      -657.356 7        47.523                                    19963904.746 6  81748832.10506      -512.224 6        38.988    19963904.874 8  81748851.10308      -512.255 8        48.574
E09        12.000    23357283.042 7 122743452.19407     -1146.245 7        45.278                                                                    23357282.410 7  91659064.60807      -855.873 7        46.979    23357282.974 7  94050147.51407      -878.258 7        45.813
E06        14.000    23960630.803 7 125914007.37207     -2328.242 7        45.184                                                                    23960629.929 7  94026678.28307     -1738.560 7        46.398    23960630.563 8  96479516.45008     -1783.988 8        48.443
E11        15.000    26201309.945 5 137688818.40505     -3799.382 5        33.748                                                                    26201305.747 5 102819564.60805     -2837.280 5        30.649    26201306.868 4 105501818.45504     -2911.399 4        29.991
G19        16.000    22638695.663 6 118967531.61606     -2554.497 6        38.204                                    22638689.767 2  92701664.15502     -1990.555 2        16.717
G28        17.000                                                                                                                                                                    24837759.507 3                     -3037.505 3        20.048
G06        19.000    21975460.881 7 115481926.82807      1480.610 7        42.906                                    21975456.140 6  89985812.69406      1153.717 6        38.309    21975459.090 6  89985885.70006      1153.666 6        40.589
E36        20.000    23519398.885 7 123595409.21507     -1826.529 7        47.209                                                                    23519399.289 7  92295154.33607     -1363.960 7        47.120    23519397.032 7  94702885.18307     -1399.590 7        43.488
E05        21.000    23491143.124 7 123446806.96207      1361.681 7        45.472                                                                    23491142.340 7  92184332.32407      1016.875 7        44.910    23491142.601 7  94589128.54607      1043.373 7        44.704
G17        22.000    23776101.606 5 124944204.37205     -3494.888 5        35.938                                    23776084.071 1  97359095.62911     -2723.307 1         8.476    23776071.689 4                     -2723.659 4        27.808
R07        23.000    20949884.696 7 112146341.83507      1628.936 7        47.335                                                                    20949884.861 7  87225028.82807      1266.893 7        43.304
S23        24.000    38061362.758 6 200013732.35606      -823.380 6        41.015
S36        25.000    38115722.378 6 200299450.02806      -827.292 6        37.021
G11        26.000    25262295.564 5 132754245.23905      2752.844 5        35.305                                                                                                    25262293.575 5 103444870.00405      2145.167 5        34.524
R15        28.000    22187302.485 4 118562289.65114      -231.856 4        27.509
R06        29.000    19349633.803 5 103253367.39905     -1213.178 5        35.910
C05        32.000                                                                                                                                                                                                    39047136.848 5 157226658.71405      -654.579 5        34.252
C19        33.000                                                                                                                                    21970545.309 6 114406522.92406      -111.914 6        39.958                                                                    21970542.107 7  92964553.16007       -91.138 7        43.554
R21        34.000    20346060.789 7 108875974.01907     -3887.581 7        47.044                                                                    20346058.570 6  84681224.80006     -3023.569 6        39.754
R05        36.000    22707208.147 5 121382955.10105     -4256.776 5        31.811                                                                    22707182.673 4                     -3310.888 4        27.329
R22        37.000    20264975.650 7 108175806.94807       658.066 7        44.650                                                                    20264975.376 6  84136778.78906       511.827 6        40.536
C39        38.000                                                                                                                                    39322053.193 5 204760226.40605     -1693.463 5        30.385
C06        41.000                                                                                                                                    38279931.632 5 199333698.63505     -1239.431 5        34.819    38279929.998 6 154137381.96406      -958.639 6        38.231    38279921.303 4 161974903.40504     -1007.865 4        27.497
C29        43.000                                                                                                                                    24937473.214 4 129855986.39404     -4159.497 4        28.493                                                                    24937474.298 6 105518618.06006     -3379.717 6        39.646
R23        44.000    23469477.662 5                      3240.947 5        34.590
C16        45.000                                                                                                                                    38803785.655 5 202061559.92705     -1323.158 5        33.132    38803786.316 6 156246931.66406     -1023.478 6        36.121    38803786.237 5                     -1075.636 5        31.389
C09        46.000                                                                                                                                    38373181.834 6 199819239.10106      -735.325 6        39.000    38373180.622 7 154512913.19607      -568.849 7        43.185    38373176.670 6 162369472.56006      -597.867 6        39.727
C44        48.000                                                                                                                                    24413129.486 7 127125678.53807       737.572 7        43.331                                                                    24413126.198 6 103299927.01206       599.107 6        41.020
C37        49.000                                                                                                                                    24764863.307 6 128957134.63416        74.898 6        37.036                                                                    24764867.617 5 104788276.81515        60.823 5        34.952
C22        50.000                                                                                                                                    24926429.308 6 129798420.74806      1829.488 6        40.098
C35        51.000                                                                                                                                    23060223.271 7 120080861.14807     -1885.005 7        44.187                                                                    23060223.528 7  97575419.76107     -1531.863 7        42.614
C20        55.000                                                                                                                                    22797114.894 7 118710542.80307     -2594.700 7        47.478                                                                    22797108.619 7  96462118.65307     -2108.630 7        43.153
C12        56.000                                                                                                                                    26274597.614 4 136818849.28104      1875.547 4        24.827                                                                    26274594.797 4 111176444.47404      1524.333 4        29.763
I01        60.000   335132753.413 6  11992117.05606     -2976.362 6        37.796
> 2025 01 01 02 46  5.0000000  0 42
G02         1.000    24119880.838 5 126750843.02415     -4295.478 5        33.629
G31         4.000                                                                                                                                                                    22667765.510 4                     -2183.742 4        28.635
E34         6.000    24804128.139 8 130346580.94008      1037.915 8        48.609                                                                    24804127.295 7  97336780.65507       775.077 7        43.786    24804127.171 7  99875969.23407       795.202 7        44.724
E04         7.000    25803080.395 6 135596093.14406     -3240.934 6        38.586                                                                    25803076.564 6 101256805.78306     -2420.274 6        40.465    25803076.814 7 103898287.62707     -2483.419 7        42.241
G03         8.000    20598097.295 6 108244154.89616     -2580.471 6        36.537                                    20598104.144 4  84345804.76814     -2010.772 4        29.147    20598099.806 6  84345774.74106     -2010.437 6        36.544
G09         9.000    20698986.313 7 108773896.47707      1156.285 7        46.288                                    20698984.230 7  84758889.80807       900.998 7        45.698    20698983.813 7  84758880.80007       901.053 7        42.438
R14        10.000    23932816.669 5 127575403.56515     -3392.654 5        33.228                                                                    23932795.929 4                     -2638.898 4        27.665
G04        11.000    19964534.848 7 104914363.60107      -659.986 7        47.675                                    19964531.565 6  81751398.73506      -514.276 6        39.354    19964531.452 8  81751417.74008      -514.260 8        48.378
E09        12.000    23358374.563 7 122749188.12707     -1147.948 7        44.596                                                                    23358374.136 7  91663347.94507      -857.229 7        46.794    23358374.620 7  94054542.58307      -879.548 7        45.144
E06        14.000    23962846.848 7 125925652.01607     -2329.541 7        45.646                                                                    23962845.702 7  94035373.93807     -1739.530 7        46.000    23962846.560 8  96488438.95008     -1784.943 8        48.457
E11        15.000    26204925.446 5 137707819.28205     -3800.680 5        34.214                                                                    26204920.458 5 102833753.57505     -2838.143 5        30.234    26204920.760 4 105516377.55304     -2911.918 4        28.938
G19        16.000    22641128.091 6 118980311.30706     -2557.216 6        37.864                                    22641121.981 2  92711622.36002     -1992.650 2        16.717
G28        17.000                                                                                                                                                                    24841474.862 3                     -3039.449 3        21.619
G06        19.000    21974052.123 7 115474530.03407      1478.399 7        42.703                                    21974049.278 6  89980048.96206      1151.998 6        39.123    21974052.283 6  89980121.96106      1151.940 6        41.347
E36        20.000    23521137.856 7 123604548.09407     -1828.704 7        47.409                                                                    23521138.231 7  92301978.81507     -1365.567 7        46.359    23521136.044 7  94709887.67407     -1401.074 7        42.533
E05        21.000    23489848.093 7 123440002.22607      1360.480 7        44.406                                                                    23489847.552 7  92179250.88207      1015.910 7        44.328    23489847.553 7  94583914.52907      1042.445 7        45.050
G17        22.000    23779417.102 5 124961683.23905     -3496.361 5        34.995                                    23779407.193 1  97372715.57201     -2724.463 1        10.222    23779399.743 4                     -2724.458 4        29.886
R07        23.000    20948363.098 7 112138201.93607      1627.203 7        46.840                                                                    20948364.393 7  87218697.79207      1265.694 7        43.354
S23        24.000    38062140.606 6 200017849.36006      -823.351 6        41.497
S36        25.000    38116516.502 6 200303587.32106      -827.376 6        38.027
G11        26.000    25259675.927 6 132740482.73706      2752.250 6        37.698                                                                                                    25259674.179 5 103434146.01305      2144.658 5        34.171
R15        28.000    22187522.600 5 118563459.56505      -236.457 5        32.006                                                                    22187522.755 5                      -183.699 5        31.170
R06        29.000    19350771.139 5 103259440.22305     -1215.667 5        35.210
C05        32.000                                                                                                                                                                                                    39047950.080 5 157229933.03005      -654.513 5        34.609
C19        33.000                                                                                                                                    21970653.965 6 114407086.70506      -113.337 6        40.911                                                                    21970650.448 7  92965011.29207       -92.150 7        43.437
R21        34.000    20349694.451 7 108895421.24207     -3891.102 7        45.791                                                                    20349691.688 6  84696350.37806     -3026.495 6        38.979
R05        36.000    22711191.331 5 121404240.83505     -4257.436 5        32.287                                                                    22711167.085 4                     -3311.713 4        28.104
R22        37.000    20264361.997 7 108172527.60307       653.858 7        44.084                                                                    20264361.882 6  84134228.17806       508.604 6        40.813
C39        38.000                                                                                                                                    39323681.459 4 204768696.25504     -1694.466 4        29.261                                                                    39323703.157 4                     -1376.624 4        28.663
C06        41.000                                                                                                                                    38281124.496 5 199339899.82805     -1240.562 5        32.485    38281120.186 6 154142177.12706      -959.168 6        37.992    38281113.024 4 161979942.42604     -1008.364 4        28.825
C29        43.000                                                                                                                                    24941470.214 4 129876783.28504     -4159.488 4        29.441                                                                    24941468.094 6 105535517.26906     -3380.090 6        39.631
R23        44.000    23466445.207 5 125529675.96815      3239.638 5        33.784
C16        45.000                                                                                                                                    38805057.910 5 202068179.25205     -1323.943 5        32.742    38805058.577 5 156252050.16605     -1023.918 5        35.043    38805057.953 5                     -1076.028 5        31.313
C09        46.000                                                                                                                                    38373888.893 6 199822919.00506      -736.252 6        37.822    38373886.823 7 154515758.74707      -569.423 7        43.746    38373883.578 6 162372462.79506      -598.338 6        39.724
C44        48.000                                                                                                                                    24412421.860 7 127121997.66107       735.016 7        43.431                                                                    24412419.186 6 103296936.00606       597.243 6        41.035
C37        49.000                                                                                                                                    24764797.181 6 128956767.44006        72.273 6        36.034                                                                    24764797.348 5 104787978.44605        58.844 5        34.838
C22        50.000                                                                                                                                    24924672.682 6 129789274.80706      1829.042 6        38.793
C35        51.000                                                                                                                                    23062033.771 7 120090293.48907     -1887.702 7        42.521                                                                    23062034.501 6  97583084.31106     -1534.039 6        41.971
C20        55.000                                                                                                                                    22799606.515 7 118723519.66607     -2595.859 7        46.837                                                                    22799600.291 7  96472663.41607     -2109.229 7        43.780
C12        56.000                                                                                                                                    26272798.188 4 136809474.01604      1874.689 4        27.545                                                                    26272795.789 4 111168826.34104      1523.272 4        28.938
C23        57.000                                                                                                                                    26493416.124 3                     -2370.357 3        19.672
I01        60.000   335136546.028 6  12007000.03106     -2976.733 6        36.677
> 2025 01 01 02 46 10.0000000  0 40
G02         1.000    24123967.776 5 126772322.05305     -4295.902 5        34.781
G31         4.000    22670445.910 3                     -2804.396 3        23.924                                                                                                    22670431.313 4                     -2186.154 4        29.005
E34         6.000    24803141.691 8 130341395.52908      1036.293 8        49.141                                                                    24803140.409 7  97332908.42107       773.842 7        44.430    24803140.796 7  99871995.99507       794.013 7        44.719
E04         7.000    25806164.687 6 135612299.76806     -3241.738 6        38.691                                                                    25806160.589 6 101268908.10606     -2420.654 6        39.739    25806160.892 7 103910705.67607     -2483.837 7        42.000
G03         8.000    20600558.967 6 108257061.35606     -2582.188 6        41.135                                    20600558.765 5  84355861.79005     -2012.099 5        32.150    20600555.771 6  84355831.77506     -2012.231 6        36.688
G09         9.000    20697887.489 7 108768120.31707      1154.119 7        46.201                                    20697884.962 7  84754388.89707       899.316 7        45.714    20697884.928 7  84754379.89807       899.327 7        42.442
R14        10.000    23935997.954 5                     -3395.319 5        30.732                                                                    23935979.961 4                     -2640.797 4        27.533
G04        11.000    19965164.301 8 104917670.07408      -662.553 8        48.258                                    19965160.753 6  81753975.21206      -516.277 6        39.736    19965160.850 8  81753994.21008      -516.260 8        48.027
E09        12.000    23359467.308 7 122754932.24307     -1149.682 7        44.495                                                                    23359467.371 7  91667637.36607      -858.528 7        47.432    23359467.617 7  94058943.91107      -880.916 7        45.491
E06        14.000    23965064.114 7 125937302.84007     -2330.804 7        45.407                                                                    23965063.067 7  94044074.21807     -1740.568 7        46.222    23965063.551 8  96497366.19708     -1785.892 8        48.084
E11        15.000    26208542.140 5 137726824.24405     -3801.347 5        34.557                                                                    26208538.306 5 102847945.59405     -2838.633 5        31.343    26208538.353 4 105530939.78004     -2912.256 4        26.910
G19        16.000    22643562.236 6 118993104.97006     -2560.083 6        38.928                                    22643556.663 2  92721591.43602     -1994.871 2        16.075
G06        19.000    21972646.419 7 115467144.72307      1475.879 7        43.086                                    21972644.593 6  89974294.16706      1150.030 6        40.393    21972647.056 7  89974367.17307      1150.025 7        43.238
E36        20.000    23522878.988 7 123613697.58207     -1830.863 7        47.267                                                                    23522879.384 7  92308811.23407     -1367.317 7        45.881    23522876.890 6  94716898.30706     -1402.893 6        41.597
E05        21.000    23488554.627 7 123433203.24707      1359.286 7        43.556                                                                    23488554.019 7  92174173.70807      1014.973 7        45.381    23488553.388 7  94578704.92107      1041.511 7        45.246
G17        22.000    23782731.383 5 124979167.62005     -3497.375 5        31.894                                    23782732.949 1  97386339.76801     -2725.248 1        11.259    23782728.987 4                     -2725.410 4        29.706
R07        23.000    20946843.190 7 112130070.05307      1625.659 7        44.158                                                                    20946845.408 7  87212373.00807      1264.375 7        44.274
S23        24.000    38062926.798 6 200021965.96606      -823.260 6        40.703
S36        25.000    38117303.244 6 200307723.88406      -827.292 6        36.991
G11        26.000    25257057.908 6 132726722.97506      2751.608 6        38.892                                                                                                    25257056.150 5 103423424.15005      2143.994 5        32.802
R15        28.000    22187745.539 4 118564650.66804      -239.461 4        26.084                                                                    22187754.493 5  92216910.70515      -186.953 5        33.240
R06        29.000    19351910.572 6 103265524.27106     -1217.705 6        36.352
C05        32.000                                                                                                                                                                                                    39048762.225 5 157233207.28605      -654.920 5        34.538
C19        33.000                                                                                                                                    21970763.166 7 114407657.55007      -114.839 7        42.508                                                                    21970760.273 7  92965475.15207       -93.336 7        43.352
R21        34.000    20353332.304 7 108914885.40707     -3894.505 7        45.834                                                                    20353328.063 6  84711489.17606     -3029.176 6        38.057
R05        36.000    22715169.133 4 121425527.02304     -4257.420 4        26.287                                                                    22715149.597 4                     -3310.940 4        28.313
R22        37.000    20263751.240 7 108169269.13907       649.652 7        44.001                                                                    20263750.374 6  84131693.80306       505.305 6        40.217
C39        38.000                                                                                                                                    39325314.415 4 204777168.60604     -1694.985 4        27.389                                                                    39325331.588 4                     -1376.979 4        27.641
C06        41.000                                                                                                                                    38282315.713 5 199346104.30805     -1241.283 5        32.946    38282313.687 6 154146974.83506      -959.833 6        38.435    38282306.485 4 161984984.05504     -1008.726 4        28.635
C29        43.000                                                                                                                                    24945464.683 5 129897582.34005     -4159.904 5        30.483                                                                    24945462.463 6 105552418.17606     -3380.311 6        39.444
R23        44.000    23463422.271 5 125513483.27905      3237.820 5        32.461
C16        45.000                                                                                                                                    38806328.742 5 202074801.64905     -1324.905 5        31.358    38806328.631 5 156257170.98405     -1024.255 5        35.338    38806330.138 5                     -1076.664 5        31.683
C09        46.000                                                                                                                                    38374596.821 6 199826602.45506      -736.974 6        38.958    38374594.798 7 154518606.99807      -569.830 7        44.179    38374590.548 6 162375455.88506      -598.845 6        39.940
C44        48.000                                                                                                                                    24411718.187 7 127118328.83807       732.588 7        43.422                                                                    24411714.471 6 103293954.78306       595.329 6        40.923
C37        49.000                                                                                                                                    24764733.649 5 128956412.80605        69.711 5        35.633                                                                    24764727.760 5 104787690.29705        56.726 5        32.826
C22        50.000                                                                                                                                    24922916.916 6 129780131.37506      1828.435 6        39.607                                                                    24922904.365 5                      1485.670 5        32.796
C35        51.000                                                                                                                                    23063848.892 7 120099738.93607     -1890.349 7        42.808                                                                    23063848.672 6  97590759.53006     -1536.047 6        41.845
C20        55.000                                                                                                                                    22802099.431 8 118736501.36108     -2596.806 8        48.489                                                                    22802093.650 7  96483212.13107     -2110.117 7        42.307
C12        56.000                                                                                                                                    26271002.869 4 136800106.35704      1872.062 4        25.865                                                                    26270998.521 5 111161214.36805      1521.818 5        30.506
I01        60.000   335140339.811 6  12021883.31206     -2976.707 6        37.592
> 2025 01 01 02 46 15.0000000  0 42
G02         1.000    24128055.304 5 126793804.73505     -4296.842 5        34.548
G31         4.000                                                                                                                                                                    22673101.726 4                     -2187.910 4        26.563
E34         6.000    24802156.789 8 130336218.63208      1034.635 8        49.342                                                                    24802155.532 7  97329042.56107       772.630 7        44.643    24802155.475 7  99868029.29307       792.756 7        44.722
E04         7.000    25809249.201 6 135628509.86706     -3242.337 6        39.559                                                                    25809244.863 6 101281013.03806     -2421.040 6        39.369    25809245.736 7 103923126.41807     -2484.397 7        42.518
G03         8.000    20603018.080 6 108269977.31206     -2584.027 6        40.441                                    20603015.739 5  84365926.14505     -2013.524 5        32.748    20603012.957 6  84365896.11506     -2013.584 6        36.790
G09         9.000    20696790.386 7 108762355.43507      1151.932 7        46.047                                    20696787.881 7  84749896.78907       897.612 7        45.436    20696787.727 7  84749887.79607       897.555 7        42.654
R14        10.000    23939184.112 4 127609360.65314     -3398.304 4        29.024                                                                    23939164.418 4                     -2643.196 4        27.617
G04        11.000    19965796.396 8 104920989.91108      -665.179 8        48.316                                    19965792.401 6  81756562.09806      -518.321 6        40.074    19965792.514 7  81756581.09307      -518.322 7        47.938
E09        12.000    23360562.067 7 122760685.23907     -1151.383 7        44.754                                                                    23360562.044 7  91671933.42607      -859.802 7        46.995    23360562.476 7  94063352.02507      -882.139 7        45.303
E06        14.000    23967282.708 7 125948960.57407     -2332.118 7        45.193                                                                    23967281.997 7  94052779.66407     -1741.490 7        46.493    23967282.105 8  96506298.73808     -1786.935 8        48.386
E11        15.000    26212159.238 5 137745834.11705     -3802.210 5        34.824                                                                    26212156.401 5 102862141.26005     -2839.247 5        31.532
G19        16.000    22645999.718 6 119005913.30306     -2563.112 6        40.164                                    22645993.966 2  92731571.95402     -1997.233 2        16.264
G28        17.000    24848912.392 3                     -3904.220 3        23.543                                                                                                    24848914.640 4                     -3041.888 4        27.257
G06        19.000    21971243.447 7 115459771.58207      1473.591 7        43.979                                    21971242.230 6  89968548.85806      1148.248 6        41.347    21971244.335 7  89968621.87007      1148.127 7        44.245
E36        20.000    23524622.346 7 123622858.42407     -1833.213 7        47.574                                                                    23524622.342 7  92315652.11007     -1368.914 7        45.982    23524620.244 6  94723917.64706     -1404.722 6        41.187
E05        21.000    23487262.446 7 123426410.74907      1357.993 7        43.941                                                                    23487261.574 7  92169101.38307      1014.067 7        45.735    23487260.827 7  94573500.28507      1040.481 7        45.494
G17        22.000    23786053.442 5 124996658.18105     -3498.953 5        30.226                                    23786060.695 1  97399968.74801     -2726.438 1        11.407    23786059.693 5                     -2726.199 5        31.472
R07        23.000    20945325.998 6 112121947.49106      1623.643 6        41.385                                                                    20945327.920 7  87206055.45807      1262.931 7        44.250
S23        24.000    38063708.835 6 200026082.93706      -823.447 6        40.870
S36        25.000    38118081.346 6 200311861.02506      -827.249 6        37.142
G11        26.000    25254439.930 6 132712966.71706      2751.122 6        38.664                                                                                                    25254437.508 4 103412705.03504      2143.631 4        29.877
R15        28.000    22187973.830 4 118565863.44504      -244.327 4        27.030                                                                    22187980.239 5  92217853.88305      -190.226 5        34.476
R06        29.000    19353053.216 6 103271620.32606     -1220.291 6        36.465
C05        32.000                                                                                                                                                                                                    39049575.242 5 157236481.91305      -655.069 5        33.299
C19        33.000                                                                                                                                    21970875.182 7 114408236.19107      -116.444 7        43.374                                                                    21970871.829 7  92965945.30507       -94.475 7        43.367
R21        34.000    20356972.558 7 108934367.29407     -3898.071 7        45.895                                                                    20356968.702 5  84726641.72705     -3031.693 5        35.114
R05        36.000    22719153.186 3                     -4258.801 3        20.167                                                                    22719132.941 4                     -3310.702 4        25.444
R22        37.000    20263145.509 7 108166032.29007       645.308 7        45.780                                                                    20263143.893 6  84129176.24706       502.023 6        40.091
C39        38.000                                                                                                                                    39326942.209 5 204785643.87305     -1695.274 5        32.389                                                                    39326960.292 4                     -1377.214 4        27.401
R16        39.000    22890549.388 4                      2731.330 4        26.886
C06        41.000                                                                                                                                    38283508.826 5 199352312.74805     -1241.898 5        34.029    38283506.993 6 154151775.59706      -960.320 6        38.535    38283497.660 4 161990028.89104     -1009.119 4        29.915
C29        43.000                                                                                                                                    24949460.936 4 129918384.19704     -4159.944 4        29.204                                                                    24949457.595 6 105569321.37406     -3380.635 6        39.655
C16        45.000                                                                                                                                    38807599.623 5 202081427.69205     -1325.584 5        30.309    38807600.301 5 156262294.64905     -1024.940 5        35.100    38807600.396 5                     -1076.987 5        31.374
C09        46.000                                                                                                                                    38375304.237 6 199830290.10006      -737.875 6        38.934    38375302.732 7 154521458.53307      -570.530 7        44.185    38375298.450 6 162378452.40106      -599.439 6        39.480
C44        48.000                                                                                                                                    24411014.660 7 127114672.78407       730.066 7        43.107                                                                    24411012.874 6 103290983.93906       593.248 6        40.389
C37        49.000                                                                                                                                    24764666.762 5 128956071.51105        67.146 5        34.000                                                                    24764661.436 5 104787412.97905        54.487 5        31.789
C22        50.000                                                                                                                                    24921162.341 6 129770991.13206      1827.738 6        37.853                                                                    24921147.630 5                      1485.283 5        33.467
C35        51.000                                                                                                                                    23065666.636 7 120109198.24507     -1893.155 7        42.954                                                                    23065665.279 7  97598445.98707     -1538.135 7        42.210
C20        55.000                                                                                                                                    22804594.599 8 118749488.64308     -2597.895 8        50.097                                                                    22804587.087 6  96493765.35106     -2110.922 6        41.387
C12        56.000                                                                                                                                    26269207.952 4 136790746.93504      1870.708 4        27.665                                                                    26269200.992 5 111153609.03905      1520.295 5        30.045
C23        57.000                                                                                                                                    26497962.888 4                     -2374.160 4        26.503
I01        60.000   335144132.636 6  12036767.42306     -2976.762 6        38.045
> 2025 01 01 02 46 20.0000000  0 43
G02         1.000    24132144.102 5 126815290.08805     -4297.354 5        35.267
G31         4.000    22675771.129 5                     -2811.892 5        33.814                                                                                                    22675774.101 4                     -2190.367 4        26.048
E34         6.000    24801173.170 8 130331049.20808      1033.114 8        49.446                                                                    24801171.786 7  97325182.28907       771.477 7        44.233    24801171.893 7  99864068.31207       791.614 7        44.802
E04         7.000    25812334.171 6 135644722.40406     -3242.887 6        39.429                                                                    25812329.719 6 101293119.80206     -2421.477 6        38.532    25812331.330 7 103935549.00707     -2484.693 7        42.246
G03         8.000    20605477.424 6 108282901.65406     -2585.661 6        39.273                                    20605474.505 5  84375997.05805     -2014.788 5        31.879    20605472.226 6  84375966.97306     -2014.699 6        36.129
G09         9.000    20695695.598 7 108756600.81807      1149.922 7        45.902                                    20695692.704 7  84745412.67007       896.044 7        44.524    20695692.687 7  84745403.68107       896.053 7        43.052
R14        10.000    23942374.604 4 127626362.77414     -3400.776 4        25.820                                                                    23942356.289 5                     -2646.195 5        30.513
G04        11.000    19966430.294 8 104924322.03308      -667.603 8        48.508                                    19966426.339 6  81759158.56006      -520.213 6        40.300    19966426.715 8  81759177.56008      -520.245 8        48.125
E09        12.000    23361658.634 7 122766446.04507     -1152.924 7        44.995                                                                    23361658.307 7  91676235.33107      -860.973 7        46.628    23361658.440 7  94067766.15007      -883.422 7        44.713
E06        14.000    23969502.578 7 125960624.15307     -2333.347 7        45.293                                                                    23969501.837 7  94061489.46807     -1742.381 7        46.747    23969501.324 7  96515235.76207     -1787.888 7        47.978
E11        15.000    26215778.255 5 137764847.82405     -3803.154 5        34.352                                                                    26215774.661 5 102876339.79405     -2840.138 5        31.026    26215772.354 4 105560074.60404     -2913.817 4        24.647
G19        16.000    22648438.660 6 119018735.26706     -2565.655 6        39.904                                    22648433.607 2  92741563.06302     -1999.205 2        14.905
G28        17.000    24852630.086 3                     -3903.786 3        21.881                                                                                                    24852626.118 4                     -3043.533 4        24.331
G06        19.000    21969842.602 7 115452409.61007      1471.271 7        45.698                                    21969841.834 7  89962812.26307      1146.443 7        42.078    21969842.644 7  89962885.26207      1146.472 7        44.265
E36        20.000    23526367.487 7 123632029.53507     -1835.244 7        47.787                                                                    23526367.571 7  92322500.67407     -1370.456 7        45.872    23526364.920 6  94730944.83506     -1406.270 6        40.815
E05        21.000    23485971.075 7 123419623.65107      1356.960 7        44.644                                                                    23485969.944 7  92164033.10507      1013.290 7        45.652    23485968.867 7  94568299.78307      1039.726 7        45.237
G17        22.000    23789382.334 5 125014153.76705     -3499.484 5        31.079                                    23789389.447 1  97413601.68501     -2726.861 1        11.333    23789391.973 5                     -2727.003 5        31.517
R07        23.000    20943811.616 6 112113832.69506      1622.222 6        41.816                                                                    20943812.320 7  87199743.94707      1261.649 7        44.111
S23        24.000    38064493.466 6 200030199.40406      -823.320 6        40.062
S36        25.000    38118869.219 6 200315998.17006      -827.598 6        36.095
G11        26.000    25251821.624 6 132699212.91206      2750.389 6        37.474                                                                                                    25251819.575 4 103401987.81504      2143.395 4        28.938
R15        28.000    22188208.743 5 118567097.06205      -248.731 5        30.506                                                                    22188216.507 5  92218813.41105      -193.467 5        35.719
R06        29.000    19354197.485 6 103277727.26006     -1222.363 6        38.102
C05        32.000                                                                                                                                                                                                    39050387.745 5 157239756.15505      -654.669 5        33.862
C19        33.000                                                                                                                                    21970986.903 7 114408821.53407      -117.710 7        44.156                                                                    21970984.426 7  92966420.93007       -95.615 7        43.374
R21        34.000    20360615.375 7 108953865.74307     -3901.355 7        43.987                                                                    20360611.673 5  84741807.14405     -3034.304 5        35.943
R05        36.000                                                                                                                                    22723114.093 4                     -3310.756 4        26.180
R22        37.000    20262543.803 7 108162815.96807       641.202 7        47.047                                                                    20262541.429 6  84126674.67106       498.652 6        40.181
C39        38.000                                                                                                                                    39328563.346 5 204794121.16105     -1695.588 5        34.252                                                                    39328588.141 4                     -1376.400 4        25.158
R16        39.000    22887997.554 4                      2729.703 4        27.940
C06        41.000                                                                                                                                    38284701.929 5 199358524.09505     -1242.462 5        34.876    38284699.308 6 154156578.60806      -960.858 6        38.210    38284690.031 4 161995076.13604     -1009.683 4        29.071
C29        43.000                                                                                                                                    24953460.718 5 129939187.76105     -4161.078 5        30.958                                                                    24953452.991 6 105586225.99306     -3380.994 6        39.781
R23        44.000    23457402.021 5 125481122.22005      3234.347 5        32.677
C16        45.000                                                                                                                                    38808876.099 5 202088056.43605     -1325.964 5        32.066    38808873.967 5 156267420.37905     -1025.316 5        35.433    38808875.247 5                     -1077.606 5        30.219
C09        46.000                                                                                                                                    38376013.675 6 199833980.92506      -738.651 6        37.569    38376011.500 7 154524312.51807      -571.051 7        43.765    38376007.419 6 162381451.48006      -599.973 6        39.604
C44        48.000                                                                                                                                    24410315.521 7 127111028.48907       727.766 7        43.674                                                                    24410312.449 6 103288022.64506       591.532 6        39.949
C37        49.000                                                                                                                                    24764594.925 5 128955742.53905        64.840 5        32.311                                                                    24764597.401 5 104787145.59505        52.755 5        30.453
C22        50.000                                                                                                                                    24919408.570 5 129761853.06305      1827.459 5        35.319                                                                    24919393.757 5                      1484.859 5        34.095
C35        51.000                                                                                                                                    23067486.903 7 120118670.37707     -1895.755 7        42.322                                                                    23067484.759 7  97606142.86907     -1540.251 7        42.265
C20        55.000                                                                                                                                    22807090.497 8 118762480.46608     -2598.799 8        50.001                                                                    22807081.251 6  96504322.26606     -2111.791 6        41.263
C12        56.000                                                                                                                                    26267413.680 4 136781394.72004      1869.660 4        28.825    26267403.751 4                      1445.561 4        28.588    26267407.477 5 111146009.67205      1518.752 5        31.517
C23        57.000                                                                                                                                    26500251.746 4                     -2376.537 4        29.573
I01        60.000   335147926.267 6  12051651.59706     -2976.826 6        37.932
> 2025 01 01 02 46 25.0000000  0 42
G02         1.000    24136231.527 5 126836779.12105     -4298.042 5        35.805
G31         4.000    22678451.563 5                     -2814.804 5        35.081                                                                                                    22678451.986 4                     -2193.517 4        26.132
E34         6.000    24800191.031 8 130325888.35408      1031.310 8        50.063                                                                    24800189.402 7  97321328.40907       770.192 7        44.205    24800190.288 7  99860113.89907       790.317 7        44.834
E04         7.000    25815419.554 6 135660938.41806     -3243.526 6        39.916                                                                    25815415.793 6 101305229.17606     -2422.092 6        37.924    25815417.265 7 103947974.28607     -2485.321 7        42.199
G03         8.000    20607937.665 6 108295835.51106     -2587.589 6        39.144                                    20607935.033 4  84386075.33704     -2016.288 4        29.725    20607933.535 5  84386045.27305     -2016.169 5        33.587
G09         9.000    20694602.335 7 108750857.56107      1147.579 7        46.027                                    20694599.540 7  84740937.41107       894.225 7        43.723    20694599.323 7  84740928.40307       894.189 7        42.614
R14        10.000                                                                                                                                    23945553.951 4                     -2648.313 4        26.922
G04        11.000    19967066.833 8 104927667.53708      -670.386 8        49.044                                    19967062.789 6  81761765.45006      -522.382 6        40.582    19967063.368 8  81761784.44708      -522.381 8        48.550
E09        12.000    23362756.975 7 122772215.77807     -1154.877 7        44.873                                                                    23362756.367 7  91680543.88707      -862.333 7        47.121    23362756.262 7  94072187.11007      -884.801 7        44.275
E06        14.000    23971723.752 7 125972294.64507     -2334.749 7        45.518                                                                    23971722.826 7  94070204.44107     -1743.450 7        46.793    23971722.022 7  96524178.08007     -1788.969 7        47.796
E11        15.000    26219396.573 5 137783866.38505     -3804.406 5        33.539                                                                    26219393.833 5 102890542.00305     -2840.939 5        31.419    26219389.781 3 105574647.34103     -2916.061 3        23.581
G19        16.000    22650881.463 6 119031571.93506     -2568.591 6        39.778                                    22650875.860 2  92751565.65902     -2001.533 2        14.095
G28        17.000    24856347.856 4                     -3906.542 4        24.647
G06        19.000    21968443.950 7 115445059.88407      1468.810 7        46.001                                    21968443.652 7  89957085.20607      1144.529 7        42.408    21968443.830 7  89957158.20407      1144.512 7        44.322
E36        20.000    23528114.798 7 123641212.02507     -1837.629 7        47.219                                                                    23528114.834 7  92329357.73207     -1372.143 7        45.141    23528112.027 6  94737980.73706     -1407.931 6        39.517
E05        21.000    23484680.249 7 123412843.08807      1355.491 7        44.491                                                                    23484679.666 7  92158969.68807      1012.189 7        46.071    23484678.584 7  94563104.28407      1038.646 7        45.725
G17        22.000    23792714.061 5 125031655.67105     -3501.044 5        31.766                                    23792719.254 1  97427239.49101     -2728.065 1        11.704    23792722.232 5                     -2728.035 5        30.362
R07        23.000    20942299.542 6 112105727.01506      1620.228 6        41.125                                                                    20942297.481 7  87193439.50607      1260.163 7        43.528
S23        24.000    38065271.511 6 200034316.29306      -823.362 6        40.300
S36        25.000    38119652.970 5 200320136.21005      -827.486 5        34.162
G11        26.000    25249204.407 6 132685462.50306      2749.866 6        37.297                                                                                                    25249203.826 4 103391273.24704      2142.343 4        27.473
R15        28.000    22188445.891 5 118568352.65205      -253.203 5        31.924                                                                    22188457.843 5  92219789.97205      -197.007 5        34.114
R06        29.000    19355345.850 6 103283846.19306     -1224.836 6        37.006
C05        32.000                                                                                                                                                                                                    39051200.860 5 157243030.79305      -654.608 5        32.168
C19        33.000                                                                                                                                    21971100.588 7 114409414.66107      -119.447 7        45.159                                                                    21971098.635 7  92966902.90007       -97.093 7        42.844
R21        34.000    20364261.512 7 108973381.85107     -3904.982 7        43.818                                                                    20364257.948 6  84756986.33006     -3037.217 6        36.423
R05        36.000                                                                                                                                    22727098.117 3                     -3312.301 3        23.429
R22        37.000    20261945.382 7 108159621.31107       636.743 7        46.986                                                                    20261943.487 6  84124189.92106       495.329 6        40.389
C39        38.000                                                                                                                                    39330188.133 5 204802601.55405     -1696.309 5        33.054                                                                    39330215.718 4                     -1378.360 4        26.611
R16        39.000    22885448.492 5                      2727.635 5        32.820
C06        41.000                                                                                                                                    38285896.328 5 199364739.50205     -1243.529 5        31.721    38285892.737 6 154161384.72506      -961.462 6        38.595    38285883.699 4 162000126.58604     -1009.990 4        29.033
C29        43.000                                                                                                                                    24957454.874 5 129959994.10805     -4161.374 5        32.174                                                                    24957449.394 6 105603132.93006     -3381.737 6        40.072
C16        45.000                                                                                                                                    38810152.831 5 202094688.87505     -1326.618 5        32.856    38810147.365 5 156272549.02705     -1025.944 5        35.724    38810148.077 4                     -1078.137 4        29.706
C09        46.000                                                                                                                                    38376723.175 6 199837676.01006      -739.407 6        38.009    38376720.914 7 154527169.78607      -571.715 7        44.351    38376717.323 6 162384454.07006      -601.045 6        39.429
C44        48.000                                                                                                                                    24409618.747 7 127107397.03007       725.112 7        43.558                                                                    24409614.410 6 103285071.81406       589.091 6        39.336
C37        49.000                                                                                                                                    24764529.024 5 128955426.96405        61.616 5        32.030                                                                    24764535.819 4 104786889.16704        49.778 4        29.137
C22        50.000                                                                                                                                    24917658.026 5 129752718.24005      1826.502 5        34.148                                                                    24917640.778 6 105434685.42416      1484.061 6        36.299
C35        51.000                                                                                                                                    23069308.942 7 120128156.37207     -1898.623 7        42.927                                                                    23069306.655 7  97613851.03907     -1542.941 7        42.855
C20        55.000                                                                                                                                    22809586.135 8 118775477.91408     -2600.010 8        49.320                                                                    22809577.136 6  96514883.74406     -2112.858 6        40.312
C12        56.000                                                                                                                                    26265621.202 4 136772050.79204      1867.628 4        29.820    26265610.076 5                      1444.430 5        30.581
C23        57.000                                                                                                                                    26502531.071 4                     -2378.701 4        28.445
I01        60.000   335151718.643 6  12066536.63706     -2977.123 6        38.261
> 2025 01 01 02 46 30.0000000  0 42
G02         1.000    24140320.906 5 126858270.85305     -4298.592 5        35.552
G31         4.000    22681133.210 5 119190145.93615     -2817.291 5        30.158                                    22681119.738 1  92875394.17711     -2195.285 1        10.889    22681132.554 4                     -2195.580 4        28.806
E34         6.000    24799210.334 8 130320735.08408      1029.899 8        50.384                                                                    24799208.682 7  97317480.19407       769.032 7        43.903    24799209.835 7  99856165.30307       789.113 7        45.242
E04         7.000    25818505.447 6 135677156.98806     -3243.987 6        39.327                                                                    25818502.527 6 101317340.43806     -2422.416 6        37.947    25818503.350 6 103960401.48906     -2485.608 6        41.459
G03         8.000    20610399.752 6 108308777.79106     -2589.268 6        38.520                                    20610397.319 4  84396160.18704     -2017.610 4        28.872    20610397.120 6  84396130.16206     -2017.637 6        36.439
G09         9.000    20693510.763 7 108745124.61807      1145.598 7        45.076                                    20693508.303 7  84736470.17307       892.678 7        42.942    20693508.478 7  84736461.17507       892.511 7        42.646
R14        10.000                                                                                                                                    23948755.440 4                     -2650.874 4        29.128
G04        11.000    19967705.920 8 104931025.43008      -672.759 8        49.448                                    19967701.726 6  81764381.99606      -524.230 6        40.536    19967702.643 8  81764400.99108      -524.310 8        48.341
E09        12.000    23363856.606 7 122777993.40807     -1156.330 7        45.496                                                                    23363855.960 7  91684858.35807      -863.458 7        47.042    23363855.404 7  94076614.12307      -885.917 7        43.752
E06        14.000    23973945.637 7 125983971.08207     -2335.878 7        45.678                                                                    23973944.836 7  94078923.85307     -1744.282 7        46.649    23973943.959 7  96533124.95407     -1789.754 7        47.506
E11        15.000    26223015.134 5 137802888.82305     -3804.558 5        33.449                                                                    26223013.723 5 102904747.04905     -2841.287 5        31.902    26223007.226 3                     -2914.925 3        22.362
G19        16.000    22653326.419 6 119044422.33306     -2571.476 6        39.411                                    22653320.876 2  92761578.98702     -2003.720 2        13.939
G28        17.000    24860055.081 3                     -3909.102 3        22.686
G06        19.000    21967046.575 7 115437721.42907      1466.600 7        45.710                                    21967047.481 7  89951366.92907      1142.807 7        42.599    21967047.591 7  89951439.93007      1142.896 7        44.448
E36        20.000    23529864.054 7 123650404.89507     -1839.598 7        47.106                                                                    23529864.162 7  92336222.54107     -1373.743 7        44.919    23529861.353 6  94745024.62106     -1409.582 6        39.535
E05        21.000    23483390.500 7 123406068.03407      1354.548 7        44.722                                                                    23483390.507 7  92153910.39307      1011.472 7        46.109    23483389.645 7  94557913.00807      1037.937 7        45.308
G17        22.000    23796047.012 5 125049162.57005     -3501.989 5        31.849                                    23796050.608 1  97440881.22501     -2728.836 1        11.778    23796052.580 4                     -2728.689 4        29.981
R07        23.000    20940789.172 7 112097629.33907      1618.857 7        42.227                                                                    20940785.072 7  87187141.33207      1259.046 7        43.009
S23        24.000    38066062.921 6 200038432.64606      -823.199 6        40.810
S36        25.000    38120439.631 5 200324273.28305      -827.278 5        34.386
G11        26.000    25246588.572 6 132671714.65706      2749.398 6        36.265                                                                                                    25246587.044 4 103380560.79404      2141.626 4        24.556
R15        28.000    22188679.863 5 118569629.15705      -257.706 5        33.874                                                                    22188698.255 5  92220782.73005      -200.298 5        35.210
R06        29.000    19356493.255 6 103289976.17806     -1227.229 6        37.100
C05        32.000                                                                                                                                                                                                    39052014.119 5 157246305.14605      -654.845 5        34.062
C19        33.000                                                                                                                                    21971215.711 7 114410014.59907      -120.683 7        44.248                                                                    21971213.861 7  92967390.40507       -98.006 7        42.952
R21        34.000    20367910.934 7 108992914.61707     -3908.125 7        42.172                                                                    20367910.156 5  84772178.54705     -3039.535 5        35.371
R05        36.000    22731077.536 4                     -4258.092 4        28.180
R22        37.000    20261349.436 7 108156447.29807       632.836 7        46.658                                                                    20261348.362 6  84121721.26006       492.040 6        39.583
C39        38.000                                                                                                                                    39331820.202 5 204811084.05905     -1696.705 5        34.314                                                                    39331843.697 4                     -1379.539 4        24.391
R16        39.000    22882898.237 5                      2725.474 5        32.419
C06        41.000                                                                                                                                    38287089.525 5 199370957.85505     -1243.990 5        35.095    38287085.153 6 154166193.14806      -961.783 6        37.134    38287078.478 4 162005179.59904     -1010.551 4        29.081
C29        43.000                                                                                                                                    24961450.764 5 129980802.33705     -4161.759 5        33.455                                                                    24961445.814 6 105620041.34606     -3381.812 6        40.872
C16        45.000                                                                                                                                                                                                    38811423.385 6 156277679.76906     -1026.414 6        36.514    38811422.109 4                     -1078.540 4        29.782
C09        46.000                                                                                                                                    38377434.240 6 199841374.36706      -740.067 6        38.492    38377431.194 7 154530029.60107      -572.222 7        44.456    38377427.546 6 162387459.29406      -601.121 6        39.697
C44        48.000                                                                                                                                    24408923.244 7 127103777.42607       722.750 7        42.444                                                                    24408919.287 6 103282130.59206       587.481 6        39.048
C37        49.000                                                                                                                                    24764470.946 4 128955123.66404        59.235 4        29.649                                                                    24764476.130 4 104786642.67904        48.395 4        28.919
C22        50.000                                                                                                                                    24915908.160 4 129743585.63604      1826.732 4        28.038                                                                    24915886.743 5 105427264.45405      1484.034 5        34.700
C35        51.000                                                                                                                                    23071132.899 7 120137655.27607     -1901.032 7        42.180                                                                    23071131.068 7  97621569.68207     -1544.714 7        43.302
C20        55.000                                                                                                                                    22812081.798 8 118788479.96908     -2600.769 8        49.685                                                                    22812073.595 6  96525448.97306     -2113.435 6        39.535
C12        56.000                                                                                                                                    26263827.631 4 136762714.26804      1866.488 4        29.299    26263816.875 5                      1443.349 5        32.473    26263840.907 5 111130830.44705      1516.727 5        34.029
C23        57.000                                                                                                                                    26504813.964 4                     -2381.515 4        25.038
I01        60.000   335155511.989 6  12081421.89006     -2977.186 6        38.513
> 2025 01 01 02 46 35.0000000  0 42
G02         1.000    24144414.891 6 126879765.59506     -4299.183 6        36.238
G31         4.000    22683805.786 4                     -2820.889 4        28.161                                                                                                    22683820.424 5                     -2197.997 5        32.587
E34         6.000    24798231.001 8 130315589.73108      1028.121 8        50.834                                                                    24798229.573 7  97313637.89307       767.757 7        43.653    24798230.633 7  99852222.75107       787.747 7        45.338
E04         7.000    25821592.469 6 135693378.37006     -3244.773 6        39.165                                                                    25821589.298 6 101329453.81306     -2422.982 6        37.887    25821589.883 6 103972830.86806     -2486.284 6        41.557
G03         8.000    20612865.313 6 108321728.96106     -2591.285 6        37.539                                    20612861.563 4  84406251.98104     -2019.170 4        29.299    20612860.715 6  84406221.94306     -2019.075 6        36.284
G09         9.000    20692421.711 7 108739402.38807      1143.188 7        44.304                                    20692419.146 7  84732011.28307       890.797 7        42.897    20692419.513 7  84732002.28607       890.720 7        42.421
R14        10.000    23951987.654 5                     -3411.543 5        31.555                                                                    23951950.835 4                     -2653.650 4        28.360
G04        11.000    19968347.101 8 104934396.03308      -675.536 8        48.669                                    19968343.122 6  81767008.44406      -526.395 6        40.629    19968344.181 8  81767027.43208      -526.379 8        48.824
E09        12.000    23364957.644 7 122783779.28607     -1158.184 7        46.110                                                                    23364956.946 7  91689178.98307      -864.813 7        47.197    23364956.364 7  94081047.46207      -887.456 7        44.265
E06        14.000    23976168.880 7 125995653.76707     -2337.342 7        46.184                                                                    23976168.213 7  94087647.93307     -1745.396 7        47.010    23976167.005 7  96542076.61807     -1790.943 7        47.191
E11        15.000    26226636.044 5 137821915.54505     -3805.720 5        35.029                                                                    26226634.284 5 102918955.28505     -2841.948 5        31.698    26226628.632 3                     -2916.382 3        22.438
G19        16.000    22655774.100 6 119057286.72306     -2574.421 6        39.787                                    22655768.365 2  92771603.17902     -2006.053 2        13.576
G28        17.000                                                                                                                                                                    24863748.693 4                     -3045.318 4        24.692
G06        19.000    21965652.310 7 115430394.57707      1464.127 7        45.077                                    21965653.399 7  89945657.69707      1140.879 7        42.489    21965653.006 7  89945730.68807      1140.962 7        44.608
E36        20.000    23531615.457 7 123659608.47407     -1842.001 7        46.918                                                                    23531615.352 7  92343095.34907     -1375.513 7        44.850    23531612.574 6  94752076.69406     -1411.355 6        39.378
E05        21.000    23482102.065 7 123399298.82207      1353.067 7        44.111                                                                    23482102.595 7  92148855.46807      1010.441 7        46.521    23482101.692 7  94552726.21707      1036.791 7        45.529
G17        22.000    23799383.396 5 125066674.97705     -3502.922 5        32.222                                    23799382.942 2  97454527.21802     -2729.595 2        12.303    23799382.826 4                     -2729.578 4        28.739
R07        23.000    20939277.281 7 112089540.01307      1616.932 7        43.010                                                                    20939273.239 7  87180849.61307      1257.519 7        42.993
S23        24.000    38066846.027 6 200042548.63006      -823.445 6        38.694
S36        25.000    38121203.321 5 200328410.05505      -827.244 5        32.234
G11        26.000    25243973.828 5 132657969.65405      2748.476 5        33.443                                                                                                    25243966.187 3                      2139.941 3        19.254
R15        28.000    22188924.075 5 118570926.71605      -261.948 5        33.180                                                                    22188933.622 5  92221791.97505      -203.597 5        34.871
R06        29.000    19357643.818 5 103296117.45405     -1229.594 5        35.843
C05        32.000                                                                                                                                                                                                    39052827.426 5 157249579.39605      -655.403 5        33.269
C19        33.000                                                                                                                                    21971331.868 7 114410621.69207      -122.241 7        44.417                                                                    21971330.650 7  92967883.70507       -99.481 7        42.639
R21        34.000    20371563.977 6 109012464.31406     -3911.609 6        37.887                                                                    20371565.302 5  84787383.96105     -3042.467 5        35.319
R05        36.000    22735063.760 5                     -4258.350 5        33.138                                                                    22735078.344 3                     -3312.375 3        23.581
R22        37.000    20260758.809 7 108153294.32007       628.341 7        47.449                                                                    20260757.496 6  84119268.92206       488.719 6        40.222
C39        38.000                                                                                                                                    39333448.408 5 204819568.98705     -1697.391 5        31.668                                                                    39333473.836 4                     -1379.291 4        26.527
R16        39.000    22880340.751 5 122222707.60315      2723.988 5        32.078
C06        41.000                                                                                                                                    38288285.245 5 199377179.55105     -1244.660 5        34.333    38288279.404 6 154171004.21706      -962.686 6        37.754    38288275.908 4 162010235.28604     -1011.641 4        29.299
C29        43.000                                                                                                                                    24965447.263 5 130001612.70805     -4162.318 5        34.757                                                                    24965442.651 6 105636951.48206     -3382.399 6        41.437
C16        45.000                                                                                                                                                                                                    38812696.570 5 156282812.87305     -1027.263 5        35.776    38812697.568 4                     -1079.146 4        29.668
C09        46.000                                                                                                                                    38378145.543 6 199845076.27706      -740.990 6        39.366    38378141.444 7 154532892.16807      -572.862 7        44.299    38378138.527 6 162390467.41406      -602.099 6        39.832
C44        48.000                                                                                                                                    24408229.986 7 127100169.98907       720.141 7        42.997                                                                    24408226.136 6 103279199.25406       585.104 6        39.087
C37        49.000                                                                                                                                    24764415.758 4 128954833.11304        56.605 4        27.916                                                                    24764423.001 5 104786406.59205        46.162 5        30.770
C22        50.000                                                                                                                                                                                                                                                                    24914133.656 5 105419845.58805      1483.445 5        34.162
C35        51.000                                                                                                                                    23072959.997 7 120147167.35807     -1903.902 7        42.925                                                                    23072957.604 7  97629299.02707     -1547.049 7        43.454
C20        55.000                                                                                                                                    22814579.218 8 118801486.97408     -2602.004 8        49.796                                                                    22814571.245 6  96536018.20406     -2114.391 6        39.453
C12        56.000                                                                                                                                    26262034.546 4 136753385.40804      1864.674 4        28.919    26262023.745 5                      1442.012 5        31.645    26262040.925 5 111123249.91605      1515.465 5        32.527
C23        57.000                                                                                                                                    26507107.920 4                     -2382.879 4        26.156
I01        60.000   335159305.769 6  12096307.46306     -2977.252 6        39.012
> 2025 01 01 02 46 40.0000000  0 43
G02         1.000    24148505.514 6 126901263.92306     -4300.207 6        36.246
G31         4.000    22686494.425 4 119218344.35814     -2823.716 4        29.355                                                                                                    22686505.794 5  92897450.77815     -2200.569 5        33.623
E34         6.000    24797253.549 8 130310452.87108      1026.389 8        51.044                                                                    24797251.897 7  97309801.94007       766.516 7        43.460    24797253.485 7  99848286.72407       786.515 7        45.509
E04         7.000    25824679.989 6 135709603.15206     -3245.427 6        38.231                                                                    25824676.735 6 101341569.72406     -2423.515 6        38.051    25824677.537 6 103985262.86206     -2486.730 6        41.032
G03         8.000    20615331.169 5 108334689.52505     -2593.187 5        32.946                                    20615327.685 4  84416351.05704     -2020.647 4        28.047    20615327.760 5  84416321.03505     -2020.554 5        33.970
G09         9.000    20691335.441 7 108733691.42407      1140.927 7        44.501                                    20691332.224 7  84727561.17707       889.037 7        42.662    20691332.878 7  84727552.17307       889.020 7        42.569
R14        10.000    23955180.084 4                     -3414.727 4        29.573                                                                    23955148.805 3                     -2654.779 3        23.429
G04        11.000    19968991.022 8 104937779.92008      -678.152 8        48.104                                    19968987.130 6  81769645.24106      -528.432 6        40.517    19968987.870 8  81769664.23308      -528.451 8        48.822
E09        12.000    23366060.345 7 122789573.97107     -1159.943 7        45.691                                                                    23366059.502 7  91693506.18407      -866.113 7        47.375    23366058.942 7  94085487.55107      -888.732 7        44.169
E06        14.000    23978393.281 7 126007343.28107     -2338.656 7        45.708                                                                    23978392.570 7  94096377.11207     -1746.382 7        47.238    23978391.413 7  96551033.51607     -1791.993 7        46.775
E11        15.000    26230258.573 5 137840947.03905     -3806.885 5        35.109                                                                    26230256.001 5 102933167.10605     -2842.901 5        32.329    26230254.380 4                     -2916.990 4        24.677
G19        16.000    22658225.709 6 119070165.66806     -2577.261 6        39.844                                    22658218.881 2  92781638.69402     -2008.260 2        14.048
G28        17.000    24867475.783 4                     -3912.051 4        24.662
G06        19.000    21964260.522 7 115423079.92907      1461.710 7        44.807                                    21964261.549 7  89939957.96707      1138.995 7        42.387    21964260.590 7  89940030.97007      1139.038 7        44.086
E36        20.000    23533369.155 7 123668823.34007     -1844.269 7        46.577                                                                    23533368.769 7  92349976.58107     -1377.139 7        43.972    23533366.118 6  94759137.41906     -1412.984 6        39.628
E05        21.000    23480815.218 7 123392536.04707      1351.856 7        43.346                                                                    23480815.659 7  92143805.34007      1009.505 7        46.435    23480815.018 7  94547544.35607      1035.833 7        45.335
G17        22.000    23802719.531 5 125084193.51305     -3504.676 5        31.155                                    23802716.210 2  97468177.93902     -2730.890 2        12.182    23802715.848 4                     -2730.863 4        28.626
R07        23.000    20937768.275 7 112081459.52407      1615.083 7        43.198                                                                    20937764.123 7  87174564.75307      1256.251 7        42.895
S23        24.000    38067633.100 6 200046664.90206      -823.417 6        38.676
S36        25.000    38121992.903 4 200332547.27504      -827.393 4        29.479
G11        26.000    25241355.852 5 132644228.19805      2747.893 5        31.525                                                                                                    25241349.152 3                      2141.533 3        19.791
R15        28.000    22189169.098 5 118572246.30105      -266.442 5        33.940                                                                    22189169.974 5  92222818.28705      -206.969 5        32.102
R06        29.000    19358797.186 5 103302270.60305     -1231.859 5        34.543
C05        32.000                                                                                                                                                                                                    39053642.496 5 157252854.02305      -655.236 5        34.400
C19        33.000                                                                                                                                    21971450.480 7 114411236.47607      -123.897 7        45.222                                                                    21971448.713 6  92968383.24606      -100.551 6        41.864
R21        34.000    20375221.321 6 109032031.64906     -3915.358 6        41.623                                                                    20375220.370 5  84802602.92705     -3045.139 5        33.641
R05        36.000    22739051.490 5                     -4258.924 5        34.905                                                                    22739054.587 3                     -3311.201 3        23.029
R22        37.000    20260173.065 7 108150162.95807       623.999 7        47.651                                                                    20260171.670 7  84116833.38807       485.444 7        42.354
C39        38.000                                                                                                                                    39335078.178 5 204828056.83805     -1697.961 5        33.251                                                                    39335109.193 4                     -1379.844 4        27.353
R16        39.000    22877795.492 5 122209090.94905      2722.316 5        33.192
C06        41.000                                                                                                                                    38289480.373 5 199383405.29105     -1245.902 5        30.415    38289476.586 6 154175818.30606      -963.272 6        36.529    38289470.712 5 162015294.12705     -1012.101 5        30.966
C29        43.000                                                                                                                                    24969443.029 5 130022425.82605     -4163.162 5        35.371                                                                    24969439.566 6 105653863.81606     -3382.761 6        41.869
R23        44.000    23445263.817 4 125416496.33304      3227.651 4        28.540
C16        45.000                                                                                                                                    38813963.117 4 202114604.31504     -1328.371 4        28.957    38813971.442 5 156287948.88605     -1027.674 5        35.243    38813973.433 5                     -1079.693 5        30.543
C09        46.000                                                                                                                                    38378857.889 6 199848782.39106      -741.860 6        39.832    38378853.566 7 154535757.95507      -573.470 7        44.960    38378850.337 6 162393478.90406      -602.634 6        39.934
C44        48.000                                                                                                                                    24407540.881 7 127096575.29307       717.566 7        44.349                                                                    24407536.335 6 103276278.26706       583.124 6        39.186
C37        49.000                                                                                                                                    24764367.789 4                        54.411 4        24.150                                                                    24764370.110 5 104786181.20005        43.885 5        30.438
C22        50.000                                                                                                                                                                                                                                                                    24912380.477 5 105412429.28305      1483.068 5        34.171
C35        51.000                                                                                                                                    23074789.969 7 120156693.19207     -1906.636 7        43.871                                                                    23074787.541 7  97637039.56307     -1549.229 7        44.018
C20        55.000                                                                                                                                    22817078.731 8 118814499.47108     -2603.135 8        49.965                                                                    22817070.053 6  96546591.89806     -2115.196 6        39.529
C12        56.000                                                                                                                                    26260247.117 4 136744064.73804      1863.925 4        27.880    26260236.965 5                      1440.737 5        33.138    26260241.348 5 111115676.12205      1514.057 5        33.449
C23        57.000                                                                                                                                    26509405.676 3                     -2387.618 3        23.981
I01        60.000   335163099.037 6  12111193.89506     -2977.412 6        39.165
> 2025 01 01 02 46 45.0000000  0 42
G02         1.000    24152595.934 5 126922764.87905     -4300.390 5        35.471
G31         4.000                                                                                                                                                                    22689190.809 5  92908458.59505     -2202.919 5        34.648
E34         6.000    24796277.147 8 130305323.59908      1025.088 8        50.763                                                                    24796276.231 7  97305971.63607       765.547 7        43.568    24796277.063 7  99844356.50207       785.528 7        45.711
E04         7.000    25827768.064 6 135725830.42406     -3245.867 6        39.042                                                                    25827764.422 6 101353687.48706     -2423.895 6        37.512    25827765.664 6 103997696.73806     -2487.124 6        40.787
G03         8.000    20617799.535 6 108347658.47006     -2594.631 6        38.838                                    20617795.493 4  84426456.70504     -2021.806 4        28.360    20617795.791 6  84426426.74706     -2021.548 6        36.200
G09         9.000    20690250.811 7 108727990.77207      1139.073 7        44.316                                    20690247.310 7  84723119.10107       887.595 7        42.705    20690248.156 7  84723110.09807       887.595 7        42.178
R14        10.000                                                                                                                                    23958351.448 3                     -2657.846 3        21.548
G04        11.000    19969637.605 8 104941176.15608      -680.511 8        48.475                                    19969633.494 6  81772291.66406      -530.271 6        40.403    19969634.320 8  81772310.64908      -530.211 8        48.985
E09        12.000    23367164.807 7 122795376.54407     -1161.317 7        46.553                                                                    23367163.746 7  91697839.27407      -867.230 7        47.337    23367163.043 7  94089933.66607      -889.842 7        44.038
E06        14.000    23980619.139 7 126019038.67907     -2339.643 7        46.412                                                                    23980618.033 7  94105110.68607     -1747.199 7        47.598    23980616.816 7  96559994.91407     -1792.729 7        46.483
E11        15.000    26233881.079 5 137859982.37705     -3807.468 5        34.186                                                                    26233878.667 5 102947381.81305     -2843.601 5        33.204    26233877.691 4                     -2917.775 4        24.211
G19        16.000    22660678.036 6 119083058.27406     -2579.864 6        41.275                                    22660672.152 2  92791684.88702     -2010.286 2        13.758
G28        17.000    24871193.562 3                     -3910.385 3        20.143
G06        19.000    21962871.039 7 115415776.55307      1459.500 7        45.189                                    21962871.715 7  89934267.02907      1137.273 7        42.282    21962871.069 7  89934340.03307      1137.411 7        44.256
E36        20.000    23535124.445 7 123678048.54307     -1846.082 7        46.766                                                                    23535123.985 7  92356865.53707     -1378.575 7        44.433    23535122.048 6  94766206.08906     -1414.410 6        39.730
E05        21.000    23479529.332 7 123385778.78107      1350.882 7        43.151                                                                    23479529.949 7  92138759.34107      1008.786 7        46.783    23479529.690 7  94542366.72007      1035.052 7        45.342
G17        22.000    23806052.951 5 125101717.14305     -3505.382 5        33.880                                    23806050.462 1  97481832.69901     -2731.439 1        11.926    23806043.683 4                     -2731.677 4        25.624
R07        23.000    20936259.204 7 112073386.97807      1613.653 7        44.360                                                                    20936256.718 7  87168286.15607      1255.136 7        44.352
S23        24.000    38068406.807 6 200050780.82106      -823.188 6        40.215
S36        25.000    38122813.378 6 200336684.34306      -827.332 6        36.276
G11        26.000    25238742.372 5 132630489.25905      2747.621 5        30.143                                                                                                    25238735.431 3                      2141.032 3        20.429
R15        28.000    22189421.357 4 118573586.52804      -269.882 4        29.848                                                                    22189421.232 3                      -212.100 3        22.000
R06        29.000    19359952.668 6 103308434.78506     -1233.833 6        36.624
C05        32.000                                                                                                                                                                                                    39054454.793 5 157256128.30205      -654.998 5        33.527
C19        33.000                                                                                                                                    21971570.322 7 114411858.03507      -124.995 7        44.677                                                                    21971567.649 6  92968888.34506      -101.627 6        40.920
R21        34.000    20378881.549 7 109051615.51407     -3918.374 7        45.488                                                                    20378875.045 5  84817834.86305     -3047.777 5        34.657
R05        36.000    22743035.695 4 121574549.51314     -4258.404 4        28.417                                                                    22743034.385 4                     -3312.517 4        25.429
R22        37.000    20259590.410 8 108147052.24508       620.125 8        48.026                                                                    20259590.496 7  84114413.96207       482.276 7        44.406
C39        38.000                                                                                                                                    39336709.796 5 204836546.80005     -1698.057 5        32.204                                                                    39336744.631 4                     -1380.099 4        27.964
R16        39.000    22875252.326 5 122195482.66905      2720.609 5        31.985
C06        41.000                                                                                                                                    38290664.623 5 199389633.85005     -1245.669 5        32.024    38290671.281 5 154180634.61105      -963.437 5        35.714    38290667.728 5 162020355.40905     -1012.263 5        32.545
C29        43.000                                                                                                                                    24973439.600 5 130043240.71605     -4163.227 5        33.748                                                                    24973436.789 7 105670777.57807     -3382.873 7        42.097
R23        44.000    23442264.074 4 125400359.65404      3226.572 4        28.398
C16        45.000                                                                                                                                    38815243.561 4 202121248.94204     -1329.138 4        29.175    38815246.966 6 156293086.93906     -1027.905 6        36.752    38815251.432 5                     -1080.189 5        30.045
C09        46.000                                                                                                                                    38379570.132 6 199852491.67506      -741.985 6        39.462    38379566.023 7 154538626.23707      -573.906 7        45.565    38379562.496 6 162396493.03006      -603.183 6        40.033
C44        48.000                                                                                                                                    24406852.602 7 127092992.43807       715.412 7        44.987                                                                    24406848.919 6 103273366.93106       581.283 6        39.631
C37        49.000                                                                                                                                                                                                                                                                    24764318.964 4 104785965.88904        42.535 4        27.928
C22        50.000                                                                                                                                    24910634.115 5                      1824.671 5        30.883                                                                    24910628.309 5 105405014.84105      1482.737 5        35.186
C35        51.000                                                                                                                                    23076621.989 6 120166231.88806     -1909.030 6        41.280                                                                    23076618.974 7  97644790.56607     -1551.246 7        44.491
C20        55.000                                                                                                                                    22819577.797 8 118827516.56608     -2603.851 8        49.784                                                                    22819569.636 6  96557169.35606     -2115.892 6        38.802
C12        56.000                                                                                                                                    26258456.375 4 136734751.41704      1862.353 4        26.766    26258450.004 6 105731893.76916      1439.778 6        36.692    26258451.704 5 111108108.34905      1512.908 5        34.519
I01        60.000   335166892.371 6  12126080.43406     -2977.286 6        38.796
> 2025 01 01 02 46 50.0000000  0 41
G02         1.000    24156687.154 5 126944269.36005     -4301.701 5        33.647
G31         4.000    22691878.276 5 119246631.16015     -2830.208 5        35.490                                                                                                    22691880.424 5  92919478.54305     -2205.284 5        34.119
E34         6.000    24795302.425 8 130300202.77808      1023.103 8        50.306                                                                    24795301.592 7  97302147.65307       764.041 7        43.782    24795302.308 7  99840432.77607       783.981 7        45.234
E04         7.000    25830856.442 6 135742061.01106     -3246.569 6        40.057                                                                    25830852.806 6 101365807.72706     -2424.421 6        37.864    25830854.527 6 104010133.17806     -2487.556 6        41.874
G03         8.000    20620269.006 6 108360636.79906     -2596.794 6        38.261                                    20620265.425 4  84436569.66104     -2023.467 4        28.597    20620266.540 6  84436539.71206     -2023.634 6        36.760
G09         9.000    20689168.519 7 108722301.35707      1136.555 7        44.886                                    20689164.524 7  84718685.78507       885.631 7        43.170    20689165.414 7  84718676.78707       885.591 7        42.233
R14        10.000                                                                                                                                    23961556.658 4                     -2661.168 4        26.192
G04        11.000    19970286.379 8 104944585.62208      -683.465 8        48.820                                    19970282.478 6  81774948.39106      -532.571 6        40.660    19970283.247 8  81774967.37708      -532.578 8        49.423
E09        12.000    23368270.401 7 122801187.86407     -1163.361 7        46.512                                                                    23368269.749 7  91702178.90407      -868.772 7        47.684    23368268.738 7  94094386.49507      -891.330 7        44.084
E06        14.000    23982846.480 7 126030740.83707     -2341.378 7        46.974                                                                    23982845.275 7  94113849.29707     -1748.406 7        47.900    23982843.702 7  96568961.48107     -1793.989 7        46.870
E11        15.000    26237504.410 5 137879022.40105     -3808.844 5        34.376                                                                    26237502.329 5 102961600.00205     -2844.186 5        33.916    26237500.019 3                     -2918.719 3        23.524
G19        16.000    22663133.592 6 119095965.38106     -2582.964 6        39.465                                    22663128.387 2  92801742.35502     -2012.684 2        15.952
G28        17.000    24874927.000 4                     -3915.214 4        26.036                                                                                                    24874951.253 3                     -3049.943 3        18.627
G06        19.000    21961483.359 7 115408485.34707      1456.713 7        44.945                                    21961484.085 7  89928585.57207      1135.100 7        42.157    21961483.432 7  89928658.57807      1135.133 7        43.843
E36        20.000    23536882.052 7 123687284.97007     -1848.632 7        46.679                                                                    23536881.705 7  92363762.87307     -1380.407 7        43.562    23536879.989 6  94773283.36006     -1416.542 6        40.160
E05        21.000    23478244.411 7 123379027.88607      1349.221 7        42.155                                                                    23478245.365 7  92133718.07207      1007.551 7        46.779    23478245.026 7  94537193.95307      1033.850 7        46.436
G17        22.000    23809395.901 5 125119246.76805     -3506.822 5        32.898                                    23809385.702 1  97495492.07701     -2732.538 1         9.810    23809377.774 3                     -2732.544 3        23.810
R07        23.000    20934752.655 7 112065323.41807      1611.487 7        46.232                                                                    20934750.818 7  87162014.46907      1253.519 7        45.792
S23        24.000    38069195.158 6 200054897.24806      -823.430 6        39.640
S36        25.000    38123597.773 6 200340822.40406      -827.472 6        36.034
G11        26.000    25236128.807 5 132616753.73005      2746.569 5        30.045                                                                                                    25236121.427 3                      2141.149 3        22.895
R15        28.000    22189673.912 5 118574948.58905      -274.709 5        30.785                                                                    22189676.664 4                      -213.069 4        25.940
R06        29.000    19361110.377 6 103314610.77306     -1236.434 6        37.168
C05        32.000                                                                                                                                                                                                    39055266.106 5 157259402.91305      -655.449 5        33.479
C19        33.000                                                                                                                                    21971690.153 7 114412487.29807      -126.907 7        43.486                                                                    21971687.883 6  92969399.63706      -102.980 6        40.513
R21        34.000    20382542.568 7 109071216.80307     -3922.248 7        44.421                                                                    20382541.932 5  84833080.25505     -3050.890 5        33.784
R05        36.000    22747013.075 4                     -4259.724 4        26.659                                                                    22747020.975 4                     -3312.019 4        24.947
R22        37.000    20259011.718 8 108143963.09308       615.470 8        48.337                                                                    20259010.477 7  84112011.29007       478.588 7        44.050
C39        38.000                                                                                                                                    39338342.320 5 204845039.62505     -1698.971 5        32.036                                                                    39338375.562 4                     -1382.507 4        25.549
R16        39.000    22872711.422 5 122181883.62105      2718.674 5        32.545
C06        41.000                                                                                                                                    38291866.151 5 199395866.36805     -1246.714 5        31.328    38291862.991 5 154185453.97505      -964.303 5        34.543    38291866.860 5 162025419.80305     -1013.548 5        31.087
C29        43.000                                                                                                                                    24977436.352 5 130064058.14105     -4163.910 5        35.752                                                                    24977434.733 7 105687693.46907     -3383.586 7        42.235
C16        45.000                                                                                                                                    38816529.581 4 202127897.17004     -1329.836 4        28.502    38816524.252 6 156298227.75906     -1028.546 6        36.034    38816530.759 4                     -1080.848 4        29.991
C09        46.000                                                                                                                                    38380282.807 6 199856205.12706      -743.381 6        40.696    38380278.516 7 154541497.68007      -574.803 7        44.712    38380276.224 6 162399510.49206      -603.982 6        40.598
C44        48.000                                                                                                                                    24406167.165 7 127089422.32407       712.539 7        44.248                                                                    24406163.798 6 103270465.92906       579.029 6        40.639
C37        49.000                                                                                                                                    24764269.409 3                        48.327 3        23.295                                                                    24764266.874 4 104785761.47404        38.903 4        25.489
C22        50.000                                                                                                                                    24908881.145 4                      1823.874 4        28.512                                                                    24908878.244 5 105397602.89005      1481.997 5        35.948
C35        51.000                                                                                                                                    23078456.695 6 120175784.33006     -1912.087 6        40.107                                                                    23078453.440 7  97652552.68607     -1553.638 7        44.904
C20        55.000                                                                                                                                    22822077.876 8 118840539.10008     -2605.310 8        48.610                                                                    22822070.671 6  96567751.22006     -2116.994 6        38.655
C12        56.000                                                                                                                                    26256678.093 4                      1859.927 4        25.038    26256664.271 6 105724698.51406      1438.375 6        36.681    26256663.492 5 111100547.22805      1511.558 5        31.962
I01        60.000   335170685.848 6  12140967.76006     -2977.596 6        38.360
> 2025 01 01 02 46 55.0000000  0 40
G02         1.000    24160780.713 5 126965776.72105     -4301.703 5        34.919
G31         4.000    22694569.740 5 119260788.40515     -2832.705 5        34.014                                    22694552.005 1  92930389.18811     -2207.282 1        11.852    22694572.265 5  92930510.21805     -2207.631 5        35.195
E34         6.000    24794329.634 8 130295089.87108      1021.805 8        49.782                                                                    24794328.882 7  97298329.57907       763.017 7        42.933    24794329.505 7  99836515.09607       782.851 7        44.754
E04         7.000    25833944.975 6 135758294.39906     -3246.907 6        39.799                                                                    25833942.493 6 101377930.05906     -2424.566 6        37.815    25833944.304 7 104022571.75507     -2487.914 7        42.373
G03         8.000    20622739.558 6 108373623.89306     -2598.256 6        38.640                                    20622737.182 4  84446689.46604     -2024.619 4        29.024    20622738.359 6  84446659.51406     -2024.598 6        36.813
G09         9.000    20688087.880 7 108716622.55307      1134.694 7        46.224                                    20688083.867 7  84714260.73207       884.175 7        43.767    20688084.981 7  84714251.75007       884.194 7        42.100
R14        10.000                                                                                                                                    23964772.452 4                     -2663.357 4        26.898
G04        11.000    19970937.566 8 104948007.75008      -685.651 8        49.110                                    19970933.900 6  81777614.98006      -534.274 6        40.844    19970934.045 8  81777633.96208      -534.260 8        49.560
E09        12.000    23369377.570 7 122807007.37707     -1164.644 7        46.677                                                                    23369377.032 7  91706524.62907      -869.743 7        47.163    23369375.436 7  94098845.60107      -892.465 7        43.422
E06        14.000    23985074.223 7 126042449.17807     -2342.226 7        46.483                                                                    23985073.218 7  94122592.54107     -1749.153 7        47.565    23985071.712 7  96577932.81307     -1794.743 7        46.941
E11        15.000    26241128.219 5 137898066.61605     -3809.266 5        33.539                                                                    26241126.152 5 102975821.32005     -2844.531 5        33.940    26241121.653 4                     -2918.925 4        24.346
G19        16.000    22665592.187 6 119108886.47106     -2585.559 6        37.883                                    22665587.619 2  92811810.70302     -2014.708 2        16.906
G28        17.000    24878654.581 4                     -3916.567 4        26.635                                                                                                    24878676.405 3                     -3051.851 3        21.262
G06        19.000    21960098.080 7 115401205.73907      1454.859 7        44.534                                    21960098.495 6  89922913.15106      1133.656 6        41.955    21960097.990 7  89922986.16607      1133.577 7        42.610
E36        20.000    23538641.785 7 123696532.07907     -1850.486 7        46.460                                                                    23538641.645 7  92370668.18807     -1381.891 7        43.496    23538640.161 6  94780368.79606     -1417.995 6        41.023
E05        21.000    23476960.408 7 123372282.78707      1348.468 7        42.085                                                                    23476961.803 7  92128681.16507      1006.994 7        46.846    23476961.427 7  94532025.64907      1033.191 7        46.048
G17        22.000    23812730.557 5 125136781.65405     -3507.456 5        33.868                                    23812721.908 1  97509155.57601     -2733.041 1         9.143    23812723.536 3                     -2730.778 3        20.310
R07        23.000    20933247.115 7 112057268.03507      1610.367 7        46.310                                                                    20933246.575 7  87155749.19107      1252.438 7        46.288
S23        24.000    38069981.681 6 200059013.30606      -823.059 6        40.160
S36        25.000    38124374.851 5 200344960.31105      -827.265 5        35.057
G11        26.000    25233515.045 5 132603021.03905      2746.189 5        30.068                                                                                                    25233510.711 4                      2140.155 4        25.128
R06        29.000    19362270.328 6 103320798.09106     -1238.502 6        38.276
C05        32.000                                                                                                                                                                                                    39056080.742 5 157262677.36205      -654.651 5        32.449
C19        33.000                                                                                                                                    21971812.961 7 114413123.60207      -127.957 7        43.090                                                                    21971809.565 6  92969916.69606      -103.970 6        39.592
R21        34.000    20386208.237 7 109090834.94807     -3925.265 7        44.965                                                                    20386206.325 5  84848338.71905     -3052.492 5        32.449
R05        36.000    22750996.907 4                     -4259.352 4        24.180
R22        37.000    20258437.774 8 108140894.96608       611.525 8        48.923                                                                    20258434.998 7  84109624.96607       475.676 7        43.930
C39        38.000                                                                                                                                    39339971.692 5 204853534.98205     -1699.389 5        33.012
R16        39.000    22870167.095 5 122168293.33505      2717.226 5        32.036
C06        41.000                                                                                                                                    38293067.361 5 199402102.16505     -1247.195 5        30.898    38293061.354 6 154190275.90906      -964.595 6        36.151    38293058.702 4 162030486.77604     -1013.450 4        28.521
C29        43.000                                                                                                                                    24981434.536 5 130084877.69505     -4163.922 5        35.314                                                                    24981432.766 7 105704611.05407     -3383.629 7        42.328
C16        45.000                                                                                                                                    38817814.942 4 202134548.47604     -1330.105 4        29.062    38817801.478 6 156303370.96706     -1028.867 6        36.813    38817807.953 4                     -1081.367 4        29.536
C09        46.000                                                                                                                                    38380996.627 6 199859922.08906      -743.709 6        41.147    38380992.058 7 154544371.87307      -575.136 7        44.412    38380990.032 6 162402530.83906      -604.408 6        40.601
C44        48.000                                                                                                                                    24405483.980 7 127085864.36507       710.438 7        44.388                                                                    24405480.686 6 103267574.83506       577.239 6        40.627
C37        49.000                                                                                                                                    24764232.343 5                        46.502 5        31.441                                                                    24764219.686 3                        38.478 3        21.310
C22        50.000                                                                                                                                    24907135.021 5                      1823.544 5        31.064                                                                    24907126.809 5 105390193.02005      1481.863 5        35.719
C35        51.000                                                                                                                                    23080292.332 6 120185349.88606     -1914.458 6        39.099                                                                    23080290.426 7  97660325.49707     -1555.582 7        45.091
C20        55.000                                                                                                                                    22824579.373 8 118853566.50608     -2605.913 8        48.923                                                                    22824571.639 6  96578337.04506     -2117.555 6        38.258
C12        56.000                                                                                                                                    26254899.675 3                      1858.315 3        23.124    26254881.335 6 105717509.19206      1437.351 6        37.902    26254878.871 5 111092992.33605      1510.455 5        33.042
I01        60.000   335174479.942 6  12155855.45306     -2977.667 6        39.066
> 2025 01 01 02 47  0.0000000  0 41
G02         1.000    24164875.418 5 126987287.20805     -4302.632 5        35.900
G31         4.000    22697266.385 5 119274960.87805     -2836.434 5        34.100                                    22697252.709 2  92941432.71602     -2210.199 2        14.714    22697268.601 5  92941553.71805     -2210.059 5        35.390
E34         6.000    24793358.466 8 130289985.04408      1019.852 8        49.832                                                                    24793357.308 7  97294517.53107       761.582 7        42.425    24793357.950 7  99832603.60707       781.491 7        44.959
E04         7.000    25837033.928 6 135774530.72706     -3247.779 6        39.934                                                                    25837032.097 6 101390054.58906     -2425.187 6        36.911    25837033.904 7 104035012.58107     -2488.618 7        42.339
G03         8.000    20625212.822 5 108386619.90305     -2600.504 5        34.986                                    20625210.602 4  84456816.22204     -2026.364 4        28.673    20625210.044 6  84456786.26006     -2026.300 6        37.459
G09         9.000    20687009.456 7 108710954.61007      1132.312 7        45.669                                    20687005.299 7  84709844.15407       882.322 7        44.561    20687006.167 7  84709835.17307       882.113 7        42.356
R14        10.000    23967970.700 4                     -3427.646 4        29.763                                                                    23967986.436 4                     -2665.391 4        28.246
G04        11.000    19971590.929 8 104951442.70108      -688.510 8        49.223                                    19971587.633 6  81780291.56306      -536.501 6        40.882    19971587.545 8  81780310.55108      -536.477 8        49.619
E09        12.000    23370486.547 7 122812835.22807     -1166.565 7        47.639                                                                    23370485.741 7  91710876.58807      -871.142 7        46.661    23370484.523 7  94103311.09407      -893.973 7        44.304
E06        14.000    23987302.788 7 126054163.87307     -2343.756 7        45.732                                                                    23987302.624 7  94131340.52907     -1750.238 7        47.601    23987300.838 7  96586909.00107     -1795.784 7        46.909
E11        15.000    26244753.277 5 137917115.11605     -3810.335 5        33.964                                                                    26244750.748 5 102990045.85105     -2845.182 5        33.731    26244745.076 3                     -2919.830 3        23.810
G19        16.000    22668054.360 6 119121821.58706     -2588.688 6        37.720                                    22668049.502 2  92821890.00802     -2017.143 2        17.849
G28        17.000    24882380.962 4                     -3918.776 4        26.539                                                                                                    24882412.432 4                     -3053.054 4        25.789
G06        19.000    21958715.071 7 115393937.94107      1452.188 7        44.345                                    21958715.123 6  89917249.93106      1131.579 6        41.700    21958715.226 7  89917322.95707      1131.438 7        42.203
E36        20.000    23540403.330 7 123705790.02207     -1852.914 7        46.148                                                                    23540403.478 7  92377581.58707     -1383.661 7        43.663    23540402.460 6  94787462.52206     -1419.727 6        41.673
E05        21.000    23475678.451 7 123365543.69307      1346.953 7        42.542                                                                    23475679.293 7  92123648.74707      1005.837 7        46.539    23475679.361 7  94526861.93107      1032.053 7        45.774
G17        22.000    23816063.531 5 125154322.06605     -3508.774 5        34.395                                    23816059.420 1  97522823.38201     -2734.058 1         9.333
R07        23.000    20931743.434 8 112049221.28508      1608.321 8        48.352                                                                    20931743.095 7  87149490.63407      1250.839 7        45.678
S23        24.000    38070762.990 6 200063128.97506      -823.252 6        40.963
S36        25.000    38125176.412 5 200349098.22105      -827.824 5        35.505
G11        26.000    25230902.969 5 132589291.44305      2745.438 5        33.868                                                                                                    25230897.177 4                      2140.089 4        25.323
R15        28.000                                                                                                                                    22190208.716 3                      -220.206 3        22.248
R06        29.000    19363431.469 6 103326996.84506     -1241.030 6        38.453
C05        32.000                                                                                                                                                                                                    39056892.695 5 157265951.83705      -655.188 5        33.377
C19        33.000                                                                                                                                    21971938.515 7 114413767.19407      -129.686 7        42.686                                                                    21971932.993 6  92970439.63706      -105.240 6        39.183
R21        34.000    20389879.079 7 109110470.12807     -3929.052 7        46.214                                                                    20389874.980 5  84863610.55105     -3056.177 5        33.090
R05        36.000    22754983.720 4                     -4259.755 4        24.331                                                                    22754964.544 4                     -3313.303 4        26.335
R22        37.000    20257867.590 7 108137848.03607       607.049 7        47.706                                                                    20257863.738 7  84107255.13407       472.077 7        43.809
C39        38.000                                                                                                                                    39341607.336 5 204862032.82405     -1699.998 5        33.904                                                                    39341632.611 4                     -1381.605 4        25.113
C06        41.000                                                                                                                                    38294262.344 5 199408341.36405     -1248.409 5        30.981    38294259.867 5 154195100.44705      -964.890 5        34.348    38294254.050 4 162035556.67004     -1014.268 4        28.834
C29        43.000                                                                                                                                    24985432.720 5 130105699.40605     -4164.825 5        35.214                                                                    24985431.109 6 105721530.42806     -3384.088 6        41.814
C16        45.000                                                                                                                                    38819093.320 5 202141202.91805     -1330.916 5        30.641    38819080.710 5 156308516.59305     -1029.582 5        35.948    38819085.607 4                     -1082.067 4        29.033
C09        46.000                                                                                                                                    38381711.511 6 199863642.76806      -744.720 6        40.827    38381706.506 7 154547248.93507      -575.830 7        44.721    38381704.505 6 162405554.19906      -605.076 6        40.772
C44        48.000                                                                                                                                    24404803.328 7 127082318.77707       707.629 7        44.488                                                                    24404799.714 6 103264693.74206       575.054 6        41.116
C37        49.000                                                                                                                                    24764193.315 4                        44.376 4        28.389                                                                    24764178.775 3                        36.227 3        23.562
C22        50.000                                                                                                                                    24905384.198 5                      1822.508 5        34.429                                                                    24905375.586 6 105382785.38706      1480.995 6        36.019
C35        51.000                                                                                                                                    23082130.461 6 120194928.72606     -1917.290 6        37.021                                                                    23082129.827 7  97668109.11607     -1558.029 7        44.593
C20        55.000                                                                                                                                    22827082.467 8 118866598.96808     -2607.231 8        48.784                                                                    22827074.417 6  96588926.99606     -2118.657 6        38.408
C12        56.000                                                                                                                                    26253095.907 3                      1858.346 3        20.310    26253097.495 6 105710325.93206      1435.944 6        38.532    26253096.403 5 111085443.85305      1509.020 5        32.844
C23        57.000                                                                                                                                    26518611.580 3                     -2397.235 3        21.905
I01        60.000   335178274.016 6  12170743.61306     -2977.745 6        38.619
> 2025 01 01 02 47  5.0000000  0 42
G02         1.000    24168968.697 5 127008800.57505     -4302.688 5        35.457
G31         4.000    22699966.999 5 119289148.33105     -2839.050 5        34.129                                    22699955.572 2  92952487.91002     -2212.230 2        15.952    22699968.432 5  92952608.95005     -2212.204 5        35.457
E34         6.000    24792388.723 8 130284888.13108      1018.716 8        49.490                                                                    24792387.436 7  97290711.40207       760.737 7        42.946    24792388.045 7  99828698.20107       780.594 7        44.977
E04         7.000    25840124.374 6 135790769.83006     -3248.166 6        39.994                                                                    25840122.576 6 101402181.17406     -2425.427 6        37.974    25840124.164 7 104047455.51707     -2488.805 7        42.188
G03         8.000    20627687.288 5 108399624.77605     -2601.509 5        35.514                                    20627685.497 4  84466949.88004     -2027.130 4        28.692    20627684.426 6  84466919.85206     -2027.358 6        37.316
G09         9.000    20685932.939 7 108705297.31907      1130.575 7        46.592                                    20685928.849 7  84705435.87907       880.967 7        45.217    20685930.012 7  84705426.88907       880.972 7        42.423
R14        10.000    23971192.902 4                     -3430.522 4        29.687                                                                    23971194.342 4                     -2667.930 4        25.489
G04        11.000    19972246.652 8 104954890.30708      -690.687 8        49.342                                    19972243.736 6  81782978.00506      -538.198 6        40.882    19972243.471 8  81782996.99208      -538.185 8        49.750
E09        12.000    23371597.330 7 122818671.26707     -1167.916 7        47.517                                                                    23371596.138 7  91715234.66307      -872.081 7        46.408    23371595.146 7  94107782.87107      -894.859 7        43.898
E06        14.000    23989533.043 7 126065884.76407     -2344.688 7        45.523                                                                    23989533.036 7  94140093.12607     -1750.915 7        47.694    23989531.383 7  96595889.93307     -1796.531 7        46.929
E11        15.000    26248379.473 5 137936167.77305     -3810.727 5        33.527                                                                    26248376.342 5 103004273.48305     -2845.681 5        33.174    26248370.372 3                     -2920.322 3        22.248
G19        16.000    22670519.901 6 119134770.52906     -2591.072 6        37.410                                    22670514.207 3  92831980.08803     -2019.009 3        18.328
G28        17.000    24886108.458 4                     -3919.471 4        24.271                                                                                                    24886139.440 4                     -3054.917 4        27.269
G06        19.000    21957334.500 7 115386681.77207      1450.290 7        44.780                                    21957333.901 6  89911595.77306      1130.093 6        41.352    21957334.561 7  89911668.80307      1129.943 7        42.296
E36        20.000    23542166.736 7 123715058.60407     -1854.642 7        45.193                                                                    23542167.331 7  92384502.93507     -1384.960 7        43.014    23542166.167 6  94794564.41506     -1421.112 6        41.938
E05        21.000    23474397.218 6 123358810.41006      1346.299 6        41.354                                                                    23474397.649 7  92118620.64607      1005.309 7        45.952    23474398.163 7  94521702.67507      1031.464 7        46.501
G17        22.000    23819400.842 5 125171867.85405     -3509.745 5        34.029                                    23819398.179 1  97536495.40301     -2734.760 1        10.222    23819391.816 4                     -2734.855 4        25.414
R07        23.000    20930242.179 8 112041182.66708      1607.010 8        50.543                                                                    20930239.803 7  87143238.32707      1249.876 7        45.375
S23        24.000    38071548.497 6 200067244.39406      -822.871 6        40.710
S36        25.000    38125968.345 6 200353235.34306      -827.178 6        36.945
G11        26.000    25228293.621 5 132575564.59705      2745.262 5        35.748                                                                                                    25228287.829 4                      2138.150 4        24.135
R15        28.000    22190501.193 5 118579162.30805      -286.728 5        31.404                                                                    22190479.504 4                      -223.404 4        25.684
R06        29.000    19364594.250 6 103333206.77206     -1242.975 6        37.493
C05        32.000                                                                                                                                                                                                    39057706.338 5 157269226.19205      -654.816 5        32.904
C19        33.000                                                                                                                                    21972063.413 7 114414417.89207      -130.656 7        42.804                                                                    21972057.610 6  92970968.36506      -106.174 6        37.187
R21        34.000    20393552.100 7 109130122.06007     -3931.966 7        47.140                                                                    20393549.232 5  84878895.38405     -3057.969 5        34.871
R05        36.000    22758971.656 3                     -4260.594 3        20.857                                                                    22758957.126 4                     -3312.406 4        26.072
R22        37.000    20257300.378 7 108134822.11707       603.252 7        47.823                                                                    20257297.004 7  84104901.65807       469.179 7        43.001
C39        38.000                                                                                                                                    39343238.654 4 204870532.96304     -1699.803 4        25.564                                                                    39343266.291 3                     -1382.234 3        23.029
R16        39.000    22865062.034 5 122141139.50905      2714.040 5        34.481
C06        41.000                                                                                                                                    38295464.649 5 199414583.95905     -1248.978 5        30.272    38295457.480 5 154199927.59005      -965.533 5        34.457    38295454.272 4 162040629.25004     -1014.521 4        28.265
C29        43.000                                                                                                                                    24989430.623 5 130126523.18505     -4164.877 5        35.719                                                                    24989430.065 6 105738451.47406     -3384.413 6        41.364
R23        44.000    23430217.491 3                      3220.640 3        23.086
C16        45.000                                                                                                                                    38820373.454 5 202147860.35205     -1331.422 5        32.335    38820359.410 5 156313664.61205     -1029.965 5        35.519    38820363.677 4                     -1082.239 4        29.479
C09        46.000                                                                                                                                    38382426.574 6 199867367.01706      -745.316 6        41.387    38382421.690 7 154550128.74207      -576.052 7        44.369    38382420.061 6 162408580.45306      -605.484 6        40.458
C44        48.000                                                                                                                                    24404124.073 7 127078785.37207       705.550 7        43.537                                                                    24404121.383 6 103261822.56306       573.351 6        41.411
C37        49.000                                                                                                                                    24764161.920 5                        41.511 5        30.189                                                                    24764144.021 4                        33.079 4        24.767
C22        50.000                                                                                                                                    24903631.854 5 129679758.29915      1822.896 5        31.872                                                                    24903625.077 6 105375379.78206      1480.966 6        36.817
C35        51.000                                                                                                                                    23083971.374 6 120204520.77906     -1919.519 6        37.478                                                                    23083971.543 7  97675903.41207     -1559.896 7        44.531
C20        55.000                                                                                                                                    22829586.288 7 118879636.30907     -2607.842 7        46.703                                                                    22829577.974 6  96599520.89006     -2118.977 6        39.255
C12        56.000                                                                                                                                    26251314.042 3                      1856.304 3        19.612    26251313.414 6 105703148.67906      1434.970 6        38.832    26251311.231 5 111077901.71505      1507.467 5        31.977
I01        60.000   335182067.414 6  12185632.14906     -2977.763 6        38.081
> 2025 01 01 02 47 10.0000000  0 42
G02         1.000    24173063.858 5 127030317.21705     -4303.360 5        34.900
G31         4.000    22702671.602 5 119303351.04605     -2841.881 5        34.957                                    22702660.448 2  92963555.06402     -2214.471 2        16.038    22702669.202 5  92963676.06805     -2214.399 5        33.431
E34         6.000    24791420.367 8 130279799.45208      1017.191 8        49.157                                                                    24791419.077 7  97286911.41907       759.612 7        42.614    24791418.727 7  99824799.07107       779.408 7        44.113
E04         7.000    25843214.329 6 135807011.96206     -3248.487 6        38.532                                                                    25843213.541 6 101414310.04706     -2425.864 6        38.622    25843215.213 7 104059900.79207     -2488.979 7        42.328
G03         8.000    20630164.230 5 108412638.61105     -2603.314 5        33.431                                    20630161.949 4  84477090.54704     -2028.546 4        27.377    20630162.339 6  84477060.50706     -2028.562 6        38.586
G09         9.000    20684859.068 7 108699650.98207      1128.423 7        46.790                                    20684854.524 7  84701036.14307       879.292 7        46.027    20684855.976 7  84701027.15707       879.315 7        43.236
R14        10.000    23974414.465 4                     -3432.946 4        28.493
G04        11.000    19972905.033 8 104958350.86308      -693.129 8        49.818                                    19972902.304 6  81785674.53006      -540.100 6        40.915    19972901.711 8  81785693.52308      -540.116 8        49.597
E09        12.000    23372709.460 7 122824515.76507     -1169.465 7        47.762                                                                    23372708.177 7  91719599.05507      -873.230 7        46.222    23372707.247 7  94112261.11707      -896.056 7        43.462
E06        14.000    23991765.277 7 126077612.10307     -2345.828 7        45.220                                                                    23991764.362 7  94148850.56307     -1751.699 7        47.596    23991763.207 7  96604875.82607     -1797.438 7        47.121
E11        15.000    26252006.701 5 137955224.87005     -3811.757 5        32.234                                                                    26252002.604 5 103018504.44105     -2846.245 5        32.665    26251993.039 3                     -2920.316 3        21.786
G19        16.000    22672986.039 6 119147733.72306     -2593.741 6        38.520                                    22672981.617 3  92842081.25803     -2021.073 3        19.343
G28        17.000    24889836.950 3                     -3918.537 3        20.548                                                                                                    24889865.460 3                     -3056.706 3        23.086
G06        19.000    21955956.312 7 115379437.54907      1447.959 7        45.234                                    21955954.942 6  89905950.92406      1128.279 6        41.356    21955956.172 7  89906023.95207      1128.245 7        42.078
E36        20.000    23543932.389 7 123724338.15307     -1856.697 7        44.141                                                                    23543933.210 7  92391432.46507     -1386.479 7        43.168    23543931.677 6  94801674.73506     -1422.663 6        41.959
E05        21.000    23473117.153 6 123352083.27106      1345.107 6        40.768                                                                    23473117.587 7  92113597.13507      1004.428 7        45.878    23473117.989 7  94516548.11207      1030.612 7        46.317
G17        22.000    23822745.916 5 125189419.11605     -3510.590 5        33.144                                    23822737.985 1  97550171.62101     -2735.508 1        10.963    23822734.242 3                     -2736.378 3        23.143
R07        23.000    20928744.256 8 112033152.92408      1605.377 8        51.409                                                                    20928739.030 7  87136992.95107      1248.646 7        44.600
S23        24.000    38072329.363 6 200071359.90306      -822.854 6        40.191
S36        25.000    38126764.549 6 200357372.06806      -826.932 6        38.706
G11        26.000    25225681.975 6 132561841.05106      2744.791 6        36.711                                                                                                    25225674.639 4                      2138.979 4        24.872
R15        28.000                                                                                                                                    22190749.751 5                      -226.835 5        32.150
R06        29.000    19365759.640 6 103339428.23706     -1245.054 6        36.858
C05        32.000                                                                                                                                                                                                    39058521.340 5 157272500.72005      -655.079 5        33.162
C19        33.000                                                                                                                                    21972189.083 7 114415075.97607      -132.124 7        43.471                                                                    21972184.330 6  92971503.09206      -107.365 6        36.665
R21        34.000    20397228.777 7 109149791.22407     -3935.163 7        47.084                                                                    20397225.538 6  84894193.61906     -3060.790 6        37.372
R05        36.000                                                                                                                                    22762941.825 4                     -3312.965 4        26.443
R22        37.000    20256736.981 7 108131817.58907       599.085 7        47.452                                                                    20256734.666 7  84102564.79907       465.860 7        43.572
C39        38.000                                                                                                                                    39344873.355 5 204879035.93405     -1700.693 5        32.569                                                                    39344898.313 3                     -1382.739 3        23.905
R16        39.000    22862527.218 6 122127576.15306      2712.138 6        36.310
C06        41.000                                                                                                                                    38296664.943 5 199420830.03005     -1249.284 5        32.114    38296658.938 5 154204757.47305      -965.869 5        34.762    38296653.994 4 162045704.75004     -1015.422 4        29.156
C29        43.000                                                                                                                                    24993428.597 6 130147349.26906     -4165.095 6        36.049                                                                    24993429.371 6 105755374.37406     -3384.567 6        41.058
R23        44.000    23427212.981 4                      3218.867 4        25.038
C16        45.000                                                                                                                                    38821653.440 5 202154521.16105     -1332.320 5        32.575    38821638.500 6 156318815.14106     -1030.313 6        36.261    38821642.628 4                     -1082.674 4        28.872
C09        46.000                                                                                                                                    38383142.811 7 199871095.06307      -745.661 7        42.110    38383137.375 7 154553011.54907      -576.666 7        43.934    38383135.650 6 162411609.80706      -606.026 6        40.672
C44        48.000                                                                                                                                    24403448.466 7 127075264.44707       703.208 7        43.316                                                                    24403445.055 6 103258961.54106       571.323 6        41.979
C37        49.000                                                                                                                                    24764129.764 5                        38.750 5        30.023                                                                    24764104.774 3                        32.077 3        23.524
C22        50.000                                                                                                                                    24901881.170 5 129670647.55805      1822.039 5        30.053                                                                    24901875.820 6 105367976.53506      1480.716 6        36.968
C35        51.000                                                                                                                                    23085814.719 5 120214126.22905     -1922.238 5        33.946                                                                    23085816.038 7  97683708.60307     -1561.989 7        44.919
C20        55.000                                                                                                                                    22832089.311 7 118892678.84207     -2608.793 7        44.014                                                                    22832084.291 6  96610118.99006     -2119.807 6        40.043
C12        56.000                                                                                                                                    26249530.405 3                      1854.541 3        23.257    26249534.405 6 105695977.59106      1433.854 6        40.174    26249529.532 5 111070365.94305      1506.572 5        33.210
I01        60.000   335185861.854 6  12200521.23406     -2977.647 6        38.565
> 2025 01 01 02 47 15.0000000  0 42
G02         1.000    24177159.337 5 127051836.28905     -4304.078 5        33.844
G31         4.000    22705381.271 5 119317568.32305     -2845.193 5        35.895                                    22705367.443 2  92974633.49302     -2217.003 2        15.190    22705370.126 5  92974754.46605     -2216.815 5        33.180
E34         6.000    24790453.397 8 130274718.27608      1015.294 8        48.519                                                                    24790452.097 7  97283117.03107       758.225 7        42.417    24790451.391 7  99820905.68807       777.995 7        43.981
E04         7.000    25846305.758 6 135823256.41706     -3249.285 6        37.077                                                                    25846305.145 6 101426440.63306     -2426.383 6        39.601    25846306.139 7 104072347.84007     -2489.871 7        42.220
G03         8.000                                                                                                                                                                    20632640.536 6  84487207.65106     -2030.338 6        39.919
G09         9.000    20683786.385 8 108694014.87608      1125.948 8        48.821                                    20683782.283 7  84696644.37207       877.364 7        47.062    20683783.555 7  84696635.38807       877.363 7        43.378
R14        10.000    23977635.406 4                     -3436.297 4        28.626
G04        11.000    19973565.796 8 104961823.63508      -695.994 8        49.890                                    19973563.102 6  81788380.58206      -542.330 6        41.035    19973562.432 8  81788399.57708      -542.309 8        49.308
E09        12.000    23373822.959 7 122830368.00607     -1171.425 7        47.537                                                                    23373821.928 7  91723969.23807      -874.801 7        46.276    23373821.014 7  94116745.29707      -897.619 7        43.027
E06        14.000    23993998.539 7 126089345.18307     -2347.373 7        45.279                                                                    23993997.114 7  94157612.29107     -1752.975 7        47.762    23993995.947 7  96613866.11807     -1798.644 7        47.140
E11        15.000    26255633.664 5 137974285.65705     -3812.833 5        32.150                                                                    26255630.285 5 103032738.18705     -2847.139 5        32.695    26255620.089 3                     -2925.215 3        20.286
G19        16.000    22675456.221 6 119160710.39906     -2596.966 6        40.250                                    22675451.589 3  92852192.95103     -2023.578 3        19.791
G28        17.000    24893569.123 4                     -3922.174 4        24.947
G06        19.000    21954579.907 7 115372204.53607      1445.256 7        44.203                                    21954578.130 6  89900314.81406      1126.173 6        41.144    21954579.401 7  89900387.84707      1126.140 7        42.167
E36        20.000    23545700.119 7 123733627.93507     -1859.267 7        42.491                                                                    23545700.832 7  92398369.64507     -1388.394 7        42.574    23545699.569 7  94808792.86507     -1424.518 7        42.573
E05        21.000    23471837.936 6 123345361.51906      1343.596 6        40.789                                                                    23471838.254 7  92108577.64407      1003.310 7        45.384    23471839.034 7  94511397.68307      1029.453 7        46.262
G17        22.000    23826088.161 5 125206975.40105     -3511.875 5        31.902                                    23826078.944 2  97563851.84202     -2736.500 2        12.848    23826076.288 4                     -2736.719 4        26.395
R07        23.000    20927247.004 8 112025130.97308      1603.314 8        50.929                                                                    20927239.993 7  87130753.65407      1247.010 7        43.752
S23        24.000    38073113.109 6 200075474.70506      -823.068 6        40.319
S36        25.000    38127537.478 6 200361507.76506      -827.209 6        37.508
G11        26.000    25223069.921 6 132548120.03806      2743.806 6        39.297                                                                                                    25223063.489 3                      2138.155 3        23.600
R15        28.000    22191045.327 5 118582282.05415      -296.281 5        30.777                                                                    22191021.371 5                      -230.165 5        33.533
R06        29.000    19366927.587 6 103345660.65306     -1247.797 6        36.302
C05        32.000                                                                                                                                                                                                    39059333.051 5 157275774.75105      -655.176 5        33.216
C19        33.000                                                                                                                                    21972315.586 7 114415740.70107      -133.859 7        44.482                                                                    21972312.187 6  92972043.22506      -108.972 6        36.208
R21        34.000    20400907.244 7 109169476.66907     -3938.952 7        46.773                                                                    20400906.698 6  84909504.56206     -3063.773 6        38.691
R05        36.000                                                                                                                                    22766933.025 4                     -3313.292 4        28.673
R22        37.000    20256178.901 7 108128833.66607       594.534 7        47.650                                                                    20256175.344 7  84100243.95607       462.358 7        44.041
C39        38.000                                                                                                                                                                                                                                                                    39346531.113 3                     -1383.180 3        22.876
R16        39.000    22859994.666 6 122114021.14706      2709.790 6        36.560
C06        41.000                                                                                                                                    38297865.085 5 199427078.99905     -1250.239 5        32.563    38297859.924 5 154209589.60105      -966.911 5        33.509    38297855.644 5 162050782.46505     -1015.249 5        30.038
C29        43.000                                                                                                                                    24997426.993 5 130168176.99005     -4165.915 5        34.986                                                                    24997428.766 6 105772298.56806     -3385.180 6        40.536
C16        45.000                                                                                                                                    38822934.235 5 202161184.47105     -1333.003 5        33.006    38822917.973 6 156323967.68906     -1031.014 6        36.336    38822920.971 4                     -1083.678 4        26.659
C09        46.000                                                                                                                                    38383858.910 7 199874826.24307      -746.790 7        43.113    38383853.632 7 154555896.73107      -577.461 7        44.176    38383851.600 6 162414641.69306      -606.935 6        40.517
C44        48.000                                                                                                                                    24402775.329 7 127071755.26207       700.440 7        43.348                                                                    24402771.098 6 103256110.05506       569.135 6        41.957
C37        49.000                                                                                                                                    24764087.883 4                        35.932 4        25.925                                                                    24764065.697 3                        29.075 3        23.638
C22        50.000                                                                                                                                    24900128.604 4 129661538.90304      1821.518 4        28.246                                                                    24900126.331 6 105360575.02806      1479.880 6        36.631
C35        51.000                                                                                                                                    23087663.619 5 120223744.33805     -1925.100 5        34.724                                                                    23087663.083 7  97691524.11507     -1564.330 7        44.673
C20        55.000                                                                                                                                    22834597.091 6 118905725.82706     -2609.925 6        39.532                                                                    22834590.512 6  96620720.69906     -2120.893 6        41.368
C12        56.000                                                                                                                                    26247753.007 4                      1852.578 4        26.802    26247756.907 6 105688812.07606      1432.371 6        40.648    26247749.989 5 111062836.09605      1505.169 5        33.527
C23        57.000                                                                                                                                    26525565.414 4                     -2401.678 4        27.030
I01        60.000   335189655.990 6  12215410.39506     -2977.847 6        38.246
> 2025 01 01 02 47 20.0000000  0 41
G02         1.000    24181253.465 5 127073358.63105     -4304.589 5        34.109
G31         4.000    22708095.344 5 119331800.92405     -2848.036 5        31.434                                    22708076.562 2  92985723.90202     -2219.163 2        13.697    22708072.075 5  92985844.91705     -2218.894 5        31.253
E34         6.000    24789488.208 8 130269645.37808      1013.747 8        48.507                                                                    24789486.609 7  97279328.83707       757.045 7        42.593    24789485.650 7  99817018.68407       776.699 7        43.117
E04         7.000    25849398.140 6 135839503.94606     -3249.867 6        36.136                                                                    25849396.865 6 101438573.53606     -2426.849 6        39.913    25849397.824 6 104084797.25706     -2490.108 6        40.358
G03         8.000                                                                                                                                                                    20635120.279 6  84497361.87406     -2031.597 6        40.777
G09         9.000    20682715.808 8 108688389.79508      1123.939 8        50.031                                    20682712.112 7  84692261.19107       875.790 7        47.892    20682713.036 7  84692252.22107       875.707 7        42.868
R14        10.000    23980851.245 4                     -3439.271 4        28.057
G04        11.000    19974229.032 8 104965309.40308      -698.451 8        49.958                                    19974226.338 6  81791096.75406      -544.245 6        40.920    19974225.640 8  81791115.75708      -544.247 8        48.955
E09        12.000    23374938.325 7 122836228.74107     -1173.005 7        47.574                                                                    23374937.141 7  91728345.76607      -875.935 7        46.120    23374936.483 7  94121236.00107      -898.844 7        42.082
E06        14.000    23996232.302 7 126101084.76807     -2348.579 7        44.615                                                                    23996231.091 8  94166378.87308     -1753.786 8        48.009    23996229.843 7  96622861.38907     -1799.584 7        46.979
E11        15.000    26259261.851 5 137993350.94805     -3813.728 5        32.353                                                                    26259259.474 5 103046975.23805     -2847.412 5        32.443    26259243.811 3                     -2924.942 3        19.403
G19        16.000    22677929.132 6 119173701.25906     -2599.536 6        40.443                                    22677924.195 3  92862315.68203     -2025.597 3        19.761
G28        17.000    24897295.563 3                     -3924.715 3        19.701
G06        19.000    21953205.891 7 115364983.55507      1442.992 7        44.286                                    21953203.629 6  89894688.08306      1124.409 6        41.077    21953204.782 6  89894761.10906      1124.319 6        41.695
E36        20.000    23547470.179 6 123742928.71406     -1861.224 6        41.886                                                                    23547470.739 7  92405315.03507     -1389.966 7        42.070    23547470.077 7  94815919.44407     -1426.207 7        42.855
E05        21.000    23470560.198 6 123338645.94706      1342.480 6        40.837                                                                    23470560.241 7  92103562.77107      1002.482 7        44.846    23470560.683 7  94506251.97907      1028.699 7        46.460
G17        22.000    23829429.054 5 125224537.34605     -3512.538 5        30.279                                    23829420.981 2  97577536.43002     -2737.045 2        12.364    23829418.276 4                     -2737.390 4        28.455
R07        23.000    20925746.691 8 112017117.78108      1601.805 8        48.812                                                                    20925742.345 7  87124521.14807      1245.831 7        43.295
S23        24.000    38073896.895 6 200079589.45506      -823.117 6        40.136
S36        25.000    38128319.636 6 200365643.87106      -827.249 6        36.072
G11        26.000    25220459.088 6 132534402.29706      2743.327 6        40.582
R15        28.000    22191322.570 4 118583772.00504      -300.682 4        25.474                                                                    22191300.307 5  92231672.60615      -233.513 5        35.619
R06        29.000    19368097.629 6 103351904.52806     -1249.889 6        36.669
C05        32.000                                                                                                                                                                                                    39060146.502 5 157279048.93005      -654.839 5        34.595
C19        33.000                                                                                                                                    21972444.831 7 114416412.86007      -135.164 7        45.141                                                                    21972440.463 5  92972589.41305      -109.729 5        35.238
R21        34.000    20404588.109 7 109189179.33307     -3942.283 7        46.078                                                                    20404588.462 6  84924828.84906     -3066.155 6        39.730
R05        36.000                                                                                                                                    22770919.303 5                     -3313.400 5        30.151
R22        37.000    20255625.352 7 108125871.15707       590.325 7        45.526                                                                    20255620.931 7  84097939.77507       459.133 7        43.676
C39        38.000                                                                                                                                    39348159.803 4 204896048.35804     -1702.242 4        24.932                                                                    39348168.880 4                     -1383.590 4        25.534
R16        39.000    22857459.838 5 122100475.46705      2708.425 5        35.400
C06        41.000                                                                                                                                    38299064.333 5 199433331.59205     -1251.051 5        31.547    38299060.599 5 154214424.50605      -967.384 5        33.551    38299055.133 4 162055863.29204     -1016.517 4        29.166
C29        43.000                                                                                                                                    25001426.519 5 130189007.03105     -4166.189 5        33.521                                                                    25001428.478 6 105789224.68806     -3385.397 6        39.844
C16        45.000                                                                                                                                    38824218.573 5 202167851.24205     -1333.457 5        33.713    38824197.899 6 156329122.87806     -1031.373 6        36.272    38824197.700 4                     -1084.127 4        25.759
C09        46.000                                                                                                                                    38384576.573 7 199878561.32107      -747.375 7        43.065    38384570.237 7 154558784.90307      -577.923 7        44.427    38384568.799 6 162417676.75606      -607.331 6        40.114
C44        48.000                                                                                                                                    24402102.872 7 127068258.62707       698.103 7        42.773                                                                    24402099.696 7 103253268.78607       567.198 7        42.167
C37        49.000                                                                                                                                    24764057.896 4                        33.977 4        28.256                                                                    24764036.242 3                        25.456 3        23.771
C22        50.000                                                                                                                                    24898377.675 3                      1822.292 3        23.200                                                                    24898377.489 5 105353175.85605      1479.987 5        35.905
C35        51.000                                                                                                                                    23089513.962 6 120233375.92106     -1927.762 6        37.119                                                                    23089512.498 7  97699350.57407     -1566.247 7        44.566
C20        55.000                                                                                                                                    22837105.186 6 118918777.97706     -2611.027 6        40.420                                                                    22837097.281 7  96631326.65807     -2121.406 7        42.216
C12        56.000                                                                                                                                    26245985.522 4                      1851.247 4        25.143    26245977.820 6 105681652.85606      1431.369 6        40.508    26245972.136 5 111055312.86705      1504.213 5        33.725
I01        60.000   335193450.660 6  12230300.23706     -2977.946 6        38.489
