     3.04           OBSERVATION DATA    M                   RINEX VERSION / TYPE
ssrcrin-15.6.1x                         20250101 010000 UTC PGM / RUN BY / DATE 
(00000000023479385599111004) Septentrio proprietary         COMMENT             
ract                                                        MARKER NAME         
01                                                          MARKER NUMBER       
geodetic                                                    MARKER TYPE         
NFB                 CLIMERS@TUW                             OBSERVER / AGENCY   
3296359             SEPT ASTERX SB3 PROB4.14.4              REC # / TYPE / VERS 
Unknown             Unknown                                 ANT # / TYPE        
  4127447.5756  1206915.3910  4695543.9720                  APPROX POSITION XYZ 
        0.0000        0.0000        0.0000                  ANTENNA: DELTA H/E/N
G   23 X1  C1C L1C D1C S1C C1W S1W C2W L2W D2W S2W C2L L2L  SYS / # / OBS TYPES 
       D2L S2L C5Q L5Q D5Q S5Q C1L L1L D1L S1L              SYS / # / OBS TYPES 
E   21 X1  C1C L1C D1C S1C C6C L6C D6C S6C C5Q L5Q D5Q S5Q  SYS / # / OBS TYPES 
       C7Q L7Q D7Q S7Q C8Q L8Q D8Q S8Q                      SYS / # / OBS TYPES 
S    9 X1  C1C L1C D1C S1C C5I L5I D5I S5I                  SYS / # / OBS TYPES 
R   17 X1  C1C L1C D1C S1C C2P L2P D2P S2P C2C L2C D2C S2C  SYS / # / OBS TYPES 
       C3Q L3Q D3Q S3Q                                      SYS / # / OBS TYPES 
C   25 X1  C1P L1P D1P S1P C5P L5P D5P S5P C2I L2I D2I S2I  SYS / # / OBS TYPES 
       C7I L7I D7I S7I C6I L6I D6I S6I C7D L7D D7D S7D      SYS / # / OBS TYPES 
J   17 X1  C1C L1C D1C S1C C2L L2L D2L S2L C5Q L5Q D5Q S5Q  SYS / # / OBS TYPES 
       C1L L1L D1L S1L                                      SYS / # / OBS TYPES 
I    5 X1  C5A L5A D5A S5A                                  SYS / # / OBS TYPES 
SEPTENTRIO RECEIVERS OUTPUT ALIGNED CARRIER PHASES.         COMMENT             
NO FURTHER PHASE SHIFT APPLIED IN THE RINEX ENCODER.        COMMENT             
G L1C                                                       SYS / PHASE SHIFT   
G L2W                                                       SYS / PHASE SHIFT   
G L2L  0.00000                                              SYS / PHASE SHIFT   
G L5Q  0.00000                                              SYS / PHASE SHIFT   
G L1L  0.00000                                              SYS / PHASE SHIFT   
E L1C  0.00000                                              SYS / PHASE SHIFT   
E L6C  0.00000                                              SYS / PHASE SHIFT   
E L5Q  0.00000                                              SYS / PHASE SHIFT   
E L7Q  0.00000                                              SYS / PHASE SHIFT   
E L8Q  0.00000                                              SYS / PHASE SHIFT   
S L1C                                                       SYS / PHASE SHIFT   
S L5I                                                       SYS / PHASE SHIFT   
R L1C                                                       SYS / PHASE SHIFT   
R L2P  0.00000                                              SYS / PHASE SHIFT   
R L2C                                                       SYS / PHASE SHIFT   
R L3Q  0.00000                                              SYS / PHASE SHIFT   
C L1P  0.00000                                              SYS / PHASE SHIFT   
C L5P  0.00000                                              SYS / PHASE SHIFT   
C L2I                                                       SYS / PHASE SHIFT   
C L7I                                                       SYS / PHASE SHIFT   
C L6I                                                       SYS / PHASE SHIFT   
C L7D                                                       SYS / PHASE SHIFT   
J L1C                                                       SYS / PHASE SHIFT   
J L2L  0.00000                                              SYS / PHASE SHIFT   
J L5Q  0.00000                                              SYS / PHASE SHIFT   
J L1L  0.00000                                              SYS / PHASE SHIFT   
I L5A                                                       SYS / PHASE SHIFT   
  2025     1     1     1     0    0.0000000     GPS         TIME OF FIRST OBS   
 C1C    0.000 C2C    0.000 C2P    0.000                     GLONASS COD/PHS/BIS 
DBHZ                                                        SIGNAL STRENGTH UNIT
    18                                                      LEAP SECONDS        
 24 R01  1 R02 -4 R03  5 R04  6 R05  1 R06 -4 R07  5 R08  6 GLONASS SLOT / FRQ #
    R09 -2 R10 -7 R11  0 R12 -1 R13 -2 R14 -7 R15  0 R16 -1 GLONASS SLOT / FRQ #
    R17  4 R18 -3 R19  3 R20  2 R21  4 R22 -3 R23  3 R24  2 GLONASS SLOT / FRQ #
                                                            END OF HEADER       
> 2025 01 01 01 00  0.0000000  0 38
E19         1.000                                                                                                                                                                                                    27504701.089 3                     -2806.043 3        20.595
G32         2.000    24744982.535 4                     -4129.859 4        25.158                                                                                                    24745015.512 3                     -3217.800 3        20.929
G21         3.000    22379373.443 6 117604382.80006     -3268.947 6        41.661                                    22379369.222 3  91639715.37903     -2547.239 3        21.619
G31         4.000    23103540.912 3                      1415.310 3        20.071                                                                                                    23103535.482 4  94605164.67004      1099.191 4        25.323
G02         5.000    21170121.437 8 111249746.29808     -2197.458 8        49.111                                    21170112.978 6  86688057.87506     -1712.304 6        38.147
E34         6.000    28038221.953 4                      1973.563 4        28.607                                                                    28038192.754 4 110027944.79804      1473.490 4        27.305    28038199.039 6 112898201.58506      1511.952 6        37.429
E04         7.000    23941148.583 7 125811661.54907     -1482.794 7        43.103                                                                    23941144.692 7  93950187.77907     -1107.355 7        46.100    23941144.840 7  96401062.14507     -1136.225 7        44.146
G03         8.000    20163648.863 4 105960300.11804       -65.336 4        24.511                                    20163600.565 1  82566487.59201       -50.874 1         6.250    20163573.173 6  82566492.40106       -51.256 6        38.781
G04        11.000    22320670.988 5                      2364.544 5        30.574                                                                                                    22320670.490 5                      1842.723 5        31.819
E09        12.000    24606991.952 7 129310700.99407      1241.238 7        46.813                                                                    24606991.086 8  96563176.95608       926.913 8        50.346    24606989.098 7  99082193.40907       951.112 7        47.310
E10        13.000    25657405.721 6 134830592.91706     -3119.249 6        36.677                                                                    25657405.040 6 100685172.87006     -2329.307 6        40.610    25657404.591 5 103311727.16805     -2390.062 5        35.824
E06        14.000    23653141.828 7 124298166.64707        32.568 7        45.618                                                                    23653141.757 7  92820021.79007        24.369 7        46.130    23653142.031 8  95241416.03708        25.005 8        48.270
E11        15.000    23779823.930 6 124963894.61606     -2020.237 6        39.556                                                                    23779817.976 6  93317120.65006     -1508.599 6        36.155    23779819.816 6  95751479.02606     -1548.029 6        39.243
G19        16.000    23307104.203 7 122479883.14207      1631.495 7        42.186                                    23307098.759 5  95438681.13905      1271.305 5        30.777
E30        17.000                                                                                                                                    28840027.657 5 113174484.23005     -1461.788 5        30.226    28840025.349 5 116126859.04505     -1500.232 5        32.707
G28        18.000    23273645.257 4                      -316.306 4        26.072                                                                                                    23273641.999 5  95301686.82005      -246.710 5        33.251
E36        20.000    24077946.010 6 126530456.24606       575.951 6        41.626                                                                    24077944.639 7  94487020.76707       430.116 7        44.340    24077945.229 7  96951924.46707       441.345 7        47.280
G17        22.000    22358665.392 7 117495628.53107      -405.461 7        45.714                                    22358658.078 5  91554890.91105      -315.951 5        32.479    22358658.436 5  91554974.87205      -315.935 5        35.590
S23        24.000    38262267.287 6 201069533.97206      -824.048 6        40.644
S36        25.000    38311980.685 6 201330673.99606      -827.273 6        36.794
R20        27.000    19776559.240 6 105754148.22706     -2877.458 6        36.904                                                                    19776559.978 5  82253186.04605     -2238.134 5        35.814
R04        28.000                                                                                                                                    22920391.501 4                     -3692.189 4        25.789
R06        29.000    21047189.233 6 112311828.18006      2072.320 6        36.699
C19        33.000                                                                                                                                    24164862.656 5 125832811.19005      1700.825 5        35.600                                                                    24164857.151 6 102249414.28606      1382.110 6        41.287
R21        34.000    20085960.652 8 107484102.40608      1403.537 8        53.286                                                                    20085958.872 7  83598842.81107      1091.621 7        45.595
R05        36.000    19556191.363 6 104539127.52406     -2467.766 6        40.410                                                                    19556183.529 6  81308107.56706     -1919.280 6        39.868
R22        37.000    24448254.537 5 130506541.75205      3436.991 5        33.108                                                                    24448271.975 5 101505055.92205      2672.777 5        30.498
C39        38.000                                                                                                                                    38995777.452 5 203061341.38905      -708.062 5        33.563                                                                    38995771.032 5 165003864.49005      -575.357 5        33.371
C06        41.000                                                                                                                                    38607991.826 4                      -133.705 4        26.934    38607985.065 6 155458480.75506      -103.496 6        39.081    38607982.661 6 163362995.23906      -108.920 6        36.155
C29        43.000                                                                                                                                    22102711.729 7 115094503.20107     -1968.317 7        47.211                                                                    22102707.407 7  93523824.67707     -1599.480 7        46.740
C16        45.000                                                                                                                                    38998207.925 5 203073984.79405      -259.450 5        30.853    38998206.922 5 157029658.55205      -200.537 5        35.905    38998208.579 5                      -210.657 5        32.497
C09        46.000                                                                                                                                    39306364.104 5 204678561.92905       309.906 5        34.424    39306365.240 6 158270445.00906       239.701 6        36.042    39306359.132 5 166318077.83705       252.047 5        33.437
C32        47.000                                                                                                                                    24158320.090 6 125798712.07206     -3389.719 6        40.482                                                                    24158320.119 7 102221791.27107     -2754.385 7        45.968
C35        51.000                                                                                                                                    24092965.726 7 125458597.34007      1434.979 7        46.507                                                                    24092964.819 7 101945244.49007      1166.039 7        47.406
I09        54.000    37237528.427 6 146128060.61206      -681.837 6        38.204
C20        55.000                                                                                                                                    21878264.024 8 113925850.79408      -655.092 8        51.391                                                                    21878257.133 7  92574164.56107      -532.330 7        47.674
I01        56.000   331621968.428 5 998215030.83205     -2825.925 5        32.024
C30        58.000                                                                                                                                    25057379.558 4 130480345.16604     -4209.217 4        27.653                                                                    25057380.386 6 106026010.69706     -3420.355 6        39.261
> 2025 01 01 01 00  5.0000000  0 37
E19         1.000                                                                                                                                                                                                    27508186.754 3                     -2806.728 3        20.024
G21         3.000    22382484.366 7 117620728.86007     -3269.729 7        42.138                                    22382479.834 3  91652452.55903     -2547.838 3        21.738
G31         4.000    23102200.333 4                      1408.908 4        25.263
G02         5.000    21172212.680 8 111260737.47108     -2199.084 8        48.289                                    21172204.776 6  86696622.42306     -1713.570 6        38.219
E34         6.000    28036343.653 4                      1973.682 4        29.507                                                                                                                                    28036321.593 6 112890640.42706      1512.261 6        36.828
E04         7.000    23942559.498 7 125819079.57007     -1484.449 7        42.836                                                                    23942556.100 7  93955727.21207     -1108.461 7        45.783    23942556.482 7  96406746.07707     -1137.394 7        43.827
G03         8.000                                                                                                                                                                    20163637.616 6  82566752.26106       -52.573 6        38.976
G04        11.000    22318421.091 4                      2363.202 4        29.924                                                                                                    22318422.073 5  91390202.89615      1841.564 5        34.829
E09        12.000    24605811.324 7 129304497.29407      1240.103 7        47.276                                                                    24605810.503 8  96558544.33008       926.111 8        50.278    24605808.413 7  99077439.93207       950.194 7        47.107
E10        13.000    25660373.921 6 134846190.36806     -3119.626 6        36.783                                                                    25660372.895 6 100696820.32606     -2329.798 6        40.255    25660372.471 5 103323678.47705     -2390.746 5        35.738
E06        14.000    23653111.994 7 124298007.64607        30.985 7        45.603                                                                    23653111.536 7  92819903.07207        23.106 7        46.203    23653111.523 8  95241294.21308        23.761 8        48.222
E11        15.000    23781746.754 6 124973999.11006     -2021.566 6        39.387                                                                    23781740.802 6  93324666.22606     -1509.504 6        36.034    23781742.257 6  95759221.42306     -1548.876 6        38.126
G19        16.000    23305553.635 7 122471730.81707      1629.430 7        43.490                                    23305547.643 5  95432328.67205      1269.691 5        30.287
E30        17.000                                                                                                                                    28841891.037 5 113181796.70105     -1463.555 5        30.845    28841888.908 5 116134362.26905     -1501.307 5        32.108
G28        18.000    23273943.782 4                      -319.637 4        25.008                                                                                                    23273945.587 5  95302925.90105      -248.858 5        32.581
E36        20.000    24077397.941 6 126527578.13506       575.265 6        41.447                                                                    24077396.892 7  94484871.53407       429.463 7        44.566    24077397.477 7  96949719.16707       440.738 7        47.449
G17        22.000    22359052.888 7 117497661.86907      -407.909 7        46.348                                    22359044.922 5  91556475.33505      -317.845 5        32.383    22359044.406 5  91556559.29005      -318.243 5        33.988
S23        24.000    38263049.467 6 201073651.98406      -823.289 6        40.608
S36        25.000    38312766.322 6 201334808.78606      -826.866 6        36.786
R20        27.000    19779251.529 6 105768542.92506     -2880.632 6        36.699                                                                    19779251.635 5  82264381.85205     -2240.474 5        35.629
R04        28.000    22924853.808 4                     -4747.167 4        29.517                                                                    22924817.034 4                     -3691.558 4        26.575
R06        29.000    21045247.837 6 112301471.08706      2070.597 6        37.217
C19        33.000                                                                                                                                    24163232.145 6 125824308.57706      1700.249 6        38.574                                                                    24163224.394 6 102242505.23206      1381.499 6        41.743
R21        34.000    20084651.181 8 107477091.32208      1400.832 8        53.576                                                                    20084648.671 7  83593389.74707      1089.499 7        46.506
R05        36.000    19558500.335 6 104551471.94606     -2469.945 6        39.874                                                                    19558492.776 6  81317708.81906     -1921.248 6        40.698
R22        37.000    24445036.210 5 130489357.01705      3437.067 5        34.733                                                                    24445057.000 5 101491689.90905      2673.436 5        31.562
C39        38.000                                                                                                                                    38996457.287 5 203064883.01905      -708.603 5        34.119                                                                    38996451.129 5 165006742.35405      -575.930 5        33.341
C06        41.000                                                                                                                                    38608116.213 4                      -134.484 4        28.720    38608113.659 6 155458999.28706      -103.936 6        38.886    38608111.830 5 163363540.14405      -109.325 5        35.814
C29        43.000                                                                                                                                    22104603.023 7 115104349.81507     -1970.476 7        47.372                                                                    22104598.567 7  93531825.84207     -1601.237 7        47.262
C16        45.000                                                                                                                                    38998455.943 5 203075281.99205      -259.856 5        31.751    38998456.596 5 157030661.62805      -200.866 5        35.519    38998457.841 5                      -211.216 5        32.407
C09        46.000                                                                                                                                    39306066.525 5 204677012.73305       309.896 5        34.600    39306066.470 5 158269247.11405       239.373 5        34.914    39306062.123 5 166316819.03405       251.574 5        33.910
C32        47.000                                                                                                                                    24161575.436 6 125815661.03506     -3389.974 6        40.563                                                                    24161575.063 7 102235563.67707     -2754.753 7        46.214
C35        51.000                                                                                                                                    24091588.086 7 125451425.66307      1433.668 7        46.427                                                                    24091587.414 7 101939416.91007      1164.851 7        47.253
I09        54.000    37238397.489 6 146131469.13306      -681.737 6        38.249
C20        55.000                                                                                                                                    21878893.572 8 113929129.66808      -656.493 8        51.289                                                                    21878886.825 7  92576828.90307      -533.600 7        47.510
I01        56.000   331625569.206 5 998229159.67305     -2825.778 5        32.491
C30        58.000                                                                                                                                    25061419.656 4 130501391.43304     -4208.855 4        25.910                                                                    25061422.021 6 106043112.49206     -3420.649 6        39.501
> 2025 01 01 01 00 10.0000000  0 38
E19         1.000                                                                                                                                                                                                    27511671.628 3                     -2806.400 3        21.405
G32         2.000    24752859.781 4                     -4130.094 4        26.898
G21         3.000    22385596.629 7 117637081.62107     -3271.165 7        42.626                                    22385591.668 3  91665194.96303     -2548.951 3        21.952
G31         4.000    23100862.607 5                      1406.689 5        30.174                                                                                                    23100857.959 4  94594183.95004      1096.960 4        26.742
G02         5.000    21174305.954 7 111271739.57707     -2201.454 7        47.719                                    21174298.645 6  86705195.48506     -1715.418 6        38.066
E34         6.000    28034465.866 4                      1974.129 4        29.194                                                                                                                                    28034443.728 6 112883078.85206      1512.372 6        36.824
E04         7.000    23943971.590 7 125826507.60707     -1486.552 7        42.171                                                                    23943969.601 7  93961274.12307     -1110.082 7        45.595    23943970.003 7  96412437.69507     -1139.131 7        43.505
G03         8.000                                                                                                                                                                    20163702.392 6  82567019.65106       -54.107 6        38.246
G04        11.000    22316172.460 5                      2361.698 5        30.438                                                                                                    22316175.773 6  91380998.39506      1840.284 6        37.410
E09        12.000    24604632.405 7 129298301.67207      1238.424 7        47.791                                                                    24604631.525 8  96553917.73608       924.797 8        50.312    24604629.421 7  99072692.63907       948.946 7        47.051
E10        13.000    25663343.309 6 134861793.09206     -3121.024 6        36.726                                                                    25663341.943 6 100708471.70606     -2330.580 6        39.970    25663340.752 5 103335633.79705     -2391.322 5        35.710
E06        14.000    23653083.672 7 124297858.89807        28.799 7        45.624                                                                    23653083.197 7  92819791.99807        21.456 7        46.246    23653082.984 8  95241180.24308        22.052 8        48.370
E11        15.000    23783670.963 6 124984111.28706     -2023.176 6        39.592                                                                    23783665.408 6  93332217.52306     -1510.815 6        36.431    23783666.315 6  95766969.70106     -1550.105 6        36.775
G19        16.000    23304004.582 7 122463591.30607      1626.666 7        44.143                                    23303998.950 5  95425986.19105      1267.530 5        30.158
E30        17.000    28843748.493 5 151574948.91115     -1960.912 5        30.106                                                                    28843754.931 5 113189116.40405     -1464.917 5        31.826    28843754.536 5 116141872.90705     -1502.718 5        31.947
G28        18.000    23274255.481 5                      -322.804 5        30.491                                                                                                    23274249.680 5  95304177.08205      -251.303 5        33.629
E36        20.000    24076852.083 6 126524706.10906       573.866 6        41.130                                                                    24076850.560 7  94482726.83907       428.548 7        44.933    24076850.900 7  96947518.53307       439.708 7        47.747
G17        22.000    22359442.949 7 117499709.91907      -410.978 7        46.712                                    22359434.776 5  91558071.22305      -320.238 5        32.335    22359433.679 5  91558155.16605      -320.071 5        34.210
S23        24.000    38263833.870 6 201077769.46206      -823.244 6        40.532
S36        25.000    38313551.378 6 201338943.09306      -826.754 6        36.571
R20        27.000    19781946.552 6 105782955.57406     -2884.041 6        36.801                                                                    19781944.731 5  82275591.68905     -2243.358 5        34.952
R04        28.000    22929284.600 5                     -4746.945 5        31.011                                                                    22929249.901 4                     -3692.171 4        25.053
R06        29.000    21043310.751 6 112291125.33306      2068.184 6        37.535
C19        33.000                                                                                                                                    24161600.370 6 125815811.69406      1698.874 6        40.260                                                                    24161592.939 7 102235600.82307      1380.418 7        42.436
R21        34.000    20083343.928 8 107470096.49108      1397.454 8        53.697                                                                    20083341.045 7  83587949.31807      1086.889 7        46.796
R05        36.000    19560808.773 6 104563830.57606     -2472.930 6        40.791                                                                    19560805.406 6  81327321.06606     -1923.554 6        41.468
R22        37.000    24441820.121 5 130472172.23405      3437.163 5        34.771                                                                    24441844.917 5 101478323.93505      2673.571 5        31.872
C39        38.000                                                                                                                                    38997138.467 5 203068428.92405      -709.237 5        34.224                                                                    38997131.949 5 165009623.70905      -576.298 5        33.090
C06        41.000                                                                                                                                    38608246.668 4                      -135.147 4        29.422    38608243.273 6 155459521.07606      -104.567 6        39.039    38608241.659 6 163364088.45506      -109.974 6        36.098
C29        43.000                                                                                                                                    22106495.011 7 115114209.15207     -1973.067 7        46.551                                                                    22106492.030 7  93539837.35007     -1603.407 7        47.677
C16        45.000                                                                                                                                    38998707.374 5 203076583.34505      -260.629 5        31.955    38998706.061 5 157031667.91305      -201.533 5        34.971    38998707.809 5                      -211.732 5        32.677
C09        46.000                                                                                                                                    39305769.257 5 204675467.04205       308.747 5        34.452    39305770.786 5 158268051.89205       238.820 5        34.119    39305765.386 5 166315562.99405       251.114 5        34.310
C32        47.000                                                                                                                                    24164830.883 6 125832613.38506     -3390.755 6        40.131                                                                    24164830.653 7 102249338.84507     -2755.359 7        46.620
C35        51.000                                                                                                                                    24090212.309 7 125444262.99307      1431.710 7        45.970                                                                    24090211.713 7 101933596.64907      1163.286 7        47.146
I09        54.000    37239265.712 6 146134878.15106      -681.842 6        38.213
C20        55.000                                                                                                                                    21879524.948 8 113932418.07808      -658.568 8        50.664                                                                    21879518.298 7  92579500.99607      -535.118 7        47.560
I01        56.000   331629169.001 5 998243288.82805     -2825.948 5        32.766
C30        58.000                                                                                                                                    25065463.961 4 130522440.63604     -4209.652 4        25.940                                                                    25065464.397 6 106060216.70606     -3420.986 6        39.532
> 2025 01 01 01 00 15.0000000  0 38
E19         1.000                                                                                                                                                                                                    27515158.966 3                     -2810.374 3        20.810
G32         2.000    24756795.900 4                     -4131.804 4        28.256                                                                                                    24756751.392 3                     -3219.832 3        22.571
G21         3.000    22388709.431 7 117653441.66707     -3272.557 7        42.222                                    22388704.476 3  91677943.05103     -2550.039 3        21.357
G31         4.000    23099528.109 5                      1405.854 5        34.005                                                                                                    23099523.052 4  94588707.97204      1094.005 4        27.257
G02         5.000    21176402.106 7 111282753.08307     -2203.814 7        47.129                                    21176394.709 6  86713777.43406     -1717.259 6        37.803
E34         6.000    28032585.768 4                      1973.993 4        29.412                                                                    28032584.391 5 110005837.42105      1473.893 5        32.940    28032565.568 6 112875517.24806      1512.334 6        36.121
E04         7.000    23945386.588 6 125833946.16106     -1488.576 6        41.840                                                                    23945385.222 7  93966828.88507     -1111.621 7        45.625    23945385.523 7  96418137.36807     -1140.697 7        42.991
G03         8.000    20163747.889 6 105961330.32306       -71.502 6        38.423                                    20163775.991 3  82567304.95013       -55.698 3        22.190    20163770.018 6  82567294.94406       -55.592 6        37.614
G04        11.000    22313925.617 5                      2360.047 5        31.577                                                                                                    22313930.645 6  91371800.33506      1839.077 6        39.165
E09        12.000    24603455.023 8 129292114.64808      1236.678 8        48.137                                                                    24603454.041 8  96549297.56308       923.494 8        50.186    24603452.104 7  99067951.94007       947.497 7        46.692
E10        13.000    25666313.520 6 134877401.57706     -3122.189 6        36.968                                                                    25666312.105 6 100720127.39606     -2331.587 6        39.772    25666311.015 5 103347593.54205     -2392.255 5        35.967
E06        14.000    23653057.581 7 124297720.90107        26.564 7        45.976                                                                    23653056.894 7  92819688.95907        19.894 7        46.414    23653056.584 8  95241074.50908        20.417 8        48.128
E11        15.000    23785596.600 6 124994231.66506     -2024.939 6        39.787                                                                    23785591.414 6  93339774.95906     -1512.011 6        36.756    23785591.054 5  95774724.29305     -1551.484 5        35.114
G19        16.000    23302457.211 7 122455465.11207      1624.041 7        43.117                                    23302452.753 5  95419654.09605      1265.486 5        30.098
E30        17.000    28845622.332 4 151584761.17604     -1963.219 4        28.872                                                                    28845622.200 5 113196443.76105     -1466.246 5        31.645    28845622.387 5 116149391.39305     -1504.263 5        30.747
G28        18.000                                                                                                                                                                    23274558.593 5  95305440.79305      -253.855 5        35.148
E36        20.000    24076307.121 6 126521840.70906       572.531 6        40.641                                                                    24076305.527 7  94480587.07607       427.622 7        45.363    24076305.458 7  96945322.95107       438.757 7        47.522
G17        22.000    22359835.643 7 117501773.14807      -414.008 7        45.330                                    22359827.550 5  91559678.92405      -322.606 5        32.245    22359827.656 5  91559762.90705      -322.898 5        34.914
S23        24.000    38264618.430 6 201081886.88506      -823.407 6        40.617
S36        25.000    38314339.439 6 201343077.19706      -826.563 6        36.507
R20        27.000    19784645.350 5 105797386.81705     -2888.083 5        35.962                                                                    19784642.884 5  82286815.95605     -2246.395 5        34.029
R04        28.000    22933715.669 5                     -4747.174 5        33.066                                                                    22933689.717 3                     -3691.887 3        22.324
R06        29.000    21041373.630 6 112280791.35606      2065.654 6        37.425
C19        33.000                                                                                                                                    24159968.357 6 125807321.03906      1697.631 6        40.696                                                                    24159962.615 7 102228701.47607      1379.543 7        42.882
R21        34.000    20082039.564 8 107463118.44108      1394.068 8        53.415                                                                    20082036.792 7  83582521.95207      1084.206 7        46.711
R05        36.000    19563123.035 6 104576203.58506     -2476.017 6        40.706                                                                    19563119.560 6  81336944.50806     -1925.798 6        40.803
R22        37.000    24438603.400 5 130454988.20505      3437.228 5        34.810                                                                    24438627.273 5 101464958.63305      2673.063 5        32.030
C39        38.000                                                                                                                                    38997820.501 5 203071979.70105      -710.409 5        33.916                                                                    38997814.270 5 165012508.99705      -577.092 5        32.838
C06        41.000                                                                                                                                    38608379.243 5                      -135.871 5        30.008    38608373.780 6 155460046.49906      -105.419 6        38.778    38608372.280 6 163364640.59306      -110.626 6        36.019
C29        43.000                                                                                                                                    22108389.578 7 115124081.70807     -1975.702 7        46.059                                                                    22108387.932 7  93547859.60207     -1605.372 7        47.892
C16        45.000                                                                                                                                    38998957.887 5 203077889.40105      -261.759 5        32.838    38998956.645 5 157032677.83405      -202.221 5        34.819    38998957.983 5                      -212.582 5        32.539
C09        46.000                                                                                                                                    39305471.447 5 204673925.31705       308.229 5        34.686    39305474.289 5 158266859.70305       238.284 5        33.449    39305469.259 5 166314310.20305       250.343 5        34.552
C32        47.000                                                                                                                                    24168087.608 6 125849569.63106     -3391.451 6        39.784                                                                    24168087.053 7 102263117.18507     -2755.838 7        46.832
C35        51.000                                                                                                                                    24088838.805 7 125437109.83207      1429.758 7        45.607                                                                    24088837.895 7 101927784.12707      1161.906 7        46.894
I09        54.000    37240134.726 6 146138288.04606      -682.091 6        38.261
C20        55.000                                                                                                                                    21880158.166 8 113935716.53208      -660.612 8        50.346                                                                    21880151.755 7  92582181.25507      -536.721 7        47.579
I01        56.000   331632769.881 5 998257418.66105     -2825.838 5        32.928
C30        58.000                                                                                                                                    25069509.317 4 130543493.45804     -4210.916 4        26.766                                                                    25069507.294 6 106077323.75906     -3421.381 6        39.565
> 2025 01 01 01 00 20.0000000  0 38
E19         1.000                                                                                                                                                                                                    27518648.696 3                     -2809.263 3        20.714
G32         2.000    24760722.316 4                     -4132.414 4        29.981
G21         3.000    22391822.940 6 117669808.70406     -3273.998 6        41.490                                    22391818.595 3  91690696.58303     -2551.200 3        21.071
G31         4.000    23098194.528 6 121381823.01716      1402.010 6        36.363                                    23098188.736 2  94583221.38112      1092.496 2        15.286    23098187.744 4  94583241.36404      1092.231 4        26.922
G02         5.000    21178500.269 7 111293777.75707     -2205.908 7        46.899                                    21178492.857 6  86722368.09206     -1718.887 6        37.448
E34         6.000    28030704.360 4                      1973.800 4        29.858                                                                    28030700.306 5 109998467.81205      1474.021 5        32.916    28030687.812 5 112867955.40905      1512.626 5        35.010
E04         7.000    23946804.062 7 125841394.98107     -1490.671 7        42.169                                                                    23946802.830 7  93972391.31907     -1113.211 7        45.580    23946803.097 7  96423844.90007     -1142.254 7        42.840
G03         8.000                                                                                                                                                                    20163839.648 6  82567578.02506       -57.319 6        37.603
G04        11.000    22311684.967 5 117248687.69415      2358.554 5        35.462                                                                                                    22311687.175 6  91362608.49006      1837.846 6        40.224
E09        12.000    24602279.080 8 129285935.98808      1235.051 8        48.376                                                                    24602278.186 8  96544683.63208       922.254 8        49.938    24602276.415 7  99063217.64107       946.348 7        46.562
E10        13.000    25669284.939 6 134893015.60806     -3123.174 6        37.323                                                                    25669283.678 6 100731787.20106     -2332.225 6        39.351    25669289.431 6 103359557.47006     -2393.167 6        36.938
E06        14.000    23653033.485 7 124297593.41807        24.587 7        46.060                                                                    23653032.455 7  92819593.76807        18.388 7        46.527    23653032.490 8  95240976.82808        18.832 8        48.009
E11        15.000    23787524.419 6 125004360.01706     -2026.527 6        40.315                                                                    23787519.162 6  93347338.33306     -1513.245 6        37.244    23787516.996 5  95782484.94205     -1552.681 5        34.014
G19        16.000    23300913.100 7 122447352.08007      1621.468 7        42.762                                    23300908.876 5  95413332.25305      1263.483 5        30.181
E30        17.000    28847490.364 5 151594583.52205     -1965.711 5        30.249                                                                    28847491.396 5 113203778.61405     -1467.485 5        32.605    28847491.629 5 116156917.62205     -1505.869 5        31.766
G28        18.000    23274893.667 5 122310408.05415      -328.851 5        35.014                                                                                                    23274871.175 6  95306716.76506      -256.374 6        36.745
E36        20.000    24075761.812 6 126518981.68206       571.266 6        40.036                                                                    24075761.824 7  94478452.07907       426.624 7        45.816    24075761.398 7  96943132.25907       437.711 7        47.541
G17        22.000    22360230.274 7 117503851.38407      -416.971 7        44.369                                    22360223.191 5  91561298.30805      -324.909 5        31.608    22360223.993 5  91561382.24605      -324.853 5        34.919
S23        24.000    38265400.222 6 201086003.88606      -823.261 6        40.825
S36        25.000    38315123.122 6 201347210.66306      -826.329 6        36.749
R20        27.000    19787347.173 5 105811836.32605     -2891.576 5        35.376                                                                    19787344.928 5  82298054.44005     -2249.356 5        33.383
R04        28.000    22938146.846 5                     -4747.709 5        33.665
R06        29.000    21039438.867 6 112270468.89906      2063.515 6        37.278
C19        33.000                                                                                                                                    24158338.073 6 125798836.39806      1696.424 6        40.126                                                                    24158333.377 7 102221807.00007      1378.369 7        43.136
R21        34.000    20080738.750 8 107456156.84208      1390.782 8        53.092                                                                    20080735.794 7  83577107.37207      1081.650 7        46.570
R05        36.000    19565440.579 6 104588590.92006     -2478.764 6        40.396                                                                    19565436.466 6  81346579.11206     -1927.964 6        40.932
R22        37.000    24435386.800 5 130437804.45705      3436.885 5        32.455                                                                    24435409.211 5 101451593.45405      2673.124 5        31.555
C39        38.000                                                                                                                                    38998502.902 5 203075535.01005      -711.602 5        34.557                                                                    38998496.576 5 165015397.99905      -578.340 5        32.677
C06        41.000                                                                                                                                    38608512.368 5                      -136.894 5        30.875    38608504.788 6 155460575.38106      -105.972 6        38.745    38608503.911 5 163365196.37305      -111.575 5        35.829
C29        43.000                                                                                                                                    22110288.123 7 115133967.22107     -1978.239 7        46.006                                                                    22110286.320 7  93555892.39407     -1607.691 7        47.902
C16        45.000                                                                                                                                    38999209.004 5 203079199.84705      -262.435 5        33.940    38999208.658 5 157033691.18905      -202.892 5        34.414    38999209.766 5                      -213.287 5        33.060
C09        46.000                                                                                                                                    39305176.382 5 204672387.31405       307.629 5        33.928    39305179.243 5 158265670.47605       237.495 5        32.395    39305174.382 5 166313060.49505       249.555 5        34.619
C32        47.000                                                                                                                                    24171344.712 6 125866529.53306     -3392.197 6        40.215                                                                    24171344.203 7 102276898.48607     -2756.629 7        47.039
C35        51.000                                                                                                                                    24087466.777 7 125429965.98507      1427.904 7        45.249                                                                    24087465.864 7 101921979.16407      1160.171 7        46.652
I09        54.000    37241003.693 6 146141698.63706      -682.049 6        38.390
C20        55.000                                                                                                                                    21880793.297 8 113939024.76508      -662.492 8        50.536                                                                    21880787.142 7  92584869.46307      -538.549 7        47.418
I01        56.000   331636370.921 5 998271549.08705     -2826.086 5        33.647
C30        58.000                                                                                                                                    25073554.691 4 130564549.38104     -4211.706 4        28.882                                                                    25073550.922 6 106094433.45206     -3422.401 6        39.513
> 2025 01 01 01 00 25.0000000  0 38
E19         1.000                                                                                                                                                                                                    27522133.794 3                     -2808.476 3        20.238
G32         2.000                                                                                                                                                                    24764634.514 3                     -3221.254 3        23.981
G21         3.000    22394938.132 6 117686182.48206     -3275.487 6        40.796                                    22394934.144 3  91703455.34503     -2552.331 3        19.761
G31         4.000    23096863.947 6 121374819.55106      1399.374 6        37.217                                    23096855.137 2  94577764.14602      1090.428 2        15.905    23096856.465 4  94577784.10804      1090.852 4        26.719
G02         5.000    21180600.084 7 111304813.50707     -2208.404 7        46.170                                    21180593.115 6  86730967.37206     -1720.830 6        37.278
E34         6.000    28028821.310 5                      1973.730 5        30.506                                                                    28028820.225 5 109991097.97705      1473.691 5        32.569    28028809.628 5 112860393.32805      1512.357 5        34.438
E04         7.000    23948223.608 6 125848853.95406     -1492.947 6        41.740                                                                    23948222.265 7  93977961.33407     -1114.889 7        45.717    23948222.343 7  96429560.21907     -1143.997 7        42.921
G03         8.000    20163911.380 6 105962066.63306       -75.762 6        37.561                                    20163911.996 4  82567878.73504       -59.048 4        29.848    20163910.608 6  82567868.74606       -58.912 6        37.308
G04        11.000    22309441.776 6 117236899.29006      2356.707 6        38.123                                    22309446.610 2  91353453.78912      1836.430 2        16.075    22309444.366 6  91353422.73206      1836.440 6        40.830
E09        12.000    24601104.733 8 129279765.57008      1233.123 8        48.348                                                                    24601103.772 8  96540075.85608       920.856 8        49.589    24601102.296 7  99058489.67207       944.823 7        46.527
E10        13.000    25672257.067 6 134908635.03706     -3124.472 6        37.894                                                                    25672255.864 6 100743451.06106     -2333.365 6        38.787    25672270.098 6 103371525.56706     -2394.333 6        37.762
E06        14.000    23653011.259 7 124297476.34207        22.234 7        46.195                                                                    23653009.988 7  92819506.34807        16.607 7        46.485    23653010.234 7  95240887.12507        17.001 7        47.809
E11        15.000    23789453.557 6 125014496.18006     -2028.257 6        40.119                                                                    23789448.451 6  93354907.55606     -1514.524 6        37.800    23789444.585 5  95790251.65105     -1554.310 5        32.808
G19        16.000    23299372.413 7 122439252.07307      1618.712 7        42.341                                    23299367.507 5  95407020.56505      1261.339 5        30.302
E30        17.000    28849360.646 4 151604415.70404     -1968.304 4        29.308                                                                    28849362.187 5 113211120.88905     -1469.526 5        32.539    28849362.430 5 116164451.35905     -1507.568 5        31.260
G28        18.000    23275199.900 5 122312061.19105      -332.125 5        35.229                                                                                                    23275185.695 6  95308004.98606      -258.932 6        38.447
E36        20.000    24075217.448 6 126516128.90306       569.783 6        38.811                                                                    24075219.326 7  94476321.74807       425.461 7        46.105    24075218.556 7  96940946.35807       436.612 7        47.549
G17        22.000    22360627.110 7 117505944.49207      -420.168 7        43.545                                    22360621.635 5  91562929.28605      -327.398 5        30.747    22360621.036 5  91563013.23605      -327.401 5        34.314
S23        24.000    38266184.245 6 201090120.63306      -823.407 6        40.901
S36        25.000    38315912.086 6 201351343.58006      -826.584 6        36.881
R20        27.000    19790052.950 5 105826304.01605     -2895.614 5        34.852                                                                    19790052.465 5  82309307.07105     -2251.891 5        33.395
R04        28.000    22942574.826 5 122856459.66215     -4747.909 5        34.148
R06        29.000    21037508.360 6 112260157.87006      2061.160 6        36.715
C19        33.000                                                                                                                                    24156709.379 6 125790357.62606      1695.096 6        38.937                                                                    24156705.180 7 102214917.31307      1377.490 7        43.327
R21        34.000    20079441.310 8 107449211.80808      1387.189 8        52.975                                                                    20079438.069 7  83571705.67007      1078.928 7        46.367
R05        36.000    19567760.417 6 104600992.43806     -2481.895 6        41.316                                                                    19567756.313 6  81356224.74706     -1930.426 6        41.256
R22        37.000    24432168.963 4 130420620.97704      3436.615 4        28.986                                                                    24432186.715 5 101438228.54705      2672.844 5        30.415
C39        38.000                                                                                                                                    38999186.908 5 203079094.74705      -712.685 5        34.833                                                                    38999179.734 5 165018290.57305      -578.748 5        32.347
C06        41.000                                                                                                                                    38608646.887 5                      -138.095 5        31.185    38608636.716 6 155461107.63306      -106.971 6        38.679    38608636.168 5 163365755.69805      -112.440 5        35.510
C29        43.000                                                                                                                                    22112189.535 7 115143865.58607     -1981.158 7        45.911                                                                    22112187.117 8  93563935.64008     -1609.754 8        48.022
C16        45.000                                                                                                                                    38999461.580 5 203080514.67005      -263.748 5        34.457    38999461.260 5 157034707.89705      -203.899 5        34.990    38999462.199 5                      -213.948 5        32.719
C09        46.000                                                                                                                                    39304881.999 5 204670852.91105       306.475 5        33.713    39304883.886 5 158264483.97405       236.839 5        31.351    39304879.667 5 166311813.68605       248.948 5        35.276
C32        47.000                                                                                                                                    24174602.346 6 125883492.91206     -3393.110 6        40.851                                                                    24174602.017 7 102290682.64507     -2757.145 7        47.256
C35        51.000                                                                                                                                    24086096.494 7 125422831.30007      1425.858 7        45.037                                                                    24086095.730 7 101916181.67207      1158.679 7        46.549
I09        54.000    37241872.848 6 146145109.83806      -682.379 6        38.204
C20        55.000                                                                                                                                    21881430.273 8 113942342.67508      -664.722 8        50.949                                                                    21881424.341 7  92587565.55807      -540.091 7        47.427
I01        56.000   331639970.662 5 998285679.91905     -2826.328 5        33.575
C30        58.000                                                                                                                                    25077598.053 5 130585608.37605     -4212.030 5        30.309                                                                    25077595.099 6 106111545.65506     -3422.721 6        39.553
> 2025 01 01 01 00 30.0000000  0 38
E19         1.000                                                                                                                                                                                                    27525622.156 3                     -2808.328 3        20.595
G32         2.000                                                                                                                                                                    24768570.678 4                     -3221.227 4        25.338
G21         3.000    22398055.414 6 117702563.34406     -3277.060 6        39.664                                    22398051.003 3  91716219.65703     -2553.535 3        18.776
G31         4.000    23095534.968 6 121367828.38206      1396.802 6        37.505                                    23095524.440 2  94572316.49902      1088.410 2        17.283    23095525.949 4  94572336.52204      1088.087 4        27.509
G02         5.000    21182702.105 7 111315860.51107     -2210.767 7        45.595                                    21182695.457 6  86739575.41906     -1722.675 6        37.149
E34         6.000    28026939.066 5                      1974.123 5        31.789                                                                    28026941.725 5 109983728.01205      1473.838 5        32.581    28026931.499 5 112852831.10605      1512.499 5        34.114
E04         7.000    23949645.186 6 125856323.28006     -1495.117 6        41.464                                                                    23949643.863 7  93983539.07507     -1116.477 7        45.749    23949643.679 7  96435283.46607     -1145.547 7        43.001
G03         8.000    20163984.806 6 105962449.74806       -77.644 6        39.180                                    20163983.582 5  82568177.27405       -60.501 5        31.275    20163983.233 6  82568167.29806       -60.484 6        37.248
G04        11.000    22307200.158 6 117225118.95206      2355.154 6        39.390                                    22307204.485 3  91344274.28403      1835.177 3        18.030    22307202.421 6  91344243.25906      1835.100 6        41.182
E09        12.000    24599932.419 8 129273603.61308      1231.290 8        48.830                                                                    24599931.094 8  96535474.39608       919.493 8        49.100    24599929.789 7  99053768.17707       943.453 7        46.570
E10        13.000    25675230.150 6 134924260.07706     -3125.871 6        37.970                                                                    25675229.287 6 100755119.09706     -2334.217 6        38.426    25675241.564 6 103383497.97306     -2394.961 6        38.228
E06        14.000    23652990.894 7 124297369.86707        19.997 7        46.246                                                                    23652989.524 7  92819426.85307        14.914 7        46.398    23652989.918 7  95240805.54407        15.318 7        47.664
E11        15.000    23791383.674 6 125024640.38306     -2029.830 6        40.727                                                                    23791379.067 6  93362482.75906     -1515.575 6        38.132    23791374.044 5  95798024.43805     -1555.120 5        31.947
G19        16.000    23297833.404 7 122431165.28907      1615.915 7        42.193                                    23297828.554 5  95400719.17205      1259.157 5        30.460
E30        17.000    28851233.805 4 151614257.90104     -1969.855 4        28.654                                                                    28851235.277 5 113218470.64205     -1471.245 5        31.525    28851234.987 5 116171992.84805     -1509.330 5        30.136
G28        18.000    23275513.955 6 122313730.27006      -335.690 6        36.053                                    23275509.385 2  95309319.59112      -261.541 2        12.909    23275504.007 6  95309305.60006      -261.695 6        38.877
E36        20.000    24074674.477 6 126513282.57706       568.554 6        36.556                                                                    24074677.961 7  94474196.24707       424.523 7        46.438    24074676.930 7  96938765.42207       435.502 7        47.690
G17        22.000    22361026.753 6 117508052.67506      -423.303 6        41.437                                    22361022.694 4  91564571.99004      -329.842 4        29.033    22361021.715 5  91564655.97605      -329.874 5        33.605
S23        24.000    38266969.309 6 201094237.34706      -823.536 6        40.856
S36        25.000    38316695.689 6 201355475.87006      -827.066 6        36.752
R20        27.000    19792761.676 5 105840789.98905     -2899.122 5        35.552                                                                    19792761.136 5  82320573.96705     -2254.997 5        33.473
R04        28.000    22947003.215 5 122880200.33205     -4748.381 5        33.491
R06        29.000    21035576.444 6 112249858.51006      2058.456 6        36.798
C19        33.000                                                                                                                                    24155082.920 6 125781884.95706      1693.779 6        37.887                                                                    24155078.212 7 102208032.56507      1376.365 7        43.585
R21        34.000    20078146.792 8 107442283.41508      1383.768 8        52.768                                                                    20078143.487 7  83566316.91607      1076.279 7        45.859
R05        36.000    19570083.245 6 104613408.31006     -2484.798 6        41.692                                                                    19570080.183 6  81365881.54606     -1932.622 6        41.569
R22        37.000    24428946.954 3                      3436.421 3        19.851                                                                    24428967.433 5 101424863.93805      2672.784 5        30.875
C39        38.000                                                                                                                                    38999871.037 5 203082659.12905      -713.414 5        35.157                                                                    38999864.113 5 165021186.97605      -580.147 5        32.545
C06        41.000                                                                                                                                    38608782.695 5                      -138.988 5        32.066    38608769.503 6 155461643.41506      -107.763 6        38.444    38608769.456 5 163366318.73905      -113.307 5        35.405
C29        43.000                                                                                                                                    22114092.490 7 115153777.01307     -1983.825 7        45.181                                                                    22114090.325 7  93571989.50307     -1612.013 7        47.908
C16        45.000                                                                                                                                    38999715.071 5 203081833.95605      -264.512 5        35.633    38999714.580 5 157035728.07305      -204.696 5        34.690    38999715.055 5                      -214.784 5        32.970
C09        46.000                                                                                                                                    39304587.841 5 204669322.34605       305.477 5        33.653    39304588.432 5 158263300.42005       236.613 5        30.483    39304585.701 5 166310569.97105       248.324 5        34.819
C32        47.000                                                                                                                                    24177861.203 7 125900460.05307     -3393.997 7        42.233                                                                    24177860.506 7 102304469.83707     -2757.906 7        47.449
C35        51.000                                                                                                                                    24084728.570 7 125415706.02907      1423.990 7        45.667                                                                    24084727.292 7 101910391.82207      1157.044 7        46.372
I09        54.000    37242742.977 6 146148521.79306      -682.628 6        38.066
C20        55.000                                                                                                                                    21882068.897 8 113945670.46108      -666.742 8        51.452                                                                    21882063.462 7  92590269.67107      -541.766 7        47.421
I01        56.000   331643572.385 5 998299811.37205     -2826.526 5        33.952
C30        58.000                                                                                                                                    25081642.614 5 130606670.74205     -4213.142 5        31.343                                                                    25081639.728 6 106128660.52806     -3423.195 6        39.628
> 2025 01 01 01 00 35.0000000  0 38
E19         1.000                                                                                                                                                                                                    27529112.110 3                     -2807.637 3        20.738
G32         2.000    24772486.582 5                     -4134.597 5        31.894                                                                                                    24772499.240 4                     -3221.587 4        25.218
G21         3.000    22401174.162 6 117718950.94406     -3278.336 6        38.270                                    22401169.576 3  91728989.21403     -2554.544 3        18.239
G31         4.000    23094207.815 6 121360849.10406      1394.705 6        37.856                                    23094196.171 3  94566878.09603      1086.783 3        18.060    23094198.205 4  94566898.10804      1086.151 4        29.336
G02         5.000    21184806.585 7 111326918.36007     -2212.811 7        45.374                                    21184799.808 6  86748191.92306     -1724.265 6        37.062
E34         6.000    28025059.102 5                      1973.925 5        33.389                                                                    28025062.075 5 109976357.58805      1474.362 5        31.608    28025052.613 5 112845268.47605      1512.685 5        33.192
E04         7.000    23951068.472 6 125863802.56306     -1496.974 6        40.951                                                                    23951067.267 7  93989124.25307     -1117.851 7        46.137    23951066.728 7  96441014.34107     -1146.974 7        43.397
G03         8.000    20164059.120 6 105962842.51406       -79.697 6        41.337                                    20164057.292 5  82568483.32105       -62.101 5        32.018    20164057.681 6  82568473.34706       -62.119 6        36.336
G04        11.000    22304961.023 6 117213346.30306      2353.610 6        40.036                                    22304963.871 3  91335100.76503      1833.983 3        19.672    22304962.359 6  91335069.74106      1833.995 6        40.970
E09        12.000    24598761.629 8 129267449.70608      1229.865 8        49.350                                                                    24598759.949 8  96530878.95708       918.427 8        48.721    24598758.846 7  99049052.86007       942.325 7        46.860
E10        13.000    25678204.332 6 134939890.30806     -3126.532 6        38.574                                                                    25678203.811 6 100766791.03506     -2334.996 6        37.754    25678212.339 6 103395474.41506     -2395.741 6        38.649
E06        14.000    23652972.755 7 124297273.60707        18.153 7        47.124                                                                    23652971.220 7  92819354.97907        13.545 7        46.478    23652971.342 7  95240731.78207        13.960 7        47.359
E11        15.000    23793315.808 6 125034792.21906     -2031.164 6        41.218                                                                    23793310.955 6  93370063.68406     -1516.751 6        38.327    23793304.892 5  95805803.16305     -1556.518 5        31.449
G19        16.000    23296297.061 7 122423091.36707      1613.445 7        42.823                                    23296292.046 5  95394427.80505      1257.234 5        30.460
E30        17.000    28853109.555 4 151624109.74304     -1971.173 4        27.389                                                                    28853109.473 5 113225827.56005     -1472.572 5        31.494    28853109.168 5 116179541.65205     -1510.629 5        30.445
G28        18.000    23275835.038 5 122315414.88705      -338.775 5        35.424                                    23275828.230 2  95310632.27402      -263.980 2        15.333    23275824.492 6  95310618.28806      -263.886 6        38.910
E36        20.000    24074133.875 5 126510442.34905       567.377 5        34.581                                                                    24074137.707 7  94472075.29007       423.672 7        46.594    24074136.390 7  96936589.13607       434.751 7        47.815
G17        22.000    22361429.043 6 117510175.59206      -426.378 6        37.894                                    22361426.419 4  91566226.18004      -332.226 4        27.305    22361426.168 5  91566310.16105      -332.294 5        33.958
S23        24.000    38267751.884 6 201098353.67806      -823.304 6        40.980
S36        25.000    38317484.563 6 201359608.05506      -826.599 6        37.055
R20        27.000    19795474.970 6 105855293.92306     -2902.645 6        36.594                                                                    19795474.844 5  82331854.76505     -2257.592 5        34.348
R04        28.000    22951431.582 5 122903942.30405     -4748.472 5        33.228
R06        29.000    21033646.669 6 112239570.41506      2056.250 6        36.023
C19        33.000                                                                                                                                    24153457.648 6 125773417.97106      1692.705 6        37.195                                                                    24153452.460 7 102201152.41107      1375.474 7        43.985
R21        34.000    20076854.857 8 107435371.34808      1380.685 8        52.319                                                                    20076852.000 7  83560940.86107      1073.911 7        45.378
R05        36.000    19572408.135 7 104625838.14907     -2487.567 7        42.167                                                                    19572405.333 6  81375549.22006     -1934.786 6        40.613
R22        37.000                                                                                                                                    24425743.791 4 101411499.34604      2672.109 4        27.868
C39        38.000                                                                                                                                    39000555.638 5 203086227.79005      -714.241 5        35.467                                                                    39000549.462 5 165024086.76605      -580.166 5        32.024
C06        41.000                                                                                                                                    38608915.131 5                      -139.910 5        31.985    38608903.557 6 155462182.40906      -108.072 6        38.156    38608903.262 5 163366885.11105      -113.702 5        35.229
C29        43.000                                                                                                                                    22115996.870 7 115163701.10207     -1986.148 7        43.608                                                                    22115996.064 7  93580053.61007     -1613.887 7        47.929
C16        45.000                                                                                                                                    38999969.699 6 203083157.41806      -265.283 6        36.284    38999968.114 5 157036751.42405      -204.983 5        34.252    38999969.196 5                      -215.587 5        32.964
C09        46.000                                                                                                                                    39304295.310 5 204667795.18005       304.915 5        33.449    39304296.528 4 158262119.54704       236.024 4        29.299    39304292.369 5 166309328.99305       248.085 5        35.014
C32        47.000                                                                                                                                    24181120.466 7 125917430.48707     -3394.498 7        43.064                                                                    24181119.570 7 102318259.69007     -2758.261 7        47.608
C35        51.000                                                                                                                                    24083362.387 7 125408589.77807      1422.230 7        46.075                                                                    24083360.673 7 101904609.25407      1155.773 7        46.306
I09        54.000    37243612.064 6 146151934.21706      -682.682 6        37.754
C20        55.000                                                                                                                                    21882709.610 8 113949007.73808      -668.509 8        51.648                                                                    21882704.383 7  92592981.45407      -543.117 7        47.426
I01        56.000   331647173.548 5 998313943.14905     -2826.346 5        34.105
C30        58.000                                                                                                                                    25085686.162 5 130627736.00905     -4213.519 5        31.585                                                                    25085685.292 6 106145777.75506     -3423.802 6        39.541
> 2025 01 01 01 00 40.0000000  0 38
E19         1.000                                                                                                                                                                                                    27532602.243 3                     -2811.333 3        19.313
G32         2.000    24776422.258 5                     -4135.156 5        32.275                                                                                                    24776432.304 4                     -3221.764 4        26.515
G21         3.000    22404294.806 6 117735345.97406     -3279.902 6        37.887                                    22404289.798 3  91741764.55803     -2555.733 3        18.358
G31         4.000    23092882.444 6 121353882.42106      1391.892 6        38.141                                    23092870.671 3  94561449.52303      1084.586 3        18.418    23092875.632 5  94561469.48505      1084.480 5        30.641
G02         5.000    21186912.964 7 111337987.75007     -2215.206 7        46.004                                    21186906.362 6  86756817.41606     -1726.135 6        37.093
E34         6.000    28023182.093 5 147262810.12615      1973.792 5        34.400                                                                    28023181.929 5 109968987.32805      1474.123 5        31.660    28023174.567 5 112837705.94405      1512.381 5        32.335
E04         7.000    23952494.178 6 125871292.49306     -1499.220 6        39.946                                                                    23952492.733 7  93994717.38607     -1119.560 7        46.508    23952491.767 7  96446753.38707     -1148.831 7        43.507
G03         8.000    20164136.436 7 105963245.63407       -81.874 7        42.603                                    20164133.046 5  82568797.43505       -63.799 5        32.126    20164133.423 5  82568787.46205       -63.971 5        34.914
G04        11.000    22302722.397 6 117201582.01506      2351.922 6        39.634                                    22302724.965 3  91325933.78503      1832.663 3        20.452    22302723.277 6  91325902.75006      1832.609 6        40.694
E09        12.000    24597592.265 8 129261304.58408      1227.997 8        49.374                                                                    24597590.524 8  96526290.07008       917.082 8        48.575    24597589.494 7  99044344.26507       940.962 7        46.932
E10        13.000    25681180.207 6 134955526.48706     -3128.091 6        38.036                                                                    25681179.233 6 100778467.37906     -2335.790 6        37.565    25681185.949 6 103407455.37006     -2396.607 6        38.264
E06        14.000    23652956.685 7 124297188.26307        15.878 7        47.702                                                                    23652955.032 7  92819291.26207        11.724 7        46.777    23652954.664 7  95240666.38707        12.159 7        46.973
E11        15.000    23795249.137 6 125044952.40806     -2032.953 6        41.859                                                                    23795244.783 6  93377650.83806     -1517.993 6        38.706    23795238.504 5  95813588.23605     -1557.978 5        30.755
G19        16.000    23294763.365 7 122415030.97807      1610.608 7        43.672                                    23294758.038 5  95388146.97805      1255.020 5        30.400
E30        17.000    28854985.616 4 151633972.00104     -1973.496 4        26.611                                                                    28854985.768 5 113233192.15405     -1473.780 5        31.049    28854985.661 5 116187098.40105     -1511.851 5        30.068
G28        18.000    23276158.316 5 122317115.70605      -342.198 5        34.252                                    23276150.594 2  95311957.62402      -266.621 2        15.000    23276148.381 6  95311943.61106      -266.540 6        39.033
E36        20.000    24073594.988 5 126507608.92205       566.038 5        32.162                                                                    24073598.784 7  94469959.40907       422.507 7        46.880    24073597.198 7  96934418.06207       433.538 7        47.928
G17        22.000    22361836.576 6 117512313.88506      -429.583 6        36.548                                    22361832.939 4  91567892.34804      -334.725 4        25.609    22361833.786 5  91567976.32305      -334.270 5        34.738
S23        24.000    38268533.720 6 201102470.18806      -823.482 6        40.934
S36        25.000    38318273.635 6 201363741.31506      -827.141 6        36.794
R20        27.000    19798192.524 6 105869816.39606     -2906.580 6        36.250                                                                    19798191.551 6  82343150.00306     -2260.713 6        36.374
R04        28.000    22955856.082 5 122927686.15005     -4748.764 5        33.156
R06        29.000    21031720.299 5 112229294.29805      2053.811 5        33.329
C19        33.000                                                                                                                                    24151833.756 6 125764957.36706      1691.398 6        36.801                                                                    24151827.896 7 102194277.48107      1374.479 7        44.321
R21        34.000    20075566.663 8 107428476.34308      1377.150 8        52.665                                                                    20075564.324 7  83555578.07107      1071.128 7        45.330
R05        36.000    19574736.126 6 104638282.51806     -2490.526 6        40.729                                                                    19574733.777 6  81385228.13706     -1937.111 6        39.435
R22        37.000    24422495.364 5                      3436.285 5        30.604                                                                    24422523.856 4                      2672.629 4        27.114
C39        38.000                                                                                                                                    39001241.889 5 203089801.40105      -715.245 5        35.167                                                                    39001235.662 5 165026990.64805      -581.710 5        31.781
C06        41.000                                                                                                                                    38609046.776 5                      -140.862 5        32.006    38609038.351 6 155462725.17306      -108.966 6        37.879    38609037.961 5 163367455.47005      -114.444 5        34.976
C29        43.000                                                                                                                                    22117904.678 7 115173638.55107     -1989.026 7        42.004                                                                    22117904.343 7  93588128.60807     -1616.094 7        47.916
C16        45.000                                                                                                                                    39000224.444 6 203084485.67806      -266.285 6        36.938    39000223.058 5 157037778.54905      -205.972 5        34.071    39000224.337 5                      -216.275 5        33.006
C09        46.000                                                                                                                                    39304001.555 5 204666272.15305       303.915 5        33.263    39304003.898 4 158260941.85204       235.467 4        28.663    39304000.101 5 166308091.41605       246.980 5        35.048
C32        47.000                                                                                                                                    24184380.103 7 125934404.95207     -3395.508 7        43.623                                                                    24184379.410 7 102332052.85007     -2758.964 7        47.731
C35        51.000                                                                                                                                    24081997.684 7 125401483.24607      1420.237 7        46.222                                                                    24081995.914 7 101898834.63307      1154.168 7        46.198
I09        54.000    37244482.111 6 146155347.61206      -682.786 6        37.883
C20        55.000                                                                                                                                    21883352.430 8 113952355.20708      -670.650 8        51.858                                                                    21883347.188 7  92595701.56307      -544.851 7        47.472
I01        56.000   331650775.017 5 998328075.74905     -2826.687 5        34.476
C30        58.000                                                                                                                                    25089729.333 5 130648804.86605     -4214.052 5        31.668                                                                    25089731.094 6 106162897.91406     -3424.439 6        39.541
> 2025 01 01 01 00 45.0000000  0 38
E19         1.000                                                                                                                                                                                                    27536092.702 3                     -2812.157 3        20.833
G32         2.000    24780362.241 5                     -4136.019 5        32.293                                                                                                    24780368.848 4                     -3223.034 4        26.790
G21         3.000    22407417.175 6 117751748.93506     -3281.179 6        38.450                                    22407411.755 3  91754546.07403     -2556.787 3        18.836
G31         4.000    23091559.203 6 121346928.86306      1389.365 6        37.425                                    23091547.947 3  94556031.16503      1082.594 3        18.537    23091552.518 5  94556051.16305      1082.743 5        31.200
G02         5.000    21189021.342 7 111349069.21107     -2217.494 7        46.644                                    21189015.193 6  86765452.31406     -1727.917 6        37.217
E34         6.000    28021301.492 5 147252940.93805      1973.663 5        35.186                                                                    28021300.865 5 109961617.56005      1473.933 5        31.955    28021296.618 5 112830143.93405      1512.087 5        31.434
E04         7.000    23953922.216 6 125878793.58806     -1501.236 6        38.973                                                                    23953920.230 7  94000318.85007     -1121.040 7        46.996    23953919.092 7  96452500.97807     -1150.318 7        44.089
G03         8.000    20164214.565 7 105963659.60207       -83.829 7        43.966                                    20164210.968 5  82569120.01505       -65.315 5        31.781    20164212.501 5  82569110.01205       -65.375 5        33.006
G04        11.000    22300484.025 6 117189826.65006      2350.227 6        38.189                                    22300487.625 3  91316773.71703      1831.362 3        20.071    22300485.733 6  91316742.68906      1831.475 6        39.652
E09        12.000    24596424.279 8 129255168.76308      1226.319 8        49.106                                                                    24596422.999 8  96521708.13008       915.688 8        48.525    24596421.886 7  99039642.79707       939.636 7        47.093
E10        13.000    25684157.555 6 134971169.07606     -3129.209 6        38.096                                                                    25684156.220 6 100790148.53106     -2336.775 6        37.648    25684161.161 6 103419441.22506     -2397.312 6        38.264
E06        14.000    23652943.205 8 124297114.35408        13.717 8        48.236                                                                    23652941.083 7  92819236.07107        10.279 7        47.029    23652940.215 7  95240609.76207        10.487 7        46.553
E11        15.000    23797184.143 7 125055121.48607     -2034.603 7        42.493                                                                    23797180.121 6  93385244.63706     -1519.370 6        38.964    23797174.402 5  95821380.12005     -1558.739 5        30.589
G19        16.000    23293232.093 7 122406984.66507      1607.930 7        43.164                                    23293226.785 5  95381877.12105      1252.929 5        30.498
E30        17.000    28856862.569 4 151643845.22704     -1975.674 4        25.383                                                                    28856863.941 5 113240564.93705     -1475.016 5        31.079    28856864.393 4 116194663.57404     -1513.837 4        29.924
G28        18.000    23276486.960 5 122318833.28105      -345.151 5        31.351                                    23276476.325 2  95313296.02002      -268.970 2        14.143    23276475.158 6  95313281.97806      -268.854 6        38.835
E36        20.000    24073057.517 5 126504782.80405       564.997 5        30.000                                                                    24073061.026 7  94467848.97707       421.539 7        46.966    24073059.385 7  96932252.58907       432.591 7        47.922
G17        22.000    22362247.200 6 117514468.05506      -432.406 6        38.171                                    22362242.428 4  91569570.89904      -336.940 4        24.376    22362244.005 5  91569654.92205      -336.884 5        34.481
S23        24.000    38269317.578 6 201106587.39006      -823.466 6        40.839
S36        25.000    38319058.011 6 201367876.02406      -827.228 6        36.749
R20        27.000    19800909.720 5 105884357.98205     -2910.207 5        35.395                                                                    19800910.188 6  82354460.12606     -2263.382 6        37.365
R04        28.000    22960289.022 5 122951432.60815     -4749.356 5        33.874                                                                    22960337.659 4                     -3693.969 4        25.188
R06        29.000    21029794.617 5 112219030.74305      2051.670 5        31.283
C19        33.000                                                                                                                                    24150210.039 5 125756503.72605      1690.165 5        35.214                                                                    24150204.416 7 102187408.18407      1373.386 7        44.503
R21        34.000    20074282.032 8 107421598.87408      1373.825 8        53.134                                                                    20074279.220 7  83550228.94007      1068.533 7        45.232
R05        36.000    19577065.994 6 104650742.11506     -2493.452 6        40.563                                                                    19577065.210 6  81394918.93506     -1939.287 6        39.568
R22        37.000    24419280.115 5                      3435.983 5        32.180                                                                    24419306.927 3                      2666.847 3        20.952
C39        38.000                                                                                                                                    39001928.142 5 203093380.48105      -716.172 5        35.286                                                                    39001923.351 5 165029898.93405      -582.064 5        31.358
C06        41.000                                                                                                                                    38609181.067 5                      -141.978 5        31.872    38609173.572 6 155463272.13206      -109.861 6        37.493    38609173.958 5 163368030.24105      -115.342 5        34.500
C29        43.000                                                                                                                                    22119816.810 6 115183589.85006     -1991.516 6        41.464                                                                    22119815.323 7  93596214.87507     -1618.226 7        47.943
C16        45.000                                                                                                                                    39000481.838 6 203085819.30706      -267.153 6        37.312    39000479.030 5 157038809.79405      -206.512 5        33.407    39000480.557 5                      -217.126 5        33.006
C09        46.000                                                                                                                                    39303710.031 5 204664753.76105       303.492 5        33.329    39303711.261 4 158259767.76804       234.672 4        27.413    39303708.393 5 166306857.61705       246.395 5        35.314
C32        47.000                                                                                                                                    24187640.286 7 125951383.94107     -3396.151 7        43.790                                                                    24187640.223 7 102345849.67707     -2759.591 7        47.876
C35        51.000                                                                                                                                    24080634.484 7 125394386.97307      1418.246 7        46.167                                                                    24080633.109 7 101893068.33507      1152.510 7        46.145
I09        54.000    37245352.349 6 146158762.39006      -682.903 6        37.826
C20        55.000                                                                                                                                    21883997.542 8 113955713.35708      -672.601 8        51.798                                                                    21883992.051 7  92598430.34607      -546.481 7        47.601
I01        56.000   331654376.745 5 998342209.60205     -2826.645 5        34.595
C30        58.000                                                                                                                                    25093775.710 5 130669877.80205     -4214.972 5        32.024                                                                    25093777.910 6 106180021.40506     -3424.878 6        39.529
> 2025 01 01 01 00 50.0000000  0 38
E19         1.000                                                                                                                                                                                                    27539580.997 3                     -2810.283 3        18.836
G32         2.000    24784300.126 5                     -4136.624 5        31.389                                                                                                    24784303.290 4                     -3223.029 4        26.934
G21         3.000    22410540.287 6 117768158.87906     -3282.676 6        39.751                                    22410535.143 3  91767333.06603     -2557.927 3        19.403
G31         4.000    23090239.715 6 121339987.47906      1387.088 6        37.055                                    23090227.298 2  94550622.30502      1080.856 2        17.170    23090229.919 5  94550642.34005      1080.826 5        30.921
G02         5.000    21191132.113 7 111360161.80307     -2219.612 7        46.904                                    21191126.107 6  86774095.88706     -1729.571 6        37.153
E34         6.000    28019421.422 5 147243071.55705      1973.784 5        34.629                                                                    28019420.795 5 109954247.61205      1473.877 5        32.234    28019418.102 4 112822581.71304      1512.663 4        29.905
E04         7.000    23955351.521 6 125886304.91506     -1503.336 6        37.822                                                                    23955349.755 7  94005927.95307     -1122.585 7        47.450    23955348.378 7  96458256.39407     -1151.894 7        44.083
G03         8.000    20164296.170 7 105964083.47607       -85.741 7        44.048                                    20164290.559 5  82569450.31505       -66.813 5        30.709    20164292.856 4  82569440.29904       -67.078 4        29.479
G04        11.000    22298247.234 6 117178079.23306      2348.616 6        36.170                                    22298251.568 3  91307619.87303      1830.088 3        18.448    22298249.430 6  91307588.83306      1830.169 6        38.462
E09        12.000    24595257.742 8 129249041.28908      1224.670 8        48.266                                                                    24595257.037 8  96517132.41708       914.566 8        48.463    24595255.925 7  99034947.72307       938.429 7        46.856
E10        13.000    25687135.203 6 134986817.13606     -3130.066 6        37.452                                                                    25687134.125 6 100801833.76806     -2337.444 6        37.841    25687137.576 6 103431431.32906     -2398.391 6        37.569
E06        14.000    23652931.221 7 124297050.92107        11.659 7        47.883                                                                    23652929.185 7  92819188.71607         8.737 7        47.310    23652927.822 7  95240561.15607         8.986 7        45.857
E11        15.000    23799120.817 7 125065298.49207     -2036.048 7        43.139                                                                    23799116.663 6  93392844.33906     -1520.436 6        39.171    23799111.857 5  95829178.11505     -1560.750 5        30.777
G19        16.000    23291703.314 7 122398951.53907      1605.374 7        42.790                                    23291698.116 5  95375617.54605      1250.941 5        30.332
E30        17.000    28858741.796 4 151653728.14304     -1977.654 4        25.323                                                                    28858744.293 5 113247945.16305     -1476.817 5        31.253    28858744.802 4 116202236.26704     -1515.277 4        29.564
G28        18.000                                                                                                                                                                    23276805.089 6  95314632.67806      -271.255 6        38.739
E36        20.000    24072520.185 4 126501963.06604       563.463 4        26.144                                                                    24072524.406 7  94465743.30607       420.674 7        47.084    24072522.790 7  96930091.99307       431.668 7        47.533
G17        22.000    22362659.490 6 117516637.19606      -435.318 6        39.495                                    22362654.993 4  91571261.13304      -339.202 4        24.827    22362656.014 5  91571345.16905      -339.101 5        34.852
S23        24.000    38270101.753 6 201110704.15106      -823.423 6        41.032
S36        25.000    38319846.313 6 201372011.25506      -827.079 6        36.654
R20        27.000    19803630.204 5 105898917.63305     -2913.645 5        34.729                                                                    19803632.840 6  82365784.37406     -2266.274 6        37.346
R04        28.000    22964729.145 5 122975180.58115     -4749.642 5        34.910
R06        29.000    21027874.966 4 112208778.85204      2049.261 4        29.877
C19        33.000                                                                                                                                    24148585.994 5 125748056.04805      1688.999 5        33.192                                                                    24148581.956 7 102180543.72707      1372.472 7        44.579
R21        34.000    20072999.189 8 107414738.01308      1370.555 8        52.537                                                                    20072997.568 7  83544892.70907      1066.002 7        45.862
R05        36.000    19579400.323 7 104663215.96207     -2496.146 7        42.419                                                                    19579398.766 6  81404620.82306     -1941.352 6        40.288
R22        37.000    24416065.989 5                      3436.133 5        32.461
C39        38.000                                                                                                                                    39002616.479 5 203096964.11105      -717.208 5        35.457                                                                    39002611.471 5 165032810.92205      -582.831 5        31.192
C06        41.000                                                                                                                                    38609317.058 5                      -142.890 5        32.234    38609311.019 6 155463822.49606      -110.425 6        37.006    38609310.128 5 163368608.57505      -116.039 5        34.314
C29        43.000                                                                                                                                    22121732.948 7 115193554.07907     -1994.065 7        42.154                                                                    22121728.788 7  93604311.63707     -1620.303 7        47.888
C16        45.000                                                                                                                                    39000738.702 6 203087157.32506      -267.943 6        37.928    39000735.592 5 157039844.41705      -207.150 5        32.796    39000737.367 5                      -217.748 5        33.287
C09        46.000                                                                                                                                    39303420.112 5 204663239.04805       302.981 5        34.262    39303420.203 4 158258596.53804       234.333 4        25.940    39303417.461 5 166305626.79805       246.090 5        35.300
C32        47.000                                                                                                                                    24190900.727 7 125968366.51207     -3396.785 7        43.901                                                                    24190901.575 7 102359649.40907     -2760.132 7        47.710
C35        51.000                                                                                                                                    24079273.588 7 125387299.99507      1416.536 7        46.104                                                                    24079272.144 7 101887309.58907      1151.142 7        46.050
I09        54.000    37246222.137 6 146162177.87606      -683.146 6        37.781
C20        55.000                                                                                                                                    21884644.087 8 113959081.25508      -674.550 8        51.670                                                                    21884638.783 7  92601167.04107      -548.071 7        47.672
I01        56.000   331657978.164 5 998356343.93105     -2826.723 5        34.900
C30        58.000                                                                                                                                    25097821.143 5 130690953.91105     -4215.637 5        31.789                                                                    25097825.407 6 106197147.44406     -3425.400 6        39.132
> 2025 01 01 01 00 55.0000000  0 38
E19         1.000                                                                                                                                                                                                    27543075.749 3                     -2809.390 3        20.381
G32         2.000    24788235.239 5                     -4137.809 5        30.657                                                                                                    24788244.574 4                     -3224.143 4        28.047
G21         3.000    22413663.890 6 117784576.16806     -3284.224 6        41.347                                    22413659.962 3  91780125.75703     -2559.129 3        20.214
G31         4.000    23088925.780 6 121333058.66506      1384.543 6        37.558                                    23088908.724 2  94545223.24602      1078.838 2        15.857    23088910.574 5  94545243.28205      1079.210 5        30.498
G02         5.000    21193244.905 7 111371265.88607     -2221.998 7        46.990                                    21193239.275 6  86782748.41906     -1731.423 6        37.376
E34         6.000    28017539.729 5 147233202.28605      1973.637 5        34.495                                                                    28017542.166 5 109946877.69005      1473.887 5        32.395    28017538.320 4 112815019.54904      1512.954 4        28.332
E04         7.000    23956783.174 6 125893826.81606     -1505.374 6        36.348                                                                    23956781.189 7  94011544.94407     -1124.234 7        47.828    23956779.654 7  96464019.92107     -1153.572 7        44.200
G03         8.000    20164378.316 7 105964517.61207       -87.952 7        43.230                                    20164371.929 4  82569788.61604       -68.537 4        29.469    20164375.394 4  82569778.63404       -68.800 4        26.635
G04        11.000    22296014.148 5 117166340.14005      2347.107 5        35.190                                    22296017.071 2  91298472.48602      1828.927 2        17.132    22296015.515 6  91298441.46706      1828.817 6        37.304
E09        12.000    24594093.082 7 129242922.51607      1222.881 7        47.445                                                                    24594092.664 8  96512563.21208       913.132 8        48.425    24594091.618 7  99030259.32707       936.924 7        46.778
E10        13.000    25690114.675 6 135002471.06306     -3131.535 6        36.321                                                                    25690113.739 6 100813523.35306     -2338.314 6        38.063    25690114.860 6 103443425.85206     -2399.358 6        36.427
E06        14.000    23652920.521 7 124296998.33307         9.453 7        47.149                                                                    23652919.365 7  92819149.46007         6.946 7        47.444    23652917.698 7  95240520.86207         7.281 7        45.547
E11        15.000    23801058.835 7 125075483.77207     -2037.904 7        43.259                                                                    23801054.877 6  93400450.22406     -1521.878 6        39.541    23801051.243 5  95836982.40205     -1561.591 5        30.943
G19        16.000    23290177.011 7 122390931.93407      1602.572 7        43.027                                    23290172.112 5  95369368.49705      1248.762 5        30.317
E30        17.000    28860625.332 4 151663621.37304     -1979.292 4        26.204                                                                    28860626.774 5 113255332.97105     -1478.025 5        30.468    28860627.296 4 116209816.77704     -1516.418 4        28.815
G28        18.000                                                                                                                                                                    23277138.111 6  95315995.94906      -274.151 6        38.108
E36        20.000    24071985.128 4 126499150.11804       562.664 4        25.338                                                                    24071989.071 7  94463642.66407       419.581 7        46.789    24071987.371 7  96927936.56007       430.573 7        47.266
G17        22.000    22363075.233 6 117518821.68906      -438.544 6        40.467                                    22363070.684 4  91572963.32204      -341.721 4        26.575    22363071.667 5  91573047.35105      -341.520 5        35.429
S23        24.000    38270886.750 6 201114820.86306      -823.461 6        40.982
S36        25.000    38320631.454 6 201376146.70506      -827.242 6        36.805
R20        27.000    19806356.381 5 105913495.74505     -2917.210 5        34.319                                                                    19806359.140 6  82377122.93006     -2269.229 6        37.437
R04        28.000    22969166.830 5 122998930.46205     -4750.164 5        35.200                                                                    22969213.074 3                     -3696.019 3        22.114
R06        29.000    21025956.227 5 112198538.67605      2047.267 5        32.192
C19        33.000                                                                                                                                    24146961.208 5 125739614.65005      1687.804 5        30.989                                                                    24146960.750 7 102173684.41907      1371.383 7        44.638
R21        34.000    20071718.705 8 107407894.19608      1367.050 8        51.818                                                                    20071718.680 7  83539569.74707      1063.289 7        46.024
R05        36.000    19581738.606 7 104675704.14407     -2499.163 7        42.815                                                                    19581734.930 6  81414333.85406     -1943.790 6        40.484
R22        37.000    24412847.972 5                      3435.856 5        31.608
C39        38.000                                                                                                                                    39003306.602 5 203100552.55105      -718.182 5        34.819                                                                    39003300.673 5 165035726.87505      -583.524 5        31.600
C06        41.000                                                                                                                                    38609453.666 5                      -143.663 5        31.864    38609448.325 6 155464376.54406      -111.041 6        36.616    38609447.492 5 163369190.80305      -116.465 5        33.964
C29        43.000                                                                                                                                    22123650.293 7 115203531.56807     -1996.831 7        42.957                                                                    22123644.914 8  93612419.19108     -1622.553 8        48.129
C16        45.000                                                                                                                                    39000997.416 6 203088500.09606      -268.977 6        38.081    39000993.252 5 157040882.72405      -208.122 5        32.305    39000995.326 5                      -218.537 5        33.461
C09        46.000                                                                                                                                    39303130.948 5 204661728.46305       301.596 5        34.576    39303128.756 4 158257428.51904       232.675 4        26.275    39303127.515 5 166304399.31905       244.981 5        35.776
C32        47.000                                                                                                                                    24194162.075 7 125985352.99407     -3397.698 7        43.954                                                                    24194163.634 7 102373452.33007     -2760.788 7        47.646
C35        51.000                                                                                                                                    24077914.723 7 125380222.70907      1414.466 7        45.854                                                                    24077913.021 7 101881558.73207      1149.467 7        46.073
I09        54.000    37247092.427 6 146165594.25906      -683.447 6        37.580
C20        55.000                                                                                                                                    21885292.655 8 113962459.25408      -676.686 8        51.308                                                                    21885287.497 7  92603911.94807      -549.764 7        47.831
I01        56.000   331661580.048 5 998370479.10405     -2827.267 5        35.090
C30        58.000                                                                                                                                    25101868.813 5 130712033.47105     -4216.057 5        31.396                                                                    25101873.431 6 106214276.32706     -3426.111 6        39.069
> 2025 01 01 01 01  0.0000000  0 37
G32         2.000    24792171.613 5                     -4138.270 5        30.521                                                                                                    24792179.629 4                     -3224.977 4        27.713
G21         3.000    22416789.236 7 117801000.70107     -3285.873 7        42.518                                    22416785.908 3  91792924.10103     -2560.444 3        20.595
G31         4.000    23087614.823 6 121326142.33206      1381.840 6        37.433                                    23087592.564 2  94539833.94102      1076.746 2        13.879    23087594.293 5  94539853.96505      1076.740 5        30.800
G02         5.000    21195359.878 7 111382381.35307     -2224.342 7        47.014                                    21195354.594 6  86791409.81706     -1733.251 6        37.720
E34         6.000    28015660.629 5 147223333.03705      1973.605 5        35.481                                                                    28015663.839 5 109939507.78505      1473.899 5        32.575    28015659.760 4 112807457.39204      1512.463 4        27.808
E04         7.000    23958216.687 6 125901359.14006     -1507.693 6        36.843                                                                    23958214.607 8  94017169.73808     -1125.755 8        48.020    23958212.838 7  96469791.44307     -1155.201 7        44.536
G03         8.000    20164463.087 7 105964961.91607       -90.068 7        42.656                                    20164455.410 4  82570134.86104       -70.182 4        28.095    20164458.566 4  82570124.90004       -70.645 4        26.251
G04        11.000    22293784.432 5 117154609.27805      2345.201 5        35.505                                    22293784.336 2  91289331.51702      1827.438 2        15.571    22293783.113 5  91289300.53405      1827.377 5        35.895
E09        12.000    24592930.633 7 129236812.35707      1221.021 7        46.513                                                                    24592929.954 8  96508000.43208       911.832 8        48.355    24592928.912 7  99025577.51507       935.612 7        47.099
E10        13.000    25693098.615 5 135018130.69805     -3132.695 5        34.795                                                                    25693094.124 6 100825217.21306     -2339.442 6        38.453    25693093.230 6 103455424.76606     -2400.488 6        36.450
E06        14.000    23652911.623 7 124296956.49407         7.158 7        46.093                                                                    23652911.531 7  92819118.20807         5.357 7        47.499    23652909.654 7  95240488.80507         5.446 7        45.464
E11        15.000    23802998.585 7 125085677.23507     -2039.703 7        43.147                                                                    23802994.619 6  93408062.21306     -1523.050 6        39.411    23802991.790 5  95844792.94805     -1563.012 5        32.036
G19        16.000    23288653.904 7 122382925.74007      1599.783 7        43.452                                    23288648.639 5  95363129.90605      1246.586 5        30.008
E30        17.000    28862510.403 4 151673524.87204     -1982.245 4        28.114                                                                    28862511.398 5 113262728.39405     -1479.615 5        30.264    28862511.770 4 116217405.16704     -1518.711 4        29.043
G28        18.000                                                                                                                                                                    23277473.177 6  95317371.71506      -276.518 6        37.070
E36        20.000    24071453.529 4 126496343.72104       560.188 4        29.687                                                                    24071454.892 7  94461546.96907       418.562 7        46.475    24071453.322 7  96925786.20307       429.478 7        47.494
G17        22.000    22363493.604 6 117521021.39806      -441.651 6        40.319                                    22363489.666 4  91574677.37004      -344.142 4        28.370    22363490.735 6  91574761.41006      -344.094 6        36.696
S23        24.000    38271668.886 6 201118937.75206      -823.600 6        40.851
S36        25.000    38321418.603 6 201380281.66006      -827.066 6        36.518
R20        27.000    19809086.011 5 105928092.37705     -2921.281 5        34.157                                                                    19809089.965 6  82388475.87106     -2272.154 6        39.348
R04        28.000    22973600.097 5                     -4750.873 5        34.543                                                                    22973645.699 3                     -3694.737 3        22.724
R06        29.000    21024041.696 5 112188310.48205      2044.351 5        33.198
C19        33.000                                                                                                                                    24145341.327 5 125731179.45605      1686.089 5        31.728                                                                    24145340.592 7 102166830.16107      1370.215 7        44.509
R21        34.000    20070442.037 8 107401067.18408      1363.520 8        50.797                                                                    20070442.697 7  83534259.84507      1060.589 7        45.613
R05        36.000    19584077.064 6 104688206.77706     -2502.171 6        41.237                                                                    19584074.159 6  81424058.11006     -1946.207 6        39.616
R22        37.000    24409627.353 5                      3435.658 5        30.309
C39        38.000                                                                                                                                    39003998.144 5 203104145.83905      -719.372 5        34.733                                                                    39003990.636 5 165038646.68005      -584.578 5        31.140
C06        41.000                                                                                                                                    38609592.577 5                      -144.812 5        31.706    38609586.668 6 155464934.23406      -112.032 6        36.200    38609585.955 5 163369776.83405      -117.718 5        33.497
C29        43.000                                                                                                                                    22125567.776 7 115213522.21807     -1999.575 7        43.699                                                                    22125563.648 8  93620537.41408     -1624.804 8        48.275
C16        45.000                                                                                                                                    39001256.574 6 203089847.53706      -270.265 6        38.360    39001252.604 5 157041924.66705      -209.190 5        32.156    39001253.732 5                      -219.451 5        33.329
C09        46.000                                                                                                                                    39302842.617 5 204660221.78605       300.770 5        35.252    39302840.475 4 158256263.41804       232.829 4        26.335    39302838.220 5 166303175.00505       244.740 5        35.881
C32        47.000                                                                                                                                    24197424.550 7 126002343.29007     -3398.573 7        43.924                                                                    24197426.204 7 102387258.32807     -2761.636 7        47.240
C35        51.000                                                                                                                                    24076558.113 7 125373155.00507      1412.463 7        46.026                                                                    24076555.788 7 101875815.63007      1147.758 7        45.994
I09        54.000    37247963.252 6 146169011.50906      -683.654 6        37.539
C20        55.000                                                                                                                                    21885943.315 8 113965847.23508      -678.709 8        50.794                                                                    21885938.185 7  92606664.95007      -551.555 7        47.959
I01        56.000   331665182.460 5 998384614.95105     -2827.584 5        35.224
C30        58.000                                                                                                                                    25105916.377 5 130733116.44105     -4217.318 5        31.623                                                                    25105921.917 6 106231407.92406     -3426.743 6        38.745
> 2025 01 01 01 01  5.0000000  0 38
E19         1.000                                                                                                                                                                                                    27550058.737 3                     -2809.349 3        20.357
G32         2.000    24796110.589 4                     -4138.848 4        29.526                                                                                                    24796116.226 4                     -3224.934 4        27.665
G21         3.000    22419915.552 7 117817432.71807     -3287.199 7        43.143                                    22419913.093 3  91805728.28403     -2561.441 3        21.714
G31         4.000    23086303.237 6 121319238.80206      1379.326 6        36.306                                    23086278.605 2  94534454.62502      1074.805 2        13.455    23086280.857 5  94534474.63605      1074.354 5        30.596
G02         5.000    21197477.338 7 111393508.50307     -2226.669 7        47.274                                    21197472.153 6  86800080.31606     -1735.062 6        37.943
E34         6.000    28013784.543 6 147213464.07006      1973.659 6        36.586                                                                    28013785.620 5 109932138.07705      1473.926 5        32.174    28013779.585 4 112799895.50004      1512.033 4        25.789
E04         7.000    23959652.176 6 125908902.23206     -1509.881 6        38.417                                                                    23959649.929 8  94022802.56508     -1127.421 8        48.273    23959648.060 7  96475571.20207     -1156.751 7        44.545
G03         8.000    20164550.264 7 105965416.69007       -92.023 7        42.002                                    20164540.938 4  82570489.25704       -71.721 4        26.395    20164547.734 4  82570479.16604       -71.076 4        27.509
G04        11.000    22291553.960 5 117142886.96105      2343.755 5        35.933                                    22291553.090 2  91280197.21902      1826.308 2        14.905    22291552.975 5  91280166.26305      1826.078 5        33.826
E09        12.000    24591769.980 7 129230711.11507      1219.274 7        46.301                                                                    24591768.908 8  96503444.31308       910.535 8        48.530    24591767.977 7  99020902.54707       934.283 7        47.077
E10        13.000    25696083.516 5 135033796.38305     -3133.642 5        34.267                                                                    25696075.832 6 100836915.56606     -2340.328 6        39.042    25696072.292 5 103467428.29605     -2401.048 5        35.090
E06        14.000    23652905.644 7 124296925.68907         5.050 7        45.332                                                                    23652905.758 7  92819095.20807         3.748 7        47.625    23652903.908 7  95240465.20507         3.768 7        45.285
E11        15.000    23804939.891 7 125095879.14907     -2041.440 7        42.861                                                                    23804935.981 6  93415680.53606     -1524.552 6        39.706    23804933.126 5  95852609.98605     -1563.900 5        32.874
G19        16.000    23287132.871 7 122374933.26607      1597.054 7        43.244                                    23287127.831 4  95356902.00004      1244.453 4        29.716
E30        17.000    28864398.081 4 151683438.72804     -1983.776 4        29.156                                                                    28864398.537 5 113270131.61305     -1481.237 5        30.430    28864398.146 4 116225001.46904     -1520.696 4        28.673
G28        18.000    23277885.397 4 122325864.29004      -358.475 4        28.900                                    23277842.075 1  95318774.26401      -279.455 1         1.556    23277812.156 5  95318760.26405      -279.211 5        35.981
E36        20.000    24070922.595 5 126493544.18405       559.453 5        32.677                                                                    24070922.123 7  94459456.47207       417.535 7        46.306    24070920.511 7  96923641.16807       428.447 7        47.238
G17        22.000    22363915.711 6 117523236.62406      -444.676 6        39.619                                    22363911.966 5  91576403.50605      -346.501 5        30.158    22363913.809 6  91576487.54006      -346.523 6        37.588
S23        24.000    38272453.209 6 201123055.00606      -823.567 6        40.927
S36        25.000    38322204.110 6 201384416.83106      -827.100 6        36.911
R20        27.000    19811818.692 5 105942707.79005     -2925.006 5        34.686                                                                    19811822.978 6  82399843.41806     -2275.045 6        40.386
R04        28.000    22978026.140 5 123046435.47515     -4750.854 5        32.790
R06        29.000    21022126.965 5 112178094.40705      2041.892 5        33.982
C19        33.000                                                                                                                                    24143725.189 5 125722750.85305      1685.035 5        33.485                                                                    24143721.543 7 102159981.24107      1369.227 7        44.315
R21        34.000    20069169.947 8 107394257.51208      1360.179 8        50.604                                                                    20069169.663 7  83528963.44007      1057.905 7        45.637
R05        36.000    19586414.094 6 104700724.12906     -2504.926 6        40.431                                                                    19586414.382 6  81433793.84806     -1948.431 6        37.391
R22        37.000    24406404.583 4                      3435.545 4        28.379                                                                    24406425.757 3                      2670.423 3        22.419
C39        38.000                                                                                                                                    39004689.479 5 203107744.14805      -720.181 5        34.581                                                                    39004682.122 5 165041570.65105      -584.821 5        30.989
C06        41.000                                                                                                                                    38609731.265 5                      -145.665 5        32.359    38609725.272 5 155465495.79605      -112.585 5        35.519    38609725.047 5 163370366.96705      -118.359 5        33.377
C29        43.000                                                                                                                                    22127488.322 7 115223526.34607     -2002.244 7        45.019                                                                    22127484.883 8  93628666.61608     -1626.988 8        48.341
C16        45.000                                                                                                                                    39001516.171 6 203091199.90606      -271.100 6        38.679    39001511.683 5 157042970.39505      -209.856 5        31.366    39001513.242 5                      -220.210 5        33.192
C09        46.000                                                                                                                                    39302553.774 5 204658719.33605       300.083 5        35.848    39302551.626 4 158255101.69704       231.492 4        26.802    39302549.648 5 166301954.17305       243.888 5        35.900
C32        47.000                                                                                                                                    24200687.818 7 126019337.68407     -3399.423 7        44.134                                                                    24200689.623 7 102401067.67907     -2762.151 7        46.625
C35        51.000                                                                                                                                    24075202.995 7 125366097.19307      1410.509 7        46.206                                                                    24075200.523 7 101870080.60707      1146.201 7        45.833
I09        54.000    37248834.449 6 146172429.84706      -684.045 6        37.187
C20        55.000                                                                                                                                    21886596.095 8 113969245.51408      -680.728 8        50.624                                                                    21886590.859 8  92609426.34208      -553.143 8        48.105
I01        56.000   331668785.128 5 998398751.71505     -2827.493 5        35.590
C30        58.000                                                                                                                                    25109964.230 5 130754203.03505     -4217.431 5        30.717                                                                    25109971.458 6 106248542.54206     -3427.161 6        38.201
> 2025 01 01 01 01 10.0000000  0 38
E19         1.000                                                                                                                                                                                                    27553553.055 3                     -2813.877 3        19.612
G32         2.000    24800050.585 4                     -4139.956 4        28.379                                                                                                    24800058.324 4                     -3225.942 4        27.629
G21         3.000    22423043.866 7 117833872.10407     -3288.623 7        43.683                                    22423041.722 3  91818538.18203     -2562.566 3        22.533
G31         4.000    23084989.214 5 121312347.97905      1376.735 5        33.222                                    23084967.440 2  94529085.20302      1072.745 2        12.000    23084967.572 4  94529105.19504      1073.029 4        29.621
G02         5.000    21199597.246 7 111404647.22707     -2228.866 7        47.452                                    21199591.913 6  86808759.83706     -1736.782 6        38.213
E34         6.000    28011907.438 6 147203595.32306      1973.743 6        37.758                                                                    28011906.718 5 109924768.54005      1474.027 5        31.864
E04         7.000    23961089.280 6 125916455.96906     -1511.768 6        40.334                                                                    23961087.371 8  94028443.33408     -1128.885 8        48.363    23961085.357 7  96481359.11807     -1158.335 7        44.625
G03         8.000    20164639.093 7 105965881.81207       -94.031 7        42.336                                    20164629.078 4  82570851.73004       -73.283 4        25.820    20164637.195 4  82570841.69604       -73.266 4        28.711
G04        11.000    22289324.019 5 117131173.11205      2342.030 5        34.295                                    22289323.566 2  91271069.53602      1824.985 2        13.576    22289324.807 5  91271038.56605      1824.853 5        32.102
E09        12.000    24590610.562 7 129224618.69507      1217.618 7        46.411                                                                    24590609.499 8  96498894.78208       909.303 8        48.474    24590608.685 7  99016234.33307       932.977 7        47.211
E10        13.000    25699067.830 5 135049468.00705     -3135.250 5        33.216                                                                    25699058.647 6 100848618.32306     -2340.813 6        39.715    25699052.963 5 103479436.34905     -2402.077 5        35.310
E06        14.000    23652901.606 7 124296905.84307         2.871 7        44.661                                                                    23652902.082 7  92819080.38507         2.183 7        47.633    23652900.330 7  95240449.98807         2.236 7        45.428
E11        15.000    23806882.747 7 125106089.43707     -2042.823 7        42.963                                                                    23806879.218 6  93423305.09606     -1525.494 6        39.895    23806875.366 5  95860433.44605     -1565.090 5        33.754
G19        16.000    23285614.602 7 122366954.43607      1594.419 7        42.806                                    23285609.666 4  95350684.72504      1242.406 4        29.573
E30        17.000    28866286.881 4 151693362.96404     -1985.823 4        29.668                                                                    28866287.106 5 113277542.55805     -1483.148 5        30.400    28866286.728 4 116232605.71804     -1521.580 4        29.355
G28        18.000    23278214.759 4 122327662.38404      -361.474 4        28.142                                                                                                    23278154.801 5  95320161.45705      -281.474 5        35.552
E36        20.000    24070392.230 5 126490751.59305       557.982 5        34.519                                                                    24070390.648 7  94457371.07707       416.655 7        45.929    24070389.073 7  96921501.38507       427.480 7        47.127
G17        22.000    22364340.761 6 117525467.23106      -447.555 6        40.639                                    22364337.298 5  91578141.62705      -348.742 5        32.036    22364338.953 6  91578225.67106      -348.631 6        37.682
S23        24.000    38273233.726 6 201127172.54506      -823.562 6        41.025
S36        25.000    38322992.033 6 201388551.80806      -826.825 6        36.526
R20        27.000    19814557.600 5 105957341.80605     -2928.539 5        35.462                                                                    19814558.640 6  82411225.42306     -2277.759 6        40.217
R04        28.000    22982458.797 5 123070190.99005     -4751.523 5        30.792                                                                    22982520.462 4                     -3693.642 4        24.000
R06        29.000    21020213.967 5 112167890.31905      2039.680 5        34.000
C19        33.000                                                                                                                                    24142109.750 5 125714328.63305      1683.804 5        35.190                                                                    24142103.744 7 102153137.52107      1368.216 7        43.994
R21        34.000    20067901.070 8 107387464.91908      1356.843 8        50.570                                                                    20067900.784 7  83523680.31607      1055.361 7        45.950
R05        36.000    19588756.686 6 104713256.14406     -2507.813 6        39.465                                                                    19588758.665 6  81443540.96306     -1950.531 6        36.582
R22        37.000    24403183.794 3                      3433.923 3        22.609                                                                    24403199.624 4                      2671.011 4        24.075
C39        38.000                                                                                                                                    39005382.188 5 203111347.45405      -720.939 5        34.657                                                                    39005375.070 5 165044498.64205      -585.877 5        30.491
C06        41.000                                                                                                                                    38609870.417 5                      -146.676 5        32.778    38609865.449 5 155466061.11005      -113.229 5        34.957    38609865.202 5 163370961.04805      -119.139 5        33.114
C29        43.000                                                                                                                                    22129411.730 7 115233543.82107     -2004.867 7        45.952                                                                    22129408.847 8  93636806.64808     -1629.024 8        48.350
C16        45.000                                                                                                                                    39001777.181 6 203092557.11006      -271.848 6        38.994    39001772.614 5 157044019.88605      -210.582 5        30.996    39001774.144 5                      -220.941 5        33.162
C09        46.000                                                                                                                                    39302266.936 6 204657221.08006       299.392 6        36.612    39302264.865 4 158253943.09004       231.667 4        27.916    39302261.642 5 166300736.69605       243.277 5        35.719
C32        47.000                                                                                                                                    24203952.278 7 126036336.08407     -3400.114 7        44.161                                                                    24203953.764 7 102414880.27307     -2762.853 7        46.084
C35        51.000                                                                                                                                    24073849.929 7 125359049.17707      1408.652 7        46.546                                                                    24073847.022 7 101864353.52307      1144.638 7        45.726
I09        54.000    37249705.568 6 146175849.16606      -683.827 6        37.006
C20        55.000                                                                                                                                    21887250.895 8 113972653.96508      -682.696 8        50.548                                                                    21887245.453 8  92612195.98008      -554.746 8        48.128
I01        56.000   331672387.975 5 998412889.33705     -2827.585 5        35.757
C30        58.000                                                                                                                                    25114016.164 5 130775293.21605     -4218.192 5        30.136                                                                    25114021.338 6 106265680.02806     -3427.858 6        37.754
> 2025 01 01 01 01 15.0000000  0 38
E19         1.000                                                                                                                                                                                                    27557046.367 3                     -2814.645 3        19.701
G32         2.000    24803990.402 4                     -4140.857 4        26.850                                                                                                    24803994.679 4                     -3226.480 4        27.006
G21         3.000    22426173.484 7 117850318.92307     -3289.879 7        43.596                                    22426171.781 3  91831353.88803     -2563.532 3        23.276
G31         4.000    23083677.984 4 121305469.93804      1374.079 4        27.198                                    23083658.954 1  94523725.71901      1070.643 1         9.238    23083660.692 4  94523745.68804      1071.413 4        29.327
G02         5.000    21201719.326 7 111415797.60407     -2231.124 7        47.048                                    21201713.814 6  86817448.44506     -1738.538 6        38.192
E34         6.000    28010030.164 6 147193726.84406      1973.819 6        38.318                                                                    28010026.872 5 109917399.28105      1473.869 5        31.419    28010021.596 3 112784772.30603      1511.179 3        23.219
E04         7.000    23962528.337 6 125924020.42406     -1513.751 6        41.635                                                                    23962526.845 8  94034092.11208     -1130.426 8        48.552    23962524.635 7  96487155.25207     -1159.900 7        44.528
G03         8.000    20164730.035 7 105966357.37107       -96.030 7        44.421                                    20164720.192 4  82571222.35304       -74.841 4        25.850    20164729.501 5  82571212.27405       -74.184 5        31.494
G04        11.000    22287096.879 5 117119467.75105      2340.364 5        33.168                                    22287095.764 2  91261948.50302      1823.673 2        12.182    22287096.949 4  91261917.54304      1824.141 4        29.318
E09        12.000    24589452.611 7 129218535.15807      1216.015 7        46.281                                                                    24589451.815 8  96494351.88408       908.071 8        48.668    24589451.248 7  99011572.92507       931.739 7        47.347
E10        13.000    25702053.652 5 135065145.60205     -3135.904 5        32.024                                                                    25702042.571 6 100860325.56906     -2341.718 6        40.482    25702035.546 5 103491448.99005     -2402.683 5        35.067
E06        14.000    23652899.174 7 124296897.00307         0.797 7        43.579                                                                    23652900.387 7  92819073.77407         0.689 7        47.637    23652898.962 7  95240443.20607         0.686 7        45.415
E11        15.000    23808827.225 7 125116308.15807     -2044.392 7        43.107                                                                    23808823.877 6  93430935.96306     -1526.613 6        39.922    23808819.171 5  95868263.39505     -1566.549 5        34.900
G19        16.000    23284098.899 7 122358989.35207      1591.843 7        42.364                                    23284094.099 4  95344478.16204      1240.401 4        29.005
E30        17.000    28868178.453 5 151703297.58405     -1988.074 5        31.275                                                                    28868177.865 5 113284961.19405     -1484.359 5        30.951    28868176.906 4 116240217.94804     -1523.171 4        29.915
G28        18.000    23278547.984 5 122329476.72705      -363.959 5        30.385                                                                                                    23278499.417 5  95321575.35505      -283.737 5        34.119
E36        20.000    24069861.392 6 126487965.92806       556.659 6        36.405                                                                    24069860.602 7  94455290.85307       415.670 7        45.413    24069859.039 7  96919366.88907       426.569 7        46.931
G17        22.000    22364769.219 7 117527713.32207      -450.618 7        42.580                                    22364765.720 5  91579891.82905      -351.130 5        33.461    22364767.449 6  91579975.88306      -351.202 6        37.932
S23        24.000    38274018.523 6 201131290.29906      -823.425 6        41.199
S36        25.000    38323780.013 6 201392686.26906      -826.666 6        36.892
R20        27.000    19817296.702 6 105971994.36706     -2932.200 6        36.469                                                                    19817298.723 6  82422621.85606     -2280.598 6        40.949
R04        28.000    22986895.075 4 123093948.36804     -4750.908 4        28.313
R06        29.000    21018303.628 5 112157698.39605      2037.083 5        33.425
C19        33.000                                                                                                                                    24140495.162 6 125705912.93206      1682.818 6        36.858                                                                    24140487.341 7 102146299.08907      1367.318 7        43.685
R21        34.000    20066635.292 8 107380689.52808      1353.573 8        50.352                                                                    20066634.716 7  83518410.57907      1052.742 7        46.491
R05        36.000    19591103.894 6 104725802.74806     -2510.598 6        39.529                                                                    19591104.430 5  81453299.40405     -1952.698 5        34.781
R22        37.000                                                                                                                                    24399976.130 4                      2672.607 4        25.188
C39        38.000                                                                                                                                    39006076.928 5 203114955.79205      -721.999 5        34.310                                                                    39006068.525 5 165047430.70405      -586.550 5        30.460
C06        41.000                                                                                                                                    38610011.721 5                      -147.552 5        33.204    38610007.644 5 155466630.26905      -114.152 5        34.938    38610006.669 5 163371559.11805      -120.098 5        32.844
C29        43.000                                                                                                                                    22131337.427 7 115243574.72707     -2007.334 7        46.027                                                                    22131335.186 8  93644957.58708     -1631.123 8        48.550
C16        45.000                                                                                                                                    39002039.464 6 203093919.24906      -272.719 6        39.216    39002035.238 5 157045073.16005      -211.322 5        30.989    39002035.322 5                      -221.575 5        32.904
C09        46.000                                                                                                                                    39301980.802 6 204655727.00706       298.542 6        36.715    39301977.202 4 158252787.83304       230.508 4        29.223    39301974.863 5 166299522.66505       242.660 5        35.705
C32        47.000                                                                                                                                    24207217.485 7 126053338.53007     -3400.673 7        44.209                                                                    24207218.692 7 102428696.15907     -2763.361 7        45.660
C35        51.000                                                                                                                                    24072498.475 7 125352011.02307      1406.868 7        46.983                                                                    24072495.405 7 101858634.45807      1143.165 7        45.576
I09        54.000    37250577.309 6 146179269.54706      -684.202 6        37.006
C20        55.000                                                                                                                                    21887907.526 8 113976072.66608      -684.616 8        50.577                                                                    21887902.077 8  92614973.95508      -556.243 8        48.195
I01        56.000   331675990.523 5 998427027.87305     -2827.962 5        35.690
C30        58.000                                                                                                                                                                                                                                                                    25118071.795 6 106282820.43906     -3428.180 6        37.240
> 2025 01 01 01 01 20.0000000  0 37
G32         2.000    24807930.702 4                     -4141.089 4        25.639                                                                                                    24807931.970 4                     -3226.784 4        28.019
G21         3.000    22429304.352 7 117866772.04007     -3291.293 7        43.151                                    22429302.673 3  91844174.49603     -2564.643 3        23.714
G31         4.000                                                                                                                                                                    23082352.156 4  94518395.28604      1068.942 4        29.839
G02         5.000    21203843.244 7 111426958.44907     -2233.291 7        46.724                                    21203837.615 6  86826145.20306     -1740.226 6        38.132
E34         6.000    28008150.574 6 147183857.46606      1973.768 6        37.705                                                                    28008145.825 5 109910029.28405      1474.273 5        31.170    28008139.813 3                      1511.374 3        22.076
E04         7.000    23963969.104 7 125931594.44407     -1515.883 7        42.279                                                                    23963968.299 8  94039748.01608     -1131.962 8        48.632    23963965.595 7  96492958.69707     -1161.443 7        44.491
G03         8.000    20164822.775 7 105966842.18707       -98.009 7        44.897                                    20164814.204 4  82571600.17904       -76.380 4        27.389    20164824.245 5  82571590.17205       -76.461 5        33.084
G04        11.000    22284870.118 5 117107769.72905      2338.901 5        34.143                                    22284869.481 1  91252833.17101      1822.510 1        11.704    22284868.788 4  91252802.27104      1822.205 4        28.218
E09        12.000    24588295.951 7 129212459.34807      1214.289 7        45.863                                                                    24588295.655 8  96489814.75208       906.785 8        48.670    24588295.214 7  99006917.42907       930.483 7        47.741
E10        13.000    25705040.988 5 135080828.05205     -3136.761 5        30.151                                                                    25705026.834 6 100872036.41106     -2342.524 6        41.004    25705019.974 6 103503465.36006     -2403.667 6        36.038
E06        14.000    23652898.655 7 124296897.99107        -1.278 7        42.447                                                                    23652900.526 7  92819074.51407        -0.976 7        47.427    23652899.450 7  95240443.96907        -1.010 7        45.747
E11        15.000    23810773.374 7 125126534.15507     -2045.948 7        43.120                                                                    23810769.691 6  93438572.25306     -1527.651 6        40.164    23810765.083 6  95876098.89606     -1567.723 6        36.023
G19        16.000    23282585.841 7 122351036.82207      1589.152 7        42.720                                    23282580.786 4  95338281.38204      1238.303 4        28.900
E30        17.000    28870070.066 5 151713241.45105     -1989.823 5        32.126                                                                    28870070.100 5 113292386.85405     -1485.813 5        31.132    28870068.130 4 116247837.30804     -1524.359 4        29.479
G28        18.000    23278889.216 5 122331306.35205      -367.489 5        32.054                                                                                                    23278846.729 5  95323001.08905      -286.396 5        32.281
E36        20.000    24069327.347 6 126485186.01506       555.404 6        37.667                                                                    24069331.621 7  94453214.92007       414.701 7        44.877    24069330.123 7  96917236.80807       425.462 7        46.839
G17        22.000    22365200.173 7 117529973.71207      -453.557 7        43.890                                    22365196.833 5  91581653.17105      -353.422 5        34.767    22365197.192 6  91581737.22906      -353.434 6        37.486
S23        24.000    38274804.182 6 201135407.08106      -823.396 6        41.235
S36        25.000    38324565.373 6 201396819.34606      -826.569 6        36.877
R20        27.000    19820040.064 6 105986664.33906     -2935.832 6        36.938                                                                    19820043.017 6  82434031.88006     -2283.475 6        40.992
R04        28.000    22991334.997 4 123117706.74904     -4751.740 4        25.850
R06        29.000    21016395.659 5 112147517.35705      2034.936 5        33.228
C19        33.000                                                                                                                                    24138881.236 6 125697502.57406      1681.425 6        37.819                                                                    24138872.121 7 102139464.99407      1366.433 7        43.386
R21        34.000    20065372.449 8 107373930.19708      1350.167 8        50.455                                                                    20065371.018 7  83513153.32607      1050.137 7        46.404
R05        36.000    19593454.581 7 104738362.78407     -2513.386 7        42.269                                                                    19593454.183 4  81463068.23504     -1954.593 4        29.801
R22        37.000                                                                                                                                    24396753.972 4                      2671.018 4        24.857
C39        38.000                                                                                                                                    39006771.129 5 203118567.99705      -722.961 5        34.514                                                                    39006762.563 5 165050365.88005      -587.003 5        30.098
C06        41.000                                                                                                                                    38610154.021 5                      -148.481 5        33.539    38610148.537 5 155467202.33605      -114.812 5        34.757    38610148.521 5 163372160.28405      -120.476 5        33.120
C29        43.000                                                                                                                                    22133265.295 7 115253617.90107     -2009.986 7        45.956                                                                    22133263.905 8  93653118.47208     -1633.125 8        48.510
C16        45.000                                                                                                                                    39002301.638 6 203095285.11906      -273.586 6        39.336    39002296.501 4 157046129.31404      -211.575 4        29.801    39002297.015 5                      -222.331 5        33.024
C09        46.000                                                                                                                                    39301694.732 6 204654235.97906       297.950 6        37.149    39301691.578 5 158251634.85105       230.368 5        30.000    39301688.552 5 166298311.08105       242.059 5        35.738
C32        47.000                                                                                                                                    24210483.115 7 126070343.86007     -3401.475 7        44.342                                                                    24210484.188 7 102442514.38407     -2763.840 7        44.837
C35        51.000                                                                                                                                    24071148.862 7 125344981.58707      1404.883 7        47.482                                                                    24071145.438 7 101852922.46407      1141.779 7        45.475
I09        54.000    37251449.069 6 146182690.10406      -684.239 6        36.900
C20        55.000                                                                                                                                    21888565.928 8 113979500.44208      -686.554 8        50.672                                                                    21888560.343 8  92617759.30708      -557.734 8        48.321
I01        56.000   331679593.601 5 998441166.39405     -2827.626 5        35.971
C30        58.000                                                                                                                                                                                                                                                                    25122123.108 6 106299962.83906     -3428.482 6        36.817
> 2025 01 01 01 01 25.0000000  0 36
G32         2.000    24811872.361 4                     -4142.238 4        24.977                                                                                                    24811876.066 4                     -3227.137 4        27.701
G21         3.000    22432436.165 7 117883232.41307     -3292.649 7        42.125                                    22432434.870 3  91857000.75803     -2565.716 3        23.771
G31         4.000    23081091.556 4                      1369.506 4        27.389                                                                                                    23081049.241 4  94513054.75704      1067.168 4        29.441
G02         5.000    21205969.509 7 111438130.73807     -2235.385 7        46.195                                    21205963.537 6  86834850.87806     -1741.858 6        37.713
E34         6.000    28006271.821 6 147173988.16806      1974.105 6        36.847                                                                    28006267.417 5 109902659.43005      1473.955 5        30.257    28006261.087 3                      1513.499 3        22.514
E04         7.000    23965411.179 7 125939178.94407     -1517.618 7        42.229                                                                    23965411.656 8  94045411.77708     -1133.307 8        48.552    23965408.706 7  96498770.20307     -1162.878 7        44.206
G03         8.000    20164916.026 7 105967337.27107       -99.892 7        44.268                                    20164910.245 4  82571985.99104       -77.844 4        29.185    20164916.594 5  82571975.97105       -78.062 5        34.262
G04        11.000    22282647.753 6 117096080.13406      2337.380 6        38.102                                    22282644.796 1  91243724.32001      1821.268 1        11.111    22282644.573 4  91243693.44904      1821.810 4        28.038
E09        12.000    24587141.042 7 129206392.26907      1212.742 7        45.255                                                                    24587141.245 8  96485284.14308       905.632 8        48.627    24587140.850 7  99002268.63707       929.210 7        47.781
E10        13.000    25708027.065 4 135096516.38604     -3138.218 4        28.645                                                                    25708011.730 6 100883751.60506     -2343.417 6        41.154    25708005.601 6 103515486.16306     -2404.411 6        36.427
E06        14.000    23652901.083 7 124296909.82007        -3.271 7        42.021                                                                    23652902.578 7  92819083.34307        -2.471 7        47.136    23652901.949 7  95240453.03107        -2.514 7        46.036
E11        15.000    23812720.660 7 125136768.45107     -2047.479 7        42.717                                                                    23812717.082 6  93446214.75406     -1528.901 6        40.145    23812712.924 6  95883940.75706     -1568.893 6        36.862
G19        16.000    23281074.785 7 122343097.88107      1586.698 7        43.041                                    23281070.048 4  95332095.17804      1236.389 4        28.370
E30        17.000    28871964.165 5 151723195.59205     -1991.282 5        33.521                                                                    28871964.370 5 113299820.16805     -1487.103 5        31.630    28871962.206 4 116255464.51304     -1526.088 4        29.213
G28        18.000    23279231.924 5 122333152.23605      -370.655 5        31.155                                                                                                    23279197.146 5  95324439.47205      -288.733 5        30.694
E36        20.000    24068798.852 6 126482412.86806       554.193 6        38.414                                                                    24068803.851 7  94451144.04907       413.773 7        44.140    24068802.587 7  96915111.90507       424.599 7        46.625
G17        22.000    22365633.469 7 117532249.46307      -456.473 7        43.820                                    22365630.849 5  91583426.48605      -355.697 5        35.171    22365629.780 6  91583510.54306      -355.663 6        36.926
S23        24.000    38275586.918 6 201139523.80706      -823.209 6        41.116
S36        25.000    38325352.553 6 201400952.10506      -826.187 6        36.972
R20        27.000    19822787.475 6 106001352.84706     -2939.262 6        37.762                                                                    19822790.357 6  82445456.28306     -2286.195 6        41.485
R04        28.000    22995771.850 3 123141466.64103     -4750.470 3        23.886
R06        29.000    21014490.575 5 112137348.32405      2033.120 5        34.000
C19        33.000                                                                                                                                    24137267.591 6 125689098.59506      1680.340 6        37.267                                                                    24137258.344 7 102132636.08307      1365.333 7        43.103
R21        34.000    20064112.234 8 107367188.01308      1346.927 8        50.337                                                                    20064110.593 7  83507909.41607      1047.509 7        45.865
R05        36.000    19595808.458 7 104750937.26107     -2516.189 7        42.931                                                                    19595804.032 3                     -1954.976 3        18.358
C39        38.000                                                                                                                                    39007466.121 5 203122185.05305      -723.564 5        34.438                                                                    39007459.018 5 165053305.13905      -588.071 5        30.151
C06        41.000                                                                                                                                    38610297.667 5                      -149.278 5        33.748    38610291.516 5 155467778.13105      -115.372 5        34.248    38610291.592 5 163372765.36805      -121.199 5        32.928
C29        43.000                                                                                                                                    22135196.483 7 115263674.32407     -2012.445 7        46.350                                                                    22135195.250 8  93661290.16308     -1635.349 8        48.748
C16        45.000                                                                                                                                    39002564.901 6 203096655.77206      -274.438 6        39.276    39002558.529 4 157047189.19004      -212.371 4        28.825    39002560.277 5                      -223.207 5        32.862
C09        46.000                                                                                                                                    39301408.824 6 204652749.02506       297.244 6        37.531    39301407.661 5 158250485.05705       229.864 5        31.230    39301403.363 5 166297102.83305       241.126 5        35.595
C32        47.000                                                                                                                                    24213749.569 7 126087353.08107     -3402.001 7        44.227                                                                    24213750.400 7 102456335.79007     -2764.511 7        44.111
C35        51.000                                                                                                                                    24069800.969 7 125337961.88907      1403.152 7        47.498                                                                    24069797.208 7 101847218.42007      1140.150 7        45.341
I09        54.000    37252320.616 6 146186111.61306      -684.213 6        36.957
C20        55.000                                                                                                                                    21889226.297 8 113982938.29808      -688.355 8        50.510                                                                    21889220.592 8  92620552.86508      -559.471 8        48.349
I01        56.000   331683196.710 6 998455305.71806     -2828.011 6        36.060
C30        58.000                                                                                                                                    25126216.812 3 130838583.14403     -4219.677 3        23.600                                                                    25126175.050 6 106317108.06406     -3429.376 6        36.537
> 2025 01 01 01 01 30.0000000  0 37
G32         2.000    24815813.743 4                     -4141.174 4        25.203                                                                                                    24815815.503 4                     -3228.104 4        27.473
G21         3.000    22435569.819 6 117899699.98606     -3294.028 6        40.894                                    22435568.453 3  91869832.62403     -2566.772 3        23.200
G31         4.000    23079791.981 5                      1366.858 5        30.219                                                                                                    23079744.173 4  94507724.01204      1065.445 4        28.417
G02         5.000    21208097.972 7 111449314.40607     -2237.687 7        45.713                                    21208091.497 6  86843565.42406     -1743.651 6        37.346
E34         6.000    28004393.885 6 147164118.91606      1974.066 6        36.673                                                                    28004389.209 5 109895289.54605      1473.827 5        30.008    28004384.951 3                      1513.770 3        22.952
E04         7.000    23966856.647 6 125946773.92406     -1519.849 6        41.921                                                                    23966857.032 8  94051083.34008     -1135.036 8        48.722    23966853.850 7  96504589.71607     -1164.531 7        43.917
G03         8.000    20165011.070 7 105967842.50007      -101.862 7        43.733                                    20165007.964 5  82572379.69205       -79.379 5        30.770    20165012.643 5  82572369.67005       -79.252 5        34.876
G04        11.000    22280425.736 6 117084398.80306      2335.640 6        41.139                                    22280421.809 1  91234622.05501      1819.963 1        10.370    22280421.716 4  91234591.17104      1819.724 4        28.616
E09        12.000    24585987.993 7 129200333.83007      1210.939 7        44.918                                                                    24585988.342 8  96480759.98308       904.239 8        48.737    24585988.032 8  98997626.45208       927.866 8        48.055
E10        13.000    25711013.360 5 135112210.41605     -3139.170 5        30.536                                                                    25710997.507 6 100895471.06506     -2344.286 6        41.273    25710992.288 6 103527511.35706     -2405.204 6        37.448
E06        14.000    23652905.559 6 124296932.41106        -5.498 6        41.683                                                                    23652906.750 7  92819100.20107        -4.065 7        46.924    23652906.640 7  95240470.32707        -4.193 7        46.201
E11        15.000    23814669.599 7 125147010.89807     -2049.101 7        42.500                                                                    23814666.164 6  93453863.35006     -1530.347 6        40.157    23814662.043 6  95891788.87306     -1570.107 6        38.033
G19        16.000    23279566.959 7 122335172.43407      1583.904 7        43.526                                    23279561.770 4  95325919.50604      1234.210 4        28.171
E30        17.000    28873861.419 5 151733159.85605     -1993.808 5        34.738                                                                    28873860.473 5 113307261.02805     -1488.893 5        31.457    28873858.010 4 116263099.43504     -1527.281 4        29.725
G28        18.000    23279582.253 5 122335014.09205      -373.627 5        30.604                                                                                                    23279553.525 5  95325890.36205      -291.246 5        32.108
E36        20.000    24068273.837 6 126479646.35206       552.763 6        38.916                                                                    24068277.481 7  94449078.14607       412.700 7        43.511    24068276.261 7  96912992.11707       423.541 7        46.489
G17        22.000    22366069.022 7 117534540.43707      -459.611 7        42.859                                    22366067.615 5  91585211.66405      -358.138 5        35.033    22366066.642 6  91585295.74606      -358.205 6        36.578
S23        24.000    38276369.416 6 201143640.43906      -823.128 6        41.042
S36        25.000    38326136.420 6 201405084.25006      -826.018 6        36.733
R20        27.000    19825537.671 6 106016059.65706     -2942.826 6        37.301                                                                    19825540.229 6  82456894.90506     -2289.136 6        41.211
R04        28.000    23000207.381 4 123165228.45304     -4752.170 4        26.635                                                                    23000172.143 3                     -3697.009 3        22.114
R06        29.000    21012587.573 5 112127191.12005      2030.326 5        34.833
C19        33.000                                                                                                                                    24135653.832 6 125680700.84806      1679.050 6        36.367                                                                    24135645.838 7 102125812.20707      1364.374 7        43.175
R21        34.000    20062855.344 8 107360462.71608      1343.517 8        50.459                                                                    20062853.458 7  83502678.62807      1044.916 7        45.276
R05        36.000    19598163.259 7 104763526.16007     -2518.968 7        43.264
R22        37.000                                                                                                                                    24390341.607 4                      2670.760 4        24.782
C39        38.000                                                                                                                                    39008161.376 5 203125806.89805      -724.576 5        34.557                                                                    39008158.850 5 165056248.20705      -589.033 5        30.868
C06        41.000                                                                                                                                    38610441.935 5                      -150.168 5        33.952    38610435.843 5 155468357.57405      -116.405 5        34.376    38610435.354 5 163373374.24305      -122.076 5        32.665
C29        43.000                                                                                                                                    22137130.819 7 115273743.87407     -2015.085 7        47.253                                                                    22137129.094 8  93669472.48808     -1637.426 8        49.021
C16        45.000                                                                                                                                    39002829.984 6 203098031.06906      -275.335 6        39.468    39002822.315 4 157048252.64904      -212.730 4        27.593    39002823.982 5                      -223.803 5        32.958
C09        46.000                                                                                                                                    39301124.593 6 204651266.04106       296.412 6        37.928    39301122.889 5 158249338.37505       229.128 5        32.030    39301118.593 5 166295897.78305       240.721 5        35.757
C32        47.000                                                                                                                                    24217016.569 7 126104366.06307     -3402.863 7        43.973                                                                    24217017.242 7 102470160.22007     -2765.057 7        43.450
C35        51.000                                                                                                                                    24068454.962 7 125330951.80207      1401.206 7        47.389                                                                    24068450.881 7 101841522.13807      1138.579 7        45.258
I09        54.000    37253192.942 6 146189533.94506      -684.328 6        36.703
C20        55.000                                                                                                                                    21889888.444 8 113986386.13308      -690.390 8        50.511                                                                    21889882.684 8  92623354.49108      -560.994 8        48.529
I01        56.000   331686799.869 6 998469445.71206     -2828.172 6        36.076
C30        58.000                                                                                                                                    25130265.445 3                     -4221.537 3        18.836                                                                    25130227.434 6 106334255.94206     -3429.780 6        36.340
> 2025 01 01 01 01 35.0000000  0 37
G32         2.000    24819754.892 4                     -4142.952 4        26.790                                                                                                    24819757.064 4                     -3229.044 4        27.988
G21         3.000    22438705.341 6 117916175.36606     -3295.920 6        39.928                                    22438703.217 3  91882670.55303     -2568.237 3        22.248
G31         4.000    23078501.708 4                      1364.043 4        27.713                                                                                                    23078445.476 4  94502403.58704      1063.248 4        28.597
G02         5.000    21210228.911 7 111460510.05907     -2240.416 7        45.770                                    21210221.702 6  86852289.31106     -1745.778 6        36.866
E34         6.000    28002515.834 6 147154250.30806      1973.495 6        36.181                                                                    28002511.633 5 109887920.15505      1473.259 5        30.068    28002511.551 4                      1512.129 4        25.188
E04         7.000    23968304.421 6 125954379.95506     -1522.531 6        41.514                                                                    23968304.608 8  94056763.14308     -1136.776 8        48.995    23968301.036 7  96510417.69707     -1166.434 7        43.937
G03         8.000    20165109.110 7 105968358.53607      -104.459 7        42.864                                    20165107.439 5  82572781.81805       -81.399 5        31.736    20165108.878 5  82572771.75405       -81.364 5        35.319
G04        11.000    22278204.951 7 117072726.40307      2333.521 7        43.293                                    22278200.678 1  91225526.67001      1818.345 1        10.518    22278203.487 4  91225495.71904      1818.424 4        28.844
E09        12.000    24584836.948 7 129194284.64907      1208.894 7        44.694                                                                    24584837.184 8  96476242.73008       902.732 8        48.972    24584836.936 8  98992991.36508       926.265 8        48.432
E10        13.000    25713998.294 5 135127910.77305     -3141.069 5        33.587                                                                    25713984.676 6 100907195.24806     -2345.250 6        41.313    25713980.307 6 103539541.43406     -2406.635 6        38.486
E06        14.000    23652911.587 6 124296966.35206        -8.054 6        41.545                                                                    23652913.199 7  92819125.53407        -5.949 7        46.972    23652913.321 7  95240496.32807        -6.170 7        46.397
E11        15.000    23816620.276 6 125157262.15806     -2051.107 6        41.676                                                                    23816616.805 6  93461518.51806     -1531.887 6        40.324    23816613.159 6  95899643.72406     -1571.664 6        38.811
G19        16.000    23278061.476 7 122327261.09307      1580.755 7        44.239                                    23278056.050 4  95319754.82304      1231.765 4        27.737
E30        17.000    28875759.097 5 151743134.86605     -1996.271 5        35.371                                                                    28875758.923 5 113314709.89205     -1490.674 5        32.096    28875756.462 4 116270742.60904     -1529.689 4        29.877
G28        18.000                                                                                                                                                                    23279912.042 5  95327354.26805      -294.098 5        34.681
E36        20.000    24067749.583 6 126476887.12906       551.126 6        38.712                                                                    24067752.376 7  94447017.69707       411.495 7        42.965    24067751.385 7  96910877.91407       422.280 7        46.537
G17        22.000    22366507.834 7 117536847.23707      -463.041 7        43.609                                    22366507.229 5  91587009.17905      -360.816 5        34.381    22366506.828 6  91587093.25706      -360.848 6        37.157
S23        24.000    38277152.992 6 201147757.64906      -823.476 6        40.973
S36        25.000    38326922.795 6 201409217.14006      -826.835 6        36.544
R20        27.000    19828292.037 6 106030785.43706     -2947.171 6        36.560                                                                    19828294.271 6  82468348.27006     -2292.145 6        40.386
R04        28.000    23004643.914 4 123188992.63204     -4753.172 4        26.874                                                                    23004613.550 3                     -3697.061 3        22.552
R06        29.000    21010686.711 5 112117046.47605      2027.664 5        35.733
C19        33.000                                                                                                                                    24134041.359 5 125672309.97405      1677.458 5        35.657                                                                    24134034.728 7 102118993.91407      1363.115 7        43.143
R21        34.000    20061602.248 8 107353755.15608      1339.723 8        50.561                                                                    20061600.054 7  83497461.63507      1041.998 7        44.932
R05        36.000    19600521.190 7 104776129.86007     -2522.259 7        43.979                                                                    19600512.927 3                     -1961.974 3        23.352
R22        37.000                                                                                                                                    24387121.225 3                      2669.365 3        22.514
C39        38.000                                                                                                                                    39008857.714 5 203129434.13805      -725.900 5        34.857                                                                    39008861.183 5 165059195.67105      -589.658 5        31.087
C06        41.000                                                                                                                                    38610585.376 5 201055455.46815      -151.708 5        34.481    38610580.766 5 155468941.05205      -117.054 5        34.295    38610580.612 5 163373987.44005      -123.174 5        33.006
C29        43.000                                                                                                                                    22139067.874 8 115283827.19208     -2018.108 8        48.177                                                                    22139065.643 8  93677666.00508     -1639.854 8        49.183
C16        45.000                                                                                                                                    39003095.264 6 203099411.61806      -276.754 6        39.724    39003086.382 4 157049320.19904      -214.163 4        26.120    39003088.850 5                      -224.746 5        32.922
C09        46.000                                                                                                                                    39300841.103 6 204649787.65706       295.153 6        38.156    39300839.771 5 158248195.18905       228.454 5        32.611    39300834.683 5 166294696.46205       239.635 5        35.319
C32        47.000                                                                                                                                    24220284.439 7 126121383.43807     -3403.997 7        43.647                                                                    24220285.050 7 102483988.20607     -2766.007 7        42.447
C35        51.000                                                                                                                                    24067110.633 7 125323952.01007      1398.955 7        47.105                                                                    24067106.566 7 101835834.22907      1136.759 7        45.261
I09        54.000    37254065.160 6 146192957.65406      -685.059 6        36.507
C20        55.000                                                                                                                                    21890552.231 8 113989844.55808      -692.773 8        50.294                                                                    21890546.791 8  92626164.72108      -562.849 8        48.497
I01        56.000   331690403.147 6 998483586.79806     -2828.369 6        36.129
C30        58.000                                                                                                                                    25134276.969 3                     -4221.832 3        21.190                                                                    25134280.716 5 106351407.00005     -3430.370 5        35.657
> 2025 01 01 01 01 40.0000000  0 37
G32         2.000    24823700.760 4                     -4143.995 4        27.737                                                                                                    24823700.069 4                     -3228.991 4        28.095
G21         3.000    22441842.393 6 117932657.59006     -3297.465 6        39.709                                    22441839.117 3  91895513.84703     -2569.452 3        21.643
G31         4.000                                                                                                                                                                    23077151.168 5  94497092.72705      1061.398 5        30.641
G02         5.000    21212361.448 7 111471716.80507     -2242.655 7        45.716                                    21212353.991 6  86861021.83606     -1747.523 6        36.457
E34         6.000    28000637.464 6 147144381.44306      1973.547 6        36.340                                                                    28000634.098 5 109880550.54705      1473.655 5        30.249    28000641.148 4                      1512.636 4        27.066
E04         7.000    23969754.157 6 125961996.10506     -1524.456 6        41.552                                                                    23969754.030 8  94062450.52908     -1138.395 8        48.875    23969750.343 7  96516253.45707     -1168.188 7        43.920
G03         8.000    20165208.666 7 105968884.44507      -106.347 7        42.916                                    20165208.355 5  82573191.62305       -82.873 5        32.587    20165209.216 6  82573181.60506       -82.648 6        36.125
G04        11.000    22275985.938 7 117061062.03807      2331.789 7        44.421                                    22275981.148 1  91216437.60501      1816.962 1         9.333    22275990.820 4  91216406.54104      1817.516 4        28.948
E09        12.000    24583687.533 7 129188243.84107      1207.076 7        44.578                                                                    24583687.689 8  96471731.74008       901.421 8        48.840    24583687.501 8  98988362.69408       924.929 8        48.636
E10        13.000    25716986.560 5 135143616.47305     -3141.896 5        35.900                                                                    25716972.875 6 100918923.51906     -2346.221 6        41.106    25716969.306 6 103551575.64006     -2407.347 6        39.550
E06        14.000    23652919.641 6 124297010.77006       -10.117 6        41.676                                                                    23652921.668 7  92819158.69807        -7.554 7        46.870    23652921.794 7  95240530.35307        -7.686 7        46.636
E11        15.000    23818572.480 6 125167521.32006     -2052.812 6        40.949                                                                    23818568.852 6  93469179.58006     -1533.117 6        40.033    23818565.842 6  95907504.65006     -1572.946 6        39.595
G19        16.000    23276558.060 7 122319363.00707      1578.101 7        44.859                                    23276552.637 4  95313600.46404      1229.688 4        27.365
E30        17.000    28877658.249 5 151753119.69905     -1998.344 5        34.829                                                                    28877658.486 5 113322166.08405     -1492.154 5        31.540    28877656.656 4 116278393.33704     -1531.149 4        29.564
G28        18.000    23280275.663 5 122338787.11505      -380.488 5        35.081                                    23280272.853 1  95328825.45411      -296.471 1         8.190    23280271.951 6  95328830.48006      -296.518 6        36.178
E36        20.000    24067225.107 6 126474134.34006       549.749 6        38.595                                                                    24067228.496 7  94444962.04107       410.442 7        42.279    24067227.656 7  96908768.62707       421.249 7        46.489
G17        22.000    22366950.246 7 117539168.99407      -466.067 7        44.280                                    22366949.902 5  91588818.36705      -363.173 5        33.635    22366950.141 6  91588902.43406      -363.027 6        37.346
S23        24.000    38277935.727 6 201151874.49606      -823.558 6        41.151
S36        25.000    38327707.318 6 201413349.05106      -826.844 6        36.703
R20        27.000    19831048.178 5 106045529.29805     -2950.946 5        35.467                                                                    19831050.668 6  82479815.71606     -2295.103 6        37.788
R04        28.000    23009080.252 4 123212758.16604     -4753.275 4        27.353
R06        29.000    21008788.256 6 112106913.32306      2025.210 6        36.057
C19        33.000                                                                                                                                    24132430.360 5 125663925.08005      1676.294 5        35.500                                                                    24132424.787 7 102112180.50707      1362.101 7        43.268
R21        34.000    20060352.567 8 107347064.42408      1336.303 8        51.649                                                                    20060348.613 7  83492257.72407      1039.384 7        43.852
R05        36.000    19602882.448 7 104788747.72407     -2525.230 7        46.220                                                                    19602874.999 4                     -1963.915 4        28.967
R22        37.000    24383988.013 5                      3434.566 5        30.400
C39        38.000                                                                                                                                    39009555.155 5 203133065.87205      -726.917 5        34.648                                                                    39009560.059 5 165062146.78805      -590.815 5        30.989
C06        41.000                                                                                                                                    38610731.312 5 201056214.51605      -152.463 5        35.210    38610726.111 5 155469528.02505      -117.591 5        34.586    38610726.072 5 163374604.24705      -123.816 5        32.467
C29        43.000                                                                                                                                    22141007.376 8 115293923.37808     -2020.706 8        48.676                                                                    22141004.646 8  93685869.99608     -1641.891 8        49.326
C16        45.000                                                                                                                                    39003361.483 6 203100796.58006      -277.696 6        39.784    39003350.740 4 157050391.21104      -216.048 4        25.128    39003354.737 5                      -225.353 5        32.695
C09        46.000                                                                                                                                    39300558.098 6 204648312.94606       294.352 6        38.387    39300556.893 5 158247054.88905       227.719 5        34.038    39300551.636 5 166293498.12605       239.341 5        35.681
C32        47.000                                                                                                                                    24223553.452 7 126138404.30407     -3404.781 7        43.291                                                                    24223553.533 6 102497819.05706     -2766.470 6        41.821
C35        51.000                                                                                                                                    24065767.804 7 125316961.61707      1396.845 7        46.427                                                                    24065764.108 7 101830153.95807      1135.279 7        45.136
I09        54.000    37254938.022 6 146196381.96006      -685.062 6        36.465
C20        55.000                                                                                                                                    21891218.241 8 113993312.68508      -694.766 8        50.080                                                                    21891212.799 8  92628982.86108      -564.420 8        48.520
I01        56.000   331694006.679 6 998497728.53006     -2828.569 6        36.378
C30        58.000                                                                                                                                    25138341.817 4                     -4222.288 4        26.263                                                                    25138334.599 5 106368560.56305     -3430.916 5        35.171
> 2025 01 01 01 01 45.0000000  0 36
G32         2.000    24827645.366 4                     -4144.306 4        28.493                                                                                                    24827642.627 4                     -3229.631 4        28.246
G21         3.000    22444980.445 6 117949146.98406     -3298.667 6        39.168                                    22444976.331 3  91908362.71703     -2570.383 3        21.214
G31         4.000                                                                                                                                                                    23075861.712 5  94491791.72605      1059.115 5        31.766
G02         5.000    21214496.001 7 111482934.95907     -2244.764 7        45.475                                    21214488.475 6  86869763.25006     -1749.162 6        36.401
E34         6.000    27998758.655 6 147134512.69106      1973.476 6        36.091                                                                    27998756.762 5 109873180.99905      1474.142 5        30.792    27998765.606 4                      1512.565 4        28.474
E04         7.000    23971205.956 6 125969622.72906     -1526.452 6        41.824                                                                    23971205.263 8  94068145.73808     -1139.889 8        49.102    23971201.616 7  96522097.23007     -1169.553 7        43.723
G03         8.000    20165310.901 7 105969420.58807      -108.269 7        44.110                                    20165310.970 5  82573609.40305       -84.370 5        33.934    20165311.997 6  82573599.40506       -84.292 6        36.737
G04        11.000    22273767.749 7 117049406.01307      2330.315 7        44.445                                    22273763.165 1  91207354.97801      1815.766 1        10.148    22273771.423 4  91207324.01904      1815.511 4        29.147
E09        12.000    24582539.854 7 129182211.72607      1205.500 7        44.775                                                                    24582539.855 8  96467227.23208       900.241 8        49.123    24582539.693 8  98983740.68208       923.688 8        48.939
E10        13.000    25719975.107 6 135159327.97206     -3142.881 6        36.000                                                                    25719962.651 6 100930656.09106     -2347.007 6        41.173    25719959.640 6 103563614.28906     -2408.257 6        40.646
E06        14.000    23652930.905 7 124297065.97207       -12.166 7        42.288                                                                    23652932.288 7  92819199.91407        -9.068 7        46.931    23652932.392 7  95240572.65507        -9.307 7        46.726
E11        15.000    23820526.141 6 125177788.71906     -2054.336 6        40.279                                                                    23820522.400 6  93476846.78006     -1533.957 6        40.024    23820519.961 6  95915371.86306     -1573.991 6        40.441
G19        16.000    23275057.676 7 122311478.51207      1575.481 7        44.909                                    23275051.593 4  95307456.69604      1227.649 4        26.814
E30        17.000    28879559.309 5 151763114.67105     -2000.218 5        34.919                                                                    28879560.194 5 113329629.81405     -1493.475 5        32.251    28879558.921 4 116286051.80104     -1532.927 4        29.697
G28        18.000                                                                                                                                                                    23280635.435 6  95330319.31206      -299.060 6        36.851
E36        20.000    24066702.777 6 126471388.23806       548.676 6        37.422                                                                    24066705.894 6  94442911.39706       409.748 6        41.526    24066705.257 7  96906664.49507       420.306 7        46.414
G17        22.000    22367394.979 7 117541506.01607      -468.975 7        44.397                                    22367395.714 5  91590639.45505      -365.441 5        32.742    22367396.628 6  91590723.52106      -365.435 6        36.866
S23        24.000    38278720.734 6 201155991.44006      -823.405 6        40.863
S36        25.000    38328495.008 6 201417481.71306      -826.425 6        36.533
R20        27.000    19833807.945 5 106060291.60405     -2954.491 5        34.143                                                                    19833811.539 5  82491297.53005     -2297.828 5        34.952
R04        28.000    23013523.686 4 123236525.46604     -4753.649 4        26.072                                                                    23013525.767 4                     -3697.541 4        24.677
R06        29.000    21006889.870 5 112096792.13305      2023.164 5        35.967
C19        33.000                                                                                                                                    24130821.409 5 125655546.50905      1674.897 5        35.371                                                                    24130816.031 7 102105372.21907      1361.128 7        43.439
R21        34.000    20059106.229 8 107340390.70208      1333.026 8        52.673                                                                    20059101.939 7  83487067.06107      1036.728 7        43.056
R05        36.000    19605246.976 7 104801379.69907     -2527.939 7        47.235                                                                    19605242.370 5                     -1966.141 5        33.629
C39        38.000                                                                                                                                    39010255.668 5 203136702.42905      -727.849 5        35.790                                                                    39010257.661 5 165065101.77405      -591.685 5        31.238
C06        41.000                                                                                                                                    38610878.319 5 201056978.27105      -153.117 5        35.919    38610873.180 5 155470118.64905      -118.564 5        34.414    38610872.765 5 163375224.86105      -124.531 5        32.671
C29        43.000                                                                                                                                    22142949.289 8 115304032.74708     -2023.238 8        49.188                                                                    22142946.089 8  93694084.68108     -1644.027 8        49.568
C16        45.000                                                                                                                                    39003628.907 6 203102186.20706      -278.324 6        39.793    39003616.877 4 157051465.74204      -215.432 4        24.962    39003621.286 5                      -226.264 5        32.587
C09        46.000                                                                                                                                    39300276.616 6 204646842.24906       293.758 6        38.420    39300274.888 5 158245917.66905       227.086 5        34.557    39300269.045 5 166292303.07405       238.727 5        35.667
C32        47.000                                                                                                                                    24226823.447 7 126155428.96707     -3405.355 7        42.764                                                                    24226822.692 6 102511652.98606     -2767.156 6        40.994
C35        51.000                                                                                                                                    24064426.747 7 125309980.92707      1395.153 7        45.716                                                                    24064423.516 7 101824481.57007      1133.731 7        45.111
I09        54.000    37255810.317 6 146199807.18806      -685.318 6        36.193
C20        55.000                                                                                                                                    21891886.372 8 113996790.83408      -696.651 8        49.837                                                                    21891880.724 8  92631809.14108      -566.072 8        48.612
I01        56.000   331697611.269 6 998511870.83106     -2828.692 6        36.612
C30        58.000                                                                                                                                    25142398.268 4                     -4223.218 4        28.995                                                                    25142389.331 5 106385716.87605     -3431.738 5        34.976
> 2025 01 01 01 01 50.0000000  0 36
G32         2.000    24831587.910 4                     -4145.417 4        29.109                                                                                                    24831587.426 4                     -3230.172 4        28.806
G21         3.000    22448119.926 6 117965643.53006     -3299.936 6        38.559                                    22448115.236 3  91921217.15803     -2571.384 3        20.857
G31         4.000                                                                                                                                                                    23074569.064 5  94486500.54005      1057.816 5        31.940
G02         5.000    21216632.507 7 111494164.49907     -2247.032 7        46.065                                    21216625.150 6  86878513.53606     -1750.933 6        36.382
E34         6.000    27996880.899 5 147124643.92405      1973.746 5        35.490                                                                    27996879.427 5 109865811.49805      1474.153 5        31.426    27996883.344 4                      1512.447 4        28.777
E04         7.000    23972659.711 6 125977259.76906     -1528.411 6        41.650                                                                    23972658.506 8  94073848.72708     -1141.357 8        49.184    23972654.902 7  96527949.00407     -1171.148 7        43.691
G03         8.000    20165415.414 7 105969966.92507      -110.212 7        45.547                                    20165415.400 5  82574035.12905       -85.881 5        35.057    20165415.173 6  82574025.09706       -85.988 6        37.244
G04        11.000    22271550.324 7 117037758.32307      2328.831 7        44.190                                    22271546.913 1  91198278.91801      1814.666 1        10.074    22271558.045 4  91198247.89604      1814.829 4        28.730
E09        12.000    24581393.922 7 129176188.26907      1203.862 7        44.649                                                                    24581393.694 8  96462729.19308       899.026 8        49.238    24581393.529 8  98979125.30408       922.491 8        49.234
E10        13.000    25722964.680 5 135175045.20705     -3143.946 5        34.967                                                                    25722953.506 6 100942392.91006     -2347.700 6        41.147    25722950.804 6 103575657.29906     -2408.896 6        41.452
E06        14.000    23652944.371 7 124297131.93307       -14.276 7        42.749                                                                    23652944.861 7  92819249.16407       -10.544 7        46.852    23652944.822 7  95240623.19307       -10.905 7        46.814
E11        15.000    23822481.824 6 125188064.30306     -2055.942 6        39.568                                                                    23822477.719 6  93484520.11106     -1535.209 6        39.985    23822475.785 6  95923245.36406     -1575.324 6        40.777
G19        16.000    23273559.799 7 122303607.59207      1572.813 7        44.588                                    23273552.737 4  95301323.52304      1225.561 4        25.970
E30        17.000    28881463.631 5 151773119.69905     -2002.124 5        33.898                                                                    28881464.584 5 113337101.12705     -1495.128 5        31.630    28881464.296 5 116293717.96905     -1533.760 5        30.498
G28        18.000    23281027.191 5 122342624.53605      -386.685 5        35.586                                    23281001.839 1  95331815.62601      -301.327 1        10.148    23281001.103 6  95331820.68706      -301.745 6        37.664
E36        20.000    24066182.448 5 126468648.86505       547.437 5        35.090                                                                    24066184.353 6  94440865.78106       408.612 6        40.746    24066184.001 7  96904565.49807       419.306 7        46.491
G17        22.000    22367842.364 7 117543858.28407      -471.935 7        43.962                                    22367844.530 5  91592472.42705      -367.753 5        31.630    22367846.611 5  91592556.51705      -367.795 5        35.705
S23        24.000    38279504.475 6 201160108.31006      -823.317 6        40.737
S36        25.000    38329280.994 6 201421614.65206      -826.675 6        36.533
R20        27.000    19836570.712 5 106075072.40905     -2957.965 5        32.293                                                                    19836577.077 5  82502793.69405     -2300.907 5        32.575
R04        28.000    23017962.821 4 123260294.59304     -4753.818 4        26.850                                                                    23017961.335 4                     -3696.638 4        25.805
R06        29.000    21004995.660 6 112086682.93206      2020.546 6        36.026
C19        33.000                                                                                                                                    24129213.794 5 125647174.14505      1674.109 5        35.233                                                                    24129208.615 7 102098569.01807      1360.197 7        43.649
R21        34.000    20057862.208 8 107333734.06908      1329.682 8        52.811                                                                    20057858.868 7  83481889.68707      1034.116 7        42.900
R05        36.000    19607612.367 7 104814026.17207     -2530.612 7        46.956                                                                    19607607.987 5  81521920.46615     -1968.442 5        35.781
C39        38.000                                                                                                                                    39010956.463 6 203140343.76206      -728.767 6        36.484                                                                    39010957.073 5 165068060.62805      -592.219 5        31.321
C06        41.000                                                                                                                                    38611026.717 6 201057746.75706      -154.018 6        36.991    38611020.440 5 155470712.90505      -119.407 5        34.567    38611020.167 5 163375849.32805      -125.026 5        32.946
C29        43.000                                                                                                                                    22144893.849 8 115314155.25408     -2025.808 8        49.699                                                                    22144889.951 8  93702310.05208     -1646.084 8        49.708
C16        45.000                                                                                                                                    39003896.122 6 203103580.52506      -279.287 6        39.420    39003880.645 4 157052543.84404      -215.360 4        24.346    39003889.024 5                      -226.792 5        32.647
C09        46.000                                                                                                                                    39299994.618 6 204645375.50406       293.146 6        38.513    39299993.539 5 158244783.51205       226.585 5        35.305    39299987.704 5 166291111.24405       238.299 5        35.705
C32        47.000                                                                                                                                    24230094.715 7 126172457.38407     -3405.970 7        42.305                                                                    24230092.766 6 102525489.96906     -2767.764 6        40.274
C35        51.000                                                                                                                                    24063087.440 7 125303009.90107      1393.378 7        44.922                                                                    24063084.823 7 101818817.04307      1132.238 7        45.114
I09        54.000    37256683.042 6 146203233.24306      -684.944 6        36.204
C20        55.000                                                                                                                                    21892556.051 8 114000278.93508      -698.547 8        49.728                                                                    21892550.607 8  92634643.51108      -567.632 8        48.727
I01        56.000   331701215.985 6 998526013.85506     -2828.664 6        36.756
C30        58.000                                                                                                                                    25146460.705 5                     -4223.540 5        30.883                                                                    25146444.645 5 106402875.78805     -3431.929 5        34.576
> 2025 01 01 01 01 55.0000000  0 36
G32         2.000    24835525.290 4                     -4146.746 4        27.689                                                                                                    24835530.279 4                     -3230.970 4        28.550
G21         3.000    22451260.028 6 117982147.15606     -3301.505 6        36.730                                    22451255.630 3  91934077.13003     -2572.589 3        20.000
G31         4.000    23073265.018 5                      1354.308 5        30.151                                                                                                    23073277.719 5  94481219.18405      1055.160 5        31.517
G02         5.000    21218771.340 7 111505405.32207     -2249.339 7        46.732                                    21218764.017 6  86887272.61306     -1752.728 6        36.688
E34         6.000    27995002.625 5 147114775.15205      1973.821 5        34.895                                                                    27995001.742 5 109858442.02805      1473.862 5        32.473    27995003.840 4                      1512.420 4        28.654
E04         7.000    23974114.905 6 125984907.15006     -1530.564 6        41.600                                                                    23974113.709 8  94079559.43008     -1142.924 8        49.404    23974110.317 7  96533808.68907     -1172.774 7        43.640
G03         8.000    20165521.555 7 105970523.36207      -112.288 7        45.685                                    20165521.695 5  82574468.71905       -87.499 5        35.900    20165521.025 6  82574458.69606       -87.533 6        37.459
G04        11.000    22269333.815 7 117026118.90007      2326.935 7        43.162                                    22269332.180 1  91189209.27901      1813.247 1         8.571    22269345.494 4  91189178.25804      1813.685 4        27.293
E09        12.000    24580249.136 7 129170173.39807      1202.132 7        44.807                                                                    24580249.284 8  96458237.56608       897.666 8        49.610    24580249.063 8  98974516.50608       921.057 8        49.462
E10        13.000    25725951.577 5 135190768.13005     -3145.293 5        34.414                                                                    25725945.474 6 100954133.95106     -2348.637 6        40.930    25725943.195 7 103587704.63907     -2409.927 7        42.095
E06        14.000    23652959.189 7 124297208.55407       -16.455 7        43.272                                                                    23652959.552 7  92819306.38607       -12.252 7        46.870    23652959.320 7  95240681.91207       -12.675 7        46.819
E11        15.000    23824438.659 6 125198348.00306     -2057.703 6        39.742                                                                    23824434.463 6  93492199.49306     -1536.589 6        39.919    23824432.804 6  95931125.06306     -1576.598 6        41.130
G19        16.000    23272064.554 7 122295750.19707      1570.088 7        43.829                                    23272056.442 4  95295200.88504      1223.439 4        25.278
E30        17.000    28883369.441 5 151783134.86205     -2004.077 5        33.455                                                                    28883370.299 5 113344579.93305     -1496.604 5        33.413    28883370.535 5 116301391.89405     -1535.612 5        31.351
G28        18.000    23281402.772 5 122344567.27105      -389.878 5        32.108                                    23281371.034 1  95333329.47801      -303.665 1         9.238    23281370.916 6  95333334.53706      -304.024 6        37.970
E36        20.000    24065663.090 5 126465916.15005       545.776 5        33.563                                                                    24065663.962 6  94438825.08606       407.727 6        40.203    24065664.086 7  96902471.57007       418.218 7        46.482
G17        22.000    22368292.502 7 117546225.73307      -475.023 7        43.556                                    22368295.203 5  91594317.24305      -370.157 5        30.272    22368291.603 5  91594401.32505      -370.087 5        34.338
S23        24.000    38280284.599 6 201164225.04006      -823.336 6        40.737
S36        25.000    38330068.943 6 201425748.70206      -826.940 6        36.635
R20        27.000    19839336.345 5 106089871.36605     -2961.458 5        30.408                                                                    19839344.770 5  82514303.95405     -2303.437 5        30.943
R04        28.000    23022405.729 4 123284065.06514     -4754.349 4        28.341                                                                    23022400.341 4                     -3697.967 4        26.778
R06        29.000    21003103.560 5 112076585.50305      2018.431 5        35.343
C19        33.000                                                                                                                                    24127608.397 5 125638808.00505      1672.714 5        35.962                                                                    24127602.237 7 102091770.85907      1359.025 7        43.742
R21        34.000    20056620.558 8 107327094.45508      1326.075 8        52.537                                                                    20056617.831 7  83476725.54507      1031.478 7        42.864
R05        36.000    19609980.209 7 104826686.68707     -2533.590 7        47.077                                                                    19609977.056 6  81531767.49506     -1970.523 6        37.595
C39        38.000                                                                                                                                    39011656.563 6 203143989.76506      -729.684 6        36.801                                                                    39011655.931 5 165071023.27705      -592.763 5        31.215
C06        41.000                                                                                                                                    38611176.018 6 201058519.87006      -155.305 6        37.501    38611169.495 5 155471310.71405      -119.960 5        34.733    38611168.865 5 163376477.57105      -126.242 5        32.802
C29        43.000                                                                                                                                    22146840.574 8 115324290.83608     -2028.530 8        49.939                                                                    22146836.324 8  93710546.05308     -1648.416 8        49.676
C16        45.000                                                                                                                                    39004163.770 6 203104979.41706      -280.318 6        39.027    39004144.757 3                      -215.951 3        23.848    39004157.496 5                      -227.717 5        32.677
C09        46.000                                                                                                                                    39299713.321 6 204643912.67106       292.126 6        38.781    39299712.709 5 158243652.38105       225.903 5        35.571    39299706.948 6 166289922.60306       237.321 6        36.072
C32        47.000                                                                                                                                    24233366.639 6 126189489.50406     -3406.813 6        41.866                                                                    24233363.560 6 102539329.95806     -2768.549 6        40.036
C35        51.000                                                                                                                                    24061749.886 7 125296048.51107      1391.173 7        44.311                                                                    24061747.961 7 101813160.35907      1130.381 7        45.162
I09        54.000    37257556.459 6 146206660.12706      -685.230 6        36.113
C20        55.000                                                                                                                                    21893227.900 8 114003776.93108      -700.617 8        49.613                                                                    21893222.449 8  92637485.93008      -569.389 8        48.861
I01        56.000   331704819.660 6 998540157.53306     -2828.806 6        36.692
C30        58.000                                                                                                                                    25150519.065 5                     -4224.407 5        31.449                                                                    25150500.507 5 106420037.36805     -3432.713 5        34.600
> 2025 01 01 01 02  0.0000000  0 37
G32         2.000                                                                                                                                                                    24839476.182 4                     -3231.348 4        28.123
G21         3.000    22454401.806 5 117998657.69305     -3302.858 5        33.695                                    22454397.173 3  91946942.48103     -2573.661 3        18.507
G31         4.000                                                                                                                                                                    23071988.625 5  94475947.42205      1053.521 5        30.347
G02         5.000    21220912.498 7 111516657.26907     -2251.480 7        47.518                                    21220905.079 6  86896040.36006     -1754.399 6        37.013
E34         6.000    27993124.709 5 147104906.21205      1973.828 5        34.105                                                                    27993124.950 5 109851072.33405      1473.928 5        33.234    27993125.374 4                      1512.578 4        28.768
E04         7.000    23975571.939 6 125992564.71106     -1532.574 6        41.864                                                                    23975570.920 8  94085277.74108     -1144.450 8        49.378    23975567.803 7  96539676.18007     -1174.317 7        43.733
G03         8.000    20165628.590 7 105971089.70907      -114.274 7        45.324                                    20165629.711 6  82574910.02006       -89.044 6        36.174    20165628.978 6  82574900.00706       -89.123 6        37.263
G04        11.000    22267118.578 7 117014487.58907      2325.475 7        42.129                                    22267118.866 1  91180145.93101      1812.085 1         7.625
E09        12.000    24579105.978 7 129164166.96107      1200.477 7        45.392                                                                    24579106.330 8  96453752.23408       896.387 8        49.779    24579106.012 8  98969914.16908       919.789 8        49.713
E10        13.000    25728935.201 5 135206496.42805     -3146.176 5        34.324                                                                    25728938.530 6 100965879.06806     -2349.338 6        40.677    25728936.442 7 103599756.16207     -2410.708 7        42.633
E06        14.000    23652975.681 7 124297295.69407       -18.414 7        43.228                                                                    23652976.137 7  92819371.45807       -13.809 7        46.833    23652975.751 7  95240748.68407       -14.173 7        46.943
E11        15.000    23826397.343 6 125208639.61606     -2059.108 6        40.241                                                                    23826392.762 6  93499884.79206     -1537.586 6        39.856    23826391.683 6  95939010.86506     -1577.670 6        41.700
G19        16.000    23270572.089 7 122287906.16107      1567.510 7        43.054                                    23270562.692 4  95289088.66304      1221.431 4        24.617
E30        17.000    28885276.209 5 151793159.79905     -2005.879 5        31.879                                                                    28885278.588 5 113352066.08205     -1497.814 5        32.072    28885279.105 5 116309073.31105     -1537.052 5        30.347
G28        18.000                                                                                                                                                                    23281743.700 6  95334860.74706      -306.510 6        36.975
E36        20.000    24065144.651 5 126463189.85005       544.824 5        33.766                                                                    24065144.752 6  94436789.23206       406.716 6        39.721    24065145.342 7  96900382.59807       417.348 7        46.598
G17        22.000    22368745.705 7 117548608.15707      -477.939 7        44.083                                    22368746.958 4  91596173.73704      -372.433 4        29.924    22368737.238 5  91596257.77605      -372.476 5        33.413
S23        24.000    38281069.565 6 201168341.49406      -823.311 6        40.818
S36        25.000    38330856.562 6 201429883.27806      -826.884 6        36.563
R20        27.000    19842109.466 4 106104688.35404     -2965.358 4        28.152                                                                    19842115.380 5  82525828.26005     -2306.197 5        30.355
R04        28.000    23026845.474 5 123307836.92015     -4754.431 5        30.830                                                                    23026840.497 4                     -3697.835 4        28.256
R06        29.000    21001213.788 5 112066499.78705      2015.929 5        35.414
C19        33.000                                                                                                                                    24126002.832 6 125630447.90006      1671.403 6        36.737                                                                    24125997.051 7 102084977.57407      1358.299 7        43.674
R21        34.000    20055382.042 8 107320471.72108      1322.931 8        52.083                                                                    20055380.733 7  83471574.54707      1028.905 7        43.369
R05        36.000    19612351.733 8 104839361.42308     -2536.243 8        48.009                                                                    19612347.647 6  81541625.59806     -1972.633 6        39.021
R22        37.000    24371028.048 5                      3433.826 5        32.317                                                                    24371031.728 3                      2671.380 3        21.262
C39        38.000                                                                                                                                    39012357.510 6 203147640.31906      -730.464 6        37.456                                                                    39012357.906 5 165073989.68605      -593.473 5        31.328
C06        41.000                                                                                                                                    38611326.281 6 201059297.45706      -155.983 6        38.351    38611318.801 5 155471912.01805      -120.877 5        35.033    38611318.262 5 163377109.44505      -126.838 5        32.880
C29        43.000                                                                                                                                    22148789.391 8 115334439.30208     -2030.963 8        49.854                                                                    22148785.006 8  93718792.48808     -1650.216 8        49.511
C16        45.000                                                                                                                                    39004432.752 6 203106382.72406      -281.026 6        38.619    39004415.545 4                      -216.591 4        24.481    39004426.934 5                      -228.316 5        33.054
C09        46.000                                                                                                                                    39299432.345 6 204642453.57606       291.703 6        38.802    39299432.431 5 158242524.12605       225.256 5        35.714    39299426.781 5 166288736.94605       236.830 5        35.852
C32        47.000                                                                                                                                    24236639.224 6 126206525.11706     -3407.384 6        41.466                                                                    24236635.038 6 102553172.78106     -2768.979 6        39.547
C35        51.000                                                                                                                                    24060414.425 7 125289096.56707      1389.414 7        44.001                                                                    24060412.950 7 101807511.32107      1129.169 7        45.272
I09        54.000    37258430.791 5 146210087.69005      -685.556 5        35.919
C20        55.000                                                                                                                                    21893901.597 8 114007284.65608      -702.481 8        49.392                                                                    21893896.104 8  92640336.22308      -570.761 8        48.938
I01        56.000   331708423.384 6 998554301.74906     -2828.927 6        36.926
C30        58.000                                                                                                                                    25154575.878 5                     -4224.830 5        32.742                                                                    25154557.226 5 106437201.40105     -3432.958 5        34.457
> 2025 01 01 01 02  5.0000000  0 37
G32         2.000    24843401.964 4                     -4147.501 4        25.444                                                                                                    24843424.674 4                     -3231.524 4        28.322
G21         3.000    22457542.075 5 118015175.61305     -3304.450 5        30.513                                    22457540.325 2  91959813.60102     -2574.903 2        17.170
G31         4.000    23070707.438 5                      1349.232 5        32.467                                                                                                    23070708.429 4  94470685.75304      1051.311 4        29.573
G02         5.000    21223055.631 8 111527920.82508     -2253.852 8        48.010                                    21223048.457 6  86904817.15406     -1756.245 6        37.527
E34         6.000    27991246.662 5 147095037.53705      1973.668 5        33.617                                                                    27991247.584 5 109843702.87605      1474.015 5        34.357    27991247.861 4                      1512.263 4        29.412
E04         7.000    23977031.379 7 126000232.91207     -1534.725 7        42.296                                                                    23977030.117 8  94091003.99108     -1146.058 8        49.428    23977027.473 7  96545551.80507     -1175.885 7        44.027
G03         8.000    20165738.218 7 105971666.47107      -116.467 7        45.028                                    20165739.534 5  82575359.44005       -90.756 5        35.924    20165738.806 6  82575349.43206       -90.573 6        36.737
G04        11.000    22264907.291 6 117002864.87706      2323.749 6        41.633                                    22264907.103 1  91171089.26801      1810.792 1         8.000
E09        12.000    24577964.920 7 129158169.40107      1198.605 7        45.743                                                                    24577965.117 8  96449273.53608       895.055 8        49.974    24577964.600 8  98965318.64208       918.402 8        49.763
E10        13.000    25731929.732 5 135222230.64105     -3147.554 5        34.395                                                                    25731932.501 6 100977628.61506     -2350.265 6        40.255    25731930.857 7 103611812.23007     -2411.606 7        42.935
E06        14.000    23652994.479 7 124297393.83407       -20.831 7        42.730                                                                    23652994.535 7  92819444.72607       -15.439 7        46.644    23652994.238 7  95240823.86507       -15.875 7        46.931
E11        15.000    23828357.673 6 125218939.64006     -2060.659 6        40.226                                                                    23828352.601 6  93507576.37306     -1538.856 6        39.841    23828351.900 7  95946903.10307     -1579.164 7        42.119
G19        16.000    23269082.323 7 122280075.90007      1564.635 7        42.076                                    23269071.715 4  95282987.17004      1219.197 4        24.000
E30        17.000    28887185.308 5 151803195.04605     -2007.914 5        30.943                                                                    28887188.010 5 113359559.91305     -1499.771 5        32.323    28887187.171 4 116316762.59704     -1538.247 4        29.905
G28        18.000    23282152.975 5                      -396.478 5        30.257                                                                                                    23282118.930 5  95336399.69605      -309.026 5        35.614
E36        20.000    24064627.382 5 126460470.52605       543.243 5        35.810                                                                    24064626.492 6  94434758.56606       405.645 6        39.108    24064627.912 7  96898298.94807       416.152 7        46.583
G17        22.000    22369202.185 7 117551006.05707      -481.088 7        44.309                                    22369201.373 5  91598042.27605      -374.880 5        31.064    22369196.549 5  91598126.26105      -374.815 5        34.376
S23        24.000    38281853.266 6 201172458.21906      -823.257 6        40.784
S36        25.000    38331641.626 6 201434018.88906      -827.029 6        36.628
R20        27.000    19844882.901 4 106119523.93204     -2968.959 4        28.796                                                                    19844889.073 5  82537367.05105     -2309.121 5        30.498
R04        28.000    23031279.538 5 123331610.49915     -4754.849 5        31.962                                                                    23031278.095 4                     -3698.176 4        29.175
R06        29.000    20999325.820 5 112056426.13505      2013.664 5        35.005
C19        33.000                                                                                                                                    24124398.693 6 125622094.27806      1670.132 6        38.090                                                                    24124392.506 7 102078189.58207      1357.123 7        43.274
R21        34.000    20054146.732 8 107313866.28508      1319.371 8        51.025                                                                    20054146.705 7  83466436.99407      1026.158 7        44.292
R05        36.000    19614725.902 7 104852050.48907     -2539.322 7        47.486                                                                    19614722.107 6  81551494.89106     -1975.110 6        38.820
R22        37.000                                                                                                                                    24367819.677 3                      2669.581 3        22.324
C39        38.000                                                                                                                                    39013059.412 6 203151295.86306      -731.734 6        37.524                                                                    39013063.654 5 165076960.12805      -593.934 5        30.664
C06        41.000                                                                                                                                    38611477.541 6 201060079.96006      -157.009 6        39.048    38611470.174 5 155472517.09305      -121.383 5        34.914    38611468.835 5 163377745.24805      -127.173 5        32.862
C29        43.000                                                                                                                                    22150740.684 8 115344601.13008     -2033.697 8        49.350                                                                    22150736.371 8  93727049.78908     -1652.498 8        49.158
C16        45.000                                                                                                                                    39004702.583 6 203107790.92806      -282.197 6        38.378                                                                    39004697.351 5                      -229.175 5        32.898
C09        46.000                                                                                                                                    39299153.000 6 204640998.67106       290.602 6        39.093    39299152.629 6 158241399.08506       224.805 6        36.389    39299147.593 5 166287554.70505       236.267 5        35.800
C32        47.000                                                                                                                                    24239911.609 6 126223564.71006     -3408.369 6        41.256                                                                    24239907.485 6 102567018.80206     -2769.306 6        39.366
C35        51.000                                                                                                                                    24059081.514 7 125282154.54307      1387.404 7        43.700                                                                    24059079.923 7 101801870.36407      1127.467 7        45.231
I09        54.000    37259303.354 5 146213516.25105      -685.701 5        35.729
C20        55.000                                                                                                                                    21894576.943 8 114010802.57308      -704.625 8        49.240                                                                    21894571.812 8  92643194.79908      -572.432 8        48.943
I01        56.000   331712027.701 6 998568446.83906     -2829.333 6        36.922
C30        58.000                                                                                                                                    25158634.121 5                     -4225.658 5        32.305                                                                    25158614.489 5 106454368.25605     -3433.321 5        34.757
> 2025 01 01 01 02 10.0000000  0 37
G32         2.000    24847354.704 4                     -4147.356 4        24.075                                                                                                    24847369.535 4                     -3232.770 4        28.104
G21         3.000    22460687.419 5 118031700.59105     -3306.074 5        31.457                                    22460685.043 2  91972690.19902     -2576.171 2        16.415
G31         4.000    23069422.096 5                      1346.685 5        32.976                                                                                                    23069429.772 4  94465433.85104      1049.368 4        28.076
G02         5.000    21225200.788 8 111539195.58008     -2256.202 8        48.030                                    21225194.045 6  86913602.67306     -1758.079 6        37.781
E34         6.000    27989368.415 5 147085168.77705      1973.499 5        33.144                                                                    27989369.979 5 109836333.36605      1473.977 5        35.590    27989369.788 4                      1512.396 4        29.915
E04         7.000    23978492.781 7 126007911.37107     -1536.899 7        43.022                                                                    23978491.315 8  94096737.89208     -1147.600 8        49.424    23978489.251 7  96551435.30207     -1177.544 7        44.400
G03         8.000    20165850.180 7 105972253.27507      -118.579 7        44.545                                    20165851.195 5  82575816.68405       -92.401 5        35.271    20165848.468 5  82575806.70605       -92.493 5        35.500
G04        11.000    22262698.348 6 116991250.39706      2321.920 6        40.851                                    22262696.816 1  91162039.05001      1809.286 1         5.571
E09        12.000    24576825.672 7 129152180.37007      1196.812 7        45.854                                                                    24576825.550 8  96444801.20508       893.780 8        50.083    24576824.817 8  98960729.64408       917.087 8        49.903
E10        13.000    25734925.655 5 135237970.40005     -3148.684 5        34.638                                                                    25734927.635 6 100989382.31806     -2351.169 6        39.832    25734926.654 7 103623872.55907     -2412.552 7        43.450
E06        14.000    23653015.251 7 124297502.55707       -22.968 7        42.364                                                                    23653014.873 7  92819525.92007       -17.043 7        46.465    23653014.752 7  95240907.17407       -17.552 7        46.999
E11        15.000    23830319.323 6 125229247.72806     -2062.463 6        40.403                                                                    23830313.915 6  93515273.98306     -1540.297 6        39.814    23830313.837 7  95954801.49507     -1580.345 7        42.580
G19        16.000    23267593.157 6 122272259.10206      1561.935 6        39.982                                    23267583.402 3  95276896.16303      1217.100 3        23.238
E30        17.000    28889097.212 5 151813240.32505     -2010.162 5        30.423                                                                    28889099.456 5 113367061.26605     -1500.976 5        32.401    28889098.755 4 116324459.74204     -1541.056 4        28.919
G28        18.000    23282518.195 5                      -400.033 5        34.310                                                                                                    23282498.418 5  95337951.11105      -311.538 5        34.119
E36        20.000    24064111.697 6 126457757.74806       541.788 6        37.811                                                                    24064109.721 6  94432732.81906       404.459 6        38.877    24064111.740 7  96896220.33207       415.125 7        46.703
G17        22.000    22369661.262 7 117553419.04307      -484.291 7        44.518                                    22369659.517 5  91599922.54605      -377.371 5        32.329    22369656.941 6  91600006.55706      -377.648 6        36.147
S23        24.000    38282635.930 6 201176574.69306      -823.339 6        40.760
S36        25.000    38332427.621 6 201438153.28406      -827.466 6        36.457
R20        27.000    19847659.663 4 106134377.75304     -2972.414 4        28.038                                                                    19847666.094 5  82548920.04505     -2312.127 5        31.411
R04        28.000    23035719.082 5 123355385.64905     -4755.113 5        33.707                                                                    23035722.235 4                     -3698.671 4        29.848
R06        29.000    20997440.599 5 112046364.35305      2011.086 5        35.362
C19        33.000                                                                                                                                    24122794.625 6 125613746.77506      1668.725 6        38.994                                                                    24122789.102 7 102071406.58207      1356.021 7        42.973
R21        34.000    20052915.380 8 107307277.77608      1315.846 8        50.668                                                                    20052915.305 7  83461312.60707      1023.465 7        44.688
R05        36.000    19617101.930 7 104864753.57807     -2542.140 7        46.077                                                                    19617097.953 6  81561375.05106     -1977.332 6        38.186
R22        37.000                                                                                                                                    24364601.128 3                      2669.311 3        22.990
C39        38.000                                                                                                                                    39013762.408 6 203154956.02406      -732.593 6        37.550                                                                    39013768.662 5 165079934.35105      -595.424 5        30.762
C06        41.000                                                                                                                                    38611628.535 6 201060867.00806      -157.938 6        39.165    38611622.164 5 155473125.69505      -122.266 5        34.819    38611619.812 5 163378384.81505      -128.247 5        32.671
C29        43.000                                                                                                                                    22152694.333 8 115354775.93008     -2036.398 8        49.135                                                                    22152690.297 8  93735317.65708     -1654.801 8        48.995
C16        45.000                                                                                                                                    39004973.614 6 203109203.62706      -283.060 6        38.108    39004966.127 3                      -220.009 3        23.314    39004968.890 5                      -230.035 5        33.120
C09        46.000                                                                                                                                    39298875.145 6 204639547.61606       289.637 6        39.264    39298874.048 6 158240277.05406       224.112 6        36.469    39298868.817 5 166286375.63505       235.363 5        35.786
C32        47.000                                                                                                                                    24243184.751 6 126240607.84406     -3409.107 6        41.259                                                                    24243180.409 6 102580867.77106     -2770.307 6        39.739
C35        51.000                                                                                                                                    24057750.721 7 125275222.07907      1385.400 7        43.206                                                                    24057748.667 7 101796237.20107      1125.699 7        45.347
I09        54.000    37260177.842 5 146216945.60705      -686.069 5        35.210
C20        55.000                                                                                                                                    21895254.113 8 114014330.29308      -706.651 8        49.128                                                                    21895249.296 8  92646061.37908      -574.246 8        49.113
I01        56.000   331715632.749 6 998582592.53206     -2829.328 6        36.820
C30        58.000                                                                                                                                    25162692.280 5                     -4226.063 5        32.210                                                                    25162672.297 5 106471537.68005     -3434.189 5        34.719
> 2025 01 01 01 02 15.0000000  0 37
G32         2.000    24851300.124 3                     -4143.585 3        22.667                                                                                                    24851318.715 4                     -3233.614 4        27.222
G21         3.000    22463835.442 5 118048233.42305     -3307.181 5        33.299                                    22463830.977 2  91985572.94302     -2577.031 2        16.377
G31         4.000    23068143.754 6 121223903.27016      1344.224 6        36.151
G02         5.000    21227348.615 8 111550482.43708     -2258.373 8        48.284                                    21227341.966 6  86922397.62106     -1759.769 6        38.249
E34         6.000    27987490.436 5 147075300.83805      1973.462 5        32.623                                                                    27987492.700 6 109828964.43906      1473.955 6        36.098    27987491.085 4                      1512.380 4        29.460
E04         7.000    23979955.976 7 126015600.96407     -1538.942 7        43.994                                                                    23979954.454 8  94102480.12808     -1149.212 8        49.138    23979952.914 7  96557327.33707     -1179.136 7        44.941
G03         8.000    20165964.573 7 105972851.00207      -120.484 7        42.847                                    20165964.931 5  82576282.43305       -93.884 5        34.529    20165962.656 5  82576272.43805       -94.045 5        35.024
G04        11.000    22260489.720 6 116979645.06606      2320.400 6        39.312                                    22260488.089 1  91152996.13001      1808.104 1         6.000
E09        12.000    24575687.948 7 129146200.74807      1195.178 7        46.051                                                                    24575687.653 8  96440335.91508       892.484 8        50.087    24575686.767 8  98956147.86308       915.778 8        49.732
E10        13.000    25737924.066 5 135253716.57905     -3149.590 5        35.424                                                                    25737924.084 6 101001140.84106     -2352.049 6        38.925    25737923.467 7 103635937.81907     -2413.458 7        43.742
E06        14.000    23653038.323 7 124297622.76607       -24.947 7        42.557                                                                    23653037.417 7  92819615.69607       -18.699 7        46.163    23653037.507 7  95240999.30007       -19.202 7        46.975
E11        15.000    23832282.275 6 125239564.71506     -2064.203 6        40.181                                                                    23832277.248 6  93522978.20906     -1541.373 6        39.886    23832277.429 7  95962706.72107     -1581.632 7        43.054
G19        16.000    23266106.105 6 122264456.64906      1559.077 6        37.229                                    23266097.929 3  95270816.35303      1214.860 3        23.486
E30        17.000    28891013.055 5 151823296.41305     -2011.926 5        32.413                                                                    28891013.903 5 113374570.71705     -1502.798 5        32.497    28891012.572 4 116332165.02704     -1541.898 4        28.654
G28        18.000    23282895.110 5 122352485.10915      -402.907 5        35.019                                                                                                    23282880.484 5  95339515.62505      -313.967 5        32.647
E36        20.000    24063597.220 6 126455052.43206       540.397 6        39.306                                                                    24063594.237 6  94430712.62406       403.464 6        38.598    24063596.914 7  96894147.43307       414.099 7        46.646
G17        22.000    22370123.406 7 117555847.99707      -487.159 7        44.156                                    22370121.226 5  91601815.24305      -379.608 5        32.940    22370121.332 6  91601899.22506      -379.667 6        37.561
S23        24.000    38283421.169 6 201180691.91706      -823.233 6        40.877
S36        25.000    38333215.494 6 201442288.42706      -826.972 6        36.507
R20        27.000    19850442.111 4 106149250.69304     -2976.517 4        27.677                                                                    19850446.907 5  82560487.92505     -2314.862 5        34.324
R04        28.000    23040158.997 5                     -4755.436 5        35.390                                                                    23040166.178 5                     -3698.914 5        30.023
R06        29.000    20995557.289 5 112036315.21405      2008.624 5        34.976
C19        33.000                                                                                                                                    24121192.248 6 125605406.32706      1667.551 6        38.907                                                                    24121186.712 7 102064629.26207      1355.052 7        42.521
R21        34.000    20051688.055 8 107300707.18708      1312.511 8        51.134                                                                    20051687.003 7  83456202.15007      1020.837 7        44.652
R05        36.000    19619479.772 7 104877471.53107     -2544.990 7        44.796                                                                    19619477.607 6  81571266.82006     -1979.464 6        39.078
R22        37.000                                                                                                                                    24361381.475 3                      2670.168 3        21.786
C39        38.000                                                                                                                                    39014467.838 6 203158621.70006      -733.697 6        37.834                                                                    39014473.883 5 165082912.99405      -596.016 5        30.838
C06        41.000                                                                                                                                    38611781.580 6 201061659.47506      -158.933 6        40.014    38611774.145 5 155473738.46105      -122.932 5        34.695    38611771.897 5 163379028.77005      -128.752 5        32.066
C29        43.000                                                                                                                                    22154650.953 8 115364964.56608     -2038.911 8        49.859                                                                    22154646.861 8  93743596.75108     -1656.774 8        48.670
C16        45.000                                                                                                                                    39005246.063 6 203110621.69906      -283.872 6        38.234    39005236.204 4                      -219.509 4        24.887    39005241.283 5                      -230.832 5        32.641
C09        46.000                                                                                                                                    39298597.789 6 204638101.22506       288.920 6        39.604    39298596.683 6 158239158.62506       223.448 6        36.658    39298590.949 5 166285200.33705       234.647 5        35.771
C32        47.000                                                                                                                                    24246458.057 7 126257655.44107     -3409.785 7        42.057                                                                    24246454.299 6 102594720.32506     -2770.614 6        40.036
C35        51.000                                                                                                                                    24056422.042 7 125268300.06807      1383.510 7        43.211                                                                    24056419.489 7 101790612.50607      1124.188 7        45.558
I09        54.000    37261052.349 5 146220376.33705      -686.384 5        35.167
C20        55.000                                                                                                                                    21895933.463 8 114017868.68508      -708.515 8        49.620                                                                    21895928.816 8  92648936.60808      -575.738 8        49.037
I01        56.000   331719238.418 6 998596739.49706     -2829.427 6        37.066
C30        58.000                                                                                                                                    25166753.233 5                     -4226.946 5        32.731                                                                    25166730.947 5 106488710.30405     -3434.512 5        35.181
> 2025 01 01 01 02 20.0000000  0 37
G32         2.000    24855249.009 3                     -4147.847 3        20.238                                                                                                    24855265.803 4                     -3233.411 4        26.132
G21         3.000    22466984.161 5 118064773.35905     -3308.808 5        35.481                                    22466978.472 2  91998461.21702     -2578.288 2        15.952
G31         4.000    23066867.165 6 121217189.40506      1341.521 6        38.177
G02         5.000    21229498.868 8 111561780.62708     -2260.660 8        48.727                                    21229492.097 6  86931201.40206     -1761.553 6        38.480
E34         6.000    27985612.344 5 147065432.90905      1973.433 5        32.281                                                                    27985615.015 6 109821595.55906      1473.855 6        36.665    27985612.476 4                      1512.283 4        29.602
E04         7.000    23981420.984 7 126023300.90207     -1540.887 7        44.327                                                                    23981419.651 8  94108230.07808     -1150.661 8        48.816    23981418.536 7  96563227.29407     -1180.661 7        45.171
G03         8.000    20166080.063 7 105973458.85707      -122.435 7        43.208                                    20166080.455 5  82576756.07805       -95.398 5        33.725    20166077.543 5  82576746.08905       -95.548 5        34.310
G04        11.000    22258281.757 6 116968048.05806      2318.535 6        36.688                                    22258280.856 1  91143959.49001      1806.712 1         9.143
E09        12.000    24574551.433 7 129140229.78807      1193.390 7        45.788                                                                    24574551.415 8  96435877.07608       891.156 8        49.977    24574550.191 8  98951572.70808       914.430 8        49.442
E10        13.000    25740922.823 5 135269468.45305     -3150.721 5        35.095                                                                    25740921.295 6 101012903.56906     -2352.823 6        38.171    25740921.325 7 103648007.41707     -2414.308 7        43.829
E06        14.000    23653063.980 7 124297753.70807       -27.105 7        43.168                                                                    23653062.137 7  92819713.47007       -20.319 7        45.886    23653062.542 7  95241099.62707       -20.798 7        46.991
E11        15.000    23834246.809 6 125249889.86106     -2065.700 6        40.238                                                                    23834242.124 6  93530688.55806     -1542.588 6        39.757    23834242.536 7  95970618.21507     -1582.911 7        43.611
G19        16.000    23264624.522 6 122256667.74806      1556.393 6        37.448                                    23264615.443 3  95264747.08103      1212.781 3        23.524
E30        17.000    28892929.048 5 151833362.62505     -2014.141 5        32.066                                                                    28892930.290 5 113382087.70405     -1504.228 5        32.982    28892927.642 4 116339878.12804     -1543.723 4        28.493
G28        18.000    23283279.913 5 122354508.99305      -406.429 5        33.024                                    23283270.486 1  95341105.76211      -316.766 1         8.952    23283266.462 4  95341092.67404      -316.495 4        29.763
E36        20.000    24063083.401 6 126452353.80506       539.156 6        40.038                                                                    24063080.010 6  94428697.44306       402.686 6        38.165    24063083.370 7  96892079.66407       413.140 7        46.663
G17        22.000    22370588.580 7 117558292.15307      -490.268 7        42.375                                    22370585.984 5  91603719.79005      -382.030 5        32.683    22370585.215 6  91603803.77806      -382.040 6        37.032
S23        24.000    38284204.052 6 201184809.20506      -823.323 6        40.875
S36        25.000    38334000.439 6 201446422.93506      -826.728 6        36.646
R20        27.000    19853228.404 4 106164141.85304     -2979.881 4        28.294                                                                    19853232.223 5  82572069.95705     -2317.797 5        35.410
R04        28.000    23044605.957 6 123402942.20716     -4755.938 6        36.473                                                                    23044605.842 4                     -3698.770 4        29.507
R06        29.000    20993675.505 5 112026277.93205      2006.023 5        33.982
C19        33.000                                                                                                                                    24119590.592 6 125597072.12406      1666.303 6        38.979                                                                    24119585.893 6 102057857.01406      1354.162 6        41.964
R21        34.000    20050464.362 8 107294153.77908      1309.050 8        51.854                                                                    20050462.426 7  83451105.04607      1018.161 7        44.692
R05        36.000    19621861.164 7 104890203.79307     -2547.774 7        44.369                                                                    19621861.233 6  81581169.67906     -1981.656 6        39.832
R22        37.000    24358238.953 4                      3432.881 4        29.697
C39        38.000                                                                                                                                    39015175.029 6 203162292.06706      -734.319 6        37.546                                                                    39015179.761 5 165085895.50005      -596.713 5        30.347
C06        41.000                                                                                                                                    38611934.998 6 201062456.63206      -159.948 6        40.250    38611927.021 5 155474354.88305      -123.442 5        34.295    38611924.916 5 163379676.55105      -130.201 5        32.419
C29        43.000                                                                                                                                    22156610.212 8 115375166.29308     -2041.581 8        50.273                                                                    22156606.041 8  93751886.49308     -1658.910 8        48.443
C16        45.000                                                                                                                                    39005519.001 6 203112044.40406      -284.816 6        38.255    39005511.173 4                      -220.605 4        26.168    39005514.643 5                      -231.462 5        33.006
C09        46.000                                                                                                                                    39298322.035 6 204636658.78506       288.128 6        40.126    39298319.716 6 158238043.23606       222.951 6        36.836    39298313.724 5 166284028.22405       234.373 5        35.362
C32        47.000                                                                                                                                    24249731.591 7 126274706.71907     -3410.533 7        42.362                                                                    24249728.870 6 102608575.89206     -2771.322 6        40.360
C35        51.000                                                                                                                                    24055095.329 7 125261387.77207      1381.528 7        43.460                                                                    24055092.232 7 101784995.69507      1122.803 7        45.556
I09        54.000    37261925.923 5 146223807.91005      -686.449 5        35.000
C20        55.000                                                                                                                                    21896614.549 8 114021416.99908      -710.565 8        49.509                                                                    21896610.096 8  92651819.90508      -577.280 8        48.961
I01        56.000   331722843.090 6 998610887.10306     -2829.491 6        37.285
C30        58.000                                                                                                                                    25170813.005 5                     -4227.485 5        31.291                                                                    25170790.440 5 106505885.57505     -3435.258 5        35.405
> 2025 01 01 01 02 25.0000000  0 36
G32         2.000    24859191.746 3                     -4149.675 3        18.985                                                                                                    24859220.654 4                     -3233.681 4        24.992
G21         3.000    22470131.688 6 118081319.60906     -3309.790 6        37.456                                    22470127.129 2  92011354.40202     -2579.055 2        17.094
G31         4.000    23065593.147 6 121210487.46006      1339.345 6        37.800
G02         5.000    21231650.833 8 111573089.38508     -2262.652 8        49.078                                    21231644.302 6  86940013.42406     -1763.103 6        38.688
E34         6.000    27983733.756 5 147055564.27405      1974.181 5        31.313                                                                    27983737.090 6 109814226.12806      1474.102 6        37.051    27983734.895 5                      1512.591 5        30.000
E04         7.000    23982887.573 7 126031010.47407     -1542.700 7        44.307                                                                    23982886.502 8  94113987.21708     -1152.012 8        48.512    23982885.790 7  96569134.61607     -1182.016 7        45.541
G03         8.000    20166198.141 7 105974076.11907      -124.270 7        44.564                                    20166197.710 5  82577237.05505       -96.828 5        33.054    20166194.391 5  82577227.02905       -96.715 5        33.868
G04        11.000    22256074.617 5 116956458.61405      2317.170 5        35.619                                    22256075.107 1  91134928.79401      1805.612 1         9.524    22256069.084 5                      1805.621 5        30.725
E09        12.000    24573416.519 7 129134266.71507      1191.977 7        45.470                                                                    24573416.696 8  96431424.13508       890.148 8        49.934    24573415.121 8  98947003.60208       913.359 8        49.123
E10        13.000    25743921.998 5 135285225.19705     -3151.571 5        33.760                                                                    25743919.800 6 101024669.96806     -2353.384 6        37.395    25743919.789 7 103660080.78207     -2414.926 7        43.312
E06        14.000    23653091.396 7 124297894.62107       -29.049 7        43.869                                                                    23653089.022 7  92819818.69507       -21.654 7        45.785    23653089.409 7  95241207.59907       -22.217 7        47.094
E11        15.000    23836213.210 6 125260222.43406     -2067.199 6        40.617                                                                    23836208.266 6  93538404.42206     -1543.532 6        39.622    23836209.152 7  95978535.37907     -1583.974 7        44.150
G19        16.000    23263148.037 6 122248891.59906      1554.177 6        41.266                                    23263135.877 3  95258687.76403      1211.032 3        23.733
E30        17.000    28894845.669 5 151843438.14705     -2015.980 5        32.419                                                                    28894847.634 5 113389611.62205     -1505.309 5        34.467    28894844.540 4 116347598.34304     -1544.829 4        28.929
G28        18.000    23283664.708 5 122356548.24305      -409.490 5        32.593                                    23283656.870 1  95342694.81601      -319.137 1         7.750
E36        20.000    24062570.652 6 126449661.14806       538.038 6        40.265                                                                    24062567.040 6  94426686.70406       401.867 6        37.928    24062571.016 7  96890016.45307       412.381 7        46.582
G17        22.000    22371055.487 6 117560750.76706      -493.049 6        40.775                                    22371053.327 5  91605635.60405      -384.193 5        31.608    22371050.435 6  91605719.56706      -384.138 6        36.019
S23        24.000    38284986.791 6 201188925.63506      -822.937 6        40.942
S36        25.000    38334790.324 6 201450556.23306      -826.273 6        36.847
R20        27.000    19856016.580 4 106179050.62504     -2983.496 4        28.682                                                                    19856020.311 6  82583665.60406     -2320.350 6        36.957
R04        28.000    23049049.360 6 123426721.97206     -4755.613 6        36.949                                                                    23049042.595 4                     -3699.047 4        28.976
R06        29.000    20991796.418 5 112016251.80805      2004.201 5        34.052
C19        33.000                                                                                                                                    24117991.003 6 125588743.40906      1665.460 6        39.423                                                                    24117986.493 6 102051089.22406      1353.294 6        41.650
R21        34.000    20049242.842 8 107287616.69208      1305.939 8        52.052                                                                    20049241.040 7  83446020.64507      1015.679 7        45.100
R05        36.000    19624244.732 7 104902949.50807     -2550.301 7        43.479                                                                    19624245.704 6  81591083.01806     -1983.554 6        41.385
C39        38.000                                                                                                                                    39015882.641 6 203165966.48106      -735.282 6        37.172                                                                    39015886.530 4 165088881.24704      -597.398 4        29.905
C06        41.000                                                                                                                                    38612088.904 6 201063257.66906      -160.417 6        40.389    38612081.612 5 155474974.30605      -124.160 5        34.005    38612078.824 5 163380327.44905      -130.504 5        32.000
C29        43.000                                                                                                                                    22158571.709 8 115385380.34808     -2043.861 8        50.377                                                                    22158567.564 8  93760186.23208     -1660.843 8        48.109
C16        45.000                                                                                                                                    39005792.978 6 203113471.00106      -285.592 6        37.720    39005784.644 4                      -220.629 4        27.222    39005788.606 5                      -232.109 5        33.671
C09        46.000                                                                                                                                    39298046.388 6 204635219.55806       287.734 6        40.520    39298043.231 6 158236930.34206       222.557 6        37.134    39298037.459 5 166282858.73105       233.679 5        35.324
C32        47.000                                                                                                                                    24253006.255 7 126291760.93007     -3410.911 7        42.887                                                                    24253004.060 6 102622433.81606     -2771.793 6        40.532
C35        51.000                                                                                                                                    24053770.390 7 125254484.42407      1379.943 7        43.534                                                                    24053766.440 7 101779386.15707      1121.302 7        45.610
I09        54.000    37262800.315 5 146227239.75605      -686.361 5        35.267
C20        55.000                                                                                                                                    21897297.311 8 114024974.49108      -712.295 8        49.055                                                                    21897293.209 8  92654710.64708      -578.847 8        48.883
I01        56.000   331726448.486 6 998625034.81006     -2829.427 6        37.728
C30        58.000                                                                                                                                    25174872.680 5                     -4227.911 5        31.026                                                                    25174850.122 5 106523062.78505     -3435.206 5        35.586
> 2025 01 01 01 02 30.0000000  0 36
G32         2.000                                                                                                                                                                    24863174.386 3                     -3235.110 3        23.429
G21         3.000    22473281.309 6 118097872.76406     -3311.270 6        38.622                                    22473277.016 3  92024252.95703     -2580.214 3        18.179
G31         4.000    23064320.604 6 121203798.03006      1336.625 6        36.265                                    23064301.707 1  94444459.60411      1041.508 1         9.905
G02         5.000    21233804.642 8 111584409.30108     -2265.122 8        48.517                                    21233798.564 6  86948834.13706     -1765.031 6        38.859
E34         6.000    27981856.324 5 147045695.52105      1973.751 5        31.094                                                                    27981859.031 6 109806856.58006      1474.053 6        37.433    27981857.167 5                      1512.401 5        30.241
E04         7.000    23984356.173 7 126038730.22107     -1544.999 7        44.170                                                                    23984355.299 8  94119751.96208     -1153.781 8        48.207    23984354.750 7  96575049.74607     -1183.867 7        45.955
G03         8.000    20166317.024 7 105974703.34407      -126.543 7        45.640                                    20166316.736 5  82577725.79105       -98.599 5        32.467    20166313.896 5  82577715.78905       -98.816 5        33.162
G04        11.000    22253872.602 6 116944877.41406      2315.247 6        36.730                                    22253870.767 2  91125904.43202      1804.104 2        12.606    22253866.238 5                      1804.210 5        34.024
E09        12.000    24572283.728 7 129128312.13107      1189.982 7        45.327                                                                    24572283.523 8  96426977.53608       888.698 8        49.865    24572281.751 8  98942440.99608       911.808 8        48.866
E10        13.000    25746922.115 5 135300987.44005     -3152.942 5        33.425                                                                    25746919.650 6 101036440.48606     -2354.640 6        36.669    25746918.968 7 103672158.34707     -2415.944 7        42.802
E06        14.000    23653120.158 7 124298046.07207       -31.360 7        44.840                                                                    23653117.985 7  92819931.79507       -23.403 7        45.619    23653118.360 7  95241323.64807       -24.043 7        47.155
E11        15.000    23838180.962 6 125270562.96006     -2068.970 6        40.923                                                                    23838176.119 6  93546126.26706     -1545.087 6        39.961    23838177.208 7  95986458.64807     -1585.364 7        44.641
G19        16.000    23261672.424 7 122241128.93807      1551.107 7        43.572                                    23261658.945 4  95252638.94804      1208.660 4        25.158
E30        17.000    28896764.183 5 151853523.36105     -2017.917 5        33.186                                                                    28896766.949 5 113397142.76205     -1507.023 5        34.538    28896763.658 4 116355325.93604     -1546.529 4        28.607
G28        18.000    23284057.112 4 122358603.38504      -412.625 4        29.991                                    23284046.214 1  95344296.26201      -321.673 1         6.000
E36        20.000    24062059.457 6 126446975.00406       536.629 6        40.510                                                                    24062055.852 6  94424680.86606       400.403 6        37.448    24062059.909 7  96887958.25007       411.072 7        46.683
G17        22.000    22371525.985 6 117563224.36806      -496.234 6        40.377                                    22371523.187 5  91607563.09605      -386.681 5        30.143    22371522.455 5  91607647.06705      -386.765 5        35.352
S23        24.000    38285769.281 6 201193041.75906      -823.169 6        40.815
S36        25.000    38335575.961 6 201454688.45706      -826.288 6        36.817
R20        27.000    19858810.995 5 106193977.37905     -2987.203 5        30.536                                                                    19858810.910 6  82595275.26906     -2323.115 6        37.459
R04        28.000    23053495.690 6 123450503.22506     -4756.565 6        37.406                                                                    23053483.775 4                     -3699.480 4        28.550
R06        29.000    20989921.614 5 112006237.40205      2001.664 5        35.448
C19        33.000                                                                                                                                    24116391.846 6 125580420.77706      1663.918 6        39.754                                                                    24116388.126 6 102044326.39506      1352.016 6        41.077
R21        34.000    20048023.907 8 107281096.64308      1302.319 8        51.423                                                                    20048022.827 7  83440949.49507      1012.964 7        45.839
R05        36.000    19626631.600 7 104915709.19807     -2553.448 7        42.963                                                                    19626632.749 7  81601007.24607     -1985.946 7        43.799
C39        38.000                                                                                                                                    39016588.795 6 203169645.43406      -736.168 6        36.518                                                                    39016594.485 4 165091870.69804      -598.137 4        29.659
C06        41.000                                                                                                                                    38612243.159 6 201064063.22006      -161.659 6        40.181    38612237.106 5 155475597.18705      -124.770 5        33.617    38612233.130 5 163380982.00505      -131.298 5        31.185
C29        43.000                                                                                                                                    22160535.260 8 115395607.32308     -2046.673 8        49.904                                                                    22160531.564 7  93768496.47607     -1663.166 7        47.666
C16        45.000                                                                                                                                    39006068.151 6 203114902.01606      -286.684 6        37.380    39006060.333 4                      -221.675 4        28.474    39006063.771 5                      -232.913 5        33.473
C09        46.000                                                                                                                                    39297771.026 6 204633784.07706       286.636 6        40.567    39297767.805 6 158235820.35006       221.655 6        37.229    39297761.580 5 166281692.28705       232.812 5        34.633
C32        47.000                                                                                                                                    24256281.578 7 126308818.66107     -3411.937 7        43.073                                                                    24256279.842 6 102636294.59806     -2772.481 6        41.008
C35        51.000                                                                                                                                    24052447.189 7 125247590.64507      1377.753 7        43.126                                                                    24052442.671 7 101773784.39707      1119.454 7        45.490
I09        54.000    37263675.624 5 146230672.29205      -686.622 5        34.986
C20        55.000                                                                                                                                    21897981.961 8 114028541.72308      -714.475 8        48.330                                                                    21897978.248 8  92657609.30008      -580.594 8        48.589
I01        56.000   331730054.028 6 998639183.10206     -2829.667 6        37.796
C30        58.000                                                                                                                                    25178933.713 5                     -4228.690 5        30.083                                                                    25178910.393 5 106540242.49905     -3436.233 5        35.862
> 2025 01 01 01 02 35.0000000  0 35
G32         2.000                                                                                                                                                                    24867132.081 3                     -3234.723 3        23.429
G21         3.000    22476432.576 6 118114433.13006     -3312.924 6        40.010                                    22476428.419 3  92037157.13703     -2581.489 3        18.925
G31         4.000    23063050.256 5 121197121.40505      1333.871 5        33.862                                    23063032.978 1  94439257.04201      1039.385 1        11.926
G02         5.000    21235960.794 8 111595740.64008     -2267.560 8        48.000                                    21235954.942 6  86957663.75106     -1766.930 6        38.832
E34         6.000    27979980.907 5 147035826.91305      1973.536 5        30.294                                                                    27979980.847 6 109799487.15906      1473.931 6        37.837    27979978.035 5                      1512.174 5        30.740
E04         7.000    23985826.949 7 126046460.39107     -1547.427 7        43.755                                                                    23985825.968 7  94125524.48607     -1155.502 7        47.925    23985825.514 7  96580972.86007     -1185.664 7        46.068
G03         8.000    20166438.225 7 105975340.77807      -128.732 7        46.496                                    20166437.497 5  82578222.48505      -100.312 5        31.902    20166435.058 5  82578212.47205      -100.260 5        33.132
G04        11.000    22251671.643 6 116933304.64106      2313.650 6        37.705                                    22251667.858 2  91116886.67302      1802.806 2        14.905    22251668.970 6  91116844.62416      1802.787 6        37.017
E09        12.000    24571152.609 7 129122366.27207      1188.176 7        45.461                                                                    24571151.937 8  96422537.45308       887.246 8        49.668    24571150.068 8  98937885.08308       910.337 8        48.622
E10        13.000    25749921.368 5 135316755.45005     -3154.524 5        33.162                                                                    25749920.786 5 101048215.26705     -2355.625 5        35.914    25749918.803 6 103684240.31106     -2417.016 6        41.702
E06        14.000    23653150.736 7 124298208.31507       -33.698 7        45.573                                                                    23653149.016 7  92820052.95507       -25.183 7        45.561    23653149.388 7  95241447.97007       -25.797 7        47.121
E11        15.000    23840150.341 6 125280911.71406     -2070.660 6        41.199                                                                    23840145.491 6  93553854.22506     -1546.341 6        39.859    23840146.704 7  95994388.21707     -1586.676 7        45.117
G19        16.000    23260197.946 7 122233379.94307      1548.247 7        44.862                                    23260184.754 4  95246600.76804      1206.421 4        25.970
E30        17.000    28898686.050 5 151863618.74005     -2020.111 5        32.748                                                                    28898688.380 5 113404681.53505     -1508.888 5        35.014    28898684.387 4 116363061.33804     -1548.446 4        27.102
E36        20.000    24061549.513 6 126444295.66106       534.944 6        40.470                                                                    24061545.782 6  94422680.06606       399.418 6        37.376    24061550.058 7  96885905.24007       409.979 7        46.598
G17        22.000    22372000.061 6 117565713.26206      -499.529 6        40.348                                    22371996.003 4  91609502.50704      -389.249 4        28.104    22371996.979 5  91609586.45605      -389.291 5        34.629
S23        24.000    38286553.313 6 201197157.90206      -823.539 6        40.813
S36        25.000    38336366.119 6 201458820.84206      -826.635 6        36.839
R20        27.000    19861607.449 5 106208922.40105     -2991.367 5        31.479                                                                    19861606.135 6  82606899.20606     -2326.398 6        37.395
R04        28.000    23057941.028 6 123474285.92316     -4757.040 6        37.573                                                                    23057927.714 4                     -3699.871 4        29.782
R06        29.000    20988049.896 5 111996235.06505      1998.886 5        35.862
C19        33.000                                                                                                                                    24114794.935 6 125572104.47306      1662.466 6        40.470                                                                    24114790.881 6 102037568.70206      1350.869 6        40.646
R21        34.000    20046808.530 8 107274593.79308      1298.691 8        51.269                                                                    20046807.045 7  83435891.72607      1010.140 7        46.155
R05        36.000    19629022.077 6 104928483.08406     -2556.399 6        41.676                                                                    19629022.357 7  81610942.49807     -1988.317 7        44.579
C39        38.000                                                                                                                                    39017293.529 5 203173329.16805      -737.576 5        35.743                                                                    39017302.764 4 165094864.03404      -599.242 4        28.882
C06        41.000                                                                                                                                    38612398.278 6 201064873.51706      -162.732 6        39.901    38612392.082 5 155476223.77605      -126.043 5        33.066    38612388.353 5 163381640.48805      -132.464 5        31.525
C29        43.000                                                                                                                                    22162501.161 8 115405847.43708     -2049.491 8        49.333                                                                    22162497.983 7  93776817.39607     -1665.422 7        47.199
C16        45.000                                                                                                                                    39006342.732 6 203116337.74806      -287.749 6        37.214    39006336.845 5                      -222.605 5        30.053    39006339.711 5                      -232.463 5        34.090
C09        46.000                                                                                                                                    39297496.528 6 204632352.61206       285.727 6        40.493    39297493.122 6 158234713.45606       221.035 6        37.660    39297486.397 5 166280529.12605       232.181 5        34.205
C32        47.000                                                                                                                                    24259557.518 7 126325880.12907     -3413.009 7        42.961                                                                    24259556.540 6 102650158.42506     -2773.275 6        41.476
C35        51.000                                                                                                                                    24051125.112 7 125240706.65307      1375.640 7        42.665                                                                    24051120.568 7 101768190.58007      1117.761 7        45.497
I09        54.000    37264549.898 5 146234105.69905      -686.858 5        34.867
C20        55.000                                                                                                                                    21898668.745 7 114032118.92307      -716.582 7        47.596                                                                    21898665.210 8  92660516.07408      -582.368 8        48.506
I01        56.000   331733659.699 6 998653332.13506     -2829.984 6        37.622
C30        58.000                                                                                                                                    25182995.928 4                     -4229.458 4        28.995                                                                    25182971.461 6 106557424.84206     -3436.699 6        36.276
