     3.04           OBSERVATION DATA    M                   RINEX VERSION / TYPE
ssrcrin-15.6.1x                         20250101 013000 UTC PGM / RUN BY / DATE 
(00000000023479385599111004) Septentrio proprietary         COMMENT             
ract                                                        MARKER NAME         
01                                                          MARKER NUMBER       
geodetic                                                    MARKER TYPE         
NFB                 CLIMERS@TUW                             OBSERVER / AGENCY   
3296359             SEPT ASTERX SB3 PROB4.14.4              REC # / TYPE / VERS 
Unknown             Unknown                                 ANT # / TYPE        
  4127445.6787  1206914.8997  4695543.3403                  APPROX POSITION XYZ 
        0.0000        0.0000        0.0000                  ANTENNA: DELTA H/E/N
G   23 X1  C1C L1C D1C S1C C1W S1W C2W L2W D2W S2W C2L L2L  SYS / # / OBS TYPES 
       D2L S2L C5Q L5Q D5Q S5Q C1L L1L D1L S1L              SYS / # / OBS TYPES 
E   21 X1  C1C L1C D1C S1C C6C L6C D6C S6C C5Q L5Q D5Q S5Q  SYS / # / OBS TYPES 
       C7Q L7Q D7Q S7Q C8Q L8Q D8Q S8Q                      SYS / # / OBS TYPES 
S    9 X1  C1C L1C D1C S1C C5I L5I D5I S5I                  SYS / # / OBS TYPES 
R   17 X1  C1C L1C D1C S1C C2P L2P D2P S2P C2C L2C D2C S2C  SYS / # / OBS TYPES 
       C3Q L3Q D3Q S3Q                                      SYS / # / OBS TYPES 
C   25 X1  C1P L1P D1P S1P C5P L5P D5P S5P C2I L2I D2I S2I  SYS / # / OBS TYPES 
       C7I L7I D7I S7I C6I L6I D6I S6I C7D L7D D7D S7D      SYS / # / OBS TYPES 
J   17 X1  C1C L1C D1C S1C C2L L2L D2L S2L C5Q L5Q D5Q S5Q  SYS / # / OBS TYPES 
       C1L L1L D1L S1L                                      SYS / # / OBS TYPES 
I    5 X1  C5A L5A D5A S5A                                  SYS / # / OBS TYPES 
SEPTENTRIO RECEIVERS OUTPUT ALIGNED CARRIER PHASES.         COMMENT             
NO FURTHER PHASE SHIFT APPLIED IN THE RINEX ENCODER.        COMMENT             
G L1C                                                       SYS / PHASE SHIFT   
G L2W                                                       SYS / PHASE SHIFT   
G L2L  0.00000                                              SYS / PHASE SHIFT   
G L5Q  0.00000                                              SYS / PHASE SHIFT   
G L1L  0.00000                                              SYS / PHASE SHIFT   
E L1C  0.00000                                              SYS / PHASE SHIFT   
E L6C  0.00000                                              SYS / PHASE SHIFT   
E L5Q  0.00000                                              SYS / PHASE SHIFT   
E L7Q  0.00000                                              SYS / PHASE SHIFT   
E L8Q  0.00000                                              SYS / PHASE SHIFT   
S L1C                                                       SYS / PHASE SHIFT   
S L5I                                                       SYS / PHASE SHIFT   
R L1C                                                       SYS / PHASE SHIFT   
R L2P  0.00000                                              SYS / PHASE SHIFT   
R L2C                                                       SYS / PHASE SHIFT   
R L3Q  0.00000                                              SYS / PHASE SHIFT   
C L1P  0.00000                                              SYS / PHASE SHIFT   
C L5P  0.00000                                              SYS / PHASE SHIFT   
C L2I                                                       SYS / PHASE SHIFT   
C L7I                                                       SYS / PHASE SHIFT   
C L6I                                                       SYS / PHASE SHIFT   
C L7D                                                       SYS / PHASE SHIFT   
J L1C                                                       SYS / PHASE SHIFT   
J L2L  0.00000                                              SYS / PHASE SHIFT   
J L5Q  0.00000                                              SYS / PHASE SHIFT   
J L1L  0.00000                                              SYS / PHASE SHIFT   
I L5A                                                       SYS / PHASE SHIFT   
  2025     1     1     1    30    0.0000000     GPS         TIME OF FIRST OBS   
 C1C    0.000 C2C    0.000 C2P    0.000                     GLONASS COD/PHS/BIS 
DBHZ                                                        SIGNAL STRENGTH UNIT
    18                                                      LEAP SECONDS        
 24 R01  1 R02 -4 R03  5 R04  6 R05  1 R06 -4 R07  5 R08  6 GLONASS SLOT / FRQ #
    R09 -2 R10 -7 R11  0 R12 -1 R13 -2 R14 -7 R15  0 R16 -1 GLONASS SLOT / FRQ #
    R17  4 R18 -3 R19  3 R20  2 R21  4 R22 -3 R23  3 R24  2 GLONASS SLOT / FRQ #
                                                            END OF HEADER       
> 2025 01 01 01 30  0.0000000  0 37
G21         3.000    23281942.433 4                     -3730.525 4        26.719
G31         4.000    22491415.331 5                       363.320 5        35.124                                                                                                    22491425.225 3                       282.488 3        21.690
G02         5.000    21760562.533 7 114352523.23907     -2987.252 7        43.613                                    21760556.108 4  89105844.57704     -2327.727 4        26.599
E34         6.000                                                                                                                                    27069025.424 6 106224719.75306      1429.173 6        39.523    27069024.514 6 108995767.76106      1466.425 6        36.919
E04         7.000    24272227.735 8 127551501.04308     -2178.295 8        48.021                                                                    24272225.460 7  95249418.32407     -1626.553 7        44.385    24272223.530 6  97734185.58506     -1669.001 6        39.453
G03         8.000    20012358.154 7 105165652.79607      -801.438 7        43.613                                    20012357.129 6  81947296.87406      -624.502 6        38.883    20012355.640 6  81947286.89306      -624.317 6        39.610
G09         9.000                                                                                                                                                                    23347303.823 3                      2105.981 3        21.690
G04        11.000    21324531.062 6 112061187.04306      1666.352 6        37.660                                    21324525.401 2  87320354.95202      1298.459 2        15.190    21324528.634 5  87320376.98305      1298.472 5        35.800
E09        12.000    23993259.123 7 126085520.42107       579.207 7        47.085                                                                    23993258.283 8  94154763.47508       432.540 8        49.718    23993258.714 8  96610951.71608       443.836 8        50.585
E10        13.000    26493716.903 5 139225419.92405     -3501.856 5        32.066                                                                    26493715.539 6 103967064.35206     -2615.232 6        36.892    26493715.543 6 106679208.33306     -2683.349 6        38.718
E06        14.000    23474781.509 7 123360877.48607      -737.960 7        46.801                                                                    23474781.455 8  92120098.51208      -551.032 8        49.278    23474780.532 7  94523233.81707      -565.443 7        45.998
E11        15.000    24273014.356 5 127555598.60605     -2606.965 5        35.609                                                                    24273014.908 5  95252517.98605     -1946.601 5        30.068    24273009.204 6  97737332.76406     -1997.694 6        38.177
G19        16.000    22628736.175 6 118915046.28206       537.825 6        41.857                                    22628732.311 4  92660886.73304       419.089 4        26.275
G28        18.000    23284261.905 6 122359735.56706     -1500.036 6        40.310                                    23284252.800 2  95345102.87602     -1168.873 2        15.476    23284252.482 5  95345130.92905     -1168.988 5        34.781
G06        19.000    24813702.252 6 130396996.39906      2683.965 6        38.979                                    24813705.341 2 101607984.59602      2091.410 2        17.623    24813701.092 5 101607958.68405      2091.280 5        30.740
E36        20.000    23670454.637 6 124389212.08606        29.509 6        41.170                                                                    23670455.161 7  92887930.55407        22.108 7        42.885    23670454.506 7  95311124.09907        22.697 7        45.445
E05        21.000    25977563.896 5 136513025.68705      2194.786 5        32.605                                                                    25977561.183 4 101941553.95904      1639.198 4        26.850    25977565.945 4 104600883.16304      1681.910 4        29.014
G17        22.000    22385929.228 8 117638837.82408     -1498.769 8        48.514                                    22385924.911 5  91666696.02705     -1167.870 5        31.570    22385919.542 5  91666637.99005     -1167.808 5        32.581
S23        24.000    38244761.027 6 200977558.54806      -824.198 6        38.622
S36        25.000    38295685.256 6 201245046.87706      -827.654 6        36.306
R20        27.000                                                                                                                                    20657501.529 5  85917188.70005     -3184.564 5        31.691
R06        29.000    20199373.508 4                      1158.502 4        29.100
C19        33.000                                                                                                                                    23358416.007 7 121633507.17107      1221.268 7        42.544                                                                    23358409.151 6  98837068.39806       992.551 6        38.733
R21        34.000    19538245.477 7 104553198.69707        14.213 7        43.547
R05        36.000    20245482.690 8 108223819.33408     -3351.057 8        48.890                                                                    20245482.813 7  84173979.39307     -2606.393 7        45.895
R22        37.000    23017214.573 5 122867534.79205      3207.368 5        31.117                                                                    23017218.720 6  95563601.49806      2494.835 6        39.015
C39        38.000                                                                                                                                    38999207.202 4                     -1041.152 4        29.156
C06        41.000                                                                                                                                    38413262.434 7 200027940.43607      -473.210 7        43.264    38413257.208 7 154674257.38607      -365.913 7        45.765    38413255.324 6 162539050.69106      -384.536 6        41.616
C29        43.000                                                                                                                                    22641553.569 7 117900392.27207     -2860.781 7        42.726                                                                    22641546.492 5  95803838.17505     -2324.713 5        33.958
C16        45.000                                                                                                                                    38846017.979 6 202281500.32706      -592.996 6        38.066    38846021.999 7 156416815.38707      -458.544 7        42.521    38846017.338 6 164370213.94306      -481.778 6        36.333
C09        46.000                                                                                                                                    38950102.332 6 202823403.65406        14.070 6        40.634    38950096.330 6 156835919.67906        10.895 6        40.992    38950095.931 6 164810589.28606        11.494 6        40.984
C32        47.000                                                                                                                                    25070068.548 4 130546475.26304     -3596.024 4        29.043                                                                    25070089.171 4 106079767.45204     -2922.417 4        28.227
C44        48.000                                                                                                                                    26745509.944 4 139270962.04404      2284.556 4        26.563
C35        51.000                                                                                                                                    23428365.713 6 121997644.07806       641.053 6        37.520                                                                    23428366.794 5  99133122.12505       520.917 5        34.467
I09        54.000    37264535.735 4 146234051.44304      -741.876 4        27.868
C20        55.000                                                                                                                                    21925248.813 7 114170519.64107     -1335.964 7        47.846                                                                    21925243.987 7  92772978.17707     -1085.581 7        46.600
I01        56.000   332629849.958 6   2170174.88706     -2874.688 6        38.523
> 2025 01 01 01 30  5.0000000  0 38
G21         3.000    23285496.916 5                     -3730.802 5        30.294
G31         4.000    22491072.630 6 118191336.14316       359.955 6        38.607                                    22491079.537 1  92097210.93311       280.499 1         9.619
G02         5.000    21763406.414 7 114367464.38907     -2989.401 7        43.166                                    21763399.067 4  89117487.02904     -2329.400 4        27.293
E34         6.000    27067203.480 5 142239175.58415      1913.503 5        31.962                                                                    27067204.996 6 106217575.16406      1428.642 6        40.167    27067204.217 6 108988436.79606      1466.014 6        36.503
E04         7.000    24274301.266 8 127562397.02308     -2180.266 8        48.035                                                                    24274298.549 7  95257554.92507     -1628.129 7        43.879    24274297.185 6  97742534.44306     -1670.681 6        39.198
G03         8.000    20013122.131 7 105169665.19307      -803.640 7        45.583                                    20013119.854 6  81950423.43106      -626.214 6        37.573    20013119.378 6  81950413.46206      -626.410 6        36.858
G09         9.000                                                                                                                                                                    23344734.299 3                      2103.783 3        23.314
G04        11.000    21322946.792 5 112052860.61605      1664.219 5        34.176                                    21322940.953 2  87313866.84702      1296.781 2        13.576    21322942.932 6  87313888.84906      1296.732 6        37.108
E09        12.000    23992709.087 7 126082629.14707       577.089 7        47.068                                                                    23992708.194 8  94152604.41308       430.975 8        49.817    23992708.565 8  96608736.32408       442.165 8        50.823
E10        13.000    26497048.861 4 139242933.32404     -3503.116 4        29.867                                                                    26497048.849 6 103980142.50806     -2616.260 6        37.512    26497047.936 6 106692627.65206     -2684.236 6        38.529
E06        14.000    23475484.537 7 123364572.53907      -740.223 7        47.121                                                                    23475484.555 8  92122857.80308      -552.733 8        49.136    23475483.748 7  94526065.09107      -567.156 7        46.282
E11        15.000    24275495.822 5 127568638.00805     -2608.716 5        35.790                                                                    24275490.939 5  95262255.24305     -1947.976 5        31.268    24275490.485 6  97747323.97606     -1998.839 6        38.541
G19        16.000    22628226.910 6 118912365.85706       534.227 6        39.520                                    22628221.956 4  92658798.07804       416.279 4        25.173
G28        18.000    23285691.758 6 122367244.52606     -1503.690 6        40.100                                    23285682.029 2  95350954.01102     -1171.754 2        16.415    23285682.178 6  95350982.07306     -1171.603 6        36.397
G06        19.000    24811146.018 6 130383577.20506      2683.539 6        38.360                                    24811150.824 3 101597528.07803      2091.073 3        18.955    24811148.362 5 101597502.16505      2090.858 5        30.687
E36        20.000    23670427.998 6 124389068.49906        27.637 6        41.723                                                                    23670428.082 7  92887823.33207        20.773 7        43.082    23670426.970 7  95311014.08007        21.248 7        45.717
E05        21.000    25975475.592 5 136502054.15505      2193.813 5        32.479                                                                    25975472.482 4 101933360.90404      1639.236 4        25.789    25975479.727 4 104592476.42504      1680.849 4        28.957
G17        22.000    22387356.679 8 117646339.00608     -1501.814 8        49.342                                    22387351.104 5  91672541.09505     -1170.242 5        33.479    22387350.320 5  91672483.09805     -1170.518 5        33.701
S23        24.000    38245553.359 6 200981680.08806      -824.618 6        39.982
S36        25.000    38296466.587 5 201249185.25505      -827.971 5        35.738
R20        27.000                                                                                                                                    20661333.436 5  85933116.83005     -3186.640 5        33.240
R06        29.000    20198291.778 4                      1155.604 4        29.867
C19        33.000                                                                                                                                    23357244.767 7 121627404.28407      1219.619 7        42.736                                                                    23357237.583 6  98832109.34106       991.056 6        38.703
R21        34.000    19538234.032 7 104553138.11507         9.869 7        42.391
R05        36.000    20248618.307 8 108240579.54708     -3353.117 8        49.571                                                                    20248618.460 7  84187015.12507     -2608.071 7        45.127
R22        37.000                                                                                                                                    23014213.079 6  95551130.39006      2493.661 6        36.801
C39        38.000                                                                                                                                    39000209.735 4                     -1042.297 4        29.393
C06        41.000                                                                                                                                    38413717.836 7 200030308.94707      -474.351 7        43.270    38413712.195 7 154676088.86207      -366.793 7        46.132    38413710.110 6 162540975.34206      -385.408 6        41.220
C29        43.000                                                                                                                                    22644300.721 7 117914701.88807     -2863.290 7        43.807                                                                    22644294.432 5  95815465.95505     -2326.735 5        34.514
C16        45.000                                                                                                                                    38846588.979 6 202284467.93006      -594.028 6        38.438    38846591.262 7 156419110.12607      -459.372 7        42.677    38846586.786 5 164372625.41105      -482.874 5        35.862
C09        46.000                                                                                                                                    38950088.687 6 202823335.44306        13.060 6        40.060    38950083.468 6 156835866.95806        10.121 6        41.128    38950082.502 6 164810533.91606        10.581 6        40.484
C32        47.000                                                                                                                                    25073519.643 4 130564456.51404     -3596.550 4        29.735                                                                    25073535.887 4 106094378.55004     -2922.663 4        24.917
C44        48.000                                                                                                                                    26743316.680 4 139259543.08504      2283.021 4        28.095
C35        51.000                                                                                                                                    23427760.528 6 121994445.62706       638.297 6        37.592                                                                    23427752.940 5  99130523.22505       518.642 5        34.609
I09        54.000    37265481.301 4 146237761.22404      -742.088 4        27.772
C20        55.000                                                                                                                                    21926533.208 7 114177204.16407     -1337.920 7        46.949                                                                    21926527.871 7  92778409.92007     -1087.173 7        46.304
I01        56.000   332633512.618 6   2184548.28206     -2874.812 6        38.739
C30        58.000                                                                                                                                    26247246.077 3                     -4346.207 3        19.761
> 2025 01 01 01 30 10.0000000  0 38
G21         3.000    23289046.647 5                     -3731.635 5        32.030
G31         4.000    22490732.944 6 118189543.84406       356.892 6        37.187                                    22490740.566 1  92095814.36801       278.043 1         8.286
G02         5.000    21766250.305 7 114382416.24507     -2991.317 7        42.900                                    21766244.204 4  89129137.82004     -2330.899 4        27.257
E34         6.000    27065389.732 5 142229610.25505      1912.934 5        32.407                                                                    27065385.304 6 106210432.20506      1428.482 6        40.837    27065383.971 6 108981107.47806      1465.744 6        36.102
E04         7.000    24276376.334 7 127573302.05907     -2181.824 7        47.693                                                                    24276372.838 7  95265698.29507     -1629.346 7        43.050    24276373.142 6  97750890.26006     -1671.906 6        39.291
G03         8.000    20013888.209 7 105173688.14307      -805.566 7        45.333                                    20013884.278 5  81953558.20705      -627.717 5        35.924    20013885.166 5  81953548.22405      -627.755 5        34.781
G09         9.000    23342174.494 6 122664099.24816      2698.892 6        38.210                                    23342191.797 1  95582289.55011      2103.025 1         8.667    23342166.197 4                      2102.594 4        24.977
G04        11.000    21321364.078 5 112044545.67605      1661.877 5        34.929                                    21321358.607 1  87307387.69701      1295.000 1        11.630    21321360.908 6  87307409.70606      1295.027 6        36.749
E09        12.000    23992161.042 7 126079747.91007       575.220 7        47.093                                                                    23992159.921 8  94150452.84608       429.604 8        49.836    23992160.341 8  96606528.61808       440.801 8        50.689
E10        13.000    26500383.677 5 139260451.80805     -3504.169 5        31.849                                                                    26500382.789 6 103993224.51106     -2616.678 6        37.353    26500381.534 6 106706050.94506     -2685.012 6        38.652
E06        14.000    23476189.771 7 123368278.44307      -742.199 7        47.371                                                                    23476189.775 8  92125625.20408      -554.279 8        49.356    23476188.942 7  94528904.67807      -568.659 7        46.494
E11        15.000    24277978.067 5 127581685.75805     -2610.534 5        35.290                                                                    24277973.922 5  95271998.69805     -1949.252 5        32.084    24277973.421 6  97757321.61606     -2000.163 6        38.652
G19        16.000    22627720.447 6 118909702.56706       530.891 6        38.147                                    22627714.829 3  92656722.79103       413.666 3        23.238
G28        18.000    23287123.477 6 122374770.27306     -1506.715 6        39.643                                    23287114.562 2  95356818.25202     -1174.095 2        15.905    23287115.140 6  95356846.30906     -1174.056 6        36.435
G06        19.000    24808593.524 6 130370160.23706      2683.315 6        36.805                                    24808597.085 3 101587073.28903      2090.882 3        18.328    24808595.997 4 101587047.42504      2090.998 4        29.033
E36        20.000    23670402.630 7 124388933.86707        26.022 7        42.485                                                                    23670402.701 7  92887722.80307        19.434 7        43.077    23670401.529 7  95310910.91207        19.905 7        45.306
E05        21.000    25973387.562 5 136491085.62905      2193.523 5        33.012                                                                    25973385.408 3 101925170.16403      1638.028 3        23.829    25973393.281 4 104584071.98304      1680.709 4        29.204
G17        22.000    22388787.122 8 117653855.35608     -1504.724 8        49.594                                    22388780.650 5  91678397.98105     -1172.508 5        35.062    22388782.385 5  91678339.94405     -1172.386 5        35.152
S23        24.000    38246336.756 6 200985802.00906      -824.387 6        40.317
S36        25.000    38297256.633 6 201253323.62106      -827.768 6        36.953
R20        27.000                                                                                                                                    20665166.737 5  85949056.80205     -3189.173 5        34.752
R06        29.000    20197209.260 5                      1152.719 5        30.596
C19        33.000                                                                                                                                    23356074.475 7 121621308.76807      1218.440 7        44.176                                                                    23356067.094 6  98827156.24906       990.080 6        39.066
R21        34.000    19538221.887 7 104553099.28307         5.653 7        43.278
R05        36.000    20251755.922 8 108257350.00508     -3355.050 8        49.221                                                                    20251755.263 7  84200058.80607     -2609.486 7        45.016
R22        37.000    23011242.289 4 122835472.56004      3204.616 4        29.299                                                                    23011212.642 6  95538664.25506      2492.701 6        36.904
C39        38.000                                                                                                                                    39001210.766 4                     -1043.195 4        28.559
C06        41.000                                                                                                                                    38414173.538 7 200032682.52707      -475.164 7        43.422    38414168.020 7 154677924.26307      -367.472 7        46.171    38414166.110 6 162542904.03706      -386.043 6        41.535
C29        43.000                                                                                                                                    22647050.483 7 117929023.20107     -2865.361 7        44.001                                                                    22647044.713 5  95827103.15405     -2328.481 5        33.263
C16        45.000                                                                                                                                    38847160.503 6 202287440.46406      -594.911 6        38.465    38847162.023 7 156421408.67107      -460.082 7        42.476    38847157.659 6 164375040.80006      -483.475 6        36.106
C09        46.000                                                                                                                                    38950076.242 6 202823271.81506        12.286 6        40.732    38950070.975 6 156835817.75906         9.679 6        41.523    38950070.005 6 164810482.17406        10.135 6        40.543
C32        47.000                                                                                                                                                                                                                                                                    25076987.044 4 106108991.72504     -2923.034 4        24.977
C44        48.000                                                                                                                                    26741123.626 4 139248128.59204      2282.682 4        26.084
C35        51.000                                                                                                                                    23427156.506 6 121991259.97906       636.023 6        37.399                                                                    23427140.668 5  99127934.62005       516.887 5        33.742
I09        54.000    37266426.152 4 146241472.18204      -742.341 4        27.904
C20        55.000                                                                                                                                    21927819.303 7 114183897.85007     -1339.543 7        46.722                                                                    21927813.115 7  92783849.04707     -1088.515 7        46.372
I01        56.000   332637176.748 6   2198922.60706     -2874.926 6        38.814
C30        58.000                                                                                                                                    26251428.686 3                     -4348.257 3        21.143
> 2025 01 01 01 30 15.0000000  0 38
G21         3.000    23292599.677 5                     -3732.630 5        33.222
G31         4.000    22490399.188 6 118187767.41006       353.725 6        36.881                                    22490402.646 1  92094430.29401       275.743 1         8.095    22490377.484 4                       274.849 4        24.241
G02         5.000    21769097.660 7 114397377.78007     -2993.351 7        43.816                                    21769091.210 4  89140796.16504     -2332.482 4        27.054
E34         6.000    27063571.678 5 142220046.00505      1912.952 5        32.305                                                                    27063565.013 6 106203290.10906      1428.227 6        40.622    27063563.493 5 108973779.06605      1465.630 5        35.776
E04         7.000    24278453.286 8 127584215.12108     -2183.493 8        48.236                                                                    24278449.900 7  95273847.64707     -1630.487 7        42.550    24278449.867 6  97759252.17806     -1673.122 6        39.177
G03         8.000    20014654.924 7 105177720.69807      -807.434 7        43.536                                    20014650.432 5  81956700.46705      -629.166 5        34.424    20014653.523 5  81956690.46805      -629.336 5        34.681
G09         9.000    23339610.287 6 122650606.62906      2698.016 6        36.938                                    23339623.977 1  95571775.76401      2102.385 1         8.476    23339595.954 4                      2102.468 4        25.955
G04        11.000    21319785.813 5 112036241.23405      1659.567 5        34.324                                    21319778.152 1  87300916.65801      1293.262 1         6.375    21319779.908 6  87300938.69606      1293.480 6        36.060
E09        12.000    23991614.626 7 126076875.67707       573.532 7        47.676                                                                    23991613.469 8  94148308.00908       428.278 8        50.298    23991613.382 8  96604327.81808       439.452 8        50.662
E10        13.000    26503718.980 5 139277974.45405     -3505.051 5        31.630                                                                    26503717.011 6 104006309.60706     -2617.446 6        37.395    26503716.447 6 106719477.39306     -2685.549 6        38.865
E06        14.000    23476896.687 7 123371994.18807      -744.206 7        47.649                                                                    23476896.872 8  92128399.94208      -555.706 8        49.506    23476895.829 7  94531751.80807      -570.255 7        46.515
E11        15.000    24280462.081 5 127594740.81605     -2611.668 5        34.871                                                                    24280459.870 5  95281747.66605     -1950.591 5        34.662    24280457.709 6  97767324.87006     -2001.440 6        39.210
G19        16.000    22627217.215 6 118907055.39806       527.605 6        38.135                                    22627210.671 3  92654660.06303       411.124 3        21.952
G28        18.000    23288557.955 6 122382311.80306     -1510.019 6        38.495                                    23288549.895 2  95362694.75102     -1176.622 2        15.476    23288549.757 6  95362722.83106     -1176.672 6        36.817
G06        19.000    24806041.300 6 130356744.47706      2683.090 6        36.639                                    24806043.869 2 101576619.46702      2090.719 2        17.321    24806038.361 4 101576593.61804      2090.776 4        27.329
E36        20.000    23670378.386 7 124388807.14707        24.493 7        42.851                                                                    23670378.524 7  92887628.16407        18.231 7        43.471    23670377.597 7  95310813.80807        18.786 7        46.023
E05        21.000    25971300.914 5 136480119.13105      2192.963 5        32.234                                                                    25971299.483 4 101916980.95804      1637.939 4        24.286    25971310.792 4 104575669.08604      1680.354 4        29.801
G17        22.000    22390220.261 8 117661385.84108     -1507.546 8        49.490                                    22390213.523 6  91684265.88506     -1174.711 6        36.949    22390215.654 6  91684207.88306     -1174.694 6        36.836
S23        24.000    38247120.032 6 200989923.19606      -824.130 6        41.008
S36        25.000    38298034.297 6 201257462.00806      -827.719 6        36.287
R20        27.000    20669021.391 5                     -4103.037 5        30.309                                                                    20669002.812 5  85965007.89115     -3191.410 5        35.986
R06        29.000    20196131.125 4                      1150.512 4        29.109
C19        33.000                                                                                                                                    23354905.168 7 121615219.64407      1217.166 7        45.017                                                                    23354897.324 6  98822208.37406       988.852 6        39.000
R21        34.000    19538220.357 7 104553081.35407         1.536 7        45.406                                                                    19538208.354 4                         0.217 4        24.256
R05        36.000    20254895.139 8 108274129.65508     -3356.940 8        48.681                                                                    20254894.000 7  84213109.64007     -2610.979 7        44.071
R22        37.000                                                                                                                                    23008211.518 6  95526202.36806      2492.041 6        37.667
C39        38.000                                                                                                                                    39002215.321 5                     -1043.853 5        30.098
C06        41.000                                                                                                                                    38414629.632 7 200035060.12707      -475.984 7        43.384    38414624.608 7 154679762.77207      -368.106 7        46.427    38414622.788 6 162544836.05906      -386.810 6        41.540
C29        43.000                                                                                                                                    22649801.529 7 117943355.20207     -2867.543 7        43.390                                                                    22649797.852 5  95838749.09305     -2330.302 5        34.248
C16        45.000                                                                                                                                    38847732.074 6 202290416.93606      -595.721 6        38.733    38847733.948 6 156423710.26106      -460.667 6        41.969    38847729.295 5 164377459.45205      -484.294 5        35.857
C09        46.000                                                                                                                                    38950064.703 6 202823211.78506        11.513 6        40.255    38950059.126 6 156835771.33106         9.083 6        41.180    38950058.727 6 164810433.43006         9.191 6        40.670
C32        47.000                                                                                                                                                                                                                                                                    25080434.898 4                     -2923.446 4        26.359
C44        48.000                                                                                                                                    26738931.279 4 139236717.78304      2281.840 4        26.635
C35        51.000                                                                                                                                                                                                                                                                    23426530.842 5  99125355.70105       514.536 5        34.071
I09        54.000    37267374.150 4 146245183.31704      -742.454 4        27.365
C20        55.000                                                                                                                                    21929105.826 7 114190599.65807     -1341.270 7        47.726                                                                    21929100.038 7  92789294.84607     -1090.075 7        46.605
I01        56.000   332640838.938 6   2213297.10906     -2874.906 6        38.141
C30        58.000                                                                                                                                    26255602.024 3                     -4352.360 3        21.762
> 2025 01 01 01 30 20.0000000  0 39
G21         3.000    23296149.095 5 122422101.18415     -3733.526 5        34.395                                    23296142.225 1                     -2909.292 1        11.185
G31         4.000    22490062.634 6 118186007.78806       350.378 6        38.730                                    22490065.208 1  92093059.32301       273.003 1         8.476    22490044.647 4                       273.121 4        28.777
G02         5.000    21771948.727 7 114412349.90907     -2995.331 7        43.805                                    21771940.215 4  89152462.75504     -2334.018 4        26.455
E34         6.000    27061751.115 5 142210483.87105      1912.303 5        34.805                                                                    27061745.761 6 106196149.56206      1427.986 6        41.709    27061744.515 6 108966452.24106      1465.324 6        36.106
E04         7.000    24280531.468 8 127595137.13308     -2185.108 8        48.278                                                                    24280528.526 7  95282003.68707     -1631.748 7        42.034    24280528.215 6  97767620.97806     -1674.391 6        38.664
G03         8.000    20015422.935 6 105181763.70006      -809.570 6        41.671                                    20015418.550 5  81959850.87705      -630.825 5        33.347    20015422.087 5  81959840.85005      -631.015 5        33.407
G09         9.000    23337044.237 6 122637119.63906      2697.110 6        36.083                                    23337057.109 1  95561266.32601      2101.518 1         6.500    23337031.576 3                      2101.843 3        23.695
G04        11.000                                                                                                                                                                    21318199.359 5  87294476.58305      1291.541 5        33.862
E09        12.000    23991069.452 7 126074013.39507       571.522 7        47.701                                                                    23991068.958 8  94146170.58808       426.805 8        50.608    23991068.505 8  96602134.63908       437.966 8        50.353
E10        13.000    26507052.928 5 139295502.14205     -3505.650 5        32.748                                                                    26507053.049 6 104019398.46306     -2618.171 6        38.159    26507052.214 6 106732907.72106     -2686.249 6        39.048
E06        14.000    23477605.807 7 123375720.66307      -746.264 7        47.541                                                                    23477605.951 8  92131182.69808      -557.321 8        49.695    23477604.826 7  94534607.16407      -571.810 7        46.545
E11        15.000    24282948.362 5 127607804.23905     -2613.821 5        33.826                                                                    24282945.832 6  95291502.75206     -1951.575 6        36.817    24282943.862 6  97777334.45106     -2002.599 6        39.814
G19        16.000    22626716.724 6 118904425.26006       524.413 6        38.285                                    22626709.886 3  92652610.61203       408.630 3        20.857
G28        18.000    23289996.393 6 122389870.01206     -1513.193 6        37.130                                    23289988.376 2  95368584.30202     -1179.098 2        15.333    23289988.721 6  95368612.32006     -1178.917 6        36.053
G06        19.000    24803488.050 5 130343330.85105      2682.694 5        35.043                                    24803490.854 2 101566167.29202      2090.398 2        15.619    24803486.273 4 101566141.45104      2090.248 4        25.338
E36        20.000    23670356.283 7 124388689.25507        22.818 7        43.401                                                                    23670356.913 7  92887540.14707        16.903 7        43.587    23670355.281 7  95310723.48807        17.397 7        45.898
E05        21.000    25969215.076 5 136469155.62505      2192.370 5        30.204                                                                    25969214.573 4 101908793.85504      1637.818 4        25.504    25969230.000 5 104567268.41305      1680.205 5        30.581
G17        22.000    22391656.332 8 117668931.37408     -1510.524 8        49.479                                    22391649.607 6  91690145.52306     -1177.029 6        38.583    22391652.083 6  91690087.52306     -1177.072 6        38.601
S23        24.000    38247904.028 6 200994044.64906      -824.109 6        40.784
S36        25.000    38298816.263 5 201261601.60805      -827.926 5        35.510
R20        27.000    20672848.858 4                     -4106.508 4        29.299                                                                    20672843.686 6  85980970.84906     -3193.681 6        36.499
R06        29.000    20195053.710 4                      1147.604 4        28.844
R14        30.000    23411555.605 3 124796760.48813       181.645 3        23.581
C19        33.000                                                                                                                                    23353737.435 7 121609137.81907      1215.739 7        45.472                                                                    23353729.493 6  98817266.39406       987.852 6        38.099
R21        34.000    19538223.286 7 104553085.11007        -2.834 7        46.216                                                                    19538216.980 4                        -1.746 4        24.917
R05        36.000    20258035.634 7 108290919.66607     -3358.849 7        47.784                                                                    20258035.126 7  84226168.52007     -2612.427 7        42.165
R22        37.000    23005211.326 5                      3202.134 5        34.724                                                                    23005211.795 6  95513745.38516      2491.026 6        37.660
C39        38.000                                                                                                                                    39003220.667 5                     -1044.751 5        32.383
C06        41.000                                                                                                                                    38415087.131 7 200037442.65807      -476.954 7        43.363    38415082.313 7 154681605.09407      -368.767 7        46.806    38415080.414 6 162546772.07306      -387.715 6        41.514
C29        43.000                                                                                                                                    22652555.457 7 117957698.80607     -2869.839 7        43.014                                                                    22652552.880 5  95850404.41405     -2331.935 5        34.924
C16        45.000                                                                                                                                    38848304.613 6 202293398.20306      -596.660 6        39.222    38848306.057 7 156426015.58007      -461.347 7        42.191    38848301.710 5 164379881.98805      -484.806 5        35.324
C09        46.000                                                                                                                                    38950055.014 6 202823156.22006        10.733 6        40.832    38950049.373 6 156835728.39706         8.255 6        41.499    38950047.995 6 164810388.26806         8.687 6        40.634
C32        47.000                                                                                                                                    25083907.934 4                     -3597.692 4        25.504                                                                    25083882.086 4                     -2923.920 4        25.654
C44        48.000                                                                                                                                    26736740.609 4 139225311.61604      2280.824 4        25.489
C35        51.000                                                                                                                                                                                                                                                                    23425923.741 5  99122787.04405       512.707 5        34.690
I09        54.000    37268318.231 4 146248895.63104      -742.455 4        28.322
C20        55.000                                                                                                                                    21930394.412 8 114197310.52608     -1342.976 8        48.971                                                                    21930388.895 7  92794747.96807     -1091.265 7        46.756
I01        56.000   332644501.889 6   2227672.47006     -2875.242 6        38.243
C30        58.000                                                                                                                                    26259768.843 3                     -4347.719 3        21.500
> 2025 01 01 01 30 25.0000000  0 39
G21         3.000    23299702.841 5 122440772.58605     -3734.527 5        35.519                                    23299695.814 2  95408357.19112     -2910.020 2        13.273
G31         4.000    22489729.648 5 118184264.38405       347.591 5        34.586                                    22489730.467 1  92091700.96901       270.821 1        10.963    22489715.572 5                       270.318 5        30.936
G02         5.000    21774800.598 7 114427332.18907     -2997.313 7        43.446                                    21774791.112 4  89164137.24804     -2335.552 4        26.299
E34         6.000    27059930.243 5 142200923.32905      1912.179 5        34.867                                                                    27059926.889 6 106189010.20006      1427.865 6        41.864    27059925.264 6 108959126.65406      1465.174 6        36.420
E04         7.000    24282611.716 8 127606067.63408     -2186.741 8        48.031                                                                    24282607.865 6  95290166.07506     -1633.024 6        41.020    24282608.494 6  97775996.29606     -1675.665 6        38.829
G03         8.000    20016194.792 6 105185816.71406      -811.368 6        41.335                                    20016189.055 5  81963009.07905      -632.228 5        33.401    20016192.847 5  81962999.04605      -632.411 5        32.443
G09         9.000    23334477.054 5 122623637.84805      2696.262 5        33.186                                    23334491.274 1  95550760.83101      2101.040 1         7.875    23334466.041 4                      2100.622 4        28.104
G04        11.000                                                                                                                                                                    21316625.391 5  87288022.94105      1290.199 5        33.689
E09        12.000    23990526.619 7 126071160.59907       569.780 7        47.672                                                                    23990526.122 8  94144040.25208       425.518 8        50.680    23990525.332 8  96599948.71908       436.615 8        50.178
E10        13.000    26510388.937 5 139313034.44505     -3506.731 5        33.671                                                                    26510389.473 6 104032490.74206     -2618.614 6        38.210    26510388.663 6 106746341.54506     -2686.813 6        39.156
E06        14.000    23478317.055 7 123379457.43007      -748.141 7        47.730                                                                    23478316.983 8  92133973.14808      -558.700 8        49.852    23478315.916 7  94537470.40107      -573.294 7        46.895
E11        15.000    24285435.825 5 127620875.36305     -2615.030 5        32.132                                                                    24285433.179 6  95301263.67906     -1952.676 6        38.177    24285431.215 6  97787350.00906     -2003.568 6        40.288
G19        16.000    22626219.604 6 118901811.69206       521.267 6        38.787                                    22626212.409 3  92650574.06003       406.186 3        19.672
G28        18.000    23291436.056 5 122397444.42905     -1515.981 5        35.962                                    23291430.054 2  95374486.46002     -1181.297 2        15.000    23291430.027 5  95374514.50705     -1181.582 5        34.933
G06        19.000    24800935.948 5 130329918.89805      2682.307 5        35.329                                    24800937.982 2 101555716.43702      2090.076 2        13.636    24800932.823 4 101555690.60804      2090.071 4        25.609
E36        20.000    23670335.880 7 124388579.77107        21.331 7        43.354                                                                    23670335.998 7  92887458.38107        15.870 7        43.225    23670334.465 7  95310639.58107        16.345 7        45.746
E05        21.000    25967130.450 4 136458194.56304      2192.107 4        29.374                                                                    25967130.177 4 101900608.72704      1636.730 4        24.707    25967145.425 5 104558869.67505      1679.781 5        30.815
G17        22.000    22393094.638 8 117676491.49308     -1513.258 8        49.549                                    22393088.661 6  91696036.51806     -1179.159 6        40.017    22393091.219 6  91695978.52006     -1179.257 6        39.529
S23        24.000    38248683.593 6 200998165.90306      -824.027 6        40.672
S36        25.000    38299611.743 6 201265741.28706      -827.914 6        36.575
R20        27.000    20676685.336 4                     -4109.072 4        26.719                                                                    20676685.520 6  85996945.24516     -3195.780 6        36.178
R06        29.000    20193978.875 4                      1145.180 4        28.626
R14        30.000    23411369.162 3                       177.142 3        23.924
C19        33.000                                                                                                                                    23352571.347 7 121603062.83807      1214.607 7        46.236                                                                    23352562.824 6  98812330.00506       987.022 6        38.613
R21        34.000    19538226.604 7 104553110.03107        -6.880 7        46.454                                                                    19538227.926 4                        -5.473 4        28.076
R05        36.000    20261177.898 7 108307719.09407     -3360.654 7        47.217                                                                    20261177.955 6  84239234.74806     -2613.935 6        40.510
R22        37.000    23002217.422 6 122787365.95816      3201.650 6        39.270                                                                    23002213.151 6  95501293.03406      2490.006 6        38.583
C39        38.000                                                                                                                                    39004225.870 5                     -1045.593 5        33.994
C06        41.000                                                                                                                                    38415545.960 7 200039829.68607      -477.618 7        42.914    38415540.632 7 154683450.89807      -369.328 7        47.054    38415538.852 6 162548711.70406      -388.096 6        41.859
C29        43.000                                                                                                                                    22655312.139 7 117972053.52107     -2871.855 7        42.720                                                                    22655310.206 6  95862068.75006     -2333.589 6        36.280
C16        45.000                                                                                                                                    38848877.555 6 202296383.87006      -597.217 6        38.919    38848880.312 7 156428324.29007      -461.886 7        42.195    38848875.181 6 164382308.07606      -485.387 6        36.000
C09        46.000                                                                                                                                    38950046.173 6 202823104.67006        10.072 6        41.559    38950039.714 6 156835688.52406         8.028 6        41.800    38950038.028 6 164810346.37506         8.257 6        40.820
C32        47.000                                                                                                                                    25087361.158 5                     -3597.878 5        30.332                                                                    25087338.560 4                     -2922.943 4        25.789
C44        48.000                                                                                                                                    26734550.237 4 139213909.32404      2279.800 4        26.874
C35        51.000                                                                                                                                    23425346.939 4                       628.907 4        28.938                                                                    23425318.137 5  99120228.36605       510.971 5        33.964
I09        54.000    37269267.609 4 146252608.38304      -742.405 4        28.550
C20        55.000                                                                                                                                    21931684.563 8 114204029.98408     -1344.543 8        50.283                                                                    21931679.080 7  92800208.07407     -1092.536 7        46.861
I01        56.000   332648165.598 6   2242048.33406     -2875.122 6        38.321
C30        58.000                                                                                                                                    26263943.255 3                     -4347.534 3        21.476
> 2025 01 01 01 30 30.0000000  0 38
G21         3.000    23303255.769 5 122459449.31005     -3735.724 5        35.457                                    23303250.517 2  95422910.47002     -2910.974 2        13.273
G31         4.000                                                                                                                                                                    22489390.521 5                       267.892 5        31.781
G02         5.000    21777652.670 7 114442324.71307     -2999.499 7        42.559                                    21777644.065 4  89175819.71904     -2337.260 4        26.407
E34         6.000    27058112.222 5 142191364.54805      1911.750 5        35.533                                                                    27058107.575 7 106181872.17507      1427.499 7        42.008    27058105.978 6 108951802.42506      1464.879 6        36.938
E04         7.000    24284693.460 7 127617006.73007     -2188.546 7        47.602                                                                    24284688.933 6  95298334.87406     -1634.337 6        40.696    24284690.527 6  97784378.20406     -1676.880 6        39.844
G03         8.000    20016969.015 7 105189879.88107      -813.616 7        42.506                                    20016961.984 5  81966175.18605      -633.981 5        34.100    20016969.603 5  81966165.15905      -633.921 5        35.967
G09         9.000                                                                                                                                                                    23331904.638 4                      2099.940 4        29.972
G04        11.000    21315127.322 5 112011394.42105      1653.046 5        34.100                                    21315078.754 1  87281555.81201      1288.240 1         1.333    21315055.062 5  87281577.94305      1288.262 5        34.429
E09        12.000    23989985.728 7 126068317.40607       567.739 7        47.827                                                                    23989985.098 8  94141917.09708       423.968 8        51.147    23989983.944 8  96597770.17008       435.031 8        49.953
E10        13.000    26513726.445 5 139330571.43905     -3507.584 5        34.710                                                                    26513726.157 6 104045586.56006     -2619.571 6        38.243    26513726.539 6 106759779.01106     -2687.870 6        39.396
E06        14.000    23479030.267 8 123383204.62808      -750.343 8        48.029                                                                    23479030.043 8  92136771.38008      -560.352 8        50.020    23479029.159 7  94540341.63607      -574.964 7        47.107
E11        15.000    24287924.140 5 127633954.44505     -2616.268 5        31.268                                                                    24287921.804 6  95311030.54306     -1953.792 6        38.426    24287920.036 6  97797371.65706     -2004.905 6        40.629
G19        16.000    22625724.262 6 118899214.89806       517.828 6        38.769                                    22625717.825 3  92648550.58103       403.507 3        18.836
G28        18.000    23292879.898 6 122405035.23206     -1519.440 6        36.019                                    23292874.544 2  95380401.37902     -1184.024 2        14.810    23292874.878 5  95380429.42505     -1184.415 5        32.593
G06        19.000    24798385.717 6 130316508.75406      2681.729 6        36.457                                    24798384.784 2 101545267.06202      2089.639 2        12.061    24798379.806 4 101545241.17404      2089.763 4        26.742
E36        20.000    23670316.127 7 124388478.81507        19.550 7        43.082                                                                    23670316.097 7  92887382.99407        14.543 7        42.773    23670315.257 7  95310562.23007        14.892 7        46.075
E05        21.000    25965043.826 4 136447236.10704      2191.643 4        29.820                                                                    25965044.863 4 101892425.49004      1636.979 4        25.459    25965059.983 5 104550472.96305      1679.062 5        30.408
G17        22.000    22394536.233 8 117684066.33908     -1516.359 8        49.664                                    22394530.602 6  91701938.99706     -1181.577 6        41.030    22394532.152 6  91701880.97506     -1181.448 6        39.703
S23        24.000    38249474.882 6 201002287.24706      -824.196 6        40.818
S36        25.000    38300400.439 6 201269881.75006      -828.091 6        36.533
R20        27.000    20680526.616 3                     -4111.532 3        23.619                                                                    20680527.510 5                     -3198.120 5        34.581
R06        29.000    20192907.251 4                      1142.279 4        28.000
R14        30.000    23411221.115 3                       175.283 3        21.619
C19        33.000                                                                                                                                    23351406.958 7 121596994.84307      1213.021 7        46.585                                                                    23351397.054 6  98807399.27006       985.772 6        38.751
R21        34.000    19538235.920 7                       -11.323 7        47.551                                                                    19538233.847 4                        -9.416 4        29.735
R05        36.000    20264322.348 8 108324528.58008     -3362.781 8        48.198                                                                    20264322.613 6  84252308.77106     -2615.426 6        40.284
R22        37.000    22999223.090 6 122771361.83406      3200.302 6        40.687                                                                    22999213.509 6  95488845.37706      2489.061 6        37.981
C39        38.000                                                                                                                                    39005226.650 5 203110461.65215     -1046.430 5        34.114
C06        41.000                                                                                                                                    38416004.934 7 200042221.34107      -478.643 7        42.728    38416000.117 7 154685300.27607      -370.154 7        46.842    38415998.323 6 162550655.13106      -388.909 6        41.826
C29        43.000                                                                                                                                    22658070.966 7 117986419.45507     -2874.153 7        42.893                                                                    22658069.544 6  95873742.26406     -2335.694 6        36.529
C16        45.000                                                                                                                                    38849451.344 6 202299374.04806      -598.350 6        37.951    38849454.329 7 156430636.48107      -462.707 7        42.078    38849449.665 6 164384737.82506      -486.272 6        36.265
C09        46.000                                                                                                                                    38950037.195 6 202823057.30806         9.243 6        40.872    38950030.167 6 156835651.92206         6.962 6        41.428    38950028.969 6 164810307.90006         7.398 6        40.684
C32        47.000                                                                                                                                    25090819.632 5                     -3598.153 5        32.018                                                                    25090799.087 4                     -2923.619 4        26.419
C44        48.000                                                                                                                                    26732362.748 4 139202511.22404      2279.296 4        28.237
C35        51.000                                                                                                                                    23424739.907 5                       626.185 5        33.168                                                                    23424715.946 5  99117679.79205       508.841 5        33.042
I09        54.000    37270212.208 4 146256322.00004      -742.870 4        27.928
C20        55.000                                                                                                                                    21932976.939 8 114210758.17808     -1346.424 8        51.614                                                                    21932970.956 7  92805675.29507     -1094.121 7        46.538
I01        56.000   332651829.019 6   2256424.91006     -2875.168 6        37.773
> 2025 01 01 01 30 35.0000000  0 38
G21         3.000    23306810.460 5 122478131.68305     -3737.145 5        35.205                                    23306805.972 2  95437468.18102     -2912.061 2        13.273
G31         4.000    22489060.347 6 118180827.29506       340.308 6        37.819                                    22489071.274 2  92089022.74402       265.182 2        15.952    22489063.940 4                       265.244 4        29.858
G02         5.000    21780504.067 6 114457327.74806     -3001.727 6        39.913                                    21780499.241 4  89187510.37604     -2339.006 4        26.407
E34         6.000    27056294.830 6 142181807.83706      1911.140 6        37.614                                                                    27056289.000 7 106174735.66607      1427.032 7        42.468    27056287.016 6 108944479.74206      1464.497 6        37.350
E04         7.000    24286776.744 7 127627954.70207     -2190.600 7        47.292                                                                    24286772.406 6  95306510.29506     -1635.810 6        40.338    24286774.118 6  97792766.90206     -1678.427 6        40.396
G03         8.000    20017744.229 7 105193953.46507      -815.942 7        42.540                                    20017737.403 5  81969349.39505      -635.793 5        34.814    20017743.482 6  81969339.37506      -635.761 6        37.864
G09         9.000    23329340.843 3                      2693.599 3        20.476                                                                                                    23329342.349 5                      2098.892 5        31.185
G04        11.000    21313550.156 5 112003134.52505      1650.854 5        32.030                                                                                                    21313484.203 5  87275141.75305      1286.433 5        33.605
E09        12.000    23989446.458 7 126065484.10507       565.584 7        47.950                                                                    23989445.945 8  94139801.31108       422.381 8        51.084    23989444.606 8  96595599.19108       433.335 8        49.765
E10        13.000    26517064.902 5 139348113.44005     -3508.847 5        33.928                                                                    26517064.244 6 104058686.07106     -2620.252 6        38.940    26517064.586 6 106773220.25206     -2688.758 6        39.468
E06        14.000    23479745.385 8 123386962.50008      -752.762 8        48.345                                                                    23479745.020 8  92139577.58008      -562.057 8        49.989    23479744.247 7  94543221.03807      -576.765 7        47.338
E11        15.000    24290414.945 5 127647041.77105     -2618.472 5        32.012                                                                    24290412.470 6  95320803.52006     -1955.239 6        39.598    24290410.077 6  97807399.57406     -2006.327 6        40.215
G19        16.000    22625233.475 6 118896635.12706       514.265 6        38.832                                    22625226.595 3  92646540.37403       400.727 3        18.239
G28        18.000    23294327.935 5 122412642.70905     -1523.310 5        35.300                                    23294322.178 2  95386329.27102     -1186.998 2        14.381    23294322.048 5  95386357.21605     -1187.177 5        31.804
G06        19.000    24795835.233 5 130303100.70905      2681.171 5        35.833                                    24795832.038 1 101534819.33601      2089.129 1        10.222    24795825.384 3 101534793.30703      2089.157 3        23.771
E36        20.000    23670298.221 7 124388386.64507        17.446 7        42.099                                                                    23670297.876 7  92887314.18107        13.119 7        42.246    23670297.944 7  95310491.61207        13.381 7        45.869
E05        21.000    25962959.380 5 136436280.56805      2191.138 5        31.049                                                                    25962960.839 4 101884244.44504      1635.884 4        26.898    25962975.126 4 104542078.44504      1678.498 4        28.938
G17        22.000    22395981.227 8 117691656.16608     -1519.555 8        50.637                                    22395975.370 7  91707853.13907     -1184.062 7        42.008    22395976.665 6  91707795.13906     -1184.022 6        40.207
S23        24.000    38250260.806 6 201006408.86806      -824.417 6        40.229
S36        25.000    38301186.966 5 201274022.95005      -828.196 5        35.267
R20        27.000    20684374.197 3                     -4116.473 3        20.762                                                                    20684369.876 5  86028928.62515     -3200.805 5        34.938
R06        29.000    20191837.889 4                      1140.179 4        24.662
C19        33.000                                                                                                                                    23350242.925 7 121590934.10407      1211.370 7        46.038                                                                    23350232.334 6  98802474.44006       984.285 6        37.410
R21        34.000    19538249.272 7 104553224.67417       -15.972 7        47.958                                                                    19538247.745 5                       -12.348 5        31.811
R05        36.000    20267468.807 7 108341348.16507     -3365.016 7        47.535                                                                    20267469.458 6  84265390.67306     -2617.238 6        41.290
R22        37.000    22996228.607 6 122755364.05506      3198.865 6        41.959                                                                    22996217.223 6  95476402.64806      2488.030 6        38.513
C39        38.000                                                                                                                                    39006233.013 5 203115696.68705     -1047.544 5        33.467
C06        41.000                                                                                                                                    38416465.264 7 200044617.91307      -479.931 7        42.434    38416460.227 7 154687153.45307      -371.109 7        46.973    38416458.666 7 162552602.53307      -390.115 7        42.093
C29        43.000                                                                                                                                    22660832.469 7 118000796.91407     -2876.718 7        42.495                                                                    22660830.750 6  95885425.08706     -2337.591 6        37.085
C16        45.000                                                                                                                                    38850025.881 6 202302369.00006      -599.548 6        37.822    38850029.291 7 156432952.34507      -463.634 7        42.660    38850025.163 6 164387171.44906      -487.398 6        36.219
C09        46.000                                                                                                                                    38950027.281 6 202823014.39906         8.115 6        40.670    38950020.978 6 156835618.71706         6.276 6        40.775    38950020.853 6 164810273.01606         6.650 6        40.911
C32        47.000                                                                                                                                    25094278.231 4                     -3598.805 4        29.204
C44        48.000                                                                                                                                    26730172.615 5 139191117.56305      2278.523 5        30.272
C35        51.000                                                                                                                                    23424133.828 5                       621.776 5        34.152                                                                    23424116.085 5  99115141.49205       506.505 5        33.018
I09        54.000    37271157.096 4 146260036.60104      -743.563 4        25.008
C20        55.000                                                                                                                                    21934270.708 8 114217495.37808     -1348.406 8        52.044                                                                    21934264.638 7  92811149.80207     -1095.714 7        46.240
I01        56.000   332655493.193 6   2270802.32706     -2875.820 6        38.054
C30        58.000                                                                                                                                    26272304.719 3                     -4349.009 3        20.476
> 2025 01 01 01 30 40.0000000  0 39
G21         3.000    23310366.931 6 122496819.94506     -3737.939 6        36.057                                    23310362.284 2  95452030.42202     -2912.669 2        14.048
G31         4.000    22488745.059 6 118179134.07806       337.053 6        41.163                                    22488746.835 2  92087703.39602       262.636 2        17.962    22488740.217 4                       262.565 4        27.377
G02         5.000    21783360.330 6 114472341.54206     -3003.803 6        38.742                                    21783356.666 4  89199209.43404     -2340.609 4        25.895
E34         6.000    27054476.244 6 142172253.42806      1910.837 6        38.042                                                                    27054471.021 7 106167600.88307      1426.936 7        42.370    27054468.907 6 108937158.87006      1464.092 6        37.735
E04         7.000    24288861.748 7 127638911.84707     -2192.147 7        47.322                                                                    24288858.107 6  95314692.57706     -1636.982 6        39.946    24288859.118 6  97801162.63106     -1679.607 6        40.930
G03         8.000    20018521.439 7 105198037.75307      -817.723 7        45.249                                    20018515.139 5  81972531.95005      -637.187 5        35.786    20018519.940 6  81972521.95206      -637.283 6        38.634
G09         9.000                                                                                                                                                                    23326779.894 5                      2098.079 5        32.635
G04        11.000                                                                                                                                                                    21311913.971 5  87268714.65605      1284.790 5        34.186
E09        12.000    23988909.244 8 126062660.98308       563.843 8        48.369                                                                    23988908.669 8  94137693.14508       420.983 8        50.969    23988907.145 8  96593436.02008       432.002 8        49.383
E10        13.000    26520403.975 5 139365660.70405     -3509.864 5        33.000                                                                    26520403.117 6 104071789.52206     -2620.906 6        38.871    26520403.437 6 106786665.54906     -2689.285 6        39.309
E06        14.000    23480462.395 8 123390731.35708      -754.661 8        48.484                                                                    23480462.204 8  92142391.98608      -563.570 8        49.935    23480461.266 7  94546108.85807      -578.248 7        47.400
E11        15.000    24292908.648 5 127660137.49205     -2619.694 5        34.186                                                                    24292904.341 6  95330582.84206     -1956.342 6        40.281    24292901.921 6  97817433.99906     -2007.302 6        40.143
G19        16.000    22624745.661 6 118894072.67806       510.928 6        39.895                                    22624738.844 3  92644543.63103       398.121 3        18.179
G28        18.000    23295779.281 6 122420267.05406     -1526.046 6        36.635                                    23295773.001 2  95392270.31602     -1189.132 2        14.381    23295773.363 5  95392298.32505     -1189.708 5        30.438
G06        19.000    24793282.124 5 130289695.09305      2680.781 5        34.862                                    24793279.828 1 101524373.49601      2088.879 1        10.370    24793279.595 3                      2088.121 3        23.029
E36        20.000    23670282.055 6 124388303.58806        15.933 6        41.585                                                                    23670281.281 7  92887252.16807        11.944 7        42.146    23670282.363 7  95310427.98407        12.190 7        45.672
E05        21.000    25960874.715 4 136425328.28604      2190.326 4        29.867                                                                    25960876.323 4 101876065.71404      1636.042 4        27.006    25960891.806 4 104533686.37404      1678.284 4        28.360
G17        22.000    22397428.451 8 117699261.26808     -1522.384 8        50.567                                    22397423.031 7  91713779.18807     -1186.274 7        42.610    22397424.312 6  91713721.20706     -1186.293 6        41.087
S23        24.000    38251041.971 6 201010530.91806      -824.353 6        39.985
S36        25.000    38301988.146 5 201278164.11705      -828.129 5        35.057
R20        27.000                                                                                                                                    20688218.692 5  86044938.00205     -3202.966 5        35.067
R06        29.000    20190766.887 3                      1135.702 3        19.104
R14        30.000    23410925.416 5                       165.884 5        30.928
C19        33.000                                                                                                                                    23349078.745 7 121584880.90907      1210.144 7        45.279                                                                    23349069.522 6  98797555.73906       983.382 6        36.817
R21        34.000    19538265.826 8                       -20.083 8        48.538                                                                    19538268.725 5                       -15.935 5        33.766
R05        36.000    20270617.344 8 108358178.02108     -3366.806 8        48.111                                                                    20270616.717 6  84278480.55506     -2618.744 6        41.704
R22        37.000    22993236.637 6 122739372.93006      3197.670 6        41.940                                                                    22993221.627 6  95463965.13906      2487.067 6        40.005
C39        38.000                                                                                                                                    39007236.667 5 203120936.70305     -1048.621 5        31.132
C06        41.000                                                                                                                                    38416926.406 7 200047019.63807      -480.723 7        42.209    38416921.184 7 154689010.61207      -371.618 7        47.233    38416920.315 7 162554554.12607      -390.531 7        42.078
C29        43.000                                                                                                                                    22663596.150 6 118015186.17306     -2878.875 6        41.356                                                                    22663594.806 6  95897117.50106     -2339.189 6        38.219
C16        45.000                                                                                                                                    38850602.606 6 202305368.97906      -600.343 6        38.396    38850606.051 7 156435272.13807      -464.104 7        42.385    38850601.061 5 164389609.20505      -487.832 5        35.929
C09        46.000                                                                                                                                    38950019.483 6 202822976.21506         7.358 6        40.920    38950013.882 6 156835589.20106         5.675 6        41.075    38950013.372 6 164810241.98306         6.198 6        40.605
C32        47.000                                                                                                                                    25097736.132 4                     -3599.144 4        28.521                                                                    25097730.195 4                     -2924.601 4        25.925
C44        48.000                                                                                                                                    26727988.314 5 139179728.71805      2277.326 5        30.204
C35        51.000                                                                                                                                    23423534.527 6                       621.328 6        37.168                                                                    23423519.483 5  99112613.74405       504.736 5        33.317
I09        54.000    37272103.727 4 146263752.30204      -742.686 4        27.257
C20        55.000                                                                                                                                    21935565.962 8 114224241.87008     -1350.020 8        51.793                                                                    21935560.171 7  92816631.85907     -1096.979 7        45.970
I01        56.000   332659156.978 6   2285180.64306     -2875.587 6        38.162
C30        58.000                                                                                                                                    26276477.758 3                     -4345.658 3        20.476
> 2025 01 01 01 30 45.0000000  0 38
G21         3.000    23313925.131 5 122515513.29505     -3739.239 5        35.200                                    23313919.675 2  95466596.68402     -2913.683 2        15.667
G31         4.000    22488430.744 7 118177457.10107       333.755 7        42.051                                    22488426.649 2  92086396.68102       260.069 2        16.264    22488424.132 4                       260.598 4        28.882
G02         5.000    21786222.034 6 114487365.30006     -3005.524 6        39.168                                    21786216.005 4  89210916.25904     -2341.964 4        25.789
E34         6.000    27052657.684 6 142162700.53706      1910.558 6        36.635                                                                    27052653.106 7 106160467.22907      1426.710 7        42.286    27052650.796 6 108929839.10906      1463.915 6        37.527
E04         7.000    24290948.826 7 127649877.29507     -2193.736 7        47.182                                                                    24290944.971 6  95322881.04506     -1637.895 6        40.205    24290945.414 6  97809564.73606     -1680.898 6        41.721
G03         8.000    20019301.219 7 105202131.92407      -819.767 7        46.008                                    20019294.941 6  81975722.21506      -638.781 6        37.437    20019299.152 6  81975712.19006      -638.743 6        39.360
G09         9.000    23324239.339 4                      2691.614 4        25.504                                                                                                    23324218.875 5  95508777.11015      2097.296 5        34.143
G04        11.000                                                                                                                                                                    21310344.628 5  87262296.07805      1282.904 5        35.424
E09        12.000    23988374.061 8 126059847.20708       561.908 8        48.424                                                                    23988373.161 8  94135591.95008       419.611 8        51.055    23988371.456 8  96591280.01808       430.569 8        49.250
E10        13.000    26523742.915 5 139383212.33705     -3510.586 5        31.313                                                                    26523742.821 6 104084896.30606     -2621.628 6        38.682    26523742.731 6 106800114.23706     -2689.955 6        39.033
E06        14.000    23481181.509 8 123394510.35508      -756.780 8        48.474                                                                    23481181.249 8  92145213.95708      -565.061 8        49.989    23481180.419 7  94549004.45107      -579.837 7        47.501
E11        15.000    24295403.394 6 127673240.91706     -2621.409 6        36.870                                                                    24295397.611 6  95340367.86706     -1957.411 6        40.391    24295395.589 6  97827474.30406     -2008.422 6        40.384
G19        16.000    22624261.168 6 118891526.68806       507.652 6        40.279                                    22624254.527 3  92642559.72303       395.562 3        18.478
G28        18.000    23297233.466 5 122427907.42105     -1529.514 5        35.352                                    23297226.873 2  95398223.81302     -1191.829 2        14.524    23297226.466 5  95398251.84305     -1191.695 5        30.038
G06        19.000    24790732.293 5 130276291.04405      2680.660 5        34.805                                    24790728.865 1 101513928.84101      2088.811 1        10.963    24790723.647 3                      2088.688 3        21.190
E36        20.000    23670267.836 6 124388228.80806        14.266 6        41.313                                                                    23670266.443 6  92887196.34506        10.675 6        41.969    23670268.124 7  95310370.69907        10.940 7        45.842
E05        21.000    25958791.710 5 136414378.32505      2189.998 5        33.024                                                                    25958791.523 4 101867888.85204      1635.708 4        26.455    25958809.092 4 104525296.08304      1678.251 4        27.581
G17        22.000    22398878.232 8 117706880.78608     -1525.293 8        50.186                                    22398873.348 7  91719716.47707     -1188.540 7        42.997    22398874.124 6  91719658.49006     -1188.494 6        41.225
S23        24.000    38251825.484 6 201014652.74106      -824.362 6        39.901
S36        25.000    38302769.875 5 201282305.12905      -828.216 5        35.381
R20        27.000    20692055.953 3                     -4121.755 3        22.267                                                                    20692069.815 5  86060958.61405     -3205.306 5        34.714
R14        30.000    23410770.108 5                       162.043 5        32.006
C19        33.000                                                                                                                                    23347916.338 7 121578834.43407      1208.671 7        44.448                                                                    23347908.413 6  98792642.51806       981.965 6        36.231
R21        34.000    19538287.088 8 104553426.41118       -24.289 8        49.226                                                                    19538288.463 5  81319264.88315       -19.000 5        35.014
R05        36.000    20273767.774 8 108375017.49108     -3368.725 8        48.405                                                                    20273766.280 6  84291577.89706     -2620.247 6        41.328
R22        37.000    22990245.541 6 122723387.64906      3196.655 6        40.782                                                                    22990227.417 6  95451532.16106      2486.265 6        41.507
C39        38.000                                                                                                                                    39008244.232 5 203126180.64805     -1048.899 5        30.083
C06        41.000                                                                                                                                    38417388.557 7 200049425.72707      -481.457 7        42.231    38417383.235 7 154690871.15607      -372.283 7        46.946    38417382.132 6 162556509.29606      -391.462 6        41.769
C29        43.000                                                                                                                                    22666362.383 6 118029586.37806     -2881.020 6        39.889                                                                    22666359.415 6  95908818.86906     -2341.047 6        38.153
C16        45.000                                                                                                                                    38851180.602 6 202308373.20606      -601.140 6        38.637    38851182.366 6 156437595.19006      -464.827 6        41.549    38851178.052 6 164392050.39806      -488.559 6        36.223
C09        46.000                                                                                                                                    38950012.717 6 202822941.92806         6.695 6        40.453    38950008.520 6 156835562.69306         5.068 6        41.683    38950006.669 6 164810214.15506         5.360 6        40.517
C32        47.000                                                                                                                                    25101193.756 4                     -3599.607 4        27.689                                                                    25101178.536 4                     -2924.614 4        28.436
C44        48.000                                                                                                                                    26725804.511 4 139168343.80104      2277.139 4        29.280
C35        51.000                                                                                                                                    23422939.597 6 121969402.05916       618.498 6        40.265                                                                    23422923.893 5  99110095.85505       502.878 5        32.748
I09        54.000    37273051.251 4 146267468.60404      -742.876 4        27.928
C20        55.000                                                                                                                                    21936862.813 8 114230996.80608     -1351.757 8        51.722                                                                    21936857.182 7  92822120.81207     -1098.414 7        45.691
I01        56.000   332662820.742 6   2299559.37306     -2875.612 6        37.365
C30        58.000                                                                                                                                    26280650.287 3                     -4345.627 3        18.269
> 2025 01 01 01 30 50.0000000  0 38
G21         3.000    23317482.905 6 122534212.16906     -3740.003 6        36.140                                    23317478.451 2  95481167.24202     -2914.298 2        15.952
G31         4.000    22488113.681 7 118175796.84807       330.641 7        42.108                                    22488111.628 2  92085103.01202       257.619 2        15.476    22488117.249 4                       257.569 4        29.716
G02         5.000    21789084.938 6 114502399.46506     -3007.535 6        36.752                                    21789077.302 3  89222631.22703     -2343.548 3        23.714
E34         6.000    27050840.547 6 142153149.63106      1910.382 6        36.764                                                                    27050835.639 7 106153335.08907      1426.445 7        42.351    27050833.058 6 108922520.92406      1463.882 6        38.102
E04         7.000    24293036.619 7 127660851.58207     -2195.515 7        45.843                                                                    24293032.637 6  95331076.13106     -1639.558 6        39.721    24293033.419 7  97817973.60107     -1682.243 7        42.559
G03         8.000    20020081.075 7 105206236.47807      -821.570 7        44.488                                    20020076.876 6  81978920.56706      -640.180 6        38.426    20020078.717 6  81978910.55206      -640.321 6        38.805
G09         9.000                                                                                                                                                                    23321656.544 5  95498293.10905      2096.531 5        34.410
G04        11.000    21308777.206 5 111978423.07105      1644.179 5        31.857                                                                                                    21308780.127 5  87255886.25705      1281.193 5        35.881
E09        12.000    23987840.433 8 126057043.30108       560.086 8        48.307                                                                    23987839.498 8  94133498.12508       418.232 8        51.219    23987837.770 8  96589131.57808       429.109 8        49.093
E10        13.000    26527084.014 4 139400769.02104     -3511.311 4        29.194                                                                    26527083.774 6 104098006.75806     -2622.172 6        39.090    26527083.354 6 106813566.70806     -2690.605 6        38.868
E06        14.000    23481902.607 8 123398300.00808      -758.722 8        48.271                                                                    23481902.439 8  92148043.89608      -566.588 8        50.101    23481901.789 7  94551908.21007      -581.306 7        47.874
E11        15.000    24297897.639 6 127686352.51506     -2622.957 6        38.865                                                                    24297892.526 6  95350159.02206     -1958.542 6        40.677    24297890.590 6  97837520.87006     -2009.727 6        40.210
G19        16.000    22623778.891 6 118888997.71106       504.486 6        39.796                                    22623773.228 3  92640589.09803       393.103 3        18.418
G28        18.000    23298690.110 5 122435564.47105     -1532.902 5        35.814                                    23298683.911 2  95404190.31902     -1194.450 2        14.190    23298686.330 5  95404218.37305     -1194.421 5        31.781
G06        19.000    24788184.052 5 130262889.11105      2680.444 5        34.471                                    24788178.873 2 101503485.87302      2088.659 2        13.333    24788181.427 4                      2088.164 4        25.639
E36        20.000    23670255.363 6 124388162.83906        12.682 6        40.238                                                                    23670253.610 6  92887147.08206         9.464 6        41.766    23670255.547 7  95310320.14507         9.641 7        45.621
E05        21.000    25956709.595 5 136403431.24905      2189.352 5        33.024                                                                    25956707.858 4 101859714.13204      1634.768 4        26.491    25956728.788 4 104516908.04804      1676.907 4        28.341
G17        22.000    22400330.976 8 117714515.23708     -1528.059 8        49.726                                    22400326.384 7  91725665.39707     -1190.695 7        43.050    22400326.631 6  91725607.41306     -1190.785 6        40.431
S23        24.000    38252614.229 6 201018774.70706      -824.116 6        40.286
S36        25.000    38303553.997 5 201286447.20505      -828.441 5        35.971
R20        27.000                                                                                                                                    20695924.619 5  86076990.88405     -3207.365 5        35.043
R06        29.000    20188641.851 4                      1131.768 4        25.128
R14        30.000    23410614.106 4                       158.157 4        26.251
C19        33.000                                                                                                                                    23346757.179 7 121572795.14707      1207.435 7        44.757                                                                    23346748.470 6  98787735.11506       980.733 6        36.098
R21        34.000    19538311.744 8 104553559.48808       -28.488 8        49.443                                                                    19538311.146 5  81319368.49405       -22.262 5        34.690
R05        36.000    20276919.947 8 108391866.91008     -3370.582 8        48.725                                                                    20276918.725 6  84304682.99706     -2621.551 6        41.108
R22        37.000    22987254.344 6 122707408.66106      3195.421 6        39.841                                                                    22987234.513 7  95439104.11907      2485.207 7        42.152
C39        38.000                                                                                                                                    39009253.282 5 203131429.28905     -1050.147 5        31.238
C06        41.000                                                                                                                                    38417851.703 7 200051836.66007      -482.450 7        42.245    38417846.027 7 154692735.44907      -373.010 7        46.949    38417844.854 6 162558468.33606      -392.065 6        41.971
C29        43.000                                                                                                                                    22669129.178 6 118043998.02606     -2883.245 6        38.859                                                                    22669127.204 6  95920529.47106     -2342.869 6        39.429
C16        45.000                                                                                                                                    38851759.351 6 202311382.21306      -602.038 6        39.559    38851759.941 6 156439921.93306      -465.419 6        41.364    38851755.464 6 164394495.42206      -489.319 6        36.306
C09        46.000                                                                                                                                    38950006.859 6 202822912.05506         5.880 6        40.644    38950003.034 6 156835539.59106         4.420 6        41.950    38950000.918 6 164810189.84606         4.599 6        40.646
C32        47.000                                                                                                                                    25104640.881 4                     -3600.280 4        26.826                                                                    25104631.729 5                     -2925.078 5        30.536
C44        48.000                                                                                                                                    26723612.770 4 139156963.42104      2275.826 4        28.834
C35        51.000                                                                                                                                    23422345.623 7 121966316.08507       616.199 7        42.021                                                                    23422331.183 5  99107588.27105       500.552 5        33.665
I09        54.000    37273998.089 4 146271185.86304      -743.422 4        24.556
C20        55.000                                                                                                                                    21938161.954 8 114237760.68108     -1353.383 8        51.992                                                                    21938156.026 7  92827616.97307     -1099.801 7        46.026
I01        56.000   332666485.392 6   2313938.85606     -2875.824 6        37.558
> 2025 01 01 01 30 55.0000000  0 39
G21         3.000    23321042.902 6 122552916.46106     -3741.526 6        36.363                                    23321037.975 2  95495742.01802     -2915.456 2        15.619
G31         4.000    22487799.170 6 118174153.10406       327.167 6        40.620                                    22487799.294 2  92083822.22702       254.948 2        13.455    22487813.071 5                       254.818 5        30.158
G02         5.000    21791949.164 5 114517444.00905     -3009.716 5        35.805                                    21791940.406 3  89234354.25803     -2345.207 3        23.219
E34         6.000    27049024.003 6 142143600.61506      1909.669 6        36.393                                                                    27049018.348 7 106146204.32307      1426.044 7        42.345    27049015.721 6 108915204.16506      1463.162 6        38.282
E04         7.000    24295125.742 7 127671834.48307     -2197.383 7        44.420                                                                    24295122.282 6  95339277.64306     -1640.994 6        39.568    24295123.223 7  97826389.08107     -1683.722 7        43.642
G03         8.000    20020864.029 7 105210351.24607      -823.906 7        43.968                                    20020860.671 6  81982126.86206      -642.004 6        39.393    20020862.578 6  81982116.87706      -642.140 6        39.877
G09         9.000                                                                                                                                                                    23319096.042 5  95487813.33505      2095.425 5        34.219
G04        11.000                                                                                                                                                                    21307216.191 6  87249485.12906      1279.426 6        36.601
E09        12.000    23987308.414 7 126054249.06807       557.922 7        47.927                                                                    23987307.792 8  94131411.52108       416.662 8        51.230    23987305.748 8  96586990.53908       427.463 8        48.798
E10        13.000    26530424.974 4 139418330.36604     -3513.002 4        24.406                                                                    26530425.403 6 104111120.79506     -2623.110 6        39.658    26530424.483 6 106827022.81506     -2691.547 6        38.477
E06        14.000    23482625.655 8 123402100.11708      -761.036 8        48.360                                                                    23482625.721 8  92150881.64408      -568.320 8        50.361    23482624.842 8  94554819.98808      -583.140 8        48.112
E11        15.000    24300393.477 6 127699472.10306     -2624.606 6        39.625                                                                    24300388.923 6  95359956.14506     -1959.989 6        40.951    24300387.050 6  97847573.55306     -2011.120 6        40.281
G19        16.000    22623301.059 6 118886485.57906       500.752 6        41.263                                    22623295.274 2  92638631.57102       390.190 2        17.962
G28        18.000    23300149.827 5 122443237.88005     -1536.192 5        35.852                                    23300144.142 2  95410169.61202     -1197.065 2        14.333    23300149.974 5  95410197.65405     -1197.046 5        35.076
G06        19.000    24785634.450 5 130249489.09505      2679.805 5        34.519                                    24785629.181 2 101493044.30302      2088.167 2        14.619    24785638.943 4                      2088.552 4        27.509
E36        20.000    23670242.928 6 124388105.47306        10.540 6        38.550                                                                    23670242.618 6  92887104.24906         7.967 6        41.852    23670244.601 7  95310276.19307         8.142 7        45.372
E05        21.000    25954626.776 5 136392486.90205      2188.465 5        33.904                                                                    25954625.779 4 101851541.44504      1634.118 4        27.784    25954648.158 4 104508522.00104      1677.320 4        29.109
G17        22.000    22401786.441 8 117722164.43708     -1531.299 8        49.632                                    22401782.112 7  91731625.81607     -1193.219 7        42.798    22401781.627 6  91731567.83006     -1193.316 6        40.327
S23        24.000    38253398.664 6 201022896.55406      -824.430 6        41.066
S36        25.000    38304341.950 6 201290589.65606      -828.335 6        36.076
R20        27.000    20699788.166 3                     -4126.433 3        22.914                                                                    20699784.674 5  86093034.66205     -3209.701 5        34.900
R06        29.000    20187586.476 4                      1128.954 4        29.204
C19        33.000                                                                                                                                    23345599.793 7 121566762.92807      1205.795 7        44.485                                                                    23345589.959 6  98782833.45806       979.795 6        36.181
R21        34.000    19538339.054 8 104553714.09608       -33.021 8        48.681                                                                    19538335.792 5  81319488.80605       -25.742 5        33.293
R07        35.000    23793674.100 6 127369407.32416      2877.665 6        36.684
R05        36.000    20280074.718 8 108408726.23108     -3372.838 8        50.098                                                                    20280072.563 6  84317795.76606     -2623.159 6        39.820
R22        37.000    22984266.700 6 122691435.93406      3193.893 6        37.837                                                                    22984241.740 7  95426680.91607      2484.256 7        42.845
C39        38.000                                                                                                                                    39010262.753 4 203136682.37304     -1051.414 4        29.981
C06        41.000                                                                                                                                    38418315.604 7 200054252.26207      -483.586 7        42.400    38418309.698 7 154694603.34607      -373.907 7        46.942    38418308.712 6 162560431.23106      -393.005 6        41.962
C29        43.000                                                                                                                                    22671900.198 6 118058420.94006     -2885.776 6        39.964                                                                    22671897.448 6  95932249.26106     -2344.898 6        40.026
C16        45.000                                                                                                                                    38852338.521 6 202314395.73006      -603.149 6        39.697    38852338.776 6 156442252.19706      -466.392 6        40.953    38852334.853 6 164396944.17306      -490.320 6        36.643
C09        46.000                                                                                                                                    38950001.279 6 202822886.44306         4.604 6        40.429    38949997.010 6 156835519.78606         3.545 6        41.275    38949996.075 6 164810169.01806         3.875 6        40.758
C32        47.000                                                                                                                                                                                                                                                                    25108091.897 5                     -2925.462 5        31.932
C44        48.000                                                                                                                                    26721426.856 4 139145587.34504      2274.945 4        29.242
C35        51.000                                                                                                                                    23421753.016 7 121963242.61407       613.547 7        42.121                                                                    23421741.704 5  99105090.85205       498.978 5        33.874
I09        54.000    37274945.896 4 146274903.88404      -743.122 4        25.564
C20        55.000                                                                                                                                    21939462.493 8 114244533.33608     -1355.325 8        51.678                                                                    21939456.707 7  92833120.31207     -1101.325 7        46.053
I01        56.000   332670149.211 6   2328318.95606     -2876.144 6        37.584
C30        58.000                                                                                                                                    26288989.233 3                     -4351.586 3        19.075
> 2025 01 01 01 31  0.0000000  0 39
G21         3.000    23324603.599 6 122571625.97406     -3742.603 6        36.620                                    23324598.111 2  95510320.87802     -2916.300 2        15.333
G31         4.000    22487487.354 6 118172525.80506       323.689 6        39.006                                    22487488.923 1  92082554.33601       252.228 1        11.333
G02         5.000    21794816.526 5 114532498.72105     -3012.106 5        34.762                                    21794805.468 3  89246085.20303     -2347.097 3        21.619
E34         6.000    27047208.286 6 142134053.32206      1909.211 6        36.681                                                                    27047201.663 7 106139074.86907      1425.607 7        42.609    27047198.600 6 108907888.72906      1462.807 6        38.390
E04         7.000    24297216.537 7 127682825.91807     -2199.376 7        43.137                                                                    24297213.559 6  95347485.50606     -1642.330 6        40.427    24297215.128 7  97834811.09507     -1685.232 7        44.327
G03         8.000    20021649.931 7 105214476.10907      -826.086 7        44.494                                    20021646.250 6  81985341.02806      -643.705 6        40.312    20021648.201 6  81985331.03406      -643.657 6        40.963
G09         9.000    23316599.889 4                      2688.617 4        24.301                                                                                                    23316537.873 5  95477337.68705      2094.927 5        33.096
G04        11.000    21305686.779 4 111962004.88504      1639.535 4        25.699                                                                                                    21305656.087 6  87243092.65006      1277.259 6        37.327
E09        12.000    23986778.375 7 126051464.41207       555.831 7        47.715                                                                    23986777.870 8  94129332.06908       415.051 8        51.350    23986775.738 8  96584856.84308       425.915 8        48.510
E10        13.000    26533770.403 3                     -3515.072 3        21.738                                                                    26533768.152 6 104124238.28006     -2623.991 6        39.856    26533766.629 6 106840482.49206     -2692.580 6        38.342
E06        14.000    23483350.624 8 123405910.58408      -763.306 8        48.359                                                                    23483350.882 8  92153727.12208      -570.000 8        50.533    23483350.053 8  94557739.69908      -584.875 8        48.226
E11        15.000    24302891.256 6 127712599.57706     -2626.448 6        40.129                                                                    24302886.900 6  95369759.13806     -1961.343 6        40.915    24302885.825 6  97857632.27606     -2012.601 6        40.479
G19        16.000    22622826.250 6 118883990.21006       497.209 6        41.919                                    22622820.737 2  92636687.13102       387.444 2        17.736
G28        18.000    23301613.187 5 122450927.58005     -1539.773 5        35.457                                    23301607.574 2  95416161.58302     -1199.834 2        15.000    23301613.808 6  95416189.65006     -1199.798 6        37.819
G06        19.000    24783084.566 5 130236090.94905      2678.946 5        32.263                                    24783079.963 2 101482604.17202      2087.466 2        15.952    24783088.593 4                      2087.873 4        29.592
E36        20.000    23670232.180 6 124388056.58706         8.785 6        36.042                                                                    23670233.729 7  92887067.76307         6.495 7        42.008    23670235.161 7  95310238.75407         6.668 7        45.517
E05        21.000    25952544.571 5 136381545.15505      2188.116 5        35.052                                                                    25952542.774 4 101843370.64104      1633.362 4        26.323    25952565.297 5 104500138.02905      1676.693 5        30.332
G17        22.000    22403244.498 8 117729828.28308     -1534.428 8        49.476                                    22403240.621 7  91737597.64107     -1195.659 7        42.368    22403240.523 6  91737539.63606     -1195.666 6        41.144
S23        24.000    38254184.896 6 201027018.34706      -824.556 6        41.523
S36        25.000    38305129.908 5 201294731.42305      -828.509 5        35.662
R20        27.000    20703645.097 4                     -4129.712 4        26.491                                                                    20703643.724 5  86109089.77605     -3212.089 5        35.905
R06        29.000    20186530.069 5                      1126.219 5        31.109
R14        30.000    23410307.085 3                       149.186 3        22.324
C19        33.000                                                                                                                                    23344443.074 7 121560737.66107      1204.185 7        43.767                                                                    23344433.550 6  98777937.44006       978.661 6        37.028
R21        34.000    19538371.127 8 104553890.14508       -37.494 8        48.368                                                                    19538367.941 5  81319625.69305       -29.323 5        31.245
R07        35.000    23790985.692 6 127355022.08506      2876.476 6        36.098
R05        36.000    20283231.439 8 108425595.31208     -3374.973 8        51.150                                                                    20283228.400 6  84330916.15006     -2625.020 6        40.393
R22        37.000    22981279.017 5 122675469.34505      3192.442 5        35.548                                                                    22981250.840 7  95414262.49607      2482.967 7        43.118
C39        38.000                                                                                                                                    39011272.533 5 203141939.65805     -1052.259 5        31.653
C06        41.000                                                                                                                                    38418779.952 6 200056672.46306      -484.707 6        41.719    38418774.426 7 154696474.80207      -374.789 7        46.600    38418773.491 6 162562397.84306      -393.667 6        41.979
C29        43.000                                                                                                                                    22674672.431 7 118072854.96707     -2887.969 7        42.136                                                                    22674669.171 6  95943978.11406     -2346.677 6        39.805
C16        45.000                                                                                                                                    38852918.318 6 202317413.70106      -604.172 6        40.145    38852918.110 6 156444585.89306      -467.210 6        40.749    38852914.130 6 164399396.51806      -490.805 6        36.628
C09        46.000                                                                                                                                    38949996.150 6 202822864.92306         3.777 6        40.160    38949992.856 6 156835503.14506         3.027 6        40.934    38949992.002 6 164810151.57006         3.135 6        40.603
C32        47.000                                                                                                                                    25111539.548 4                     -3600.541 4        29.981                                                                    25111547.388 4                     -2925.704 4        29.877
C44        48.000                                                                                                                                    26719248.357 5 139134215.59305      2273.666 5        31.577                                                                    26719249.560 5                      1847.787 5        30.868
C35        51.000                                                                                                                                    23421161.952 6 121960181.55606       610.796 6        41.635                                                                    23421153.641 5  99102603.51905       496.130 5        33.964
I09        54.000    37275892.674 4 146278622.70904      -744.150 4        26.168
C20        55.000                                                                                                                                    21940764.719 8 114251314.65008     -1357.310 8        51.073                                                                    21940759.081 7  92838630.66607     -1102.700 7        46.175
I01        56.000   332673814.155 6   2342699.63706     -2876.301 6        37.365
> 2025 01 01 01 31  5.0000000  0 38
G21         3.000    23328165.186 6 122590340.44806     -3743.310 6        36.200                                    23328159.472 2  95524903.59802     -2916.837 2        15.048
G31         4.000    22487178.503 5 118170914.56305       320.838 5        35.571                                    22487181.700 1  92081298.90101       250.051 1        10.963    22487220.688 5                       249.917 5        30.325
G02         5.000    21797686.922 4 114547563.29604     -3014.292 4        28.635                                    21797671.819 3  89257823.83103     -2348.790 3        19.134
E34         6.000    27045390.784 6 142124507.45206      1909.374 6        36.280                                                                    27045385.195 7 106131946.47107      1425.673 7        42.569    27045382.116 6 108900574.38906      1462.721 6        38.390
E04         7.000    24299309.775 6 127693825.53806     -2200.504 6        41.480                                                                    24299306.679 6  95355699.50306     -1643.222 6        40.262    24299308.555 7  97843239.38707     -1686.162 7        44.876
G03         8.000    20022436.464 7 105218610.72207      -827.655 7        45.580                                    20022433.622 6  81988562.79606      -644.927 6        40.911    20022435.077 6  81988552.81906      -644.988 6        41.492
G09         9.000    23314042.698 3                      2686.361 3        21.381                                                                                                    23313980.802 5  95466865.91005      2093.941 5        32.880
G04        11.000                                                                                                                                                                    21304096.542 6  87236708.51106      1276.213 6        36.775
E09        12.000    23986250.208 7 126048689.00507       554.384 7        47.725                                                                    23986249.694 8  94127259.51908       413.982 8        51.233    23986247.485 8  96582730.24008       424.733 8        48.253
E10        13.000                                                                                                                                    26537111.606 6 104137358.98206     -2624.348 6        40.336    26537109.883 6 106853945.46506     -2692.873 6        38.613
E06        14.000    23484077.683 8 123409731.06808      -764.854 8        48.521                                                                    23484077.889 8  92156580.07808      -571.164 8        50.490    23484077.034 8  94560667.08208      -586.067 8        48.344
E11        15.000    24305390.377 6 127725734.60806     -2627.604 6        40.241                                                                    24305386.455 6  95379567.76806     -1962.097 6        40.942    24305385.550 6  97867696.77106     -2013.345 6        40.722
G19        16.000    22622353.310 6 118881511.23706       494.301 6        41.776                                    22622349.204 2  92634755.46902       385.167 2        17.811
G28        18.000    23303080.179 6 122458633.27606     -1542.533 6        36.302                                    23303074.221 2  95422166.01402     -1201.916 2        15.714    23303078.796 6  95422194.05806     -1201.954 6        38.799
G06        19.000    24780534.703 4 130222694.28704      2679.170 4        29.820                                    24780531.308 2 101472165.21702      2087.654 2        16.604    24780536.321 5                      2087.751 5        30.430
E36        20.000    23670223.080 5 124388015.92205         7.519 5        34.276                                                                    23670226.914 7  92887037.39207         5.613 7        42.389    23670227.354 7  95310207.59307         5.819 7        45.436
E05        21.000    25950462.746 5 136370605.68505      2188.057 5        35.500                                                                    25950461.572 4 101835201.53004      1633.999 4        25.955    25950481.070 5 104491755.80205      1676.285 5        31.026
G17        22.000    22404705.213 8 117737506.40408     -1536.817 8        48.131                                    22404701.827 6  91743580.59306     -1197.520 6        41.809    22404701.678 6  91743522.58906     -1197.550 6        41.199
S23        24.000    38254964.939 6 201031139.81506      -824.057 6        41.826
S36        25.000    38305916.833 5 201298872.54705      -828.070 5        35.138
R20        27.000    20707504.541 4                     -4132.689 4        28.682                                                                    20707507.967 5  86125155.95615     -3214.007 5        35.605
R06        29.000    20185478.281 5                      1123.726 5        32.030
C19        33.000                                                                                                                                    23343286.536 7 121554719.00007      1203.311 7        42.652                                                                    23343279.128 6  98773046.78606       977.685 6        38.417
R21        34.000    19538407.592 7 104554087.29707       -41.268 7        47.089                                                                    19538404.593 4  81319779.04404       -32.330 4        28.246
R07        35.000    23788296.480 5 127340640.90305      2875.898 5        34.290
R05        36.000    20286389.210 8 108442473.76008     -3376.385 8        50.581                                                                    20286386.094 6  84344043.79906     -2625.951 6        41.097
R22        37.000    22978284.824 5 122659508.57305      3191.731 5        33.892                                                                    22978260.917 7  95401848.55107      2482.541 7        42.876
C39        38.000                                                                                                                                    39012283.740 5 203147200.95105     -1052.371 5        32.383
C06        41.000                                                                                                                                    38419245.412 6 200059096.89706      -485.186 6        41.690    38419240.144 7 154698349.52707      -375.067 7        46.727    38419239.053 6 162564367.88606      -394.138 6        41.714
C29        43.000                                                                                                                                    22677446.194 7 118087299.82107     -2889.843 7        42.762                                                                    22677443.410 6  95955715.74706     -2348.371 6        40.088
C16        45.000                                                                                                                                    38853498.495 6 202320435.81406      -604.560 6        40.355    38853498.763 6 156446922.77906      -467.539 6        40.322    38853494.455 6 164401852.22706      -491.306 6        36.408
C09        46.000                                                                                                                                    38949992.362 6 202822847.20406         3.615 6        40.107    38949989.274 6 156835489.43706         2.649 6        40.784    38949988.550 6 164810137.15406         2.647 6        40.801
C32        47.000                                                                                                                                    25114995.191 5                     -3600.974 5        32.413                                                                    25115002.428 4                     -2926.027 4        29.336
C44        48.000                                                                                                                                    26717073.284 5 139122847.56605      2273.518 5        32.527                                                                    26717066.375 5                      1847.245 5        30.370
C35        51.000                                                                                                                                    23420574.031 6 121957132.53106       608.937 6        41.735                                                                    23420567.982 5  99100125.92905       494.815 5        33.958
I09        54.000    37276840.609 4 146282341.92104      -744.244 4        27.401
C20        55.000                                                                                                                                    21942068.914 8 114258104.26008     -1358.497 8        50.987                                                                    21942063.161 7  92844147.76907     -1103.986 7        46.102
I01        56.000   332677479.467 6   2357080.62506     -2875.985 6        37.406
> 2025 01 01 01 31 10.0000000  0 37
G21         3.000    23331726.424 6 122609060.16406     -3744.748 6        37.070                                    23331721.468 2  95539490.39802     -2917.987 2        13.818
G31         4.000    22486878.978 5 118169319.78305       317.171 5        35.524                                    22486877.921 1  92080056.23101       247.153 1        10.222    22486909.150 5                       247.266 5        32.000
E34         6.000    27043573.945 6 142114963.30006      1908.373 6        36.628                                                                    27043568.945 7 106124819.35707      1425.134 7        42.616    27043566.294 6 108893261.33606      1462.321 6        38.853
E04         7.000    24301405.111 6 127704833.60106     -2202.680 6        40.486                                                                    24301401.469 6  95363919.82206     -1644.880 6        40.765    24301403.434 7  97851674.16507     -1687.782 7        45.195
G03         8.000    20023225.586 7 105222755.40707      -830.147 7        45.425                                    20023222.810 6  81991792.42206      -646.863 6        41.516    20023223.500 6  81991782.41806      -646.765 6        41.931
G09         9.000                                                                                                                                                                    23311424.423 5  95456398.23605      2092.980 5        31.381
G04        11.000                                                                                                                                                                    21302539.491 6  87230333.00306      1274.217 6        37.365
E09        12.000    23985723.981 8 126045923.13908       551.960 8        48.119                                                                    23985723.301 8  94125194.10308       412.202 8        50.956    23985721.294 8  96580610.94308       422.855 8        48.149
E10        13.000    26540473.182 5                     -3515.600 5        30.241                                                                    26540456.040 6 104150483.12106     -2625.332 6        40.594    26540454.497 6 106867411.96806     -2693.808 6        39.426
E06        14.000    23484806.758 8 123413561.88208      -767.418 8        48.661                                                                    23484806.827 8  92159440.74708      -573.070 8        50.402    23484805.975 8  94563602.37608      -588.091 8        48.495
E11        15.000    24307891.564 6 127738877.45406     -2629.478 6        40.522                                                                    24307887.336 6  95389382.24106     -1963.668 6        41.008    24307886.673 6  97877767.28906     -2014.939 6        40.727
G19        16.000    22621883.825 6 118879048.95906       490.531 6        41.530                                    22621880.667 2  92632836.80602       382.234 2        17.472
G28        18.000    23304551.531 6 122466355.21506     -1546.111 6        38.598                                    23304544.071 2  95428183.09602     -1204.778 2        17.509    23304547.725 6  95428211.14106     -1204.870 6        39.366
G06        19.000    24777985.503 4 130209299.44304      2678.908 4        25.729                                    24777982.859 2 101461727.64002      2087.480 2        15.952    24777986.812 5                      2087.279 5        31.683
E36        20.000    23670216.905 5 124387983.77705         5.208 5        34.762                                                                    23670221.445 7  92887013.36607         3.937 7        42.646    23670220.910 7  95310182.92907         4.075 7        45.315
E05        21.000    25948381.546 5 136359668.83105      2186.826 5        35.257                                                                    25948379.018 4 101827034.44404      1633.149 4        24.586    25948395.742 5 104483375.56905      1675.587 5        32.090
G17        22.000    22406168.787 7 117745199.10807     -1540.252 7        46.913                                    22406165.787 6  91749574.90606     -1200.193 6        41.166    22406165.248 6  91749516.89406     -1200.145 6        40.741
S23        24.000    38255746.914 6 201035261.26506      -824.493 6        41.299
S36        25.000    38306707.014 5 201303013.03605      -828.212 5        35.795
R20        27.000    20711377.619 5                     -4135.770 5        31.351                                                                    20711375.744 5  86141233.54115     -3216.744 5        34.776
R06        29.000    20184429.283 5                      1120.989 5        30.913
C19        33.000                                                                                                                                    23342131.896 6 121548707.25606      1201.489 6        40.667                                                                    23342125.506 6  98768161.76806       976.220 6        39.547
R21        34.000    19538449.707 7                       -46.141 7        47.253                                                                    19538446.227 4                       -36.310 4        27.090
R07        35.000    23785605.093 5 127326264.51105      2874.521 5        31.200
R05        36.000    20289548.217 8 108459361.71308     -3378.820 8        50.036                                                                    20289545.888 6  84357178.88306     -2628.005 6        41.945
R22        37.000                                                                                                                                    22975271.505 7  95389439.33607      2481.183 7        42.969
C39        38.000                                                                                                                                    39013294.006 5 203152466.50805     -1053.689 5        31.781
C06        41.000                                                                                                                                    38419711.788 6 200061525.86406      -486.442 6        41.836    38419706.620 7 154700227.76407      -376.274 7        46.739    38419705.338 6 162566341.63106      -395.331 6        41.728
C29        43.000                                                                                                                                    22680221.813 7 118101755.78607     -2892.596 7        43.340                                                                    22680219.289 6  95967462.41306     -2350.435 6        40.367
C16        45.000                                                                                                                                    38854080.044 6 202323462.33206      -605.926 6        40.422    38854080.262 6 156449263.06506      -468.650 6        39.955    38854075.715 6 164404311.53406      -492.221 6        36.646
C09        46.000                                                                                                                                    38949989.398 6 202822833.57206         2.097 6        39.904    38949986.963 6 156835478.88506         1.618 6        40.763    38949986.157 6 164810126.09106         1.768 6        41.023
C32        47.000                                                                                                                                    25118453.942 5 130798372.93215     -3601.573 5        35.262                                                                    25118460.696 4                     -2926.273 4        29.583
C44        48.000                                                                                                                                    26714892.699 5 139111483.71805      2272.390 5        34.281                                                                    26714884.460 5                      1846.468 5        30.249
C35        51.000                                                                                                                                    23419991.651 7 121954095.90607       605.633 7        42.341                                                                    23419984.893 5  99097658.44005       492.340 5        35.219
I09        54.000    37277791.635 4 146286061.78904      -744.213 4        28.284
C20        55.000                                                                                                                                    21943375.034 8 114264902.50208     -1360.737 8        51.113                                                                    21943368.741 7  92849671.90407     -1105.646 7        46.398
I01        56.000   332681143.571 6   2371462.13206     -2876.534 6        37.365
> 2025 01 01 01 31 15.0000000  0 37
G21         3.000    23335290.293 6 122627785.26206     -3745.511 6        37.433                                    23335284.546 2  95554081.40502     -2918.514 2        12.424
G02         5.000    21803461.767 5                     -3018.044 5        30.740
E34         6.000    27041756.554 6 142105421.04606      1908.409 6        36.454                                                                    27041752.903 7 106117693.66507      1425.066 7        42.375    27041751.074 6 108885949.77606      1462.302 6        39.183
E04         7.000    24303501.327 6 127715850.31506     -2204.000 6        39.348                                                                    24303498.399 6  95372146.62106     -1645.877 6        41.077    24303499.953 7  97860115.57707     -1688.846 7        45.427
G03         8.000    20024015.755 7 105226910.34907      -831.856 7        44.888                                    20024013.840 7  81995030.02407      -648.199 7        42.036    20024014.301 7  81995020.03907      -648.184 7        42.432
G09         9.000    23308868.816 3                      2685.531 3        22.457                                                                                                    23308869.116 4  95445934.86304      2092.772 4        28.882
G04        11.000                                                                                                                                                                    21300985.260 6  87223966.23906      1272.550 6        38.159
E09        12.000    23985199.485 7 126043166.99307       550.404 7        47.935                                                                    23985198.859 8  94123135.94908       410.991 8        50.758    23985197.202 8  96578499.09908       421.761 8        48.113
E10        13.000    26543815.706 5                     -3516.354 5        31.713                                                                    26543801.202 6 104163610.82506     -2625.768 6        40.787    26543799.752 6 106880882.14206     -2694.215 6        39.676
E06        14.000    23485537.871 8 123417403.17908      -769.190 8        48.713                                                                    23485537.775 8  92162309.25908      -574.425 8        50.352    23485536.865 8  94566545.71008      -589.361 8        48.396
E11        15.000    24310394.162 6 127752028.31506     -2630.899 6        39.504                                                                    24310389.909 6  95399202.69806     -1964.555 6        41.442    24310389.030 6  97887843.92406     -2015.733 6        40.298
G19        16.000    22621418.921 6 118876603.58806       487.505 6        41.938                                    22621415.350 2  92630931.32902       379.885 2        17.472
G28        18.000    23306024.313 6 122474093.58206     -1549.150 6        38.757                                    23306017.220 3  95434212.99303     -1207.116 3        18.597    23306021.054 6  95434241.04806     -1207.229 6        39.793
G06        19.000                                                                                                                                                                    24775439.364 5                      2087.187 5        32.677
E36        20.000    23670212.469 5 124387960.24405         3.922 5        35.119                                                                    23670217.063 7  92886995.81107         2.962 7        42.671    23670216.268 7  95310164.91307         3.016 7        45.375
E05        21.000    25946300.477 5 136348734.71905      2186.911 5        33.922                                                                    25946296.042 3 101818869.39403      1632.993 3        23.448    25946311.799 5 104474997.48005      1675.457 5        32.695
G17        22.000    22407635.570 7 117752906.61507     -1542.848 7        46.759                                    22407632.443 6  91755580.74106     -1202.213 6        40.448    22407632.058 6  91755522.74206     -1202.148 6        40.131
S23        24.000    38256533.808 6 201039382.88706      -824.042 6        41.638
S36        25.000    38307500.052 6 201307153.14806      -828.112 6        37.081
R20        27.000    20715249.083 5                     -4138.637 5        31.668                                                                    20715242.891 5  86157322.60715     -3218.771 5        32.198
R06        29.000    20183376.869 5                      1118.354 5        31.766
C19        33.000                                                                                                                                    23340977.931 6 121542702.61906      1200.372 6        37.679                                                                    23340973.053 6  98763282.48806       975.483 6        40.837
R21        34.000    19538495.961 8 104554546.07718       -50.092 8        48.743                                                                    19538492.316 5                       -39.335 5        31.479
R07        35.000    23782912.121 4 127311892.60904      2874.345 4        28.948
R05        36.000    20292709.254 8 108476259.63908     -3380.386 8        49.009                                                                    20292706.406 7  84370321.70007     -2629.116 7        42.066
R22        37.000    22972271.724 5 122627605.64805      3189.098 5        30.015                                                                    22972283.352 6  95377035.05806      2480.510 6        41.955
C39        38.000                                                                                                                                    39014306.477 5 203157736.47705     -1053.894 5        30.672
C06        41.000                                                                                                                                    38420178.817 6 200063959.54106      -487.144 6        41.762    38420173.750 7 154702109.62207      -376.680 7        46.661    38420172.808 6 162568319.17906      -395.718 6        41.521
C29        43.000                                                                                                                                    22682999.820 7 118116223.02907     -2894.471 7        43.826                                                                    22682997.987 6  95979218.20706     -2351.854 6        40.958
C16        45.000                                                                                                                                    38854662.725 6 202326493.46206      -606.692 6        40.470    38854662.212 6 156451606.93906      -469.016 6        40.048    38854658.077 6 164406774.56806      -492.660 6        36.582
C09        46.000                                                                                                                                    38949987.296 6 202822824.20006         1.502 6        40.021    38949984.986 6 156835471.61406         1.349 6        40.806    38949984.816 6 164810118.44406         1.426 6        41.154
C32        47.000                                                                                                                                    25121910.269 6 130816380.28206     -3601.593 6        36.336                                                                    25121917.577 5                     -2926.516 5        30.325
C44        48.000                                                                                                                                    26712713.263 5 139100124.33105      2271.685 5        35.738                                                                    26712703.435 5                      1845.682 5        31.389
C35        51.000                                                                                                                                    23419413.144 7 121951071.81707       603.701 7        43.477                                                                    23419404.383 6  99095201.12306       490.336 6        36.261
I09        54.000    37278739.610 4 146289782.47804      -743.680 4        27.641
C20        55.000                                                                                                                                    21944682.306 8 114271709.52508     -1362.156 8        51.332                                                                    21944676.071 7  92855203.15407     -1106.760 7        46.689
I01        56.000   332684808.186 6   2385844.30306     -2876.162 6        37.308
> 2025 01 01 01 31 20.0000000  0 38
G21         3.000    23338855.038 6 122646515.39506     -3746.554 6        37.062                                    23338848.555 1  95568676.31901     -2919.401 1        11.926
G02         5.000    21806324.271 5 114593013.66815     -3019.724 5        34.810
E34         6.000    27039939.999 6 142095880.37006      1908.165 6        36.624                                                                    27039937.361 7 106110569.14907      1424.874 7        42.023    27039935.713 6 108878639.39706      1462.157 6        39.315
E04         7.000    24305600.119 6 127726875.38606     -2205.634 6        40.613                                                                    24305597.023 6  95380379.61306     -1646.941 6        41.199    24305597.839 7  97868563.34907     -1689.990 7        45.374
G03         8.000    20024808.258 7 105231075.17907      -833.705 7        44.457                                    20024806.677 6  81998275.33806      -649.636 6        41.928    20024806.699 7  81998265.34507      -649.684 7        42.711
G09         9.000    23306319.634 5                      2684.176 5        30.083                                                                                                    23306315.348 4  95435475.57104      2091.244 4        27.461
G04        11.000                                                                                                                                                                    21299432.501 6  87217607.95506      1270.868 6        38.126
E09        12.000    23984676.736 8 126040420.23008       548.614 8        48.148                                                                    23984676.212 8  94121084.79408       409.645 8        50.445    23984674.816 8  96576394.44108       420.343 8        48.019
E10        13.000    26547162.528 5                     -3517.146 5        32.796                                                                    26547147.181 6 104176741.84806     -2626.393 6        40.894    26547146.114 6 106894355.72406     -2694.906 6        40.215
E06        14.000    23486270.877 8 123421254.61608      -771.088 8        49.007                                                                    23486270.679 8  92165185.33308      -575.862 8        50.064    23486269.776 8  94569496.82008      -590.909 8        48.562
E11        15.000    24312897.653 6 127765186.84106     -2632.271 6        38.318                                                                    24312893.828 6  95409028.88706     -1965.535 6        41.466    24312892.387 6  97897926.44606     -2016.958 6        40.217
G19        16.000    22620957.139 6 118874174.74806       484.376 6        40.095                                    22620953.114 2  92629038.73302       377.439 2        17.887
G28        18.000    23307500.173 6 122481848.05506     -1552.288 6        38.853                                    23307493.633 3  95440255.46303     -1209.560 3        18.657    23307497.479 6  95440283.48406     -1209.658 6        40.064
G06        19.000                                                                                                                                                                    24772891.411 5                      2086.738 5        33.222
E36        20.000    23670209.142 5 124387945.05205         2.464 5        35.000                                                                    23670214.519 7  92886984.46907         1.818 7        42.669    23670212.933 7  95310153.28107         1.877 7        44.935
E05        21.000    25944220.409 5 136337803.08405      2186.081 5        33.425                                                                    25944214.401 3                      1632.612 3        21.643    25944228.873 5 104466621.24405      1675.182 5        32.048
G17        22.000    22409105.239 7 117760628.53507     -1545.639 7        46.494                                    22409101.747 6  91761597.81206     -1204.392 6        39.850    22409101.086 6  91761539.81906     -1204.431 6        39.772
S23        24.000    38257315.939 6 201043504.01806      -823.944 6        41.089
S36        25.000    38308286.427 6 201311292.80906      -827.642 6        37.482
R20        27.000    20719114.367 5                     -4141.522 5        30.536                                                                    20719115.375 5                     -3221.029 5        32.545
R06        29.000    20182331.663 5                      1115.606 5        31.608
R14        30.000    23409775.883 3                       133.048 3        21.024
C19        33.000                                                                                                                                    23339825.026 6 121536704.72206      1198.791 6        37.115                                                                    23339821.902 7  98758408.70807       974.215 7        42.201
R21        34.000    19538544.964 8 104554807.57418       -54.269 8        48.614                                                                    19538542.648 5                       -42.063 5        34.752
R05        36.000    20295871.592 8 108493166.85208     -3382.224 8        48.049                                                                    20295868.948 7  84383471.76607     -2630.672 7        42.102
R22        37.000                                                                                                                                    22969295.837 6  95364635.41506      2479.628 6        40.710
C39        38.000                                                                                                                                    39015318.450 5 203163010.58205     -1055.172 5        31.011
C06        41.000                                                                                                                                    38420647.778 7 200066397.58707      -487.986 7        42.066    38420642.007 7 154703994.90007      -377.261 7        46.812    38420641.082 6 162570300.33306      -396.659 6        41.383
C29        43.000                                                                                                                                    22685779.891 7 118130701.20507     -2896.481 7        44.077                                                                    22685778.679 6  95990982.93406     -2353.840 6        41.676
C16        45.000                                                                                                                                    38855245.396 6 202329528.84306      -607.329 6        40.553    38855245.049 6 156453954.08106      -469.642 6        40.153    38855240.751 6 164409241.10906      -493.860 6        36.639
C09        46.000                                                                                                                                    38949986.254 6 202822818.72906         0.959 6        39.042    38949984.025 6 156835467.41206         0.607 6        40.903    38949983.711 6 164810114.04006         0.407 6        40.992
C32        47.000                                                                                                                                    25125370.795 6 130834389.21406     -3601.732 6        36.212                                                                    25125375.447 4                     -2926.779 4        29.327
C44        48.000                                                                                                                                    26710530.306 5 139088768.95905      2270.655 5        35.133                                                                    26710522.231 5                      1844.918 5        30.687
C35        51.000                                                                                                                                    23418836.259 7 121948059.95307       601.373 7        44.284                                                                    23418826.432 6  99092753.78006       488.439 6        37.263
I09        54.000    37279686.369 4 146293503.81604      -744.232 4        28.559
C20        55.000                                                                                                                                    21945991.190 8 114278524.98808     -1363.750 8        51.556                                                                    21945985.167 7  92860741.29507     -1108.320 7        46.889
I01        56.000   332688473.070 6   2400226.90606     -2876.309 6        37.811
C30        58.000                                                                                                                                    26309875.225 3                     -4348.208 3        19.463
> 2025 01 01 01 31 25.0000000  0 39
G21         3.000    23342419.852 6 122665251.30806     -3747.575 6        37.448                                    23342413.623 1  95583275.78601     -2920.168 1        10.963
G31         4.000    22486019.412 5 118164634.94505       307.331 5        35.000                                    22485986.181 1  92076405.64401       239.604 1         4.571    22485970.253 4                       239.894 4        26.431
G02         5.000    21809185.560 6 114608119.40006     -3022.059 6        36.794
E34         6.000    27038123.558 6 142086342.05106      1907.414 6        36.344                                                                    27038122.334 7 106103446.39107      1424.461 7        42.277    27038121.171 6 108871330.83206      1461.704 6        39.730
E04         7.000    24307700.080 6 127737909.52806     -2207.674 6        41.578                                                                    24307697.252 6  95388619.39206     -1648.573 6        41.545    24307697.446 7  97877018.07607     -1691.502 7        45.615
G03         8.000    20025602.606 7 105235250.70107      -836.146 7        44.459                                    20025601.431 6  82001528.98506      -651.533 6        41.495    20025601.046 7  82001518.99007      -651.423 7        42.794
G09         9.000                                                                                                                                                                    23303760.500 4  95425020.75504      2090.825 4        26.012
G04        11.000                                                                                                                                                                    21297881.343 6  87211258.79106      1269.063 6        38.646
E09        12.000    23984155.752 8 126037683.63708       546.389 8        48.263                                                                    23984155.455 8  94119041.23808       408.041 8        50.382    23984154.340 8  96574297.58308       418.659 8        48.187
E10        13.000    26550513.374 5                     -3518.327 5        33.287                                                                    26550494.338 6 104189876.75206     -2627.139 6        41.194    26550493.430 6 106907833.28006     -2695.737 6        41.125
E06        14.000    23487005.685 8 123425117.00408      -773.479 8        49.203                                                                    23487005.686 8  92168069.58008      -577.594 8        49.977    23487004.691 8  94572456.30308      -592.680 8        48.657
E11        15.000    24315403.152 6 127778353.81806     -2634.118 6        37.134                                                                    24315399.277 6  95418861.37506     -1967.023 6        41.683    24315398.128 6  97908015.44806     -2018.355 6        40.191
G19        16.000    22620499.104 6 118871763.30306       480.523 6        37.796                                    22620493.977 3  92627159.67603       374.434 3        18.149
G28        18.000    23308977.990 6 122489619.39106     -1555.825 6        38.649                                    23308973.097 3  95446311.05303     -1212.310 3        18.149    23308977.521 6  95446339.07606     -1212.354 6        40.226
G06        19.000                                                                                                                                                                    24770342.045 5 101430410.14615      2086.271 5        33.575
E36        20.000    23670209.643 5 124387938.95905         0.472 5        34.681                                                                    23670213.235 7  92886979.95407         0.367 7        42.794    23670211.622 7  95310148.64607         0.400 7        45.055
E05        21.000    25942141.362 5 136326874.65005      2185.381 5        32.138                                                                    25942134.341 3                      1630.559 3        21.595    25942147.440 5 104458247.49005      1674.345 5        31.758
G17        22.000    22410577.588 7 117768365.67507     -1548.820 7        46.479                                    22410573.975 6  91767626.74206     -1206.874 6        39.652    22410573.039 6  91767568.74606     -1206.780 6        39.372
S23        24.000    38258101.872 6 201047625.56006      -824.247 6        41.876
S36        25.000    38309072.256 6 201315433.19406      -828.398 6        37.546
R20        27.000    20722980.197 4                     -4144.564 4        28.682                                                                    20722988.106 5  86189534.92015     -3223.624 5        31.170
R06        29.000    20181286.998 5                      1112.802 5        32.503
R14        30.000    23409645.960 4                       130.289 4        27.904
C19        33.000                                                                                                                                    23338673.878 6 121530714.30206      1197.332 6        36.537                                                                    23338672.011 7  98753540.99707       973.007 7        43.255
R21        34.000    19538598.062 8 104555091.15908       -58.835 8        48.337                                                                    19538597.931 6  81320531.88216       -46.097 6        38.532
R05        36.000    20299036.437 7 108510084.49407     -3384.430 7        46.913                                                                    20299033.628 7  84396629.93007     -2632.306 7        43.462
R22        37.000    22966319.509 5 122595727.63205      3186.418 5        35.652                                                                    22966309.531 6  95352241.09606      2478.368 6        39.072
C39        38.000                                                                                                                                    39016333.422 5 203168289.52305     -1056.284 5        32.156
C06        41.000                                                                                                                                    38421117.674 7 200068840.76807      -489.010 7        42.083    38421111.215 7 154705884.13607      -378.178 7        46.757    38421109.937 6 162572285.58806      -397.326 6        41.366
C29        43.000                                                                                                                                    22688562.513 7 118145191.07107     -2899.081 7        44.864                                                                    22688561.774 7  96002757.09707     -2355.595 7        42.076
C16        45.000                                                                                                                                    38855827.686 6 202332569.24906      -608.586 6        40.143    38855828.997 6 156456305.11806      -470.506 6        40.286    38855824.654 6 164411711.63706      -494.428 6        36.696
C09        46.000                                                                                                                                    38949985.606 6 202822818.00606        -0.213 6        39.285    38949983.819 6 156835466.84106        -0.202 6        40.355    38949983.430 6 164810113.40706        -0.133 6        40.937
C32        47.000                                                                                                                                    25128833.647 6 130852400.52506     -3602.424 6        36.401                                                                    25128833.353 4                     -2927.082 4        28.796
C44        48.000                                                                                                                                    26708349.227 5 139077418.40305      2269.860 5        35.995                                                                    26708342.351 5                      1844.278 5        30.815
C35        51.000                                                                                                                                    23418260.542 7 121945061.10407       598.629 7        44.427                                                                    23418250.712 6  99090316.95006       486.441 6        37.917
I09        54.000    37280634.889 4 146297226.24204      -744.113 4        29.479
C20        55.000                                                                                                                                    21947301.812 8 114285349.68208     -1365.770 8        51.936                                                                    21947295.932 7  92866286.88807     -1109.775 7        47.228
I01        56.000   332692139.216 6   2414610.48706     -2876.548 6        37.909
C30        58.000                                                                                                                                    26314051.586 3                     -4350.484 3        20.333
> 2025 01 01 01 31 30.0000000  0 38
G21         3.000    23345985.747 6 122683992.90806     -3748.908 6        37.240                                    23345980.041 1  95597879.67201     -2921.211 1         9.619
G31         4.000                                                                                                                                                                    22485688.760 4                       236.502 4        25.774
E34         6.000    27036309.683 6 142076805.89806      1906.881 6        37.221                                                                    27036307.722 7 106096325.23707      1424.059 7        42.093    27036307.023 6 108864023.92806      1461.124 6        40.377
E04         7.000    24309801.550 7 127748952.51107     -2209.499 7        42.140                                                                    24309798.967 7  95396865.80007     -1649.941 7        42.038    24309798.820 7  97885479.61607     -1693.080 7        45.234
G03         8.000    20026398.737 7 105239436.69207      -838.376 7        44.777                                    20026398.024 6  82004790.79406      -653.276 6        41.364    20026397.557 7  82004780.78907      -653.280 7        42.538
G09         9.000                                                                                                                                                                    23301206.980 4  95414570.45204      2089.431 4        25.278
G04        11.000    21296324.981 5 111913014.51905      1626.319 5        35.095                                    21296327.309 2  87204891.54012      1267.302 2        12.727    21296332.908 6  87204918.55306      1267.067 6        39.459
E09        12.000    23983636.698 7 126034957.00007       544.294 7        47.847                                                                    23983636.625 8  94117005.12208       406.459 8        50.332    23983635.836 8  96572208.36208       417.020 8        48.561
E10        13.000    26553863.066 5                     -3519.502 5        31.449                                                                    26553842.671 6 104203015.41606     -2628.188 6        41.692    26553841.545 7 106921314.70707     -2696.711 7        42.011
E06        14.000    23487742.663 8 123428990.10708      -775.735 8        49.445                                                                    23487742.583 8  92170961.83708      -579.309 8        50.013    23487741.648 8  94575424.00408      -594.431 8        48.824
E11        15.000    24317909.832 5 127791529.07905     -2636.036 5        35.838                                                                    24317906.335 6  95428700.02206     -1968.279 6        41.750    24317905.352 6  97918110.76006     -2019.748 6        39.940
G19        16.000    22620044.111 6 118869369.00806       476.940 6        36.265                                    22620038.051 3  92625293.99003       371.633 3        19.284
G28        18.000    23310460.610 5 122497407.38405     -1559.543 5        34.338                                    23310455.694 2  95452379.62702     -1215.236 2        16.906    23310460.410 6  95452407.63206     -1215.120 6        39.574
G06        19.000    24767788.200 4                      2677.342 4        28.550                                                                                                    24767794.957 5 101419979.15905      2086.104 5        33.725
E36        20.000    23670213.050 6 124387941.81406        -1.543 6        36.038                                                                    23670213.499 7  92886982.10307        -1.121 7        43.103    23670212.137 7  95310150.85307        -1.199 7        45.347
E05        21.000    25940062.082 5 136315949.20005      2184.674 5        31.419                                                                    25940055.216 3                      1630.689 3        21.476    25940067.408 5 104449876.03705      1673.850 5        32.102
G17        22.000    22412052.823 7 117776117.81407     -1551.999 7        45.094                                    22412048.953 6  91773667.35406     -1209.345 6        39.517    22412048.002 6  91773609.35506     -1209.295 6        39.321
S23        24.000    38258887.236 7 201051747.23807      -824.375 7        42.193
S36        25.000    38309863.778 6 201319574.28506      -828.076 6        37.871
R20        27.000    20726856.803 4                     -4147.331 4        27.701
R06        29.000    20180245.320 5                      1109.928 5        32.874
C19        33.000                                                                                                                                    23337524.300 6 121524731.22906      1195.854 6        36.102                                                                    23337522.476 7  98748679.30507       971.697 7        43.752
R21        34.000    19538655.494 8 104555396.51608       -63.324 8        48.706                                                                    19538655.151 6  81320769.37306       -49.334 6        40.415
R07        35.000    23774914.080 5 127268805.30405      2870.607 5        31.215
R05        36.000    20302203.497 7 108527012.00207     -3386.628 7        46.143                                                                    20302200.701 7  84409795.78407     -2634.040 7        43.956
R22        37.000    22963328.942 5 122579798.64805      3184.845 5        30.725                                                                    22963325.071 6  95339851.90606      2477.316 6        36.541
C39        38.000                                                                                                                                    39017346.684 5 203173573.13005     -1057.090 5        31.517
C06        41.000                                                                                                                                    38421587.887 6 200071288.92206      -490.156 6        41.790    38421581.259 7 154707777.19807      -379.049 7        46.556    38421580.136 6 162574274.94406      -398.343 6        41.561
C29        43.000                                                                                                                                    22691347.943 7 118159692.40707     -2901.486 7        46.049                                                                    22691346.910 7  96014540.66107     -2357.675 7        42.569
C16        45.000                                                                                                                                    38856412.535 6 202335614.49006      -609.537 6        39.081    38856413.533 6 156458659.89306      -471.389 6        39.706    38856409.983 6 164414186.18606      -495.144 6        37.289
C09        46.000                                                                                                                                    38949985.928 6 202822821.78006        -1.289 6        39.556    38949983.873 6 156835469.75006        -0.933 6        40.169    38949984.431 6 164810116.50206        -1.035 6        41.185
C32        47.000                                                                                                                                    25132301.488 6 130870413.93906     -3602.989 6        36.121                                                                    25132291.863 4                     -2927.520 4        29.412
C44        48.000                                                                                                                                    26706170.606 5 139066072.49405      2268.419 5        35.519                                                                    26706163.942 5                      1843.736 5        30.294
C35        51.000                                                                                                                                    23417686.097 7 121942075.07707       595.798 7        43.236                                                                    23417677.805 6  99087890.57206       484.141 6        38.643
I09        54.000    37281584.243 4 146300949.70204      -745.023 4        29.005
C20        55.000                                                                                                                                    21948613.699 8 114292183.36708     -1367.696 8        51.783                                                                    21948608.326 7  92871839.84507     -1111.352 7        47.425
I01        56.000   332695804.184 6   2428994.94306     -2876.907 6        37.051
C30        58.000                                                                                                                                    26318223.552 3                     -4348.713 3        19.284
> 2025 01 01 01 31 35.0000000  0 38
G21         3.000    23349552.553 6 122702739.35706     -3749.566 6        37.459                                    23349547.345 1  95612487.23801     -2921.810 1         9.333
G31         4.000    22485402.453 6 118161595.14506       301.038 6        37.032                                    22485407.119 2  92074036.95802       234.562 2        13.030    22485401.597 4                       234.313 4        26.371
G02         5.000    21814908.557 6 114638361.65906     -3025.959 6        39.556                                    21814912.455 3  89328423.20013     -2357.894 3        21.381
E34         6.000    27034497.081 6 142067271.15806      1907.255 6        36.473                                                                    27034493.082 7 106089205.17907      1424.060 7        42.133    27034493.244 6 108856718.11906      1461.187 6        40.872
E04         7.000    24311903.887 7 127760003.68107     -2210.872 7        42.573                                                                    24311902.460 7  95405118.28707     -1651.017 7        42.622    24311901.531 7  97893947.38807     -1694.070 7        44.709
G03         8.000    20027197.261 7 105243632.41607      -839.900 7        44.932                                    20027196.423 6  82008060.19106      -654.465 6        41.592    20027196.131 7  82008050.18907      -654.565 7        42.326
G09         9.000    23298699.457 4                      2680.510 4        27.281                                                                                                    23298660.413 4  95404124.03104      2089.150 4        27.126
G04        11.000    21294786.962 5 111904888.59105      1624.213 5        35.595                                    21294782.547 2  87198559.71202      1265.605 2        16.302    21294786.686 6  87198586.71306      1265.798 6        39.538
E09        12.000    23983119.791 7 126032239.61007       542.770 7        47.741                                                                    23983119.519 8  94114975.90808       405.301 8        50.433    23983118.800 8  96570126.22008       415.801 8        48.610
E10        13.000    26557208.784 4                     -3520.091 4        29.507                                                                    26557191.464 7 104216157.24907     -2628.539 7        42.318    26557190.415 7 106934799.37007     -2697.184 7        42.318
E06        14.000    23488481.710 8 123432873.20008      -777.439 8        49.710                                                                    23488481.396 8  92173861.54708      -580.541 8        49.989    23488480.548 8  94578399.36108      -595.738 8        48.876
E11        15.000    24320418.886 5 127804711.78905     -2637.211 5        35.109                                                                    24320414.740 6  95438544.28206     -1969.171 6        41.859    24320414.277 6  97928211.83606     -2020.688 6        39.586
G19        16.000    22619590.818 5 118866991.15405       474.178 5        35.948                                    22619585.589 3  92623441.11103       369.490 3        20.286
G28        18.000    23311945.775 5 122505211.29305     -1562.185 5        32.713                                    23311941.123 2  95458460.61602     -1217.279 2        16.075    23311942.343 6  95458488.62206     -1217.163 6        37.580
G06        19.000    24765241.669 5                      2676.638 5        31.291                                                                                                    24765245.970 5 101409549.39905      2086.000 5        33.563
E36        20.000    23670215.291 5 124387952.88505        -2.751 5        35.476                                                                    23670214.935 7  92886990.37407        -2.103 7        43.283    23670214.042 7  95310159.33007        -2.213 7        45.031
E05        21.000    25937982.631 5 136305026.08605      2184.451 5        32.030                                                                    25937973.863 3                      1632.041 3        20.405    25937987.347 5 104441506.38805      1673.596 5        31.766
G17        22.000    22413530.642 7 117783884.20307     -1554.647 7        44.728                                    22413526.578 6  91779719.07106     -1211.414 6        39.285    22413526.279 6  91779661.08606     -1211.322 6        39.276
S23        24.000    38259667.449 6 201055868.59406      -823.942 6        41.416
S36        25.000    38310652.313 6 201323714.29106      -828.144 6        37.459
R20        27.000    20730739.544 4                     -4150.294 4        28.190                                                                    20730736.450 4                     -3228.366 4        26.491
R06        29.000    20179206.830 5                      1107.324 5        33.515
R14        30.000    23409431.630 5                       122.435 5        30.294
C19        33.000                                                                                                                                    23336376.021 5 121518754.78205      1194.752 5        35.829                                                                    23336374.383 7  98743822.92707       970.951 7        44.390
R21        34.000    19538716.047 8 104555723.00608       -67.219 8        49.030                                                                    19538715.173 6  81321023.30806       -52.233 6        40.532
R05        36.000    20305373.355 7 108543948.87707     -3388.183 7        44.906                                                                    20305368.831 7  84422968.93507     -2635.281 7        44.370
R22        37.000                                                                                                                                    22960339.048 5  95327467.23705      2476.518 5        35.138
C39        38.000                                                                                                                                    39018359.800 5 203178860.78505     -1057.662 5        30.204
C06        41.000                                                                                                                                    38422058.532 7 200073741.26607      -490.563 7        42.070    38422052.215 7 154709673.51507      -379.479 7        46.574    38422051.277 6 162576267.66206      -398.639 6        41.368
C29        43.000                                                                                                                                    22694135.164 7 118174204.48607     -2903.325 7        46.527                                                                    22694133.986 7  96026332.91507     -2359.170 7        42.988
C16        45.000                                                                                                                                    38856998.683 6 202338663.80706      -610.162 6        39.577    38856998.658 6 156461017.82806      -471.763 6        39.192    38856995.820 6 164416664.01106      -495.840 6        37.047
C09        46.000                                                                                                                                    38949988.378 6 202822829.31006        -1.904 6        40.029    38949985.635 6 156835475.56906        -1.363 6        40.150    38949985.983 6 164810122.61206        -1.383 6        41.170
C32        47.000                                                                                                                                    25135766.668 6 130888428.82106     -3603.128 6        36.435                                                                    25135753.922 5                     -2928.146 5        30.309
C44        48.000                                                                                                                                    26703992.468 5 139054730.45505      2268.177 5        35.210                                                                    26703985.788 5                      1843.035 5        31.343
C35        51.000                                                                                                                                    23417113.958 7 121939101.14607       593.748 7        42.468                                                                    23417107.222 6  99085474.00706       482.455 6        39.703
I09        54.000    37282533.412 4 146304673.61904      -744.440 4        27.257
C20        55.000                                                                                                                                    21949927.428 8 114299025.33408     -1369.027 8        52.057                                                                    21949922.328 7  92877399.49007     -1112.395 7        47.736
I01        56.000   332699469.945 6   2443379.69106     -2876.835 6        37.028
> 2025 01 01 01 31 40.0000000  0 38
G21         3.000    23353120.790 6 122721490.96706     -3750.771 6        37.698                                    23353115.530 1  95627098.89201     -2922.676 1         8.381
G31         4.000    22485121.903 6 118160099.69306       297.496 6        38.153                                    22485121.892 2  92072871.72402       231.794 2        14.286    22485118.740 3                       231.425 3        23.581
G02         5.000    21817792.315 6 114653497.74106     -3028.237 6        39.123                                    21817791.791 3  89340217.55003     -2359.677 3        23.390
E34         6.000    27032686.203 5 142057738.18305      1906.222 5        35.529                                                                    27032678.954 7 106082086.39907      1423.677 7        42.326    27032679.137 6 108849413.61606      1460.817 6        41.135
E04         7.000    24314008.412 7 127771063.21007     -2212.557 7        43.228                                                                    24314007.402 7  95413377.03607     -1652.274 7        42.870    24314005.614 7  97902421.59107     -1695.474 7        43.958
G03         8.000    20027997.208 7 105247838.16807      -842.035 7        45.177                                    20027996.696 6  82011337.40006      -656.127 6        41.888    20027996.812 6  82011327.38406      -656.073 6        41.833
G09         9.000    23296148.181 3                      2680.085 3        23.314                                                                                                    23296112.312 5  95393681.67905      2088.268 5        30.332
G04        11.000    21293246.242 6 111896773.76706      1621.910 6        37.837                                    21293239.215 3  87192236.46803      1263.814 3        18.090    21293242.403 6  87192263.48506      1263.878 6        39.231
E09        12.000    23982604.685 7 126029531.74407       540.656 7        47.646                                                                    23982604.197 8  94112953.80208       403.694 8        50.404    23982603.417 8  96568051.35908       414.304 8        48.728
E10        13.000    26560559.885 4                     -3521.336 4        29.280                                                                    26560541.225 7 104229302.48307     -2629.289 7        42.470    26560540.326 7 106948287.53307     -2697.819 7        42.663
E06        14.000    23489222.598 8 123436766.56008      -779.656 8        49.709                                                                    23489222.215 8  92176768.92108      -582.169 8        49.890    23489221.495 8  94581382.57708      -597.338 8        48.839
E11        15.000    24322929.322 5 127817902.34405     -2638.863 5        35.267                                                                    24322924.948 6  95448394.37906     -1970.578 6        41.981    24322924.620 6  97938318.88406     -2022.000 6        39.477
G19        16.000    22619143.035 6 118864630.05606       470.582 6        38.661                                    22619136.285 3  92621601.28903       366.689 3        20.976
G28        18.000    23313434.159 5 122513031.43805     -1565.311 5        34.262                                    23313429.422 2  95464554.23102     -1219.725 2        13.879    23313425.979 5  95464582.24105     -1219.834 5        35.057
G06        19.000    24762697.862 5                      2676.333 5        31.487                                                                                                    24762699.342 5 101399121.02705      2085.618 5        33.671
E36        20.000    23670219.065 6 124387972.46106        -4.798 6        36.004                                                                    23670218.127 7  92887004.98207        -3.557 7        43.462    23670217.556 7  95310174.30807        -3.641 7        45.073
E05        21.000    25935904.785 5 136294105.49605      2184.022 5        32.048                                                                    25935894.295 3                      1630.393 3        20.619    25935909.129 5 104433138.67405      1673.510 5        31.796
G17        22.000    22415011.468 7 117791665.12907     -1557.525 7        46.087                                    22415006.882 6  91785782.11006     -1213.654 6        39.300    22415006.794 6  91785724.12906     -1213.610 6        39.087
S23        24.000    38260452.912 6 201059989.89406      -824.293 6        41.216
S36        25.000    38311435.294 6 201327854.29806      -827.696 6        37.399
R20        27.000    20734621.136 4                     -4153.161 4        29.536                                                                    20734621.516 4                     -3230.146 4        27.437
R06        29.000    20178170.478 5 107674581.15115      1105.089 5        33.659
R14        30.000    23409318.440 4                       118.768 4        29.128
C19        33.000                                                                                                                                    23335228.468 6 121512785.23306      1193.298 6        36.431                                                                    23335228.278 7  98738972.15807       969.705 7        45.160
R21        34.000    19538779.294 8 104556070.97008       -71.646 8        48.661                                                                    19538779.308 6  81321293.96706       -55.756 6        40.272
R05        36.000    20308542.213 6 108560895.09906     -3390.117 6        40.441                                                                    20308539.194 7  84436149.43207     -2636.765 7        44.203
R22        37.000    22957358.062 4 122547958.61014      3183.092 4        28.161                                                                    22957359.108 5  95315087.39515      2475.526 5        33.665
C39        38.000                                                                                                                                    39019376.666 4 203184152.62004     -1059.159 4        29.071
C06        41.000                                                                                                                                    38422530.628 7 200076198.15107      -491.860 7        42.201    38422524.014 7 154711573.33207      -380.301 7        46.595    38422523.202 6 162578264.07106      -399.586 6        41.669
C29        43.000                                                                                                                                    22696924.158 7 118188727.59707     -2905.638 7        46.587                                                                    22696923.204 7  96038134.13507     -2361.060 7        43.314
C16        45.000                                                                                                                                    38857586.405 6 202341717.49506      -610.911 6        39.760    38857585.267 6 156463379.15106      -472.638 6        39.177    38857582.277 6 164419145.38806      -496.563 6        37.285
C09        46.000                                                                                                                                    38949990.551 6 202822840.88006        -2.553 6        40.420    38949988.322 6 156835484.53506        -2.141 6        40.470    38949988.027 6 164810132.03706        -2.195 6        41.087
C32        47.000                                                                                                                                    25139226.141 5 130906445.34705     -3603.485 5        35.376                                                                    25139212.070 5                     -2928.134 5        30.521
C44        48.000                                                                                                                                    26701813.864 5 139043392.65505      2267.360 5        34.648                                                                    26701807.777 5                      1842.005 5        30.845
C35        51.000                                                                                                                                    23416544.785 7 121936139.58307       591.117 7        42.294                                                                    23416539.008 6  99083067.50806       480.367 6        40.653
I09        54.000    37283480.878 4 146308398.22204      -744.894 4        26.491
C20        55.000                                                                                                                                    21951243.274 8 114305875.85808     -1370.878 8        52.397                                                                    21951237.952 8  92882966.11608     -1113.994 8        48.069
I01        56.000   332703135.706 6   2457764.96706     -2877.146 6        36.503
> 2025 01 01 01 31 45.0000000  0 37
G21         3.000    23356690.166 6 122740248.70206     -3752.004 6        37.040                                    23356684.905 1  95641715.38101     -2923.617 1         8.286
G31         4.000    22484846.443 6 118158621.63606       294.041 6        39.468                                    22484839.795 2  92071719.91402       229.105 2        13.818    22484839.411 3                       226.444 3        20.952
G02         5.000    21820678.714 6 114668644.81606     -3030.380 6        40.074                                    21820673.407 4  89352020.46004     -2361.331 4        24.662
E34         6.000    27030877.360 5 142048207.82905      1905.849 5        34.000                                                                    27030865.354 7 106074969.56407      1423.290 7        42.311    27030865.826 6 108842111.14306      1460.470 6        41.697
E04         7.000    24316115.126 7 127782132.07007     -2214.549 7        43.951                                                                    24316113.871 7  95421642.76607     -1653.763 7        42.861    24316111.788 7  97910902.92507     -1696.841 7        43.456
G03         8.000    20028800.149 7 105252054.87107      -844.252 7        45.509                                    20028799.080 7  82014623.14207      -657.857 7        42.468    20028799.824 7  82014613.12007      -657.808 7        42.053
G09         9.000    23293599.370 3                      2677.747 3        23.276                                                                                                    23293564.615 5  95383244.29105      2087.102 5        32.383
G04        11.000    21291703.790 6 111888670.90906      1619.440 6        39.309                                    21291698.044 3  87185922.55303      1261.890 3        19.522    21291699.580 6  87185949.56906      1261.868 6        39.243
E09        12.000    23982090.999 7 126026834.29707       538.631 7        46.701                                                                    23982090.822 8  94110939.48008       402.204 8        50.272    23982090.164 8  96565984.49708       412.697 8        48.857
E10        13.000    26563909.675 5                     -3522.412 5        30.128                                                                    26563891.918 7 104242451.79807     -2630.072 7        42.591    26563891.480 7 106961779.88107     -2698.695 7        43.158
E06        14.000    23489965.572 8 123440671.09208      -781.868 8        49.787                                                                    23489965.156 8  92179684.65108      -583.829 8        49.790    23489964.548 8  94584374.36708      -599.043 8        48.927
E11        15.000    24325440.593 5 127831101.59305     -2640.904 5        35.971                                                                    24325436.678 6  95458250.96306     -1971.854 6        41.998    24325436.732 6  97948432.60206     -2023.483 6        39.450
G19        16.000    22618698.601 7 118862286.53707       467.086 7        42.760                                    22618690.845 3  92619775.18403       363.964 3        22.933
G28        18.000    23314925.356 5 122520868.68805     -1569.578 5        31.826                                    23314920.963 1  95470661.19101     -1223.030 1        10.667    23314916.689 5  95470689.18205     -1222.782 5        33.180
G06        19.000    24760154.054 5                      2675.892 5        31.970                                                                                                    24760152.710 5 101388694.82305      2085.127 5        33.299
E36        20.000    23670223.626 6 124388001.39406        -6.570 6        36.469                                                                    23670223.283 7  92887026.59307        -4.765 7        43.431    23670222.909 7  95310196.48407        -4.956 7        45.448
E05        21.000    25933827.892 5 136283188.43105      2183.103 5        32.617                                                                    25933815.178 3                      1631.176 3        20.595    25933831.310 5 104424773.67805      1673.118 5        30.619
G17        22.000    22416495.435 7 117799461.48907     -1560.682 7        46.748                                    22416490.075 6  91791857.18906     -1216.115 6        39.673    22416490.781 6  91791799.22006     -1216.111 6        38.898
S23        24.000    38261239.225 6 201064111.98806      -824.278 6        40.913
S36        25.000    38312225.546 6 201331995.22406      -828.450 6        36.794
R20        27.000    20738505.125 4                     -4156.308 4        28.948                                                                    20738506.806 5                     -3233.172 5        30.408
R06        29.000    20177136.173 5 107669064.70605      1101.862 5        33.222
C19        33.000                                                                                                                                    23334091.198 6 121506823.44506      1191.710 6        39.177                                                                    23334083.595 7  98734127.71407       968.316 7        45.782
R21        34.000    19538847.557 8 104556441.22608       -76.182 8        48.321                                                                    19538848.402 6  81321581.95006       -59.192 6        40.243
R05        36.000    20311712.142 6 108577851.93306     -3392.248 6        41.628                                                                    20311712.017 7  84449338.08607     -2638.363 7        43.721
R22        37.000    22954386.125 5 122532048.84905      3181.416 5        33.210                                                                    22954378.100 5  95302713.12705      2474.314 5        32.413
C39        38.000                                                                                                                                    39020395.360 4 203189449.46404     -1059.933 4        27.748
C06        41.000                                                                                                                                    38423004.002 7 200078660.41907      -492.787 7        42.305    38422997.138 7 154713477.31907      -381.087 7        46.690    38422995.980 6 162580264.87306      -400.543 6        41.545
C29        43.000                                                                                                                                    22699717.089 7 118203262.63707     -2908.057 7        46.067                                                                    22699714.354 7  96049945.05707     -2363.089 7        43.412
C16        45.000                                                                                                                                    38858174.089 6 202344776.49506      -612.091 6        39.916    38858172.902 6 156465744.56006      -473.336 6        39.135    38858169.617 6 164421631.07806      -497.346 6        37.149
C09        46.000                                                                                                                                    38949994.147 6 202822857.46506        -3.708 6        40.470    38949991.922 6 156835497.36706        -2.827 6        40.737    38949991.224 6 164810145.49706        -2.950 6        40.822
C32        47.000                                                                                                                                    25142683.312 5 130924464.46205     -3604.146 5        35.433                                                                    25142670.973 4                     -2928.963 4        29.355
C44        48.000                                                                                                                                    26699638.846 5 139032059.91505      2266.243 5        34.376                                                                    26699630.705 5                      1841.496 5        30.332
C35        51.000                                                                                                                                    23415978.478 6 121933191.31106       588.435 6        41.459                                                                    23415972.975 6  99080671.79506       478.046 6        41.347
I09        54.000    37284432.594 4 146312124.15004      -745.512 4        28.938
C20        55.000                                                                                                                                    21952560.639 8 114312735.84908     -1372.798 8        52.113                                                                    21952555.237 8  92888540.41508     -1115.608 8        48.080
I01        56.000   332706802.072 6   2472151.39506     -2877.208 6        36.370
> 2025 01 01 01 31 50.0000000  0 39
G21         3.000    23360260.923 6 122759011.90306     -3752.619 6        36.507                                    23360255.276 1  95656335.97601     -2924.043 1         6.750
G31         4.000    22484570.522 6 118157160.32306       291.026 6        40.052                                    22484561.151 1  92070581.30101       226.762 1        11.259
G02         5.000    21823564.250 6 114683802.30306     -3032.152 6        40.424                                    21823557.201 4  89363831.47204     -2362.708 4        24.977
E34         6.000    27029062.724 5 142038679.56205      1905.948 5        30.958                                                                    27029052.050 7 106067854.31307      1423.196 7        42.017    27029053.052 7 108834810.28707      1460.151 7        42.178
E04         7.000    24318223.736 7 127793209.69307     -2216.079 7        44.578                                                                    24318221.671 7  95429915.01207     -1654.793 7        43.211    24318220.007 7  97919390.96807     -1698.036 7        43.570
G03         8.000    20029604.974 7 105256281.95607      -846.083 7        46.237                                    20029603.502 7  82017916.97007      -659.279 7        43.075    20029604.383 7  82017906.93707      -659.278 7        42.258
G09         9.000                                                                                                                                                                    23291018.073 5  95372811.32105      2086.569 5        33.198
G04        11.000    21290164.210 6 111880579.46606      1617.543 6        40.381                                    21290158.782 3  87179617.53903      1260.420 3        20.405    21290160.348 6  87179644.56606      1260.258 6        38.874
E09        12.000    23981579.588 7 126024146.74707       536.872 7        46.033                                                                    23981579.337 8  94108932.53908       400.934 8        49.993    23981578.695 8  96563925.20208       411.325 8        49.070
E10        13.000    26567255.616 4                     -3523.199 4        29.858                                                                    26567243.530 7 104255604.77407     -2630.730 7        42.499    26567243.343 7 106975275.97707     -2699.373 7        43.046
E06        14.000    23490710.602 8 123444586.25108      -783.708 8        49.653                                                                    23490710.100 8  92182608.31108      -585.240 8        49.498    23490709.686 8  94587374.29008      -600.532 8        49.107
E11        15.000    24327954.330 6 127844308.96306     -2641.965 6        37.497                                                                    24327949.861 7  95468113.63807     -1972.896 7        42.082    24327950.528 6  97958552.56506     -2024.558 6        39.111
G19        16.000    22618255.618 7 118859960.17107       464.005 7        43.518                                    22618248.226 4  92617962.44804       361.559 4        24.165
G28        18.000    23316419.475 5 122528722.47305     -1572.373 5        30.075                                    23316415.607 1  95476781.03501     -1225.176 1         7.750    23316412.616 5  95476809.00305     -1225.209 5        30.264
G06        19.000    24757608.945 5                      2675.441 5        31.728                                                                                                    24757606.508 5 101378270.36505      2085.062 5        32.198
E36        20.000    23670231.210 6 124388039.18806        -7.980 6        37.323                                                                    23670230.371 7  92887054.82707        -5.967 7        43.001    23670230.202 7  95310225.45407        -6.120 7        45.506
E05        21.000    25931753.377 5 136272274.32505      2182.771 5        32.066                                                                                                                                    25931754.237 4 104416410.91904      1672.403 4        29.782
G17        22.000    22417981.957 7 117807272.72307     -1563.337 7        46.328                                    22417976.183 6  91797943.85606     -1218.187 6        39.823    22417977.445 6  91797885.89106     -1218.321 6        39.495
S23        24.000    38262017.296 6 201068234.30506      -824.234 6        40.779
S36        25.000    38313016.125 6 201336137.05406      -827.931 6        36.866
R20        27.000    20742392.203 4                     -4159.238 4        29.839                                                                    20742393.375 4                     -3235.169 4        29.175
R06        29.000    20176104.643 5 107663561.64305      1099.635 5        32.269
R14        30.000    23409115.133 4                       110.678 4        29.393
C19        33.000                                                                                                                                    23332955.317 6 121500868.94406      1190.564 6        39.940                                                                    23332940.361 7  98729289.16207       967.338 7        46.148
R21        34.000    19538920.908 7 104556833.43107       -80.265 7        47.158                                                                    19538922.892 6  81321887.00406       -62.485 6        41.027
R07        35.000    23764130.789 4 127211422.63304      2868.036 4        28.379
R05        36.000    20314886.256 7 108594818.48207     -3394.014 7        45.189                                                                    20314885.524 7  84462534.25207     -2639.813 7        42.574
R22        37.000    22951413.722 5 122516145.57505      3180.349 5        34.714                                                                    22951400.504 5  95290343.92605      2473.698 5        33.042
C39        38.000                                                                                                                                    39021412.238 5 203194750.93705     -1060.224 5        30.234
C06        41.000                                                                                                                                    38423477.661 7 200081127.54707      -493.602 7        42.336    38423470.474 7 154715385.05307      -381.637 7        46.471    38423469.674 6 162582269.62006      -401.172 6        41.435
C29        43.000                                                                                                                                    22702510.440 7 118217809.03607     -2910.034 7        44.426                                                                    22702508.010 7  96061765.22307     -2364.666 7        43.187
C16        45.000                                                                                                                                    38858762.052 6 202347840.23206      -612.862 6        40.451    38858761.457 6 156468113.63806      -473.836 6        38.985    38858758.169 6 164424120.62306      -498.042 6        37.251
C09        46.000                                                                                                                                    38949998.229 6 202822878.44206        -4.262 6        40.133    38949995.821 6 156835513.59406        -3.390 6        40.503    38949995.074 6 164810162.57006        -3.492 6        40.782
C32        47.000                                                                                                                                    25146141.390 5 130942485.56905     -3603.889 5        34.338                                                                    25146132.693 4                     -2928.843 4        28.559
C44        48.000                                                                                                                                    26697464.362 5 139020731.77605      2265.525 5        34.609                                                                    26697454.826 5                      1840.625 5        30.626
C35        51.000                                                                                                                                    23415415.354 6 121930255.78906       586.224 6        39.501                                                                    23415409.033 6  99078286.46106       476.256 6        41.571
I09        54.000    37285381.199 4 146315850.95904      -745.140 4        28.806
C20        55.000                                                                                                                                    21953879.155 8 114319604.74008     -1374.352 8        51.103                                                                    21953874.145 7  92894121.95507     -1116.759 7        47.825
I01        56.000   332710467.716 6   2486538.65006     -2877.327 6        36.250
> 2025 01 01 01 31 55.0000000  0 37
G21         3.000    23363831.945 5 122777780.43605     -3754.093 5        35.752                                    23363826.645 1  95670960.74601     -2925.195 1         5.000
G31         4.000    22484295.281 6 118155715.64606       287.269 6        39.384                                    22484285.922 1  92069455.61501       223.526 1         5.714    22484313.347 3                       224.597 3        22.514
G02         5.000    21826449.724 6 114698969.98706     -3034.511 6        40.527                                    21826443.303 4  89375650.43604     -2364.559 4        25.293
E34         6.000                                                                                                                                    27027239.021 7 106060740.48907      1422.720 7        42.239    27027240.356 7 108827510.87507      1459.739 7        42.620
E04         7.000    24320333.378 7 127804295.86707     -2218.106 7        45.279                                                                    24320331.073 7  95438193.65807     -1656.431 7        43.416    24320330.090 7  97927885.58807     -1699.612 7        43.029
G03         8.000    20030411.483 7 105260519.23007      -848.465 7        46.899                                    20030409.897 7  82021218.73307      -661.137 7        43.928    20030410.819 7  82021208.70007      -661.100 7        42.984
G09         9.000    23288454.786 4                      2676.141 4        28.436                                                                                                    23288470.671 5  95362382.61605      2085.247 5        33.347
G04        11.000    21288627.119 6 111872499.28806      1614.986 6        39.712                                    21288621.357 3  87173321.27303      1258.448 3        21.405    21288622.912 6  87173348.28606      1258.559 6        38.544
E09        12.000    23981070.072 7 126021468.88707       534.622 7        45.776                                                                    23981069.648 8  94106932.84108       399.245 8        50.011    23981069.120 8  96561873.33708       409.606 8        49.145
E10        13.000    26570596.643 5                     -3524.197 5        32.281                                                                    26570595.894 7 104268761.26207     -2631.692 7        42.040    26570595.725 7 106988775.68007     -2700.365 7        42.878
E06        14.000    23491457.817 8 123448511.84908      -786.082 8        50.039                                                                    23491457.075 8  92185539.76308      -586.979 8        49.516    23491456.782 8  94590382.21608      -602.341 8        49.075
E11        15.000    24330469.346 6 127857524.30806     -2643.750 6        38.853                                                                    24330464.784 6  95477982.25006     -1974.280 6        41.950    24330465.619 6  97968678.62106     -2025.748 6        39.345
G19        16.000    22617815.204 7 118857650.77407       460.221 7        44.229                                    22617808.933 4  92616162.92204       358.602 4        25.008
G06        19.000    24755065.589 5                      2675.017 5        32.257                                                                                                    24755059.626 5 101367847.45705      2084.457 5        32.617
E36        20.000    23670241.961 6 124388085.65906       -10.355 6        38.700                                                                    23670239.055 7  92887089.53207        -7.550 7        43.342    23670239.047 7  95310261.06807        -7.778 7        45.735
E05        21.000    25929676.833 5 136261363.01105      2181.886 5        32.671                                                                                                                                    25929677.027 4 104408050.30204      1672.055 4        28.066
G17        22.000    22419470.691 7 117815098.65707     -1566.599 7        45.347                                    22419465.278 6  91804041.98106     -1220.730 6        40.138    22419467.071 6  91803984.00206     -1220.600 6        40.689
S23        24.000    38262806.917 6 201072356.61406      -824.244 6        41.056
S36        25.000    38313801.529 6 201340278.22406      -828.162 6        37.123
R20        27.000    20746284.603 5                     -4162.177 5        30.136                                                                    20746282.985 4                     -3237.240 4        29.630
R06        29.000    20175074.282 5 107658072.24305      1096.265 5        32.611
C19        33.000                                                                                                                                    23331810.849 6 121494921.46606      1188.834 6        40.729                                                                    23331797.919 7  98724456.32607       966.093 7        46.410
R21        34.000    19538999.461 7 104557247.19707       -84.942 7        47.019                                                                    19538998.851 6  81322208.81306       -65.995 6        39.550
R07        35.000    23761459.605 3                      2865.715 3        18.896
R05        36.000    20318062.477 7 108611794.82607     -3396.146 7        47.082                                                                    20318060.019 6  84475738.05006     -2641.512 6        41.471
R22        37.000    22948437.630 6 122500248.74906      3178.661 6        36.155                                                                    22948422.658 5  95277979.71405      2472.607 5        33.156
C39        38.000                                                                                                                                    39022430.103 4 203200056.86604     -1061.685 4        28.455
C06        41.000                                                                                                                                    38423952.173 7 200083599.34107      -494.805 7        42.252    38423945.053 7 154717296.40307      -382.596 7        46.585    38423944.331 6 162584278.15206      -402.100 6        41.364
C29        43.000                                                                                                                                    22705303.952 7 118232366.61307     -2912.626 7        43.846                                                                    22705303.795 7  96073594.44207     -2366.625 7        43.297
C16        45.000                                                                                                                                    38859352.039 6 202350908.50506      -614.022 6        40.472    38859350.453 6 156470486.23006      -474.920 6        39.589    38859347.826 6 164426613.86206      -498.949 6        37.456
C09        46.000                                                                                                                                    38950003.501 6 202822903.63006        -5.391 6        40.758    38950000.051 6 156835533.08006        -4.331 6        40.484    38949999.519 6 164810183.03306        -4.460 6        40.505
C32        47.000                                                                                                                                    25149601.154 5 130960508.54605     -3604.842 5        33.120                                                                    25149593.563 4                     -2929.188 4        29.005
C44        48.000                                                                                                                                    26695289.877 5 139009408.07505      2264.195 5        33.802                                                                    26695280.750 4                      1839.904 4        28.825
C35        51.000                                                                                                                                    23414854.374 6 121927332.83906       583.413 6        38.754                                                                    23414848.131 7  99075911.31507       474.076 7        42.246
I09        54.000    37286333.150 4 146319578.58704      -745.599 4        28.133
C20        55.000                                                                                                                                    21955199.981 8 114326482.35808     -1376.417 8        50.576                                                                    21955194.765 7  92899710.56607     -1118.392 7        47.692
I01        56.000   332714133.577 5   2500926.50505     -2877.557 5        35.533
> 2025 01 01 01 32  0.0000000  0 36
G21         3.000    23367403.703 5 122796554.43005     -3755.053 5        34.290                                    23367398.966 1  95685589.73301     -2925.887 1         3.400
G31         4.000    22484023.147 6 118154287.82106       284.186 6        39.240                                    22484014.343 1  92068343.10801       221.255 1         1.556    22484046.217 3                       218.899 3        22.476
G02         5.000    21829339.043 6 114714148.08806     -3036.378 6        40.651                                    21829331.537 4  89387477.52404     -2366.007 4        25.865
E34         6.000    27025425.523 4 142019628.93504      1905.304 4        26.311                                                                    27025426.712 7 106053628.22207      1422.522 7        42.119    27025427.864 7 108820213.07607      1459.576 7        43.012
E04         7.000    24322444.036 7 127815390.81207     -2219.665 7        45.552                                                                    24322442.467 7  95446478.85007     -1657.580 7        43.862    24322441.743 7  97936386.89907     -1700.751 7        42.626
G03         8.000    20031219.958 7 105264766.87107      -850.351 7        47.292                                    20031218.241 7  82024528.57507      -662.612 7        44.698    20031219.058 7  82024518.55107      -662.607 7        42.986
G09         9.000                                                                                                                                                                    23285924.801 5  95351958.27905      2084.574 5        33.623
G04        11.000    21287091.220 6 111864430.55806      1612.832 6        38.610                                    21287086.057 3  87167033.95903      1256.765 3        22.400    21287087.750 6  87167060.95606      1256.771 6        38.303
E09        12.000    23980562.302 7 126018800.92407       532.747 7        45.639                                                                    23980561.954 8  94104940.52908       397.856 8        49.695    23980561.451 8  96559829.05008       408.276 8        49.278
E10        13.000    26573950.713 5 139647051.08915     -3524.874 5        34.348                                                                    26573949.154 6 104281921.40806     -2632.250 6        41.201    26573949.259 7 107002279.12907     -2700.892 7        42.525
E06        14.000    23492206.943 8 123452448.07408      -788.065 8        50.044                                                                    23492206.040 8  92188479.15308      -588.532 8        49.197    23492205.915 8  94593398.28208      -603.878 8        49.370
E11        15.000    24332986.096 6 127870747.80706     -2645.392 6        38.982                                                                    24332980.956 6  95487856.94706     -1975.315 6        41.719    24332982.247 6  97978810.92606     -2026.976 6        39.285
G19        16.000    22617378.030 7 118855358.43107       456.974 7        43.881                                    22617373.040 4  92614376.69504       356.070 4        25.805
G06        19.000    24752522.479 5                      2674.702 5        30.574                                                                                                    24752513.852 5 101357426.28705      2084.514 5        32.958
E36        20.000    23670252.250 6 124388140.98206       -11.728 6        39.435                                                                    23670249.809 7  92887130.85907        -8.773 7        43.376    23670249.622 7  95310303.47207        -9.020 7        45.767
E05        21.000    25927602.749 5 136250454.65705      2181.422 5        33.820                                                                    25927623.099 4                      1629.315 4        26.683    25927600.492 4 104399691.97704      1671.418 4        27.533
G17        22.000    22420962.543 7 117822939.49507     -1569.452 7        44.319                                    22420957.378 6  91810151.71406     -1222.947 6        40.081    22420959.435 6  91810093.75306     -1223.061 6        41.192
S23        24.000    38263590.310 6 201076478.98406      -824.268 6        41.347
S36        25.000    38314588.830 6 201344419.49006      -828.103 6        37.134
R20        27.000    20750177.938 5                     -4165.066 5        31.155                                                                    20750183.308 5                     -3239.620 5        33.144
R06        29.000    20174049.644 5 107652596.21405      1093.905 5        33.413
C19        33.000                                                                                                                                    23330665.390 6 121488981.23606      1187.570 6        40.513                                                                    23330656.650 7  98719629.40007       964.805 7        46.530
R21        34.000    19539081.323 7 104557682.80807       -89.157 7        47.102                                                                    19539079.593 6  81322547.60906       -69.305 6        36.696
R05        36.000    20321240.105 7 108628780.98107     -3397.946 7        47.493                                                                    20321237.004 6  84488949.49006     -2642.783 6        40.660
R22        37.000    22945460.416 5 122484358.54005      3177.661 5        35.800                                                                    22945446.787 5  95265620.69505      2471.404 5        35.400
C39        38.000                                                                                                                                    39023449.516 4 203205367.33504     -1062.482 4        28.142
C06        41.000                                                                                                                                    38424428.405 7 200086075.98907      -495.616 7        42.322    38424420.737 7 154719211.50507      -383.187 7        46.485    38424420.036 6 162586290.63306      -402.893 6        41.437
C29        43.000                                                                                                                                    22708097.947 7 118246935.56707     -2914.846 7        42.633                                                                    22708101.946 7  96085432.90207     -2368.597 7        43.429
C16        45.000                                                                                                                                    38859942.604 6 202353981.53806      -615.085 6        40.126    38859940.378 6 156472862.49106      -475.515 6        39.871    38859938.020 6 164429110.95306      -499.833 6        37.183
C09        46.000                                                                                                                                    38950009.243 6 202822933.23206        -6.097 6        40.799    38950005.887 6 156835555.95706        -4.845 6        40.753    38950005.081 6 164810207.08806        -5.259 6        40.513
C32        47.000                                                                                                                                    25153059.658 5 130978533.46605     -3604.804 5        33.120                                                                    25153055.426 4                     -2929.244 4        29.763
C44        48.000                                                                                                                                    26693117.787 5 138998089.06205      2263.623 5        34.105                                                                    26693106.218 4                      1839.298 4        28.654
C35        51.000                                                                                                                                    23414295.807 6 121924422.67706       580.906 6        36.737                                                                    23414289.661 7  99073546.55207       472.043 7        42.954
I09        54.000    37287281.786 4 146323307.22204      -746.396 4        28.180
C20        55.000                                                                                                                                    21956522.799 8 114333368.86108     -1377.971 8        49.758                                                                    21956517.112 7  92905306.41007     -1119.821 7        47.660
I01        56.000   332717800.491 5   2515315.13005     -2877.684 5        35.414
> 2025 01 01 01 32  5.0000000  0 36
G21         3.000    23370976.743 5 122815333.79305     -3756.623 5        30.460                                    23370972.517 1  95700223.13001     -2927.287 1         5.143
G31         4.000    22483754.378 6 118152876.70906       280.581 6        36.552                                    22483745.433 1  92067243.65501       218.655 1         6.375    22483776.318 3                       215.291 3        20.476
G02         5.000    21832228.640 6 114729336.45206     -3038.689 6        41.015                                    21832221.797 4  89399312.62004     -2367.806 4        25.714
E34         6.000    27023615.449 4 142010106.78004      1903.550 4        24.376                                                                    27023614.802 7 106046517.46207      1421.853 7        42.186    27023615.673 7 108812916.80907      1459.004 7        43.414
E04         7.000    24324556.658 7 127826494.34507     -2221.499 7        45.442                                                                    24324555.092 7  95454770.45507     -1658.983 7        44.289    24324555.120 7  97944894.80507     -1702.195 7        42.546
G03         8.000    20032029.831 8 105269024.79108      -852.588 8        48.436                                    20032028.521 7  82027846.41607      -664.354 7        45.204    20032029.111 7  82027836.39507      -664.347 7        42.978
G09         9.000    23283379.995 6                      2673.880 6        36.242                                                                                                    23283379.739 5  95341538.33305      2083.512 5        33.856
G04        11.000    21285557.380 6 111856373.13706      1610.312 6        38.495                                    21285552.952 3  87160755.43003      1254.793 3        21.762    21285555.014 6  87160782.43906      1254.825 6        38.423
E09        12.000    23980056.793 7 126016142.70307       530.647 7        45.928                                                                    23980056.086 8  94102955.50308       396.271 8        49.718    23980055.613 8  96557792.24508       406.606 8        49.646
E10        13.000    26577304.426 5 139664679.06205     -3526.323 5        35.929                                                                    26577303.421 6 104295085.10406     -2633.013 6        40.825    26577303.827 7 107015786.23807     -2701.877 7        42.070
E06        14.000    23492957.929 8 123456394.78808      -790.367 8        49.609                                                                    23492957.073 8  92191426.37208      -590.229 8        49.340    23492956.910 8  94596422.38508      -605.601 8        49.596
E11        15.000    24335503.398 6 127883979.30206     -2647.040 6        39.171                                                                    24335498.778 6  95497737.62906     -1976.659 6        41.912    24335500.206 6  97988949.36506     -2028.237 6        39.057
G19        16.000    22616944.238 7 118853083.03007       453.342 7        42.616                                    22616940.303 4  92612603.66604       353.240 4        25.865
G06        19.000    24749983.469 4                      2674.209 4        27.497                                                                                                    24749971.982 5 101347006.77005      2083.711 5        33.449
E36        20.000    23670263.922 6 124388205.04806       -13.706 6        40.155                                                                    23670261.925 7  92887178.71107       -10.231 7        43.482    23670261.970 7  95310352.57107       -10.471 7        46.094
E05        21.000    25925529.378 5 136239549.12105      2180.855 5        33.599                                                                    25925553.060 4                      1627.937 4        25.564    25925523.735 4 104391335.78004      1671.531 4        26.623
G17        22.000    22422457.309 7 117830795.07907     -1572.542 7        42.732                                    22422452.362 6  91816272.93206     -1225.354 6        39.513    22422453.710 6  91816214.95106     -1225.351 6        41.142
S23        24.000    38264376.171 6 201080601.43606      -824.498 6        41.018
S36        25.000    38315374.092 6 201348560.75306      -828.253 6        36.684
R20        27.000    20754076.352 5                     -4168.277 5        31.675                                                                    20754086.144 5  86318864.65415     -3241.768 5        35.548
R06        29.000    20173027.330 5 107647133.74705      1090.970 5        34.014
C19        33.000                                                                                                                                    23329521.700 6 121483048.11406      1185.946 6        38.315                                                                    23329517.045 7  98714808.23907       963.663 7        46.043
R21        34.000    19539166.419 7 104558140.12007       -93.670 7        47.020                                                                    19539165.652 6  81322903.30806       -72.555 6        36.979
R05        36.000    20324420.228 8 108645776.83608     -3400.181 8        48.327                                                                    20324416.526 6  84502168.49406     -2644.508 6        38.207
R22        37.000    22942483.373 6 122468474.85306      3176.056 6        36.590                                                                    22942470.906 6  95253266.67606      2470.477 6        36.321
C39        38.000                                                                                                                                    39024468.805 4 203210682.25404     -1063.727 4        25.248
C06        41.000                                                                                                                                    38424904.789 7 200088557.37707      -496.703 7        42.836    38424897.604 7 154721130.27407      -384.116 7        46.558    38424896.409 6 162588306.95806      -403.623 6        41.108
C29        43.000                                                                                                                                    22710897.196 6 118261515.71406     -2917.142 6        41.788                                                                    22710901.757 7  96097280.45707     -2370.409 7        43.103
C16        45.000                                                                                                                                    38860534.286 6 202357059.14106      -615.978 6        40.491    38860531.741 6 156475242.30506      -476.293 6        39.429    38860529.226 6 164431611.75506      -500.510 6        37.206
C09        46.000                                                                                                                                    38950016.044 6 202822967.14106        -7.140 6        41.235    38950012.415 6 156835582.16806        -5.657 6        40.675    38950011.382 6 164810234.63706        -5.991 6        40.429
C32        47.000                                                                                                                                    25156522.833 5 130996560.25005     -3605.478 5        33.808                                                                    25156517.924 4                     -2930.105 4        29.744
C44        48.000                                                                                                                                    26690945.463 5 138986774.49405      2262.576 5        33.719                                                                    26690931.901 4                      1838.417 4        28.123
C35        51.000                                                                                                                                    23413740.315 5 121921525.17205       578.280 5        35.643                                                                    23413733.291 7  99071192.06007       469.970 7        43.168
I09        54.000    37288232.561 4 146327036.59604      -745.802 4        28.370
C20        55.000                                                                                                                                    21957847.063 8 114340264.13108     -1379.931 8        49.784                                                                    21957841.210 7  92910909.37307     -1121.263 7        47.193
I01        56.000   332721467.061 5   2529704.46005     -2877.669 5        34.914
> 2025 01 01 01 32 10.0000000  0 36
G21         3.000    23374552.540 4 122834118.59204     -3757.057 4        26.874                                    23374546.940 1  95714860.51301     -2927.574 1         5.143
G31         4.000    22483487.890 4 118151482.54304       276.797 4        29.422                                    22483479.649 1  92066157.24501       215.703 1         8.667
G02         5.000    21835120.790 6 114744535.21306     -3040.821 6        40.851                                    21835114.141 4  89411155.81004     -2369.469 4        25.368
E34         6.000                                                                                                                                    27021803.087 7 106039408.28007      1421.691 7        42.576    27021804.206 7 108805622.17907      1458.688 7        44.065
E04         7.000    24326671.039 7 127837606.64907     -2223.364 7        44.761                                                                    24326669.499 7  95463068.60207     -1660.354 7        44.625    24326669.813 7  97953409.43107     -1703.720 7        42.775
G03         8.000    20032842.241 8 105273293.09708      -854.711 8        49.738                                    20032840.832 7  82031172.36107      -666.007 7        45.708    20032840.779 7  82031162.35207      -666.095 7        42.971
G09         9.000    23280837.450 6 122341613.46816      2672.617 6        38.841                                    23280854.081 3  95331207.00713      2082.587 3        19.493    23280833.767 5  95331122.81605      2082.606 5        34.205
G04        11.000    21284027.095 6 111848327.13506      1608.028 6        38.595                                    21284022.132 3  87154485.81703      1253.013 3        21.024    21284023.541 6  87154512.85106      1253.133 6        39.237
E09        12.000    23979553.091 7 126013494.38807       528.636 7        45.907                                                                    23979551.998 8  94100977.87208       394.776 8        49.629    23979551.676 8  96555763.02008       405.068 8        49.942
E10        13.000    26580660.966 6 139682311.88706     -3526.881 6        37.142                                                                    26580658.576 6 104308252.46806     -2633.819 6        40.310    26580659.456 6 107029297.08506     -2702.552 6        41.535
E06        14.000    23493710.756 8 123460352.13808      -792.578 8        49.496                                                                    23493710.094 8  92194381.53108      -591.875 8        49.453    23493709.895 8  94599454.63408      -607.266 8        49.871
E11        15.000    24338022.732 6 127897218.96206     -2648.631 6        39.856                                                                    24338018.114 6  95507624.39606     -1977.930 6        41.762    24338019.978 6  97999094.05406     -2029.679 6        38.823
G19        16.000    22616514.393 7 118850824.74507       449.919 7        42.343                                    22616510.660 4  92610843.96804       350.589 4        25.023
G06        19.000                                                                                                                                                                    24747434.500 5 101336588.96905      2083.611 5        33.156
E36        20.000    23670278.785 6 124388277.98906       -15.401 6        40.367                                                                    23670276.003 7  92887233.19707       -11.609 7        43.784    23670276.128 7  95310408.48207       -11.820 7        46.698
E05        21.000    25923454.659 5 136228646.62205      2180.134 5        34.338                                                                    25923486.226 3                      1628.617 3        23.829
G17        22.000    22423955.734 7 117838665.50607     -1575.626 7        42.963                                    22423950.244 6  91822405.72706     -1227.753 6        38.637    22423951.191 6  91822347.75206     -1227.663 6        41.099
S23        24.000    38265159.738 6 201084724.04106      -824.630 6        41.218
S36        25.000    38316166.177 6 201352702.06206      -827.970 6        37.021
R20        27.000    20757974.265 4                     -4171.356 4        29.346                                                                    20757986.255 6  86335079.98306     -3244.279 6        36.193
R06        29.000    20172005.652 5 107641684.95405      1088.339 5        34.657
C19        33.000                                                                                                                                    23328381.109 6 121477122.28606      1184.360 6        37.656                                                                    23328378.711 7  98709992.98607       962.498 7        45.549
R21        34.000    19539255.843 7 104558619.32707       -98.099 7        47.892                                                                    19539255.804 6  81323276.04406       -76.155 6        38.453
R05        36.000    20327601.862 8 108662782.53108     -3402.118 8        48.852                                                                    20327597.706 6  84515395.10106     -2645.996 6        36.919
R22        37.000    22939515.002 6 122452597.79206      3174.790 6        37.066                                                                    22939496.215 6  95240917.88606      2469.218 6        37.505
C39        38.000                                                                                                                                    39025489.724 3 203216001.72903     -1064.170 3        22.990
C06        41.000                                                                                                                                    38425382.562 7 200091043.59407      -497.791 7        42.982    38425374.857 7 154723052.78007      -384.924 7        46.493    38425373.863 6 162590327.20106      -404.460 6        41.180
C29        43.000                                                                                                                                    22713700.225 6 118276107.21906     -2919.441 6        40.846                                                                    22713703.496 7  96109137.24107     -2372.289 7        42.665
C16        45.000                                                                                                                                    38861126.128 6 202360141.50706      -616.996 6        40.875    38861123.800 6 156477625.78206      -477.105 6        39.480    38861121.121 6 164434116.42706      -501.347 6        37.032
C09        46.000                                                                                                                                    38950023.279 6 202823005.47906        -8.277 6        41.540    38950020.017 6 156835611.81706        -6.424 6        40.527    38950018.590 6 164810265.75706        -6.634 6        40.324
C32        47.000                                                                                                                                    25159986.568 5 131014589.09905     -3605.980 5        32.850                                                                    25159979.854 5                     -2930.055 5        30.053
C44        48.000                                                                                                                                    26688774.621 5 138975464.56205      2261.675 5        32.713                                                                    26688759.273 4                      1837.610 4        28.578
C35        51.000                                                                                                                                    23413187.202 5 121918640.43705       575.604 5        34.052                                                                    23413179.383 7  99068847.95507       467.815 7        43.583
I09        54.000    37289183.150 4 146330766.95904      -746.359 4        28.863
C20        55.000                                                                                                                                    21959173.063 8 114347168.31308     -1381.725 8        50.122                                                                    21959167.146 7  92916519.57707     -1122.745 7        47.164
I01        56.000   332725134.493 5   2544094.57905     -2878.087 5        34.667
> 2025 01 01 01 32 15.0000000  0 36
G21         3.000    23378129.189 4 122852908.55404     -3758.281 4        29.488                                    23378122.471 1  95729502.04801     -2928.498 1         4.143
G31         4.000    22483222.818 5 118150104.90105       273.229 5        30.038                                    22483217.066 1  92065083.68701       212.937 1         7.000
G02         5.000    21838015.061 6 114759744.01906     -3042.973 6        40.839                                    21838008.502 4  89423006.84004     -2371.151 4        25.504
E34         6.000    27019986.223 4                      1903.927 4        25.789                                                                    27019991.909 7 106032300.42807      1421.293 7        42.756    27019992.786 7 108798328.90807      1458.438 7        44.497
E04         7.000    24328786.845 7 127848727.30907     -2225.120 7        43.471                                                                    24328785.481 7  95471372.97807     -1661.494 7        44.927    24328785.860 7  97961930.43707     -1704.846 7        43.162
G03         8.000    20033656.542 8 105277571.44308      -856.778 8        50.730                                    20033655.070 7  82034506.12407      -667.618 7        46.396    20033655.041 7  82034496.11507      -667.582 7        43.050
G09         9.000    23278295.412 6 122328252.25706      2671.758 6        39.480                                    23278310.417 3  95320795.64103      2081.906 3        20.571    23278288.203 5  95320711.52105      2081.781 5        34.481
G04        11.000    21282498.915 6 111840292.24406      1605.788 6        37.584                                    21282493.495 3  87148224.85603      1251.281 3        20.786    21282494.133 6  87148251.91006      1251.281 6        39.730
E09        12.000    23979050.485 7 126010855.61807       526.706 7        45.448                                                                    23979049.847 8  94099007.36608       393.252 8        49.367    23979049.514 8  96553741.09908       403.578 8        50.212
E10        13.000    26584018.316 6 139699949.26006     -3528.053 6        37.943                                                                    26584014.646 6 104321423.21606     -2634.547 6        39.489    26584015.681 6 107042811.39806     -2703.294 6        41.163
E06        14.000    23494465.803 8 123464319.73808      -794.651 8        49.308                                                                    23494465.177 8  92197344.34508      -593.402 8        49.451    23494464.857 8  94602494.74208      -608.917 8        50.173
E11        15.000    24340543.545 6 127910466.42806     -2650.369 6        39.916                                                                    24340539.087 6  95517516.98406     -1979.082 6        41.852    24340540.899 6  98009244.69506     -2030.830 6        38.520
G19        16.000    22616087.972 7 118848583.19307       446.654 7        42.974                                    22616084.322 4  92609097.31904       348.052 4        25.053
G06        19.000    24744870.093 3                      2675.188 3        22.552
E36        20.000    23670295.088 6 124388359.49206       -17.349 6        40.613                                                                    23670291.696 7  92887294.05407       -12.890 7        43.871    23670291.943 7  95310470.93107       -13.247 7        47.301
E05        21.000    25921378.074 5 136217746.71505      2179.835 5        33.461                                                                    25921410.987 3                      1627.249 3        22.457
G17        22.000    22425455.586 7 117846550.46607     -1578.707 7        43.653                                    22425450.889 6  91828549.84906     -1230.159 6        38.261    22425451.625 6  91828491.87806     -1230.067 6        40.570
S23        24.000    38265945.634 6 201088846.58806      -824.652 6        41.275
S36        25.000    38316960.167 6 201356842.62306      -827.822 6        36.907
R20        27.000    20761875.649 4                     -4174.490 4        27.138                                                                    20761887.429 6  86351306.60016     -3246.423 6        36.616
R06        29.000    20170988.912 5 107636249.39605      1085.611 5        33.060
C19        33.000                                                                                                                                    23327244.662 6 121471203.33606      1182.904 6        36.922                                                                    23327241.712 7  98705183.37507       961.174 7        45.044
R21        34.000    19539349.939 8 104559120.11408      -102.420 8        48.403                                                                    19539349.104 6  81323665.56306       -79.569 6        38.336
R05        36.000    20330784.711 8 108679797.73808     -3404.091 8        48.912                                                                    20330780.969 6  84528629.16206     -2647.590 6        37.648
R22        37.000                                                                                                                                    22936521.862 6  95228573.97306      2468.322 6        37.527
C39        38.000                                                                                                                                    39026510.411 3                     -1063.092 3        23.124
C06        41.000                                                                                                                                    38425861.453 7 200093534.33607      -498.796 7        43.348    38425853.122 7 154724978.77807      -385.675 7        46.549    38425852.329 6 162592351.15406      -405.325 6        41.094
C29        43.000                                                                                                                                    22716505.041 6 118290709.70306     -2921.694 6        40.088                                                                    22716507.113 7  96121002.98207     -2374.173 7        42.051
C16        45.000                                                                                                                                    38861718.499 6 202363228.24806      -617.969 6        41.213    38861716.453 6 156480012.62806      -477.677 6        39.255    38861714.023 6 164436624.68906      -502.150 6        37.134
C09        46.000                                                                                                                                    38950030.850 6 202823047.87806        -9.061 6        41.609    38950028.424 6 156835644.61306        -6.952 6        40.799    38950026.791 6 164810300.25306        -7.314 6        40.048
C32        47.000                                                                                                                                    25163449.391 5 131032619.52805     -3605.977 5        33.485                                                                    25163442.840 4                     -2930.685 4        29.867
C44        48.000                                                                                                                                    26686603.814 5 138964158.89405      2260.305 5        31.638                                                                    26686587.277 4                      1836.865 4        27.162
C35        51.000                                                                                                                                    23412634.898 5 121915768.05505       573.361 5        31.336                                                                    23412627.823 7  99066513.98307       465.653 7        43.566
I09        54.000    37290132.239 4 146334497.98804      -746.714 4        28.133
C20        55.000                                                                                                                                    21960500.513 8 114354081.01908     -1383.509 8        50.243                                                                    21960494.614 7  92922136.74907     -1124.313 7        46.894
I01        56.000   332728801.410 5   2558485.22105     -2878.314 5        34.910
> 2025 01 01 01 32 20.0000000  0 35
G21         3.000    23381707.075 5 122871703.27905     -3759.026 5        32.060                                    23381698.951 1  95744147.27301     -2929.080 1         3.400
G02         5.000    21840911.625 6 114774962.48406     -3044.625 6        41.597                                    21840904.709 4  89434865.38704     -2372.444 4        25.338
E34         6.000    27018183.197 4                      1903.290 4        28.085                                                                    27018181.094 7 106025193.63407      1421.236 7        42.787    27018181.529 7 108791036.70707      1458.391 7        44.570
E04         7.000    24330904.359 7 127859855.99507     -2226.527 7        42.203                                                                    24330903.235 7  95479683.37307     -1662.637 7        44.993    24330903.346 7  97970457.60307     -1706.016 7        42.991
G03         8.000    20034472.433 8 105281859.44908      -858.470 8        51.488                                    20034471.123 7  82037847.42207      -668.937 7        46.661    20034470.657 7  82037837.42007      -668.958 7        42.902
G09         9.000    23275751.998 6 122314896.07806      2670.693 6        39.099                                    23275766.381 3  95310388.18003      2081.051 3        21.929    23275746.302 5  95310304.09505      2081.129 5        34.852
G04        11.000    21280970.614 5 111832268.12705      1603.735 5        35.595                                    21280966.802 3  87141972.31503      1249.656 3        19.851    21280966.712 6  87141999.35006      1249.698 6        39.709
E09        12.000    23978549.726 7 126008226.03407       525.103 7        45.138                                                                    23978549.317 8  94097043.70408       392.121 8        49.014    23978549.160 8  96551726.21508       402.320 8        50.345
E10        13.000    26587375.834 6 139717590.78506     -3528.667 6        37.992                                                                    26587371.664 6 104334597.06906     -2635.073 6        38.655    26587373.034 6 107056328.91706     -2703.833 6        40.369
E06        14.000    23495222.715 8 123468297.24308      -796.421 8        49.085                                                                    23495222.078 8  92200314.55508      -594.726 8        49.255    23495221.687 8  94605542.43408      -610.237 8        50.298
E11        15.000    24343065.557 6 127923721.33306     -2651.729 6        39.357                                                                    24343061.371 6  95527415.12406     -1980.146 6        41.619    24343063.111 6  98019401.03606     -2031.924 6        37.512
G19        16.000    22615666.625 7 118846358.05807       443.486 7        43.443                                    22615660.824 4  92607363.47304       345.565 4        24.286
G06        19.000    24742336.100 4                      2672.832 4        27.353                                                                                                    24742367.940 4 101315757.47704      2083.385 4        29.801
E36        20.000    23670311.748 6 124388449.14406       -18.622 6        40.870                                                                    23670308.957 7  92887361.00107       -13.960 7        43.778    23670309.085 7  95310539.63407       -14.327 7        47.572
E05        21.000    25919300.659 5 136206849.10005      2179.212 5        33.473                                                                    25919337.079 3                      1625.636 3        21.048    25919303.696 4 104366279.97804      1669.748 4        26.263
G17        22.000    22426959.059 7 117854449.55607     -1581.179 7        43.920                                    22426954.172 6  91834704.99006     -1232.087 6        38.093    22426954.514 6  91834647.01506     -1232.009 6        40.286
S23        24.000    38266730.346 6 201092968.67606      -824.168 6        41.187
S36        25.000    38317742.916 6 201360982.52606      -827.885 6        37.195
R20        27.000    20765777.457 4                     -4176.964 4        26.587                                                                    20765790.290 6  86367544.12906     -3248.658 6        36.026
R06        29.000    20169971.041 5 107630826.75405      1083.255 5        33.323
C19        33.000                                                                                                                                    23326108.794 5 121465290.92305      1181.884 5        35.471                                                                    23326106.207 7  98700379.03407       960.459 7        44.709
R21        34.000    19539448.512 8 104559641.95808      -106.417 8        48.248                                                                    19539444.814 6  81324071.46206       -82.705 6        36.533
R05        36.000    20333969.618 8 108696822.10708     -3405.713 8        49.100                                                                    20333965.849 6  84541870.33006     -2648.697 6        38.958
R22        37.000    22933591.673 5 122420862.14205      3172.873 5        31.977                                                                    22933551.324 6  95216234.69006      2467.442 6        37.497
C39        38.000                                                                                                                                    39027531.922 3                     -1067.334 3        21.619
C06        41.000                                                                                                                                    38426340.483 7 200096029.21107      -499.358 7        43.111    38426332.167 7 154726907.97307      -386.085 7        46.381    38426331.378 6 162594378.43506      -405.758 6        41.368
C29        43.000                                                                                                                                    22719312.199 6 118305322.81106     -2923.684 6        38.375                                                                    22719312.909 6  96132877.30506     -2375.519 6        41.163
C16        45.000                                                                                                                                    38862311.581 6 202366319.02206      -618.472 6        40.408    38862309.418 6 156482402.62506      -478.149 6        39.288    38862307.768 6 164439136.18906      -502.568 6        37.312
C09        46.000                                                                                                                                    38950039.502 6 202823093.96306        -9.650 6        41.249    38950037.707 6 156835680.24606        -7.346 6        41.416    38950035.435 6 164810337.69006        -7.725 6        40.184
C32        47.000                                                                                                                                    25166912.513 5 131050651.23105     -3606.167 5        33.719                                                                    25166905.123 4                     -2930.440 4        28.796
C44        48.000                                                                                                                                    26684434.793 5 138952857.18905      2260.247 5        30.966                                                                    26684416.684 4                      1836.655 4        27.844
C35        51.000                                                                                                                                    23412085.417 4 121912907.81104       570.750 4        25.188                                                                    23412078.513 7  99064189.79507       464.042 7        43.814
I09        54.000    37291085.087 4 146338229.44904      -746.458 4        29.005
C20        55.000                                                                                                                                    21961829.368 8 114361001.89908     -1384.896 8        50.170                                                                    21961823.744 7  92927760.51607     -1125.266 7        46.943
I01        56.000   332732468.418 5   2572876.12305     -2878.148 5        34.410
> 2025 01 01 01 32 25.0000000  0 36
G21         3.000    23385283.577 5 122890501.84305     -3760.370 5        35.452                                    23385276.075 1  95758795.50701     -2930.192 1         7.000
G31         4.000    22482732.800 5 118147397.15205       267.400 5        31.208                                    22482701.081 2  92062973.58302       208.449 2        12.667
G02         5.000    21843809.597 7 114790189.79407     -3046.608 7        42.660                                    21843802.647 4  89446730.84004     -2373.998 4        25.774
E34         6.000    27016375.432 4                      1903.208 4        28.891                                                                    27016370.246 7 106018087.24907      1420.990 7        43.213    27016370.266 7 108783744.93807      1458.151 7        44.518
E04         7.000    24333022.873 6 127870991.80006     -2228.275 6        41.511                                                                    24333022.174 7  95487999.07507     -1663.953 7        45.106    24333022.599 7  97978990.24007     -1707.321 7        43.168
G03         8.000    20035290.050 8 105286156.25908      -860.489 8        51.387                                    20035288.822 7  82041195.58107      -670.510 7        46.707    20035287.944 7  82041185.57107      -670.522 7        42.252
G09         9.000    23273210.203 6 122301544.04106      2669.561 6        38.943                                    23273222.381 3  95299983.96003      2080.178 3        23.962    23273207.128 5  95299899.92805      2080.055 5        35.048
G04        11.000    21279444.418 5 111824253.84405      1602.033 5        33.958                                    21279441.765 3  87135727.44203      1248.333 3        19.403    21279440.804 6  87135754.49306      1248.098 6        38.760
E09        12.000    23978051.195 7 126005604.76407       523.177 7        45.326                                                                    23978050.561 8  94095086.26208       390.660 8        48.714    23978050.372 8  96549717.70608       400.851 8        50.260
E10        13.000    26590734.431 6 139735235.62206     -3529.527 6        37.879                                                                    26590729.414 6 104347773.39106     -2635.580 6        38.006    26590730.702 6 107069848.96406     -2704.536 6        39.664
E06        14.000    23495981.486 8 123472283.77908      -798.518 8        49.184                                                                    23495980.626 8  92203291.50908      -596.255 8        49.257    23495980.255 8  94608597.05008      -611.822 8        50.220
E11        15.000    24345588.617 6 127936982.80806     -2653.270 6        39.279                                                                    24345584.781 6  95537318.17906     -1981.460 6        41.552    24345586.257 6  98029562.41806     -2032.920 6        36.594
G19        16.000    22615246.394 7 118844148.50607       440.110 7        42.919                                    22615240.103 3  92605641.76003       342.940 3        23.829
G06        19.000    24739793.393 4                      2672.722 4        29.754                                                                                                    24739828.369 4 101305342.91404      2082.073 4        26.731
E36        20.000    23670328.854 6 124388546.12606       -20.455 6        41.495                                                                    23670327.351 7  92887433.42607       -15.211 7        43.992    23670327.702 7  95310613.94807       -15.585 7        47.622
E05        21.000    25917224.742 5 136195952.83105      2178.997 5        32.898                                                                    25917264.576 3                      1627.914 3        19.821    25917232.694 4 104357930.94504      1669.142 4        26.060
G17        22.000    22428464.046 7 117862361.94207     -1584.053 7        43.082                                    22428459.920 6  91840870.49106     -1234.326 6        37.819    22428460.237 6  91840812.51906     -1234.321 6        40.057
S23        24.000    38267513.050 6 201097089.41006      -824.386 6        41.147
S36        25.000    38318531.187 6 201365120.45106      -827.710 6        37.508
R20        27.000    20769685.601 4                     -4179.316 4        28.076                                                                    20769691.779 6  86383791.91316     -3250.954 6        36.612
R06        29.000    20168959.505 5 107625416.12705      1080.617 5        33.653
C19        33.000                                                                                                                                    23324975.101 6 121459384.20206      1180.476 6        36.514                                                                    23324971.908 7  98695579.35607       959.306 7        44.138
R21        34.000    19539548.517 7 104560184.04107      -110.726 7        45.880                                                                    19539545.415 6  81324493.11806       -86.301 6        36.518
R05        36.000    20337156.793 8 108713854.42108     -3407.605 8        49.030                                                                    20337151.199 6  84555117.70506     -2650.304 6        39.045
R22        37.000    22930625.682 5 122405002.41305      3171.310 5        30.325                                                                    22930581.386 6  95203899.35406      2466.566 6        37.871
C39        38.000                                                                                                                                    39028552.538 3                     -1067.616 3        22.838
C06        41.000                                                                                                                                    38426820.068 7 200098527.39507      -500.253 7        43.264    38426811.576 7 154728839.73607      -386.831 7        46.323    38426811.074 6 162596408.41106      -406.372 6        41.311
C29        43.000                                                                                                                                    22722122.032 5 118319945.66205     -2925.864 5        35.609                                                                    22722120.954 6  96144759.57906     -2377.356 6        40.200
C16        45.000                                                                                                                                    38862904.467 6 202369412.97406      -619.352 6        40.436    38862904.145 6 156484795.05406      -478.860 6        38.835    38862902.374 6 164441650.30706      -503.243 6        37.512
C09        46.000                                                                                                                                    38950049.184 6 202823142.92006       -10.315 6        41.654    38950047.737 7 156835718.11307        -8.020 7        42.011    38950045.031 6 164810377.48306        -8.278 6        40.055
C32        47.000                                                                                                                                    25170374.411 5 131068683.37905     -3606.593 5        32.287                                                                    25170366.870 4                     -2930.746 4        27.892
C44        48.000                                                                                                                                    26682267.876 5 138941558.55805      2258.943 5        31.962                                                                    26682246.735 4                      1835.871 4        27.976
C35        51.000                                                                                                                                                                                                                                                                    23411531.298 7  99061874.77407       461.894 7        43.700
I09        54.000    37292035.854 4 146341960.57704      -746.278 4        29.223
C20        55.000                                                                                                                                    21963159.714 8 114367930.09908     -1386.658 8        50.358                                                                    21963154.204 7  92933390.26507     -1126.665 7        46.918
I01        56.000   332736136.208 5   2587266.61105     -2878.353 5        34.319
> 2025 01 01 01 32 30.0000000  0 36
G21         3.000    23388861.722 6 122909306.48506     -3761.333 6        37.278                                    23388854.365 1  95773448.49301     -2930.860 1         9.429
G02         5.000    21846709.621 7 114805428.10807     -3048.709 7        43.645                                    21846702.753 4  89458604.86204     -2375.634 4        25.895
E34         6.000    27014562.422 4                      1902.738 4        29.649                                                                    27014560.021 7 106010982.93907      1420.667 7        43.896    27014559.566 7 108776455.30507      1457.759 7        44.406
E04         7.000    24335143.064 6 127882136.98606     -2229.907 6        39.895                                                                    24335143.141 7  95496321.76707     -1665.173 7        45.821    24335143.249 7  97987530.03207     -1708.594 7        43.443
G03         8.000    20036109.413 8 105290464.09308      -862.629 8        51.095                                    20036108.546 7  82044552.33207      -672.180 7        46.766    20036107.165 6  82044542.32206      -672.202 6        41.692
G09         9.000    23270671.083 6 122288198.38406      2668.593 6        38.727                                    23270679.593 4  95289584.70204      2079.426 4        25.173    23270668.632 5  95289500.71305      2079.300 5        35.710
G04        11.000    21277922.523 6 111816251.76006      1599.287 6        36.416                                    21277918.457 3  87129492.06503      1246.176 3        19.433    21277917.801 6  87129519.09106      1246.230 6        36.968
E09        12.000    23977553.986 7 126002994.03207       521.147 7        44.883                                                                    23977553.632 8  94093136.68908       389.176 8        48.696    23977553.591 8  96547717.27008       399.331 8        50.194
E10        13.000    26594093.531 6 139752885.98506     -3530.543 6        36.904                                                                    26594088.271 6 104360953.82506     -2636.557 6        37.459    26594089.269 6 107083373.21806     -2705.138 6        39.192
E06        14.000    23496742.085 8 123476281.56008      -800.684 8        48.714                                                                    23496741.352 8  92206276.86008      -597.825 8        49.541    23496740.995 8  94611660.28008      -613.461 8        50.199
E11        15.000    24348114.045 6 127950253.06606     -2655.044 6        38.742                                                                    24348109.877 6  95547227.76206     -1982.492 6        41.812    24348111.002 5  98039730.53905     -2034.585 5        35.124
G19        16.000    22614828.506 7 118841956.75307       436.635 7        42.717                                    22614822.332 3  92603933.91703       340.240 3        23.543
G06        19.000    24737249.724 5                      2672.309 5        30.030
E36        20.000    23670349.833 6 124388652.63006       -22.116 6        41.816                                                                    23670347.658 7  92887512.96007       -16.569 7        44.212    23670347.843 7  95310695.57207       -17.017 7        47.607
E05        21.000    25915152.452 5 136185060.23805      2178.252 5        32.084                                                                    25915191.751 3                      1626.396 3        21.905    25915163.283 4 104349584.69304      1668.456 4        26.000
G17        22.000    22429971.989 6 117870289.84406     -1587.086 6        40.851                                    22429968.578 6  91847048.08806     -1236.688 6        37.425    22429969.046 6  91846990.10906     -1236.707 6        40.067
S23        24.000    38268293.880 6 201101210.98006      -824.462 6        41.230
S36        25.000    38319321.582 6 201369259.42306      -827.809 6        37.735
R20        27.000    20773597.198 4                     -4182.790 4        29.005                                                                    20773597.780 6  86400051.52116     -3253.119 6        37.807
R06        29.000    20167947.574 5 107620019.79905      1077.894 5        32.940
R14        30.000    23408402.585 4 124779987.96114        79.569 4        27.880
C19        33.000                                                                                                                                    23323841.535 6 121453485.36306      1179.072 6        36.824                                                                    23323839.110 7  98690786.05607       958.068 7        43.750
R21        34.000    19539653.177 7 104560748.64407      -115.053 7        45.710                                                                    19539651.713 6  81324932.25106       -89.590 6        37.176
R05        36.000    20340344.372 8 108730897.33208     -3409.607 8        48.760                                                                    20340339.951 6  84568373.29506     -2651.952 6        40.136
R22        37.000                                                                                                                                    22927612.160 6                      2465.247 6        37.928
C39        38.000                                                                                                                                    39029579.683 4                     -1066.547 4        24.797
C06        41.000                                                                                                                                    38427300.618 7 200101031.05007      -501.191 7        43.338    38427292.529 7 154730775.72507      -387.561 7        46.295    38427292.108 6 162598442.82706      -407.188 6        41.445
C29        43.000                                                                                                                                    22724935.126 5 118334580.43905     -2927.808 5        34.538                                                                    22724930.953 6  96156651.51806     -2379.323 6        38.826
C16        45.000                                                                                                                                    38863499.357 6 202372512.28406      -620.421 6        40.834    38863499.440 6 156487191.65606      -479.708 6        38.751    38863497.624 6 164444168.73906      -504.115 6        37.278
C09        46.000                                                                                                                                    38950059.698 6 202823196.90906       -11.291 6        41.969    38950058.231 7 156835759.86407        -8.714 7        42.299    38950055.325 6 164810421.33906        -9.058 6        39.991
C32        47.000                                                                                                                                    25173836.906 5 131086718.19705     -3606.746 5        31.947                                                                    25173832.056 4                     -2931.376 4        26.826
C44        48.000                                                                                                                                    26680104.473 5 138930265.26405      2258.445 5        31.562                                                                    26680077.417 4                      1834.571 4        27.689
C35        51.000                                                                                                                                                                                                                                                                    23410986.513 7  99059570.63507       459.810 7        43.731
I09        54.000    37292987.604 5 146345693.17105      -747.108 5        30.234
C20        55.000                                                                                                                                    21964492.120 8 114374867.81408     -1388.413 8        49.947                                                                    21964486.617 7  92939027.70907     -1128.154 7        47.047
I01        56.000   332739802.353 5   2601658.39905     -2878.515 5        34.362
> 2025 01 01 01 32 35.0000000  0 35
G21         3.000    23392441.086 6 122928116.50506     -3762.821 6        38.985                                    23392433.676 1  95788105.61901     -2932.025 1         9.810
G02         5.000    21849610.604 7 114820676.64107     -3051.084 7        43.594                                    21849604.550 4  89470486.85904     -2377.476 4        25.729
E34         6.000    27012751.687 4                      1901.928 4        29.166                                                                    27012750.030 7 106003880.17707      1420.203 7        43.941    27012749.351 7 108769167.25807      1457.149 7        44.102
E04         7.000    24337265.106 6 127893290.79506     -2231.912 6        39.144                                                                    24337265.644 7  95504650.91207     -1666.661 7        45.610    24337265.384 7  97996076.44707     -1710.196 7        43.511
G03         8.000    20036931.095 8 105294782.25008      -865.038 8        50.854                                    20036930.131 7  82047917.12807      -674.055 7        46.300    20036928.994 6  82047907.11406      -673.956 6        41.387
G09         9.000    23268131.537 6 122274858.43606      2667.187 6        37.051                                    23268138.075 4  95279189.91304      2078.328 4        25.098    23268131.334 5  95279105.93605      2078.169 5        35.714
G04        11.000    21276403.978 6 111808261.06006      1596.610 6        39.456                                    21276397.171 3  87123265.56603      1244.094 3        19.731    21276396.913 5  87123292.59805      1244.296 5        34.605
E09        12.000    23977058.774 7 126000393.13107       518.872 7        44.758                                                                    23977058.648 8  94091194.44608       387.477 8        48.236    23977058.689 8  96545724.36408       397.569 8        50.168
E10        13.000    26597452.730 6 139770541.12506     -3531.951 6        36.473                                                                    26597448.026 6 104374137.85506     -2637.634 6        36.556    26597448.593 6 107096901.15806     -2706.057 6        39.450
E06        14.000    23497504.705 8 123480289.87708      -803.038 8        48.494                                                                    23497504.182 8  92209270.07808      -599.621 8        49.375    23497503.654 8  94614731.58508      -615.343 8        50.176
E11        15.000    24350641.284 6 127963531.35306     -2656.940 6        38.562                                                                    24350636.401 6  95557143.36506     -1983.895 6        41.101    24350636.145 5  98049904.76805     -2035.640 5        33.964
G19        16.000    22614413.968 6 118839782.08706       432.858 6        41.874                                    22614407.714 3  92602239.36903       337.305 3        23.181
G06        19.000    24734703.403 4                      2671.669 4        28.209
E36        20.000    23670371.917 7 124388767.98807       -24.284 7        42.263                                                                    23670369.677 7  92887599.08807       -18.095 7        44.241    23670369.548 7  95310783.95507       -18.592 7        47.721
E05        21.000    25913081.470 5 136174170.53705      2177.314 5        32.114                                                                    25913118.550 3                      1625.751 3        22.648    25913094.843 4 104341240.72804      1668.293 4        27.150
G17        22.000    22431483.449 6 117878232.49906     -1590.390 6        40.627                                    22431480.072 6  91853237.17906     -1239.270 6        36.544    22431480.941 6  91853179.20506     -1239.281 6        40.372
S23        24.000    38269080.904 6 201105332.87806      -824.832 6        40.625
S36        25.000    38320111.109 6 201373398.75706      -828.257 6        37.350
R20        27.000    20777511.849 4                     -4185.749 4        27.665                                                                    20777511.989 6  86416322.60516     -3255.521 6        37.577
R06        29.000    20166936.949 5 107614636.97105      1074.422 5        31.728
R14        30.000    23408331.613 4 124779603.06304        75.080 4        25.865
C19        33.000                                                                                                                                    23322707.785 6 121447593.73206      1177.317 6        38.045                                                                    23322707.596 7  98685998.62107       956.690 7        43.215
R21        34.000    19539764.826 7 104561335.07607      -119.771 7        45.731                                                                    19539761.574 6  81325388.38606       -93.237 6        37.569
R05        36.000    20343533.478 8 108747949.85208     -3411.814 8        48.677                                                                    20343529.295 6  84581636.36306     -2653.528 6        40.515
R22        37.000                                                                                                                                    22924644.070 6  95179245.36016      2464.118 6        38.718
C06        41.000                                                                                                                                    38427782.152 7 200103539.48807      -502.534 7        43.115    38427774.145 7 154732715.39307      -388.504 7        46.224    38427773.903 6 162600481.15106      -408.401 6        41.385
C29        43.000                                                                                                                                    22727750.433 5 118349226.48305     -2930.554 5        35.214                                                                    22727743.203 6  96168552.59606     -2381.424 6        37.992
C16        45.000                                                                                                                                    38864095.700 6 202375616.24706      -621.617 6        39.868    38864095.455 6 156489591.85106      -480.656 6        38.480    38864093.720 6 164446690.97406      -505.207 6        37.365
C09        46.000                                                                                                                                    38950071.614 7 202823255.27607       -12.450 7        42.085    38950069.348 7 156835804.99007        -9.529 7        42.681    38950066.278 6 164810468.78106       -10.115 6        39.778
C32        47.000                                                                                                                                    25177298.557 5 131104754.94405     -3607.780 5        32.078                                                                    25177298.435 4                     -2931.515 4        26.096
C44        48.000                                                                                                                                    26677940.865 5 138918976.60305      2256.865 5        32.719                                                                    26677909.695 4                      1833.454 4        27.006
C35        51.000                                                                                                                                                                                                                                                                    23410444.508 7  99057276.87307       457.366 7        44.026
I09        54.000    37293938.407 5 146349426.66105      -747.347 5        30.091
C20        55.000                                                                                                                                    21965826.168 8 114381814.33308     -1390.524 8        49.916                                                                    21965820.569 7  92944672.33307     -1129.957 7        47.094
I01        56.000   332743470.008 5   2616050.87805     -2878.762 5        33.269
> 2025 01 01 01 32 40.0000000  0 36
G21         3.000    23396021.680 6 122946932.64906     -3763.900 6        39.504                                    23396014.113 2  95802767.53502     -2932.922 2        12.121
G31         4.000    22481991.373 4 118143462.10604       257.334 4        26.000                                    22481951.275 2  92059907.13602       200.538 2        16.528
G02         5.000    21852514.144 7 114835936.23007     -3052.974 7        43.471                                    21852508.256 4  89482377.45904     -2378.943 4        25.579
E34         6.000    27010941.047 4                      1901.498 4        26.491                                                                    27010940.639 7 105996779.54107      1419.950 7        44.072    27010939.670 7 108761881.38107      1456.972 7        43.879
E04         7.000    24339389.612 6 127904453.96706     -2233.452 6        38.132                                                                    24339389.984 7  95512987.04107     -1667.864 7        45.701    24339389.495 7  98004630.03607     -1711.332 7        43.884
G03         8.000    20037755.073 8 105299111.46108      -866.894 8        50.920                                    20037753.705 7  82051290.53307      -675.500 7        45.973    20037752.296 6  82051280.52106      -675.582 6        40.968
G09         9.000    23265592.705 5 122261524.90105      2666.134 5        34.333                                    23265598.390 4  95268800.11004      2077.497 4        24.376    23265595.181 5  95268716.16205      2077.379 5        35.810
G04        11.000    21274885.605 7 111800282.50607      1594.647 7        42.487                                    21274877.834 3  87117048.54803      1242.562 3        19.821    21274877.982 5  87117075.58305      1241.975 5        31.932
E09        12.000    23976565.976 7 125997802.80607       517.077 7        44.513                                                                    23976565.664 7  94089260.10807       386.112 7        47.756    23976565.836 8  96543739.56608       396.222 8        50.139
E10        13.000    26600814.260 5 139788201.85305     -3533.011 5        34.533                                                                    26600809.123 5 104387325.99705     -2637.934 5        35.557    26600809.280 6 107110433.36506     -2706.767 6        39.574
E06        14.000    23498269.535 8 123484309.48708      -804.983 8        48.436                                                                    23498269.167 8  92212271.74008      -601.132 8        49.541    23498268.521 8  94617811.54208      -616.771 8        50.154
E11        15.000    24353169.867 6 127976818.46206     -2658.199 6        38.742                                                                    24353164.529 6  95567065.57206     -1984.974 6        40.844    24353162.916 5  98060085.79005     -2036.617 5        32.269
G19        16.000    22614002.577 6 118837625.26606       429.739 6        40.374                                    22613996.844 3  92600558.72903       334.874 3        22.895
G06        19.000    24732161.880 4                      2670.902 4        28.284                                                                                                    24732256.192 4 101274111.62904      2080.822 4        29.327
E36        20.000    23670395.237 7 124388892.93407       -26.008 7        42.093                                                                    23670393.682 7  92887692.38107       -19.329 7        44.262    23670393.089 7  95310879.69107       -19.865 7        47.598
E05        21.000    25911010.511 5 136163284.55405      2176.836 5        31.426                                                                    25911046.629 4                      1625.657 4        24.752    25911024.642 4 104332899.57804      1667.585 4        27.353
G17        22.000    22432997.552 6 117886190.68806     -1593.141 6        41.154                                    22432994.583 5  91859438.36005     -1241.410 5        35.952    22432995.049 6  91859380.37306     -1241.329 6        41.077
S23        24.000    38269864.010 6 201109455.64806      -824.667 6        40.841
S36        25.000    38320896.460 6 201377539.51006      -828.166 6        37.040
R20        27.000    20781424.621 4                     -4188.127 4        26.575                                                                    20781426.853 6  86432605.61416     -3257.691 6        37.240
R06        29.000    20165928.258 5 107609268.43205      1072.329 5        31.668
C19        33.000                                                                                                                                    23321580.506 6 121441709.97906      1175.935 6        39.568                                                                    23321577.591 7  98681217.60807       955.653 7        42.612
R21        34.000    19539878.703 7 104561944.13907      -124.021 7        45.387                                                                    19539875.648 6  81325862.10906       -96.450 6        38.474
R05        36.000    20346725.533 8 108765012.83608     -3413.559 8        48.936                                                                    20346722.778 6  84594907.58706     -2655.057 6        41.063
R22        37.000    22921672.308 5                      3166.481 5        34.186                                                                    22921677.281 6  95166926.72416      2463.145 6        39.354
C39        38.000                                                                                                                                    39031669.291 5                     -1069.570 5        32.611
C06        41.000                                                                                                                                    38428264.696 7 200106053.44307      -503.346 7        42.845    38428257.023 7 154734659.35807      -389.244 7        46.238    38428256.856 6 162602523.92506      -409.066 6        41.623
C29        43.000                                                                                                                                    22730566.433 5 118363884.52305     -2932.774 5        35.505                                                                    22730557.645 6  96180463.37306     -2383.106 6        36.930
C16        45.000                                                                                                                                    38864691.907 6 202378725.62206      -622.254 6        39.583    38864692.362 6 156491996.20206      -481.172 6        38.664    38864691.039 6 164449217.58106      -505.814 6        37.191
C09        46.000                                                                                                                                    38950083.907 7 202823318.75507       -13.185 7        42.171    38950081.847 7 156835854.08307       -10.100 7        43.014    38950078.393 6 164810520.34706       -10.677 6        39.622
C32        47.000                                                                                                                                    25180763.371 5 131122794.33205     -3608.292 5        33.078                                                                    25180764.573 4                     -2931.823 4        24.256
C44        48.000                                                                                                                                    26675776.813 5 138907693.23905      2256.429 5        32.832                                                                    26675741.669 4                      1833.556 4        27.892
C35        51.000                                                                                                                                                                                                                                                                    23409905.240 7  99054994.04507       455.401 7        44.236
I09        54.000    37294889.832 5 146353161.54805      -747.421 5        30.943
C20        55.000                                                                                                                                    21967162.187 8 114388770.38508     -1392.087 8        49.881                                                                    21967156.294 7  92950324.67207     -1131.224 7        47.235
I01        56.000   332747137.938 5   2630444.59905     -2878.747 5        33.880
