     3.04           OBSERVATION DATA    M                   RINEX VERSION / TYPE
ssrcrin-15.6.1x                         20250101 001500 UTC PGM / RUN BY / DATE 
(00000000023479385599111004) Septentrio proprietary         COMMENT             
ract                                                        MARKER NAME         
01                                                          MARKER NUMBER       
geodetic                                                    MARKER TYPE         
NFB                 CLIMERS@TUW                             OBSERVER / AGENCY   
3296359             SEPT ASTERX SB3 PROB4.14.4              REC # / TYPE / VERS 
Unknown             Unknown                                 ANT # / TYPE        
  4127445.9131  1206914.4723  4695541.0831                  APPROX POSITION XYZ 
        0.0000        0.0000        0.0000                  ANTENNA: DELTA H/E/N
G   23 X1  C1C L1C D1C S1C C1W S1W C2W L2W D2W S2W C2L L2L  SYS / # / OBS TYPES 
       D2L S2L C5Q L5Q D5Q S5Q C1L L1L D1L S1L              SYS / # / OBS TYPES 
E   21 X1  C1C L1C D1C S1C C6C L6C D6C S6C C5Q L5Q D5Q S5Q  SYS / # / OBS TYPES 
       C7Q L7Q D7Q S7Q C8Q L8Q D8Q S8Q                      SYS / # / OBS TYPES 
S    9 X1  C1C L1C D1C S1C C5I L5I D5I S5I                  SYS / # / OBS TYPES 
R   17 X1  C1C L1C D1C S1C C2P L2P D2P S2P C2C L2C D2C S2C  SYS / # / OBS TYPES 
       C3Q L3Q D3Q S3Q                                      SYS / # / OBS TYPES 
C   25 X1  C1P L1P D1P S1P C5P L5P D5P S5P C2I L2I D2I S2I  SYS / # / OBS TYPES 
       C7I L7I D7I S7I C6I L6I D6I S6I C7D L7D D7D S7D      SYS / # / OBS TYPES 
J   17 X1  C1C L1C D1C S1C C2L L2L D2L S2L C5Q L5Q D5Q S5Q  SYS / # / OBS TYPES 
       C1L L1L D1L S1L                                      SYS / # / OBS TYPES 
I    5 X1  C5A L5A D5A S5A                                  SYS / # / OBS TYPES 
SEPTENTRIO RECEIVERS OUTPUT ALIGNED CARRIER PHASES.         COMMENT             
NO FURTHER PHASE SHIFT APPLIED IN THE RINEX ENCODER.        COMMENT             
G L1C                                                       SYS / PHASE SHIFT   
G L2W                                                       SYS / PHASE SHIFT   
G L2L  0.00000                                              SYS / PHASE SHIFT   
G L5Q  0.00000                                              SYS / PHASE SHIFT   
G L1L  0.00000                                              SYS / PHASE SHIFT   
E L1C  0.00000                                              SYS / PHASE SHIFT   
E L6C  0.00000                                              SYS / PHASE SHIFT   
E L5Q  0.00000                                              SYS / PHASE SHIFT   
E L7Q  0.00000                                              SYS / PHASE SHIFT   
E L8Q  0.00000                                              SYS / PHASE SHIFT   
S L1C                                                       SYS / PHASE SHIFT   
S L5I                                                       SYS / PHASE SHIFT   
R L1C                                                       SYS / PHASE SHIFT   
R L2P  0.00000                                              SYS / PHASE SHIFT   
R L2C                                                       SYS / PHASE SHIFT   
R L3Q  0.00000                                              SYS / PHASE SHIFT   
C L1P  0.00000                                              SYS / PHASE SHIFT   
C L5P  0.00000                                              SYS / PHASE SHIFT   
C L2I                                                       SYS / PHASE SHIFT   
C L7I                                                       SYS / PHASE SHIFT   
C L6I                                                       SYS / PHASE SHIFT   
C L7D                                                       SYS / PHASE SHIFT   
J L1C                                                       SYS / PHASE SHIFT   
J L2L  0.00000                                              SYS / PHASE SHIFT   
J L5Q  0.00000                                              SYS / PHASE SHIFT   
J L1L  0.00000                                              SYS / PHASE SHIFT   
I L5A                                                       SYS / PHASE SHIFT   
  2025     1     1     0    15    0.0000000     GPS         TIME OF FIRST OBS   
 C1C    0.000 C2C    0.000 C2P    0.000                     GLONASS COD/PHS/BIS 
DBHZ                                                        SIGNAL STRENGTH UNIT
    18                                                      LEAP SECONDS        
 24 R01  1 R02 -4 R03  5 R04  6 R05  1 R06 -4 R07  5 R08  6 GLONASS SLOT / FRQ #
    R09 -2 R10 -7 R11  0 R12 -1 R13 -2 R14 -7 R15  0 R16 -1 GLONASS SLOT / FRQ #
    R17  4 R18 -3 R19  3 R20  2 R21  4 R22 -3 R23  3 R24  2 GLONASS SLOT / FRQ #
                                                            END OF HEADER       
> 2025 01 01 00 15  0.0000000  0 38
E19         1.000                                                                                                                                    26034874.859 4                     -2352.582 4        28.237    26034880.387 5 104831678.98405     -2414.220 5        33.659
G32         2.000    23080280.723 6 121287916.48206     -3413.140 6        37.883                                    23080279.670 4  94509904.13304     -2659.591 4        26.431    23080279.340 6  94509940.15106     -2659.513 6        38.243
G21         3.000    21219490.797 7 111509161.59507     -2384.607 7        42.747                                    21219484.637 3  86890189.82003     -1858.136 3        21.214
G14         4.000    24990366.914 3                     -3114.747 3        23.657
G02         5.000    20658769.140 7 108562741.45107      -969.154 7        45.738                                    20658762.447 6  84594206.95206      -755.183 6        38.562
E04         7.000    23787059.140 7 125001827.84507      -263.706 7        46.593                                                                    23787057.262 8  93345512.99908      -196.996 8        50.189    23787056.980 8  95780613.28908      -202.093 8        51.464
G03         8.000    20707976.394 7 108821207.46907      1006.119 7        44.587                                    20707973.815 6  84795756.27406       783.987 6        40.620    20707974.597 6  84795756.32606       783.685 6        39.336
E02         9.000    27702625.237 5                     -2805.466 5        32.371                                                                    27702623.550 6 108711102.42406     -2095.130 6        38.276    27702646.112 5 111546980.85605     -2150.089 5        30.498
E12        10.000    26535932.015 5 139447274.72005     -3186.133 5        31.630                                                                    26535927.485 5 104132699.67705     -2379.417 5        32.695    26535928.946 5 106849269.19505     -2441.628 5        34.029
G04        11.000    24012777.776 4                      2956.487 4        27.569                                                                                                    24012789.294 5  98328324.92305      2303.411 5        34.733
E09        12.000    25758415.154 6 135361461.59806      2019.337 6        39.219                                                                    25758410.289 6 101081589.89506      1507.884 6        39.120    25758414.066 6 103718458.25206      1547.201 6        40.949
E10        13.000    24522731.460 6 128867821.45806     -2454.224 6        39.877                                                                    24522729.315 7  96232464.97107     -1832.656 7        42.713    24522729.004 7  98742900.67007     -1880.502 7        44.008
E06        14.000    24259437.652 7 127484260.46007      1132.844 7        42.667                                                                    24259436.576 6  95199271.23806       845.921 6        40.777    24259435.125 6  97682691.31806       868.032 6        36.949
E11        15.000    23264500.231 7 122255769.89707     -1166.359 7        45.096                                                                    23264496.297 7  91294883.23407      -871.003 7        43.695    23264495.607 6  93676487.53706      -893.738 6        40.837
E30        17.000    28439566.205 5 149450886.73505      -739.008 5        30.272                                                                    28439542.518 3                      -553.522 3        20.310    28439548.547 4                      -566.157 4        27.054
G28        18.000    23821126.779 5 125180793.26905      1192.978 5        31.411
E36        20.000    24829612.938 7 130480488.68607      1132.132 7        42.794                                                                    24829611.586 6  97436719.56106       845.288 6        40.110    24829611.602 7  99978573.93607       867.472 7        43.027
G08        21.000    24169907.264 3                     -4518.749 3        23.429                                                                                                    24169900.076 4                     -3520.486 4        28.436
G17        22.000    22853132.060 8 120094220.89208      1107.436 8        48.586                                    22853126.077 7  93579695.36807       862.935 7        42.777    22853126.269 6  93579738.40006       862.913 6        41.313
S23        24.000    38138699.560 6 200420177.22606      -824.085 6        40.672
S36        25.000    38186831.385 6 200672968.13406      -826.933 6        36.556
R20        27.000    19144605.983 5 102374796.13805      -811.397 5        35.148                                                                    19144606.275 6  79624809.73406      -631.180 6        40.081
R04        28.000    20942490.268 7 112146035.63807     -4149.555 7        46.499                                                                    20942497.473 5                     -3227.204 5        32.928
R12        32.000    23983497.620 5 128115535.11405     -2190.406 5        33.748                                                                    23983511.954 5  99645453.23305     -1704.033 5        33.647
C19        33.000                                                                                                                                    25503805.836 6 132805113.84906      2269.645 6        36.060                                                                    25503842.437 4 107914944.43004      1843.999 4        28.900
R21        34.000    21469089.007 8 114885489.34608      2726.578 8        49.492                                                                    21469085.771 6  89355475.91106      2120.707 6        41.309
R19        35.000    22447681.057 4                     -4696.592 4        27.940                                                                    22447687.428 5                     -3652.821 5        32.934
R05        36.000    19060588.413 8 101889873.72808      -593.411 8        48.432                                                                    19060585.746 7  79247576.76807      -461.570 7        45.040
C39        38.000                                                                                                                                    39065874.544 5 203426188.63105      -175.297 5        35.176                                                                    39065844.543 5 165300365.14705      -142.209 5        35.781
C06        41.000                                                                                                                                                                                                    38967964.502 5 156907818.64805       277.717 5        32.593
C29        43.000                                                                                                                                    21759964.417 8 113309736.60808      -511.767 8        50.598                                                                    21759960.835 8  92073556.08308      -415.836 8        48.689
C16        45.000                                                                                                                                    39293322.262 5 204610649.96805       236.368 5        35.781    39293312.548 5                       182.760 5        31.668
C09        46.000                                                                                                                                    39871964.810 3                       701.159 3        22.819
C32        47.000                                                                                                                                    22844059.130 8 118955098.46808     -2766.416 8        48.212                                                                    22844062.734 7  96660779.04307     -2247.934 7        46.351
C35        51.000                                                                                                                                    25356464.967 7 132037959.77007      2191.636 7        42.250                                                                    25356462.692 6 107291513.63006      1780.958 6        39.225
I09        54.000    37102692.512 7 145598932.74507      -578.799 7        44.585
C20        55.000                                                                                                                                    22130019.490 7 115236802.89407       481.286 7        43.882                                                                    22130012.655 7  93639420.08707       391.004 7        47.017
C30        58.000                                                                                                                                    23315244.103 5 121408619.08205     -3588.576 5        34.781                                                                    23315231.525 6  98654367.93406     -2916.175 6        36.541
> 2025 01 01 00 15  5.0000000  0 39
E19         1.000                                                                                                                                    26037872.746 4                     -2353.752 4        29.242    26037879.272 5 104843752.65105     -2415.323 5        33.269
G32         2.000    23083529.241 6 121304986.52306     -3415.097 6        38.318                                    23083528.532 4  94523205.47104     -2661.113 4        26.503    23083528.436 6  94523241.49606     -2661.188 6        38.129
G21         3.000    21221760.163 7 111521089.46007     -2386.462 7        43.134                                    21221752.966 3  86899484.25003     -1859.582 3        20.405
G14         4.000                                                                                                                                                                    24993363.391 5                     -2428.849 5        32.257
G02         5.000    20659692.436 7 108567593.04607      -971.551 7        46.153                                    20659685.860 6  84597987.40806      -757.051 6        38.396
E04         7.000    23787311.141 7 125003152.97607      -266.279 7        46.212                                                                    23787309.441 8  93346502.54108      -198.851 8        50.446    23787309.092 8  95781628.64508      -204.013 8        51.455
G03         8.000    20707020.166 7 108816181.93407      1004.162 7        44.054                                    20707016.955 6  84791840.27406       782.459 6        40.067    20707018.314 6  84791840.30406       782.411 6        38.937
E02         9.000    27705295.999 5 145592310.40415     -2807.094 5        34.233                                                                    27705293.833 6 108721580.53306     -2096.260 6        38.568    27705317.340 5 111557732.30705     -2150.725 5        30.257
E12        10.000    26538964.672 5 139463208.10705     -3187.121 5        31.706                                                                    26538960.492 5 104144598.00205     -2380.021 5        33.222    26538960.638 5 106861477.90405     -2442.172 5        34.648
G04        11.000    24009964.911 4                      2955.485 4        28.009                                                                                                    24009977.270 5  98316808.31405      2303.139 5        34.519
E09        12.000    25756494.223 6 135351368.63606      2017.991 6        39.105                                                                    25756489.445 6 101074052.96106      1506.960 6        39.526    25756493.193 6 103710724.70806      1546.179 6        41.628
E10        13.000    24525067.438 6 128880095.83506     -2455.518 6        40.348                                                                    24525064.904 7  96241630.90407     -1833.754 7        42.504    24525064.756 7  98752305.71107     -1881.616 7        44.153
E06        14.000    24258360.526 7 127478601.10107      1130.869 7        42.847                                                                    24258359.802 6  95195045.09806       844.496 6        40.815    24258357.798 6  97678354.93406       866.580 6        36.503
E11        15.000    23265610.731 7 122261606.04307     -1168.047 7        44.789                                                                    23265606.942 7  91299241.39607      -872.299 7        43.482    23265606.180 6  93680959.38506      -894.982 6        41.161
G19        16.000    24749462.829 4                      2697.184 4        27.269
E30        17.000    28440273.994 5 149454589.14205      -741.854 5        31.479                                                                    28440248.798 3                      -554.953 3        21.524    28440254.549 4                      -568.156 4        28.493
G28        18.000    23819998.276 5 125174833.23405      1190.670 5        32.251
E36        20.000    24828535.992 7 130474830.54707      1131.132 7        42.396                                                                    24828534.371 6  97432494.31806       844.608 6        39.823    24828534.881 7  99974238.47707       866.747 7        42.982
G08        21.000    24174207.547 3                     -4517.249 3        23.048                                                                                                    24174198.907 4                     -3521.274 4        28.227
G17        22.000    22852079.364 8 120088690.13908      1104.791 8        48.172                                    22852073.645 7  93575385.69507       860.874 7        42.250    22852073.321 6  93575428.72006       860.902 6        41.128
S23        24.000    38139484.629 6 200424298.16506      -824.398 6        40.660
S36        25.000    38187616.624 6 200677103.80906      -827.067 6        36.620
R20        27.000    19145365.055 5 102378863.43305      -815.488 5        35.243                                                                    19145365.430 6  79627973.16006      -634.207 6        40.319
R04        28.000    20946365.467 7 112166788.24917     -4151.579 7        45.643                                                                    20946372.201 5                     -3229.118 5        32.844
R12        32.000    23985547.269 5 128126497.02705     -2194.093 5        32.545                                                                    23985567.259 5  99653979.35705     -1706.745 5        32.156
C19        33.000                                                                                                                                    25501627.530 6 132793768.17806      2268.702 6        36.314                                                                    25501665.792 4 107905725.18604      1843.282 4        28.588
R21        34.000    21466541.458 8 114871860.49208      2724.880 8        49.532                                                                    21466538.773 6  89344875.68906      2119.317 6        40.818
R19        35.000    22452075.915 4                     -4698.085 4        27.377                                                                    22452076.672 5  93413833.53915     -3654.459 5        32.689
R05        36.000    19061145.002 8 101892850.72508      -597.469 8        49.187                                                                    19061142.956 7  79249892.20707      -464.657 7        45.211
C39        38.000                                                                                                                                    39066041.580 5 203427066.79905      -176.247 5        34.205                                                                    39066013.079 5 165301078.73005      -143.068 5        35.533
C06        41.000                                                                                                                                                                                                    38967623.678 5 156906432.53705       276.945 5        32.898
C29        43.000                                                                                                                                    21760457.114 8 113312302.39708      -514.556 8        50.206                                                                    21760453.689 8  92075641.00408      -418.058 8        48.760
C16        45.000                                                                                                                                    39293095.675 5 204609470.96505       235.276 5        35.786    39293086.078 5                       182.020 5        32.156
C09        46.000                                                                                                                                    39871296.687 3                       702.096 3        23.867
C32        47.000                                                                                                                                    22846715.871 8 118968934.59008     -2768.101 8        48.293                                                                    22846719.665 7  96672022.01907     -2249.284 7        46.194
C35        51.000                                                                                                                                    25354361.256 6 132027004.23606      2190.511 6        41.702                                                                    25354359.008 6 107282611.34306      1780.088 6        39.162
I09        54.000    37103430.168 7 145601827.73707      -579.168 7        44.473
C20        55.000                                                                                                                                    22129557.171 6 115234402.19306       478.943 6        41.049                                                                    22129551.518 7  93637469.28007       389.303 7        47.137
C30        58.000                                                                                                                                    23318687.582 5 121426566.34305     -3590.482 5        33.719                                                                    23318679.581 6  98668951.60806     -2917.460 6        36.389
> 2025 01 01 00 15 10.0000000  0 39
E19         1.000                                                                                                                                    26040873.854 4                     -2354.616 4        29.649    26040878.771 5 104855831.45005     -2416.368 5        32.425
G32         2.000    23086778.415 6 121322065.94406     -3417.133 6        37.724                                    23086779.183 4  94536514.12804     -2662.701 4        26.395    23086778.884 6  94536550.13206     -2662.613 6        37.909
G21         3.000    21224031.782 7 111533026.03807     -2388.380 7        43.242                                    21224022.954 3  86908785.47603     -1861.074 3        19.433
G14         4.000                                                                                                                                                                    24996326.861 5                     -2429.882 5        31.721
G02         5.000    20660618.039 7 108572455.42007      -973.818 7        46.255                                    20660611.280 6  84601776.27006      -758.821 6        38.348
E04         7.000    23787565.661 7 125004489.55607      -268.595 7        46.100                                                                    23787563.847 8  93347500.64708      -200.595 8        50.655    23787563.414 8  95782652.78308      -205.842 8        51.493
G03         8.000    20706066.117 7 108811165.78707      1001.979 7        44.250                                    20706061.915 6  84787931.59206       780.765 6        39.682    20706063.857 6  84787931.60706       780.914 6        39.075
E02         9.000    27707967.363 5 145606349.22305     -2808.522 5        34.595                                                                    27707965.655 6 108732063.98906     -2097.353 6        38.459    27707988.263 5 111568489.30405     -2152.136 5        30.257
E12        10.000    26541998.009 5 139479145.58305     -3188.177 5        31.970                                                                    26541993.546 5 104156499.32405     -2380.631 5        33.066    26541993.347 5 106873689.72005     -2443.018 5        35.519
G04        11.000    24007154.210 4                      2955.366 4        28.474                                                                                                    24007166.915 5  98305293.70305      2302.578 5        34.152
E09        12.000    25754574.026 6 135341281.09606      2016.694 6        39.045                                                                    25754569.885 6 101066520.08506      1505.985 6        39.763    25754573.544 7 103702995.32207      1545.306 7        42.356
E10        13.000    24527403.769 6 128892376.43806     -2456.852 6        40.281                                                                    24527401.529 7  96250801.48207     -1834.760 7        42.265    24527401.789 7  98761715.50107     -1882.547 7        44.412
E06        14.000    24257285.207 7 127472950.84607      1128.856 7        42.847                                                                    24257284.697 6  95190825.77006       842.969 6        40.846    24257282.454 6  97674025.52806       864.931 6        36.382
E11        15.000    23266722.633 7 122267449.47907     -1169.586 7        44.454                                                                    23266718.828 7  91303605.00207      -873.476 7        43.103    23266718.345 6  93685436.81706      -896.171 6        41.530
G19        16.000    24746893.278 4                      2695.985 4        26.467
E30        17.000    28440980.492 5 149458303.20505      -744.035 5        31.102                                                                                                                                    28440962.872 5                      -570.013 5        30.136
G28        18.000    23818866.803 5 125168884.26105      1188.578 5        32.701
E36        20.000    24827460.086 7 130469176.04907      1130.262 7        42.127                                                                    24827458.261 6  97428271.81206       843.961 6        39.135    24827458.787 7  99969905.81007       865.963 7        42.967
G08        21.000    24178498.981 3                     -4520.260 3        22.781                                                                                                    24178496.869 4                     -3521.172 4        28.209
G17        22.000    22851028.860 7 120083171.37407      1102.387 7        47.327                                    22851023.373 6  93571085.35706       859.001 6        41.204    22851023.000 6  93571128.37406       859.127 6        40.334
S23        24.000    38140267.315 6 200428418.96006      -824.467 6        40.567
S36        25.000    38188404.225 6 200681239.02406      -827.327 6        36.575
R20        27.000    19146128.167 5 102382949.14305      -819.082 5        35.490                                                                    19146128.497 6  79631150.96006      -637.232 6        40.269
R04        28.000    20950239.760 7 112187550.32117     -4153.548 7        45.154                                                                    20950245.610 5                     -3230.459 5        33.623
R12        32.000    23987600.114 5 128137477.27505     -2197.805 5        32.096                                                                    23987619.274 5  99662519.50305     -1709.409 5        30.921
C19        33.000                                                                                                                                    25499450.466 6 132782426.48406      2267.951 6        36.401                                                                    25499490.212 4 107896509.10504      1842.725 4        27.545
R21        34.000    21463995.869 8 114858239.22208      2723.256 8        49.538                                                                    21463994.043 6  89334281.38906      2118.041 6        39.994
R19        35.000    22456466.418 4                     -4700.111 4        26.395                                                                    22456470.129 5                     -3655.613 5        31.766
R05        36.000    19061705.535 8 101895846.95308      -601.354 8        49.603                                                                    19061703.199 7  79252222.61307      -467.710 7        45.445
C39        38.000                                                                                                                                    39066206.729 5 203427949.75105      -177.407 5        32.569                                                                    39066182.354 5 165301796.20405      -143.741 5        35.705
C06        41.000                                                                                                                                                                                                    38967281.677 5 156905049.62705       276.147 5        33.641
C29        43.000                                                                                                                                    21760952.569 8 113314881.20008      -517.310 8        50.086                                                                    21760949.044 8  92077736.47108      -420.245 8        49.089
C16        45.000                                                                                                                                    39292870.029 5 204608296.22505       234.333 5        35.976    39292860.748 5                       181.172 5        32.114
C09        46.000                                                                                                                                    39870628.435 4                       699.947 4        24.391
C32        47.000                                                                                                                                    22849374.705 8 118982778.29708     -2769.746 8        48.489                                                                    22849377.792 7  96683271.14607     -2250.491 7        45.943
C35        51.000                                                                                                                                    25352258.545 6 132016053.08406      2189.541 6        41.325                                                                    25352255.892 6 107273712.63806      1779.279 6        39.198
I09        54.000    37104168.303 7 145604723.64107      -579.419 7        44.558
C20        55.000                                                                                                                                    22129096.786 6 115232011.99306       476.858 6        38.799                                                                    22129092.585 7  93635527.01307       387.442 7        47.542
C30        58.000                                                                                                                                                                                                                                                                    23322128.909 6  98683541.51706     -2918.673 6        36.786
> 2025 01 01 00 15 15.0000000  0 38
E19         1.000                                                                                                                                    26043875.824 5                     -2355.998 5        30.377    26043879.972 5 104867915.70505     -2417.320 5        31.894
G32         2.000    23090029.478 5 121339155.30305     -3419.007 5        35.805                                    23090031.649 4  94549830.54204     -2664.148 4        26.108    23090031.238 6  94549866.53406     -2664.264 6        37.233
G21         3.000    21226304.978 7 111544971.89407     -2390.205 7        43.670                                    21226294.740 3  86918093.94703     -1862.521 3        18.418
G14         4.000                                                                                                                                                                    24999287.249 4                     -2431.067 4        29.972
G02         5.000    20661545.371 7 108577329.13507      -975.930 7        45.845                                    20661538.838 6  84605573.96306      -760.464 6        38.405
E04         7.000    23787822.763 7 125005838.17607      -270.967 7        46.274                                                                    23787820.555 8  93348507.72908      -202.401 8        50.841    23787820.019 8  95783686.13708      -207.614 8        51.448
G03         8.000    20705113.737 7 108806159.54007      1000.185 7        44.345                                    20705108.851 6  84784030.62606       779.366 6        39.258    20705110.969 6  84784030.65506       779.301 6        39.045
E02         9.000    27710640.091 5 145620395.70905     -2810.231 5        34.109                                                                    27710638.830 6 108742553.24906     -2098.621 6        38.324    27710659.712 4 111579252.26504     -2153.223 4        29.735
E12        10.000    26545030.170 5 139495087.62605     -3189.158 5        32.132                                                                    26545027.965 5 104168404.08205     -2381.085 5        33.581    26545026.798 6 106885905.02506     -2443.503 6        36.219
G04        11.000    24004342.423 4                      2954.354 4        28.455                                                                                                    24004356.715 5  98293781.49005      2302.039 5        33.796
E09        12.000    25752655.214 6 135331199.56606      2015.683 6        39.057                                                                    25752651.659 6 101058991.68606      1505.177 6        39.958    25752654.799 7 103695270.51507      1544.497 7        42.785
E10        13.000    24529741.085 6 128904663.80506     -2458.242 6        40.293                                                                    24529739.603 7  96259977.10507     -1835.704 7        42.027    24529740.181 7  98771130.49007     -1883.603 7        44.736
E06        14.000    24256212.236 7 127467310.22207      1127.035 7        42.681                                                                    24256211.356 6  95186613.62206       841.606 6        40.608    24256208.947 6  97669703.50906       863.435 6        36.234
E11        15.000    23267836.503 7 122273300.78507     -1171.132 7        44.263                                                                    23267832.359 7  91307974.47707      -874.480 7        42.796    23267832.031 7  93689920.28607      -897.391 7        42.011
G19        16.000    24744329.822 4                      2694.271 4        26.275
E30        17.000    28441686.123 5 149462029.63305      -746.360 5        30.966                                                                                                                                    28441673.440 5                      -572.113 5        30.770
E36        20.000    24826385.472 7 130463525.73907      1129.539 7        42.063                                                                    24826382.940 6  97424052.42706       843.564 6        38.694    24826383.422 7  99965576.35307       865.383 7        43.065
G08        21.000    24182797.315 4                     -4519.848 4        24.195                                                                                                    24182794.684 4                     -3521.842 4        27.725
G17        22.000    22849980.448 7 120077665.19607      1099.978 7        46.192                                    22849975.336 6  93566794.82906       857.123 6        40.093    22849974.855 6  93566837.84806       857.192 6        39.426
S23        24.000    38141051.580 6 200432540.28506      -824.355 6        40.820
S36        25.000    38189191.704 6 200685374.34106      -827.262 6        36.662
R20        27.000    19146896.315 5 102387053.92705      -823.079 5        35.943                                                                    19146896.394 6  79634343.53606      -640.039 6        40.257
R04        28.000    20954119.039 7 112208322.46107     -4155.490 7        45.302                                                                    20954117.946 5  87273170.57415     -3231.884 5        33.772
R12        32.000    23989662.694 5 128148476.53505     -2201.997 5        33.240
C19        33.000                                                                                                                                    25497273.353 5 132771089.34605      2267.063 5        34.933                                                                    25497314.817 4 107887296.66504      1841.782 4        26.335
R21        34.000    21461451.582 8 114844626.17908      2721.739 8        49.690                                                                    21461451.010 6  89323693.47406      2116.794 6        40.043
R19        35.000    22460861.620 4                     -4701.426 4        24.466                                                                    22460863.301 4                     -3657.032 4        29.327
R05        36.000    19062269.807 8 101898863.02708      -605.312 8        50.080                                                                    19062267.563 7  79254568.42607      -470.797 7        44.897
C39        38.000                                                                                                                                                                                                                                                                    39066353.166 5 165302518.06105      -144.697 5        35.276
C06        41.000                                                                                                                                                                                                    38966937.999 5 156903670.41005       275.439 5        34.176
C29        43.000                                                                                                                                    21761450.747 8 113317473.54008      -519.873 8        50.078                                                                    21761447.038 8  92079842.97208      -422.387 8        49.471
C16        45.000                                                                                                                                    39292644.683 5 204607126.25505       233.580 5        35.767    39292635.598 5                       180.467 5        32.371
C09        46.000                                                                                                                                    39869955.218 4                       699.056 4        24.752
C32        47.000                                                                                                                                    22852035.133 8 118996630.13408     -2771.191 8        48.776                                                                    22852037.667 7  96694526.91207     -2251.890 7        45.604
C35        51.000                                                                                                                                    25350157.148 6 132005106.86906      2188.661 6        40.656                                                                    25350153.980 6 107264817.96206      1778.433 6        39.216
I09        54.000    37104906.235 7 145607620.86707      -579.568 7        44.655
C20        55.000                                                                                                                                    22128638.673 6 115229632.85806       474.605 6        38.453                                                                    22128635.874 7  93633593.76607       385.703 7        47.884
C30        58.000                                                                                                                                                                                                                                                                    23325579.169 6  98698138.13906     -2919.745 6        37.032
> 2025 01 01 00 15 20.0000000  0 38
E19         1.000                                                                                                                                    26046878.626 5                     -2356.903 5        31.147    26046882.439 5 104880005.43705     -2418.424 5        30.687
G32         2.000    23093282.169 5 121356254.34105     -3420.662 5        32.132                                    23093285.827 4  94563154.46104     -2665.456 4        25.564    23093284.285 6  94563190.45206     -2665.377 6        36.204
G21         3.000    21228580.134 7 111556926.75607     -2391.705 7        44.509                                    21228568.421 3  86927409.42703     -1863.681 3        18.418
G14         4.000    25002231.703 3                     -3120.716 3        23.505
G02         5.000    20662474.591 7 108582213.95007      -977.895 7        46.438                                    20662468.439 6  84609380.30206      -761.997 6        38.492
E04         7.000    23788081.809 7 125007198.62307      -273.125 7        46.828                                                                    23788079.537 8  93349523.64908      -203.983 8        50.947    23788078.826 8  95784728.55508      -209.300 8        51.380
G03         8.000    20704162.396 7 108801162.99207       998.554 7        44.590                                    20704157.715 6  84780137.21406       778.094 6        38.910    20704159.889 6  84780137.24806       777.930 6        38.333
E02         9.000    27713314.635 5 145634449.68905     -2811.291 5        34.081                                                                    27713312.916 6 108753048.08606     -2099.655 6        37.800    27713327.997 5 111590020.95605     -2154.061 5        30.136
E12        10.000    26548064.472 5 139511033.99405     -3189.617 5        32.605                                                                    26548062.781 5 104180312.09705     -2381.969 5        33.443    26548061.517 6 106898123.68706     -2444.081 6        36.911
G04        11.000    24001531.932 4                      2953.881 4        27.150                                                                                                    24001545.887 5  98282271.55905      2301.654 5        32.593
E09        12.000    25750737.585 6 135321123.79806      2014.678 6        38.589                                                                    25750734.481 6 101051467.57606      1504.528 6        40.322    25750737.213 7 103687550.13507      1543.831 7        43.082
E10        13.000    24532080.488 6 128916957.72406     -2459.323 6        40.739                                                                    24532078.981 6  96269157.60906     -1836.474 6        41.754    24532079.898 7  98780550.47507     -1884.337 7        45.257
E06        14.000    24255140.805 7 127461679.03307      1125.440 7        43.227                                                                    24255139.591 6  95182408.52206       840.449 6        40.343    24255137.346 6  97665388.67406       862.555 6        36.106
E11        15.000    23268951.760 7 122279159.70307     -1172.325 7        44.235                                                                    23268947.019 7  91312349.64507      -875.523 7        42.677    23268947.124 7  93694409.58507      -898.394 7        42.421
G19        16.000    24741767.180 4                      2693.774 4        26.659
E30        17.000    28442398.482 4 149465767.90004      -748.598 4        27.641                                                                    28442408.851 5                      -559.250 5        30.574    28442385.725 5                      -573.757 5        31.374
E36        20.000    24825310.926 7 130457879.39907      1129.049 7        42.808                                                                    24825308.783 6  97419836.01406       842.979 6        38.571    24825309.026 7  99961249.93607       865.111 7        43.219
G08        21.000    24187096.668 4                     -4520.634 4        24.150                                                                                                    24187096.094 4                     -3521.594 4        28.142
G17        22.000    22848933.923 7 120072171.37907      1097.716 7        44.321                                    22848929.500 6  93562513.93606       855.362 6        38.652    22848929.482 6  93562556.96206       855.379 6        38.504
S23        24.000    38141835.428 6 200436661.83506      -824.213 6        40.713
S36        25.000    38189979.577 6 200689510.32206      -826.932 6        36.552
R20        27.000    19147667.228 5 102391177.45205      -826.531 5        35.457                                                                    19147667.904 6  79637550.71806      -642.715 6        39.763
R04        28.000    20958001.190 7 112229104.22507     -4157.182 7        44.661                                                                    20957997.130 5  87289334.18905     -3233.628 5        31.660
R12        32.000    23991727.005 5 128159494.69505     -2204.954 5        32.593                                                                    23991725.158 3  99679644.06603     -1716.063 3        23.981
C19        33.000                                                                                                                                    25495097.543 5 132759756.53205      2266.431 5        33.479                                                                    25495139.762 4 107878087.81504      1841.232 4        24.992
R21        34.000    21458909.119 8 114831021.15008      2720.360 8        49.699                                                                    21458908.396 6  89313111.78606      2115.852 6        40.853
R19        35.000    22465255.615 4                     -4702.272 4        26.096                                                                    22465256.044 4  93468675.87214     -3657.903 4        26.180
R05        36.000    19062837.829 8 101901898.59808      -608.901 8        49.502                                                                    19062835.017 7  79256929.42207      -473.579 7        44.466
C39        38.000                                                                                                                                    39066531.316 5 203429731.69305      -178.971 5        30.619                                                                    39066524.677 5 165303244.12605      -145.582 5        35.310
C06        41.000                                                                                                                                                                                                    38966593.722 5 156902294.68905       274.733 5        34.100
C29        43.000                                                                                                                                    21761950.964 8 113320079.21208      -522.368 8        50.068                                                                    21761947.507 8  92081960.32308      -424.406 8        49.802
C16        45.000                                                                                                                                    39292420.461 5 204605960.92805       232.827 5        35.771    39292411.560 5                       179.945 5        32.084
C09        46.000                                                                                                                                    39869279.055 4                       699.507 4        24.406
C32        47.000                                                                                                                                    22854696.566 8 119010489.89108     -2772.560 8        48.745                                                                    22854699.102 7  96705789.12807     -2252.952 7        45.156
C35        51.000                                                                                                                                    25348055.946 6 131994165.35106      2187.892 6        40.448                                                                    25348052.840 6 107255927.10106      1777.968 6        39.667
I09        54.000    37105645.157 7 145610519.25607      -579.656 7        44.656
C20        55.000                                                                                                                                    22128184.043 6 115227264.53006       472.752 6        39.856                                                                    22128181.351 8  93631669.35608       384.129 8        48.304
C30        58.000                                                                                                                                    23329006.503 5 121480455.81605     -3595.071 5        35.171                                                                    23329029.821 6  98712741.28906     -2921.230 6        36.692
> 2025 01 01 00 15 25.0000000  0 39
E19         1.000                                                                                                                                    26049882.957 5                     -2357.935 5        31.140    26049886.304 5 104892099.99605     -2419.398 5        30.128
G32         2.000    23096536.269 5 121373362.53205     -3422.569 5        30.143                                    23096541.620 4  94576485.52604     -2666.946 4        25.263    23096539.967 5  94576521.53605     -2666.890 5        35.362
G21         3.000    21230856.871 7 111568890.06607     -2393.424 7        45.365                                    21230843.976 2  86936731.51202     -1865.028 2        17.509
G14         4.000    25005209.495 4                     -3122.602 4        25.639
G02         5.000    20663406.678 7 108587109.31307      -980.002 7        47.374                                    20663399.954 6  84613194.87006      -763.638 6        38.556
E04         7.000    23788342.797 7 125008570.32107      -275.403 7        47.106                                                                    23788340.662 8  93350547.96408      -205.677 8        51.333    23788339.840 8  95785779.59208      -211.036 8        51.215
G03         8.000    20703213.243 7 108796175.57607       996.708 7        45.147                                    20703208.349 6  84776250.92506       776.652 6        38.486    20703210.225 6  84776250.96106       776.738 6        37.282
E02         9.000    27715990.860 5 145648510.58505     -2812.686 5        34.167                                                                    27715988.476 6 108763548.08806     -2100.383 6        37.539    27715998.216 5 111600794.95005     -2155.258 5        32.198
E12        10.000    26551100.665 5 139526984.22605     -3190.417 5        33.323                                                                    26551097.740 5 104192222.98805     -2382.664 5        33.311    26551096.594 6 106910345.27006     -2444.554 6        37.807
G04        11.000    23998719.411 4                      2954.223 4        25.955                                                                                                    23998732.511 5  98270763.44705      2301.360 5        30.747
E09        12.000    25748821.477 6 135311053.25206      2013.724 6        37.966                                                                    25748818.421 6 101043947.37906      1503.661 6        40.720    25748820.538 7 103679833.75807      1542.959 7        43.120
E10        13.000    24534421.757 6 128929257.59306     -2460.534 6        41.466                                                                    24534419.681 6  96278342.57206     -1837.270 6        41.783    24534421.010 7  98789975.05407     -1885.276 7        45.910
E06        14.000    24254070.737 7 127456056.69507      1123.567 7        43.249                                                                    24254069.488 6  95178210.03706       839.141 6        40.446    24254067.998 6  97661080.65206       861.167 6        36.117
E11        15.000    23270068.192 7 122285025.70207     -1173.846 7        43.822                                                                    23270063.264 7  91316730.09607      -876.595 7        42.573    23270063.444 7  93698904.29507      -899.420 7        42.855
G19        16.000    24739204.475 4                      2692.435 4        25.850
E30        17.000                                                                                                                                    28443118.135 5                      -560.919 5        30.875    28443100.129 5                      -575.539 5        32.407
G28        18.000    23815460.625 4 125151106.18304      1182.272 4        29.953
E36        20.000    24824236.854 7 130452236.47307      1128.306 7        43.158                                                                    24824235.176 6  97415622.13806       842.597 6        38.168    24824235.311 7  99956926.13807       864.543 7        43.496
G08        21.000    24191399.268 4                     -4520.571 4        25.113                                                                                                    24191396.664 4                     -3521.571 4        28.635
G17        22.000    22847890.914 7 120066689.36807      1095.345 7        42.438                                    22847885.805 6  93558242.25006       853.514 6        37.149    22847886.374 6  93558285.26306       853.322 6        37.996
S23        24.000    38142621.759 6 200440783.26806      -824.109 6        40.846
S36        25.000    38190766.283 6 200693646.07006      -827.058 6        36.654
R20        27.000    19148441.622 6 102395319.17106      -830.044 6        36.287                                                                    19148441.320 6  79640772.05706      -645.692 6        38.102
R04        28.000    20961881.884 7 112249895.07107     -4159.071 7        43.173                                                                    20961879.285 5  87305504.89705     -3235.147 5        30.966
R12        32.000                                                                                                                                    23993795.163 3                     -1722.171 3        20.714
C19        33.000                                                                                                                                    25492920.356 5 132748427.45805      2265.644 5        30.740                                                                    25492964.153 4                      1841.205 4        24.737
R21        34.000    21456368.266 8 114817423.51508      2718.868 8        49.260                                                                    21456367.473 7  89302535.86307      2114.595 7        42.019
R19        35.000    22469655.732 4                     -4704.655 4        28.237                                                                    22469654.191 4  93486969.14904     -3659.900 4        24.526
R05        36.000    19063409.259 8 101904953.19508      -612.730 8        49.452                                                                    19063406.445 7  79259305.22407      -476.684 7        44.032
C39        38.000                                                                                                                                    39066708.447 5 203430629.77805      -179.980 5        30.158                                                                    39066697.160 5 165303973.88405      -146.480 5        35.281
C06        41.000                                                                                                                                                                                                    38966250.741 5 156900921.97505       274.087 5        34.129
C29        43.000                                                                                                                                    21762453.244 8 113322697.66808      -524.893 8        49.668                                                                    21762450.482 8  92084088.00808      -426.562 8        49.827
C16        45.000                                                                                                                                    39292196.856 5 204604799.61805       231.655 5        35.471    39292189.258 5                       179.222 5        32.431
C09        46.000                                                                                                                                    39868604.650 4                       696.985 4        24.632
C32        47.000                                                                                                                                    22857359.571 8 119024357.01808     -2774.075 8        48.073                                                                    22857361.868 7  96717057.27907     -2254.208 7        44.585
C35        51.000                                                                                                                                    25345955.624 6 131983227.98806      2187.084 6        40.014                                                                    25345952.489 6 107247039.57506      1777.164 6        39.477
I09        54.000    37106383.813 7 145613418.40207      -579.815 7        44.820
C20        55.000                                                                                                                                    22127732.454 6 115224906.50306       470.684 6        41.642                                                                    22127728.723 8  93629753.26808       382.448 8        48.430
C30        58.000                                                                                                                                    23332465.063 6 121498434.43006     -3596.285 6        36.352                                                                    23332480.527 5  98727350.42605     -2922.598 5        35.352
> 2025 01 01 00 15 30.0000000  0 38
E19         1.000                                                                                                                                    26052889.112 5                     -2358.959 5        31.313    26052892.760 4 104904199.98404     -2420.731 4        29.251
G32         2.000    23099795.644 5 121390480.50405     -3424.734 5        33.545                                    23099799.121 4  94589824.21704     -2668.626 4        24.767    23099797.145 5  94589860.20105     -2668.373 5        34.552
G21         3.000    21233135.395 7 111580862.47607     -2395.452 7        45.648                                    21233121.740 3  86946060.67203     -1866.587 3        18.239
G14         4.000                                                                                                                                                                    25008168.934 3                     -2434.980 3        22.743
G02         5.000    20664340.138 7 108592015.90607      -982.520 7        47.925                                    20664333.575 6  84617018.18906      -765.603 6        38.483
E04         7.000    23788605.831 7 125009953.90507      -278.013 7        47.352                                                                    23788604.104 8  93351581.16008      -207.548 8        51.478    23788603.056 8  95786839.73708      -212.978 8        51.066
G03         8.000    20702265.873 7 108791197.93807       994.478 7        44.933                                    20702260.870 6  84772372.25706       774.915 6        38.255    20702264.291 6  84772372.27506       774.887 6        37.043
E02         9.000    27718667.175 5 145662579.04705     -2814.558 5        34.214                                                                    27718665.910 6 108774053.74206     -2101.690 6        37.115    27718673.703 5 111611574.68605     -2156.734 5        33.982
E12        10.000    26554137.516 5 139542938.87105     -3191.409 5        33.892                                                                    26554133.334 5 104204137.13605     -2383.236 5        33.515    26554133.104 6 106922570.24706     -2445.505 6        38.105
G04        11.000    23995908.169 3                      2950.646 3        23.314                                                                                                    23995915.742 4  98259257.66704      2301.107 4        28.777
E09        12.000    25746906.302 6 135300988.54806      2012.521 6        36.873                                                                    25746903.294 6 101036431.56506      1502.605 6        40.775    25746904.858 7 103672121.85907      1541.955 7        42.908
E10        13.000    24536764.506 7 128941564.05707     -2462.038 7        42.193                                                                    24536761.740 6  96287532.48106     -1838.541 6        41.712    24536763.261 7  98799404.68807     -1886.374 7        46.434
E06        14.000    24253003.061 7 127450443.84907      1121.608 7        43.467                                                                    24253001.337 6  95174018.66206       837.461 6        40.410    24253000.141 6  97656779.96006       859.223 6        36.314
E11        15.000    23271185.546 7 122290899.38807     -1175.640 7        44.141                                                                    23271180.888 7  91321116.28507      -877.903 7        42.419    23271181.250 7  93703404.90807      -900.897 7        42.853
G19        16.000    24736642.759 4                      2690.985 4        26.120
E30        17.000                                                                                                                                    28443834.824 5                      -562.738 5        30.725    28443816.103 5 114531460.63115      -577.244 5        33.269
G28        18.000    23814341.248 4 125145202.77704      1179.814 4        28.863
E36        20.000    24823164.133 7 130446597.62407      1127.218 7        43.934                                                                    24823162.466 6  97411411.31306       841.727 6        38.090    24823162.475 7  99952605.45607       863.798 7        44.050
G08        21.000    24195705.812 4                     -4519.849 4        26.180                                                                                                    24195695.678 4                     -3521.979 4        27.509
G17        22.000    22846850.658 6 120061219.83906      1092.625 6        40.453                                    22846844.458 5  93553980.28205       851.396 5        35.752    22846846.026 6  93554023.29206       851.225 6        38.225
S23        24.000    38143405.334 6 200444905.06806      -824.465 6        40.746
S36        25.000    38191551.889 6 200697781.78806      -827.069 6        36.809
R20        27.000    19149220.572 6 102399479.77506      -833.922 6        37.285                                                                    19149219.522 6  79644008.06306      -648.766 6        37.130
R04        28.000    20965765.175 7 112270695.76307     -4161.239 7        44.548                                                                    20965764.985 5  87321683.19305     -3236.617 5        31.811
C19        33.000                                                                                                                                    25490745.041 4 132737102.84804      2264.748 4        29.251                                                                    25490790.801 4                      1840.388 4        25.188
R21        34.000    21453828.160 8 114803833.91708      2717.007 8        48.105                                                                    21453827.588 7  89291966.17907      2113.310 7        42.356
R19        35.000    22474053.524 4                     -4706.476 4        28.370                                                                    22474048.512 3                     -3660.590 3        23.219
R05        36.000    19063983.775 8 101908027.33008      -616.876 8        49.469                                                                    19063981.621 7  79261696.21707      -479.803 7        43.962
C39        38.000                                                                                                                                    39066882.749 5 203431533.04705      -180.647 5        30.128                                                                    39066870.396 5 165304707.89705      -147.577 5        34.676
C06        41.000                                                                                                                                                                                                    38965910.457 5 156899552.82105       273.418 5        34.033
C29        43.000                                                                                                                                    21762958.160 8 113325329.53508      -527.807 8        49.518                                                                    21762956.022 8  92086226.61508      -428.894 8        49.837
C16        45.000                                                                                                                                    39291974.710 5 204603642.93005       230.959 5        35.181    39291967.408 5                       178.536 5        32.760
C09        46.000                                                                                                                                    39867930.897 4                       697.658 4        24.902
C32        47.000                                                                                                                                    22860025.063 7 119038232.11207     -2775.876 7        47.346                                                                    22860026.317 7  96728331.92807     -2255.742 7        44.161
C35        51.000                                                                                                                                    25343856.277 6 131972295.42006      2185.938 6        39.601                                                                    25343853.090 6 107238155.99706      1776.270 6        39.009
I09        54.000    37107122.869 7 145616318.75407      -580.197 7        44.951
C20        55.000                                                                                                                                    22127280.773 7 115222559.38507       468.260 7        43.537                                                                    22127278.089 8  93627846.07308       380.474 8        48.385
C30        58.000                                                                                                                                    23335920.262 6 121516421.09406     -3598.176 6        37.682                                                                    23335932.374 5  98741966.13705     -2924.092 5        33.323
> 2025 01 01 00 15 35.0000000  0 39
E19         1.000                                                                                                                                    26055895.027 5                     -2359.900 5        31.653    26055900.678 4 104916304.84604     -2420.888 4        28.540
G32         2.000    23103057.056 6 121407607.61406     -3426.342 6        36.820                                    23103058.339 4  94603170.03104     -2669.871 4        24.707    23103056.850 5  94603205.97105     -2669.872 5        34.257
G21         3.000    21235415.001 7 111592843.40907     -2396.929 7        45.556                                    21235401.365 3  86955396.46603     -1867.754 3        18.985
G14         4.000    25011184.928 4                     -3125.039 4        26.958                                                                                                    25011140.546 3                     -2433.339 3        19.493
G02         5.000    20665275.822 8 108596933.13408      -984.385 8        48.139                                    20665269.177 6  84620849.79306      -767.054 6        38.228
E04         7.000    23788870.848 7 125011348.78907      -279.993 7        47.205                                                                    23788869.626 8  93352622.79308      -209.073 8        51.747    23788868.437 8  95787908.54208      -214.541 8        50.846
G03         8.000    20701320.039 7 108786229.50607       992.822 7        44.457                                    20701315.202 6  84768500.76406       773.625 6        38.042    20701318.878 6  84768500.77306       773.651 6        36.991
E02         9.000    27721346.202 5 145676654.48105     -2815.620 5        34.605                                                                    27721344.208 6 108784564.60306     -2102.527 6        36.813    27721352.086 5 111622359.76005     -2157.651 5        35.243
E12        10.000    26557174.498 5 139558897.40305     -3191.899 5        33.988                                                                    26557169.493 5 104216054.19505     -2383.526 5        33.437    26557170.299 6 106934798.20506     -2445.832 6        38.369
G04        11.000    23993097.987 3                      2955.774 3        21.238                                                                                                    23993098.617 4  98247753.83404      2300.398 4        26.778
E09        12.000    25744992.698 5 135290929.16905      2011.516 5        35.371                                                                    25744989.112 6 101028919.68906      1501.945 6        40.837    25744989.973 7 103664414.02907      1541.195 7        42.671
E10        13.000    24539107.696 7 128953876.57207     -2463.039 7        42.377                                                                    24539104.837 6  96296726.88106     -1839.252 6        41.638    24539106.803 7  98808838.95307     -1887.273 7        47.074
E06        14.000    24251937.229 7 127444839.94707      1119.993 7        43.534                                                                    24251934.780 6  95169833.93406       836.394 6        40.207    24251933.880 6  97652486.05506       858.090 6        37.127
E11        15.000    23272304.842 7 122296780.18907     -1176.807 7        44.364                                                                    23272299.946 7  91325507.79207      -878.774 7        42.472    23272300.280 7  93707910.96607      -901.584 7        43.132
G19        16.000    24734080.170 4                      2689.903 4        24.045
E30        17.000                                                                                                                                    28444555.574 4                      -564.143 4        29.374    28444534.191 5 114534351.70505      -579.116 5        32.593
G28        18.000    23813220.535 4 125139310.38304      1176.413 4        25.895
E36        20.000    24822091.856 7 130440962.24807      1126.806 7        44.400                                                                    24822090.265 6  97407203.07306       841.337 6        37.917    24822090.214 7  99948287.45007       863.347 7        44.313
G08        21.000    24200010.527 4                     -4520.241 4        25.880                                                                                                    24199997.146 4                     -3522.124 4        27.952
G17        22.000    22845810.934 6 120055762.18606      1090.476 6        39.138                                    22845805.365 5  93549727.55905       849.721 5        34.633    22845807.194 6  93549770.55006       849.737 6        38.150
S23        24.000    38144190.399 6 200449026.30006      -824.204 6        40.834
S36        25.000    38192337.871 6 200701916.25406      -826.645 6        36.745
R20        27.000    19150002.530 6 102403658.64806      -837.599 6        37.429                                                                    19150002.035 6  79647258.29906      -651.398 6        38.550
R04        28.000    20969652.656 7 112291505.58307     -4162.810 7        45.329                                                                    20969649.907 5  87337868.56105     -3237.499 5        33.251
R12        32.000    23997978.086 5 128192660.52415     -2216.614 5        31.645                                                                    23997945.495 3                     -1723.322 3        20.119
C19        33.000                                                                                                                                    25488569.145 4 132725782.08604      2263.853 4        26.168                                                                    25488615.974 4                      1839.480 4        26.635
R21        34.000    21451289.991 7 114790251.77807      2715.729 7        47.085                                                                    21451289.657 7  89281402.30807      2112.288 7        42.817
R19        35.000    22478455.260 4                     -4707.813 4        28.673                                                                    22478454.442 3                     -3661.703 3        23.905
R05        36.000    19064562.585 8 101911120.58408      -620.425 8        49.114                                                                    19064560.475 7  79264102.07907      -482.579 7        44.564
C39        38.000                                                                                                                                    39067057.424 4 203432440.97304      -181.487 4        29.820                                                                    39067044.891 5 165305445.67105      -148.032 5        34.743
C06        41.000                                                                                                                                                                                                    38965571.593 5 156898186.76105       272.838 5        33.946
C29        43.000                                                                                                                                    21763465.892 8 113327974.22508      -530.114 8        49.315                                                                    21763463.958 8  92088375.64308      -430.827 8        50.103
C16        45.000                                                                                                                                    39291751.838 5 204602490.37005       230.188 5        34.905    39291745.986 5                       178.033 5        32.946
C09        46.000                                                                                                                                    39867254.095 4                       697.099 4        24.286
C32        47.000                                                                                                                                    22862692.329 7 119052114.58207     -2777.089 7        46.709                                                                    22862692.314 7  96739612.56507     -2256.635 7        44.226
C35        51.000                                                                                                                                    25341756.896 6 131961367.09206      2185.283 6        38.559                                                                    25341754.639 6 107229275.84506      1775.673 6        39.598
I09        54.000    37107862.482 7 145619219.89007      -580.283 7        44.792
C20        55.000                                                                                                                                    22126831.672 7 115220222.62707       466.422 7        45.062                                                                    22126829.177 8  93625947.28908       378.959 8        48.569
C30        58.000                                                                                                                                    23339377.025 6 121534415.22706     -3599.318 6        38.069                                                                    23339385.221 5  98756587.91805     -2924.930 5        32.108
> 2025 01 01 00 15 40.0000000  0 36
E19         1.000                                                                                                                                    26058902.631 5                     -2361.123 5        31.751    26058910.334 4 104928415.02104     -2422.798 4        26.910
G32         2.000    23106318.216 6 121424744.29906     -3428.811 6        39.018                                    23106319.315 4  94616523.28904     -2671.799 4        24.692    23106318.116 5  94616559.21405     -2671.424 5        33.030
G21         3.000    21237696.278 7 111604833.27407     -2399.240 7        44.433                                    21237683.283 3  86964739.22303     -1869.527 3        20.143
G02         5.000    20666213.507 7 108601861.36307      -987.087 7        47.693                                    20666206.898 6  84624689.97306      -769.161 6        37.743
E04         7.000    23789138.263 7 125012755.37807      -282.814 7        46.849                                                                    23789137.372 8  93353673.16608      -211.217 8        51.956    23789136.044 8  95788986.31608      -216.766 8        50.800
G03         8.000    20700376.151 7 108781270.65107       990.530 7        44.274                                    20700371.337 6  84764636.73806       771.840 6        37.724    20700374.897 6  84764636.74806       771.715 6        36.964
E02         9.000    27724026.106 5 145690737.23305     -2817.623 5        34.476                                                                    27724024.485 6 108795080.94206     -2104.111 6        36.072    27724031.038 6 111633150.39606     -2158.833 6        36.106
E12        10.000    26560211.540 5 139574860.13605     -3193.167 5        33.725                                                                    26560206.781 5 104227974.42105     -2384.579 5        32.952    26560207.981 6 106947029.39306     -2446.841 6        38.817
G04        11.000                                                                                                                                                                    23990293.462 4  98236252.15704      2299.618 4        25.068
E09        12.000    25743082.298 5 135280875.45905      2009.851 5        33.365                                                                    25743076.169 6 101021412.06306      1500.763 6        40.913    25743076.372 7 103656710.54107      1539.924 7        42.245
E10        13.000    24541451.642 7 128966195.51307     -2464.781 7        42.201                                                                    24541449.076 6  96305926.09306     -1840.615 6        41.347    24541451.316 7  98818278.14607     -1888.682 7        47.616
E06        14.000    24250872.865 7 127439245.36907      1117.588 7        43.554                                                                    24250870.166 6  95165656.17706       834.534 6        40.241    24250869.320 6  97648199.31706       856.414 6        37.860
E11        15.000    23273425.262 7 122302668.51207     -1178.732 7        44.319                                                                    23273420.425 7  91329904.92307      -880.306 7        42.322    23273420.735 7  93712422.78407      -903.297 7        43.380
G19        16.000    24731519.379 3                      2686.655 3        21.190
E30        17.000    28445247.779 4                      -758.211 4        28.863                                                                    28445276.883 4                      -566.130 4        29.772    28445254.496 5 114537251.88005      -581.299 5        33.096
E36        20.000    24821019.818 7 130435330.75407      1125.484 7        44.274                                                                    24821018.619 6  97402997.71306       840.631 6        37.739    24821018.759 7  99943972.40507       862.468 7        44.728
G08        21.000    24204311.660 4                     -4520.637 4        25.729                                                                                                    24204298.328 4                     -3522.691 4        27.341
G17        22.000    22844776.120 6 120050316.82406      1087.525 6        40.043                                    22844768.745 5  93545484.42605       847.427 5        34.200    22844770.434 6  93545527.42106       847.308 6        37.376
S23        24.000    38144973.228 6 200453147.63406      -824.757 6        40.782
S36        25.000    38193128.507 6 200706050.80106      -827.270 6        36.745
R20        27.000    19150788.089 6 102407856.32606      -841.901 6        37.580                                                                    19150787.745 6  79650523.18306      -654.816 6        39.973
R04        28.000    20973541.125 7 112312325.01307     -4165.207 7        44.716                                                                    20973539.714 5  87354061.45205     -3239.831 5        34.424
C19        33.000                                                                                                                                    25486392.440 4 132714465.57604      2261.963 4        24.752                                                                    25486440.968 4                      1838.732 4        26.742
R21        34.000    21448753.479 7 114776677.60007      2713.591 7        46.979                                                                    21448752.998 7  89270844.62307      2110.581 7        43.162
R19        35.000    22482852.032 4                     -4709.715 4        28.768                                                                    22482861.445 4                     -3663.505 4        25.444
R05        36.000    19065144.924 8 101914233.19308      -624.824 8        49.302                                                                    19065143.172 7  79266523.00207      -485.963 7        45.008
C39        38.000                                                                                                                                    39067233.040 4 203433353.95104      -183.370 4        29.810                                                                    39067220.024 5 165306187.47205      -148.706 5        34.167
C06        41.000                                                                                                                                                                                                    38965232.755 5 156896824.08605       272.029 5        33.814
C29        43.000                                                                                                                                    21763975.969 8 113330632.14408      -533.236 8        49.564                                                                    21763974.500 8  92090535.38508      -433.161 8        49.941
C16        45.000                                                                                                                                    39291531.280 5 204601342.28005       228.517 5        34.452    39291525.043 5                       177.190 5        33.323
C09        46.000                                                                                                                                    39866581.433 4                       695.898 4        25.218
C32        47.000                                                                                                                                    22865361.307 7 119066004.82607     -2779.260 7        46.351                                                                    22865359.707 7  96750899.47907     -2258.134 7        43.907
C35        51.000                                                                                                                                    25339658.954 6 131950443.43106      2183.932 6        38.318                                                                    25339656.909 6 107220399.47306      1774.572 6        39.489
I09        54.000    37108601.748 7 145622122.10207      -580.831 7        44.825
C20        55.000                                                                                                                                    22126385.301 7 115217896.62307       463.792 7        46.122                                                                    22126382.191 8  93624057.19408       377.046 8        48.243
C30        58.000                                                                                                                                    23342833.773 6 121552417.22906     -3601.568 6        37.664                                                                    23342842.879 5  98771216.02605     -2925.687 5        32.180
> 2025 01 01 00 15 45.0000000  0 37
E19         1.000                                                                                                                                    26061912.498 5                     -2361.967 5        32.048    26061921.520 4 104940530.90504     -2423.831 4        26.036
G32         2.000    23109581.660 6 121441891.06606     -3430.234 6        41.001                                    23109582.155 4  94629884.41104     -2672.910 4        24.060    23109580.459 5  94629920.34105     -2672.788 5        32.006
G21         3.000    21239979.532 7 111616832.61607     -2400.587 7        43.346                                    21239967.741 3  86974089.35903     -1870.590 3        20.786
G02         5.000    20667153.241 7 108606801.18907      -988.863 7        46.654                                    20667146.802 6  84628539.19706      -770.544 6        37.047
E04         7.000    23789408.507 7 125014174.27307      -284.681 7        46.790                                                                    23789407.426 8  93354732.73508      -212.625 8        52.128    23789405.920 8  95790073.51608      -218.174 8        50.547
G03         8.000    20699434.881 7 108776322.01007       988.922 7        44.752                                    20699429.488 6  84760780.66506       770.586 6        37.773    20699433.713 6  84760780.66806       770.742 6        37.206
E02         9.000    27726707.091 5 145704827.93605     -2818.786 5        34.024                                                                    27726705.445 5 108805603.21905     -2104.815 5        35.390    27726711.423 6 111643947.17106     -2159.735 6        36.696
E12        10.000    26563250.214 5 139590827.78805     -3193.762 5        33.527                                                                    26563245.268 5 104239898.28105     -2385.107 5        32.431    26563246.629 6 106959264.31606     -2447.298 6        39.123
G04        11.000                                                                                                                                                                    23987484.372 4  98224753.15604      2299.924 4        25.759
E09        12.000    25741173.778 5 135270827.96505      2009.073 5        32.120                                                                    25741164.349 6 101013909.14106      1500.231 6        40.903    25741163.804 7 103649011.87707      1539.407 7        42.006
E10        13.000    24543797.341 7 128978521.47207     -2465.544 7        42.288                                                                    24543794.337 6  96315130.54606     -1841.292 6        41.235    24543797.054 8  98827722.71108     -1889.305 8        48.029
E06        14.000    24249810.214 7 127433660.72907      1116.151 7        43.225                                                                    24249807.369 6  95161485.84306       833.372 6        40.205    24249806.985 6  97643920.20306       855.151 6        39.009
E11        15.000    23274547.200 7 122308564.94607     -1179.754 7        44.056                                                                    23274542.444 7  91334308.10407      -881.159 7        42.100    23274542.621 7  93716940.83507      -904.082 7        43.350
G19        16.000    24728958.597 3                      2690.386 3        21.976
E30        17.000    28445970.300 4                      -760.682 4        28.654                                                                    28446000.883 4                      -568.089 4        28.900    28445977.393 5 114540161.74605      -582.494 5        33.509
E36        20.000    24819948.450 7 130429703.73407      1125.180 7        43.951                                                                    24819947.602 6  97398795.74606       840.057 6        38.222    24819948.104 7  99939660.81007       862.149 7        45.195
G08        21.000    24208613.088 4                     -4520.848 4        25.624                                                                                                    24208598.705 4                     -3522.065 4        28.322
G17        22.000    22843742.352 6 120044884.36906      1085.359 6        40.594                                    22843734.686 5  93541251.35105       845.728 5        34.333    22843737.038 6  93541294.32406       846.029 6        36.953
S23        24.000    38145759.478 6 200457269.50406      -824.178 6        40.875
S36        25.000    38193910.894 6 200710186.25406      -826.915 6        36.919
R20        27.000    19151576.451 6 102412073.40806      -844.869 6        38.045                                                                    19151577.145 6  79653803.12106      -657.352 6        41.485
R04        28.000    20977430.247 7 112333154.43107     -4166.657 7        42.457                                                                    20977427.972 5  87370262.14105     -3240.865 5        33.940
R12        32.000                                                                                                                                    24002105.553 4                     -1729.881 4        25.218
C19        33.000                                                                                                                                    25484215.703 4 132703153.83904      2261.804 4        27.030                                                                    25484267.674 4                      1837.803 4        27.114
R21        34.000    21446218.812 7 114763111.90407      2712.472 7        46.962                                                                    21446217.441 7  89260293.52207      2109.709 7        43.344
R19        35.000    22487256.924 4                     -4711.427 4        28.076                                                                    22487274.400 4                     -3664.155 4        27.114
R05        36.000    19065731.427 8 101917366.01608      -628.360 8        50.060                                                                    19065728.568 7  79268959.62807      -488.747 7        44.728
C39        38.000                                                                                                                                    39067408.004 5 203434272.55005      -184.334 5        30.279                                                                    39067396.535 5 165306933.97105      -149.482 5        34.210
C06        41.000                                                                                                                                                                                                    38964894.464 5 156895465.27205       271.506 5        34.019
C29        43.000                                                                                                                                    21764488.876 8 113333303.90208      -535.521 8        49.812                                                                    21764487.569 8  92092706.43308      -435.035 8        49.987
C16        45.000                                                                                                                                    39291312.246 5 204600199.23805       228.097 5        34.281    39291306.184 5                       176.438 5        33.545
C09        46.000                                                                                                                                    39865913.015 4                       695.657 4        24.707
C32        47.000                                                                                                                                    22868031.729 7 119079903.43707     -2780.306 7        45.935                                                                    22868028.682 7  96762193.25307     -2259.112 7        43.975
C35        51.000                                                                                                                                    25337561.660 6 131939525.00306      2183.152 6        37.716                                                                    25337560.268 6 107211527.37906      1774.243 6        39.429
I09        54.000    37109341.736 7 145625025.83107      -580.734 7        45.043
C20        55.000                                                                                                                                    22125940.639 7 115215581.97407       462.025 7        46.751                                                                    22125937.314 8  93622176.37908       375.496 8        48.056
C30        58.000                                                                                                                                    23346291.845 6 121570427.65206     -3602.702 6        37.410                                                                    23346304.550 5  98785851.11405     -2927.485 5        32.862
> 2025 01 01 00 15 50.0000000  0 39
E19         1.000                                                                                                                                    26064923.080 5                     -2362.841 5        31.487    26064934.725 4 104952651.83604     -2424.881 4        25.263
G32         2.000    23112846.982 6 121459047.15906     -3432.050 6        41.881                                    23112846.573 3  94643252.79803     -2674.318 3        22.743    23112845.425 5  94643288.71105     -2674.246 5        30.755
G21         3.000    21242264.706 7 111628840.68107     -2402.424 7        43.281                                    21242254.046 3  86983446.27403     -1872.025 3        21.690
G14         4.000    25020068.840 3                     -3130.047 3        23.600
G02         5.000    20668094.910 7 108611751.82407      -991.101 7        45.228                                    20668088.750 6  84632396.83606      -772.289 6        36.329
E04         7.000    23789680.980 7 125015604.64207      -287.138 7        46.669                                                                    23789679.615 8  93355800.86308      -214.378 8        52.125    23789677.901 8  95791169.51008      -219.993 8        50.463
G03         8.000    20698495.095 7 108771382.71607       986.985 7        44.855                                    20698489.508 6  84756931.87106       769.085 6        38.006    20698493.761 6  84756931.88506       769.048 6        37.051
E02         9.000    27729389.603 5 145718925.73805     -2820.193 5        33.772                                                                    27729387.156 5 108816130.80405     -2105.977 5        34.948    27729392.910 6 111654749.38806     -2160.899 6        36.987
E12        10.000    26566290.013 5 139606799.43005     -3194.638 5        34.157                                                                    26566284.221 5 104251825.14405     -2385.421 5        31.743    26566286.053 6 106971502.31506     -2447.795 6        39.577
G04        11.000    23984700.248 4                      2950.665 4        24.346                                                                                                    23984678.207 4  98213256.24704      2299.262 4        27.186
E09        12.000    25739265.366 5 135260785.97305      2007.881 5        30.196                                                                    25739253.509 6 101006410.30406      1499.511 6        40.782    25739252.395 6 103641317.40406      1538.699 6        41.712
E10        13.000    24546144.168 7 128990853.63907     -2466.979 7        42.557                                                                    24546140.948 6  96324339.60506     -1842.018 6        40.670    24546143.896 8  98837172.02708     -1890.271 8        48.548
E06        14.000    24248749.183 7 127428085.19107      1114.241 7        43.026                                                                    24248746.271 6  95157322.30606       832.054 6        40.174    24248746.034 6  97639648.05106       853.877 6        40.060
E11        15.000    23275670.573 7 122314468.70007     -1181.313 7        43.953                                                                    23275665.765 6  91338716.73306      -882.084 6        41.921    23275666.009 7  93721464.47007      -905.133 7        43.479
G19        16.000    24726410.551 4                      2686.236 4        26.443
E30        17.000    28446698.012 4                      -762.994 4        29.071                                                                    28446727.258 4                      -569.859 4        26.383    28446702.268 5 114543080.66105      -584.660 5        32.485
G28        18.000    23809883.975 3                      1168.813 3        18.955
E36        20.000    24818878.317 7 130424080.39507      1124.366 7        43.572                                                                    24818877.320 6  97394596.48706       839.737 6        38.312    24818878.203 7  99935352.01507       861.524 7        45.822
G08        21.000    24212918.867 4                     -4521.112 4        25.008                                                                                                    24212901.529 4                     -3522.658 4        28.597
G17        22.000    22842711.348 6 120039463.96206      1083.022 6        41.442                                    22842702.985 5  93537027.65805       843.917 5        35.129    22842705.732 6  93537070.66106       843.743 6        36.767
S23        24.000    38146542.991 6 200461391.15406      -824.123 6        40.701
S36        25.000    38194701.105 6 200714321.51906      -827.032 6        36.828
R20        27.000    19152368.432 6 102416309.07006      -848.905 6        37.989                                                                    19152368.292 7  79657097.52907      -660.272 7        42.167
R04        28.000    20981319.940 6 112353993.07006     -4168.576 6        38.682                                                                    20981320.489 5  87386470.00205     -3242.114 5        33.311
R12        32.000    24004167.050 4 128225995.42914     -2227.955 4        29.327                                                                    24004188.564 4                     -1732.697 4        28.161
C19        33.000                                                                                                                                                                                                                                                                    25482095.561 4                      1837.310 4        27.293
R21        34.000    21443684.915 7 114749554.05807      2710.884 7        46.708                                                                    21443683.964 7  89249748.53907      2108.542 7        43.395
R19        35.000    22491661.852 4                     -4713.144 4        26.766                                                                    22491686.863 4                     -3665.911 4        27.533
R05        36.000    19066321.237 8 101920517.87108      -632.232 8        50.336                                                                    19066318.524 7  79271411.06407      -491.669 7        44.944
C39        38.000                                                                                                                                    39067584.271 5 203435195.96005      -185.201 5        30.740                                                                    39067573.525 5 165307684.29105      -150.449 5        33.707
C06        41.000                                                                                                                                                                                                    38964557.222 5 156894109.70405       270.990 5        34.443
C29        43.000                                                                                                                                    21765004.242 8 113335988.67908      -538.154 8        50.035                                                                    21765003.094 8  92094888.02208      -437.300 8        49.797
C16        45.000                                                                                                                                    39291092.806 5 204599060.44405       227.597 5        34.010    39291087.365 5                       175.583 5        34.048
C09        46.000                                                                                                                                    39865248.044 4                       695.317 4        25.158
C32        47.000                                                                                                                                    22870702.142 7 119093809.57307     -2781.837 7        45.780                                                                    22870699.095 7  96773493.10507     -2260.533 7        43.807
C35        51.000                                                                                                                                    25335465.663 6 131928610.96106      2182.424 6        38.204                                                                    25335464.247 6 107202658.83406      1773.500 6        39.438
I09        54.000    37110082.069 7 145627930.47007      -580.928 7        44.906
C20        55.000                                                                                                                                    22125498.273 7 115213277.84007       459.893 7        46.722                                                                    22125494.558 7  93620304.07507       373.650 7        47.591
C30        58.000                                                                                                                                    23349751.774 6 121588445.70706     -3604.401 6        37.255                                                                    23349766.428 5  98800492.29605     -2928.693 5        33.042
> 2025 01 01 00 15 55.0000000  0 38
E19         1.000                                                                                                                                    26067934.705 5                     -2363.879 5        31.940    26067947.729 4 104964777.54504     -2425.927 4        24.451
G32         2.000    23116112.143 7 121476212.30507     -3433.855 7        42.169                                    23116112.271 3  94656628.21903     -2675.716 3        21.238    23116112.111 4  94656664.16804     -2676.118 4        28.900
G21         3.000    21244551.702 7 111640857.18007     -2404.077 7        44.150                                    21244542.001 3  86992809.78203     -1873.308 3        22.876
G14         4.000                                                                                                                                                                    25023087.679 3                     -2438.874 3        23.067
G02         5.000    20669039.099 7 108616713.01007      -993.214 7        44.346                                    20669032.624 5  84636262.69905      -773.933 5        35.314
E04         7.000    23789955.070 7 125017046.25107      -289.455 7        45.956                                                                    23789953.883 8  93356877.39408      -216.186 8        52.210    23789952.050 8  95792274.11308      -221.775 8        50.281
G03         8.000    20697556.957 7 108766452.59807       985.199 7        44.384                                    20697551.335 6  84753090.22206       767.693 6        38.366    20697555.745 6  84753090.22606       767.612 6        38.069
E02         9.000    27732073.450 5 145733030.40105     -2821.420 5        32.868                                                                    27732070.300 5 108826663.51905     -2107.220 5        33.886    27732075.589 6 111665556.85106     -2162.032 6        36.828
E12        10.000    26569330.358 5 139622774.82805     -3195.249 5        34.357                                                                    26569324.265 5 104263754.85005     -2386.626 5        31.200    26569326.214 6 106983743.21706     -2448.342 6        39.676
G04        11.000    23981892.203 4                      2950.253 4        27.701                                                                                                    23981871.489 4  98201761.10204      2298.970 4        29.839
E09        12.000    25737360.142 4 135250749.09904      2007.055 4        29.640                                                                    25737343.790 6 100998915.39306      1498.662 6        40.696    25737342.103 6 103633626.98106      1537.696 6        41.075
E10        13.000    24548492.359 7 129003191.76107     -2468.228 7        42.741                                                                    24548488.566 6  96333553.14706     -1843.190 6        40.367    24548491.833 8  98846625.91708     -1891.213 8        48.820
E06        14.000    24247690.326 7 127422518.54207      1112.468 7        42.675                                                                    24247686.999 6  95153165.39506       830.789 6        40.222    24247686.857 6  97635382.73406       852.361 6        40.725
E11        15.000    23276795.320 7 122320379.53307     -1182.898 7        43.291                                                                    23276790.538 6  91343130.66306      -883.311 6        41.795    23276790.947 7  93725993.53007      -906.373 7        43.591
G19        16.000    24723864.597 5                      2684.591 5        30.792
E30        17.000    28447424.042 4                      -765.338 4        29.554                                                                    28447452.291 4                      -571.287 4        27.174    28447429.867 5 114546008.34605      -586.310 5        33.174
E36        20.000    24817808.805 7 130418460.49007      1123.651 7        42.991                                                                    24817807.763 6  97390399.79106       839.147 6        38.634    24817809.027 7  99931045.85607       861.064 7        46.313
G08        21.000    24217225.777 4                     -4520.348 4        25.053                                                                                                    24217203.467 4                     -3522.949 4        28.796
G17        22.000    22841682.598 7 120034055.37807      1080.649 7        42.290                                    22841673.671 5  93532813.17805       842.070 5        35.914    22841676.792 6  93532856.18606       841.950 6        37.486
S23        24.000    38147326.187 6 200465512.45306      -824.086 6        40.746
S36        25.000    38195486.121 6 200718457.00806      -827.107 6        36.620
R20        27.000    19153163.761 6 102420562.95306      -852.674 6        37.686                                                                    19153164.723 7  79660406.12907      -663.111 7        42.726
R04        28.000    20985212.620 6 112374840.82906     -4170.349 6        39.601                                                                    20985213.569 5  87402685.00305     -3243.926 5        34.752
R12        32.000                                                                                                                                    24006271.589 4                     -1735.523 4        26.970
C19        33.000                                                                                                                                                                                                                                                                    25479925.514 4                      1837.147 4        27.353
R21        34.000    21441152.104 7 114736003.62807      2709.426 7        46.658                                                                    21441151.078 7  89239209.32307      2107.211 7        43.242
R19        35.000    22496065.328 4                     -4714.072 4        24.226                                                                    22496094.828 4                     -3666.365 4        28.199
R05        36.000    19066914.074 8 101923688.66808      -636.018 8        50.434                                                                    19066911.725 7  79273877.22807      -494.741 7        45.269
C39        38.000                                                                                                                                    39067761.744 5 203436123.96305      -185.915 5        30.558                                                                    39067751.901 5 165308438.35705      -151.187 5        33.425
C06        41.000                                                                                                                                                                                                    38964221.709 5 156892757.20405       270.241 5        34.814
C29        43.000                                                                                                                                    21765522.226 8 113338686.24508      -540.712 8        50.327                                                                    21765521.055 8  92097080.00608      -439.362 8        49.719
C16        45.000                                                                                                                                    39290872.995 5 204597925.72705       226.791 5        33.593    39290873.591 5 158208051.44615       175.326 5        34.238
C09        46.000                                                                                                                                    39864580.431 4                       694.618 4        24.677
C32        47.000                                                                                                                                    22873373.977 7 119107723.01307     -2783.393 7        45.574                                                                    22873371.234 7  96784798.90407     -2261.776 7        44.113
C35        51.000                                                                                                                                    25333371.030 6 131917701.13706      2181.575 6        38.156                                                                    25333369.097 6 107193793.72606      1772.625 6        39.168
I09        54.000    37110822.280 7 145630835.84407      -581.121 7        44.957
C20        55.000                                                                                                                                    22125058.047 7 115210984.01207       457.781 7        46.581                                                                    22125053.874 7  93618440.14707       371.933 7        47.458
C30        58.000                                                                                                                                    23353213.164 6 121606471.12806     -3605.752 6        37.482                                                                    23353226.902 5  98815139.47505     -2929.932 5        32.431
> 2025 01 01 00 16  0.0000000  0 38
E19         1.000                                                                                                                                    26070946.973 5                     -2365.042 5        31.857
G32         2.000    23119379.021 7 121493386.74207     -3435.718 7        42.195                                    23119379.359 3  94670010.88503     -2677.180 3        19.015    23119378.934 4  94670046.82204     -2677.751 4        26.323
G21         3.000    21246840.333 7 111652882.40607     -2406.015 7        44.384                                    21246831.485 3  87002180.09603     -1874.817 3        23.124
G14         4.000                                                                                                                                                                    25026060.369 3                     -2439.083 3        23.619
G02         5.000    20669985.752 7 108621685.04407      -995.682 7        44.385                                    20669978.574 5  84640137.01805      -775.856 5        34.386
E04         7.000    23790231.385 7 125018499.39107      -291.904 7        45.079                                                                    23790230.379 8  93357962.52508      -217.945 8        52.176    23790228.269 8  95793387.54608      -223.595 8        49.931
G03         8.000    20696620.482 7 108761531.88707       983.175 7        43.941                                    20696615.076 6  84749255.90006       766.116 6        38.784    20696618.748 6  84749255.86406       766.203 6        39.201
E02         9.000    27734759.496 5 145747142.19305     -2822.962 5        31.924                                                                    27734755.276 5 108837201.53905     -2108.146 5        33.455    27734759.361 6 111676369.77006     -2163.356 6        36.106
E12        10.000    26572370.904 5 139638754.32905     -3196.441 5        34.952                                                                    26572364.888 5 104275687.56605     -2386.761 5        30.792    26572367.010 6 106995987.22106     -2449.112 6        39.796
G04        11.000    23979084.856 4                      2949.704 4        29.166                                                                                                    23979064.882 5  98190268.05205      2298.389 5        30.823
E09        12.000    25735452.473 5 135240717.80705      2005.793 5        30.672                                                                    25735434.859 6 100991424.60106      1497.640 6        40.467    25735433.015 6 103625940.76906      1536.785 6        40.684
E10        13.000    24550841.414 7 129015536.12207     -2469.539 7        43.498                                                                    24550837.447 6  96342771.33606     -1844.238 6        40.226    24550840.806 8  98856084.58908     -1892.273 8        48.783
E06        14.000    24246633.682 7 127416961.04507      1110.543 7        42.751                                                                    24246629.408 6  95149015.33406       829.253 6        40.684    24246629.310 6  97631124.40606       850.974 6        41.359
E11        15.000    23277921.393 7 122326297.68007     -1184.434 7        42.730                                                                    23277916.679 6  91347550.05606      -884.498 6        41.597    23277917.128 7  93730528.20207      -907.543 7        43.589
G19        16.000    24721314.305 5                      2683.186 5        32.946
E30        17.000    28448153.368 5                      -767.905 5        30.845                                                                                                                                    28448160.112 5 114548945.11305      -588.527 5        34.410
E36        20.000    24816740.076 7 130412844.29607      1122.805 7        42.923                                                                    24816738.830 6  97386205.87906       838.418 6        39.234    24816740.457 7  99926742.54007       860.339 7        46.586
G08        21.000    24221526.919 3                     -4520.382 3        23.505                                                                                                    24221502.614 4                     -3522.815 4        28.882
G17        22.000    22840656.436 7 120028658.94507      1077.995 7        43.503                                    22840646.763 6  93528608.15706       839.997 6        36.646    22840649.726 6  93528651.14206       839.948 6        38.021
S23        24.000    38148109.924 6 200469633.70406      -824.362 6        40.799
S36        25.000    38196274.173 6 200722592.47906      -827.168 6        36.537
R20        27.000    19153960.698 6 102424835.45606      -856.466 6        37.603                                                                    19153963.261 7  79663729.17007      -666.169 7        43.251
R04        28.000    20989108.599 7 112395697.97107     -4172.339 7        43.270                                                                    20989108.778 6  87418907.18206     -3245.277 6        37.244
R12        32.000                                                                                                                                    24008355.826 4                     -1738.171 4        27.641
C19        33.000                                                                                                                                    25477733.937 6 132669242.15206      2259.439 6        36.140                                                                    25477756.732 4                      1836.008 4        27.844
R21        34.000    21438621.367 7 114722460.99307      2707.710 7        47.192                                                                    21438620.246 7  89228676.13807      2106.006 7        42.679
R19        35.000    22500469.643 4                     -4715.581 4        25.398                                                                    22500496.492 4                     -3668.081 4        28.626
R05        36.000    19067510.920 8 101926878.75808      -640.042 8        50.069                                                                    19067508.683 7  79276358.42107      -497.787 7        45.425
C39        38.000                                                                                                                                    39067940.312 5 203437056.83405      -187.256 5        30.860                                                                    39067930.919 5 165309196.38405      -152.014 5        33.449
C06        41.000                                                                                                                                                                                                    38963886.518 5 156891407.95205       269.527 5        35.167
C29        43.000                                                                                                                                    21766042.876 8 113341396.85908      -543.530 8        50.717                                                                    21766041.497 8  92099282.60508      -441.529 8        49.550
C16        45.000                                                                                                                                    39290656.832 5 204596795.29505       225.137 5        33.072    39290656.811 5 158207177.32505       174.291 5        34.276
C09        46.000                                                                                                                                    39863912.031 4                       693.420 4        25.850
C32        47.000                                                                                                                                    22876047.368 7 119121644.00207     -2785.072 7        45.515                                                                    22876044.812 7  96796110.83707     -2262.925 7        44.299
C35        51.000                                                                                                                                    25331276.090 6 131906795.79106      2180.579 6        38.336                                                                    25331274.587 6 107184932.25606      1772.042 6        39.144
I09        54.000    37111562.887 7 145633742.13307      -581.425 7        44.962
C20        55.000                                                                                                                                    22124620.274 7 115208700.72207       455.561 7        46.741                                                                    22124615.478 7  93616584.78807       370.306 7        47.364
C30        58.000                                                                                                                                    23356676.819 6 121624504.22406     -3607.567 6        37.626                                                                    23356689.712 5  98829792.89405     -2931.088 5        31.562
> 2025 01 01 00 16  5.0000000  0 39
E19         1.000                                                                                                                                    26073960.543 5                     -2365.985 5        31.721
G32         2.000    23122649.785 6 121510570.55406     -3437.920 6        41.330                                    23122647.704 2  94683400.85702     -2678.875 2        16.717    23122649.698 3                     -2677.158 3        19.433
G21         3.000    21249130.149 7 111664916.38807     -2407.925 7        44.330                                    21249122.355 3  87011557.22303     -1876.303 3        23.790
G14         4.000    25029038.190 4                     -3133.467 4        26.802
G02         5.000    20670933.959 7 108626667.98007      -997.964 7        44.235                                    20670926.678 5  84644019.83305      -777.638 5        33.844
E04         7.000    23790510.614 7 125019964.10007      -294.366 7        44.057                                                                    23790509.101 8  93359056.30308      -219.768 8        52.101    23790506.644 8  95794509.85208      -225.514 8        49.671
G03         8.000    20695685.685 7 108756620.64107       981.019 7        44.685                                    20695680.676 6  84745428.95606       764.434 6        39.183    20695683.855 6  84745428.93606       764.545 6        39.372
E02         9.000    27737445.612 5 145761261.16305     -2824.357 5        31.072                                                                    27737442.263 5 108847744.94805     -2109.632 5        32.916    27737444.549 5 111687188.20005     -2164.448 5        35.457
E12        10.000    26575411.826 5 139654737.91205     -3197.247 5        34.871                                                                    26575406.638 5 104287623.33605     -2387.463 5        30.641    26575408.713 6 107008234.39106     -2449.975 6        39.775
G04        11.000    23976277.652 5                      2948.926 5        30.257                                                                                                    23976259.147 5  98178777.18305      2297.749 5        31.706
E09        12.000    25733544.008 5 135230692.22005      2004.144 5        31.540                                                                    25733526.924 6 100983937.99106      1496.781 6        40.322    25733525.064 6 103618258.83906      1535.818 6        40.186
E10        13.000    24553191.824 7 129027886.79707     -2471.003 7        44.081                                                                    24553187.700 6  96351994.23006     -1845.233 6        40.157    24553190.996 8  98865548.08708     -1893.352 8        48.652
E06        14.000    24245578.696 7 127411412.78707      1108.495 7        42.887                                                                    24245574.030 6  95144872.16306       827.680 6        41.058    24245573.683 6  97626873.17206       849.366 6        41.850
E11        15.000    23279049.094 7 122332223.26507     -1186.291 7        42.030                                                                    23279044.071 6  91351974.99006      -885.786 6        41.299    23279044.882 7  93735068.57507      -908.879 7        43.797
G19        16.000    24718759.828 5 129897971.39615      2681.810 5        34.390
E30        17.000    28448885.413 5                      -769.951 5        31.781                                                                    28448899.563 5                      -575.062 5        30.030    28448892.201 5 114551890.62705      -590.283 5        33.407
G28        18.000    23806551.668 4                      1163.932 4        27.329
E36        20.000    24815671.857 7 130407231.88507      1121.828 7        42.364                                                                    24815670.906 6  97382014.79506       837.730 6        39.679    24815672.502 7  99922442.12407       859.570 7        46.903
G08        21.000    24225830.154 3                     -4520.527 3        23.238                                                                                                    24225806.748 4                     -3523.103 4        28.559
G17        22.000    22839631.999 7 120023274.72107      1075.358 7        44.975                                    22839622.265 6  93524412.65506       837.942 6        37.444    22839625.149 6  93524455.64306       838.077 6        38.435
S23        24.000    38148894.712 6 200473755.03806      -824.336 6        40.934
S36        25.000    38197057.078 6 200726727.67606      -827.292 6        36.688
R20        27.000    19154763.445 6 102429126.51806      -860.195 6        36.779                                                                    19154765.482 7  79667066.65107      -669.141 7        43.577
R04        28.000    20993008.255 7 112416564.32107     -4174.528 7        45.157                                                                    20993004.616 6  87435136.51806     -3246.819 6        38.901
R12        32.000                                                                                                                                    24010448.733 4                     -1742.302 4        25.173
C19        33.000                                                                                                                                    25475558.912 6 132657946.36706      2258.407 6        36.302                                                                    25475587.463 4                      1835.010 4        27.617
R21        34.000    21436092.167 7 114708926.26907      2705.848 7        47.748                                                                    21436091.060 7  89218149.12807      2104.601 7        42.061
R19        35.000    22504881.449 4                     -4717.902 4        24.602                                                                    22504901.559 4                     -3669.217 4        28.578
R05        36.000    19068110.535 8 101930088.04108      -644.083 8        49.063                                                                    19068108.610 7  79278854.53207      -500.971 7        45.512
C39        38.000                                                                                                                                    39068119.457 5 203437994.63005      -188.657 5        30.264                                                                    39068110.741 5 165309958.38605      -153.112 5        32.976
C06        41.000                                                                                                                                                                                                    38963552.460 5 156890062.00305       268.574 5        35.743
C29        43.000                                                                                                                                    21766566.297 8 113344120.60608      -546.317 8        51.050                                                                    21766564.506 8  92101495.86808      -443.977 8        49.577
C16        45.000                                                                                                                                    39290439.712 5 204595669.16205       224.682 5        32.856    39290440.635 5 158206306.55705       173.916 5        34.333
C09        46.000                                                                                                                                    39863243.537 4                       692.686 4        26.096
C32        47.000                                                                                                                                    22878722.748 7 119135572.58907     -2786.767 7        45.804                                                                    22878719.852 7  96807428.94807     -2264.518 7        44.706
C35        51.000                                                                                                                                    25329182.240 6 131895895.01606      2179.468 6        38.970                                                                    25329181.126 6 107176074.47206      1770.986 6        39.156
I09        54.000    37112303.980 7 145636649.40307      -581.716 7        44.796
C20        55.000                                                                                                                                    22124184.282 7 115206428.06707       453.193 7        47.325                                                                    22124179.161 7  93614738.06607       368.230 7        47.628
C30        58.000                                                                                                                                    23360140.691 6 121642544.96306     -3609.154 6        37.603                                                                    23360156.623 5  98844452.56105     -2932.923 5        31.419
> 2025 01 01 00 16 10.0000000  0 38
E19         1.000                                                                                                                                    26076975.650 5                     -2366.987 5        31.577    26076984.327 3                     -2428.971 3        22.057
G32         2.000    23125920.049 6 121527763.65106     -3439.339 6        40.184                                    23125917.980 2  94696798.02002     -2680.000 2        13.758
G21         3.000    21251421.368 7 111676959.08207     -2409.092 7        44.129                                    21251414.889 4  87020941.13804     -1877.215 4        24.376
G14         4.000    25032020.096 4                     -3134.595 4        29.592                                                                                                    25032003.921 3                     -2443.590 3        22.838
G02         5.000    20671883.686 7 108631661.75107      -999.592 7        44.012                                    20671876.889 5  84647911.09605      -778.905 5        33.509
E04         7.000    23790791.957 7 125021440.31707      -296.091 7        43.206                                                                    23790789.995 8  93360158.67908      -221.161 8        52.029    23790787.343 8  95795640.98508      -226.932 8        49.176
G03         8.000    20694754.566 7 108751718.80507       979.616 7        46.711                                    20694748.088 6  84741609.35306       763.338 6        40.017    20694750.863 6  84741609.33606       763.430 6        39.850
E02         9.000    27740134.556 5 145775387.25005     -2825.682 5        30.234                                                                    27740130.562 5 108858293.65205     -2110.279 5        32.838    27740131.042 5 111698012.09105     -2165.321 5        34.524
E12        10.000    26578454.079 5 139670725.55105     -3197.613 5        34.748                                                                    26578449.051 5 104299562.16805     -2387.478 5        31.026    26578451.169 6 107020484.65706     -2450.162 6        40.119
G04        11.000    23973471.297 5                      2948.504 5        32.102                                                                                                    23973451.892 5  98167288.40505      2297.857 5        32.713
E09        12.000    25731636.733 5 135220672.15305      2003.400 5        31.902                                                                    25731620.190 6 100976455.54106      1496.130 6        39.952    25731618.234 6 103610581.18806      1535.231 6        39.649
E10        13.000    24555543.689 7 129040243.70907     -2471.759 7        44.629                                                                    24555539.443 6  96361221.77806     -1845.841 6        40.086    24555542.247 8  98875016.38008     -1893.992 8        48.390
E06        14.000    24244525.174 7 127405873.68807      1107.144 7        42.726                                                                    24244520.241 6  95140735.83406       826.759 6        41.669    24244519.864 6  97622628.95106       848.340 6        41.986
E11        15.000    23280178.080 6 122338156.22306     -1187.150 6        41.330                                                                    23280173.003 6  91356405.43506      -886.667 6        41.223    23280173.965 7  93739614.59407      -909.559 7        43.776
G19        16.000    24716207.444 5 129884564.49305      2680.886 5        35.662
E30        17.000    28449619.475 5                      -772.180 5        30.943                                                                    28449635.650 4                      -576.730 4        29.924    28449626.696 5 114554845.22005      -591.580 5        32.216
E36        20.000    24814604.629 6 130401623.21106      1121.622 6        41.707                                                                    24814603.762 6  97377826.49806       837.596 6        39.967    24814605.261 7  99918144.57207       859.398 7        47.070
G08        21.000    24230128.201 3                     -4524.439 3        22.362                                                                                                    24230108.851 4                     -3522.693 4        28.569
G17        22.000    22838609.093 7 120017902.66307      1073.418 7        46.723                                    22838600.137 6  93520226.62806       836.429 6        38.228    22838602.567 6  93520269.61806       836.659 6        37.864
S23        24.000    38149679.674 6 200477876.46806      -823.991 6        40.803
S36        25.000    38197847.536 6 200730863.17006      -826.952 6        36.968
R20        27.000    19155570.346 6 102433436.07206      -863.466 6        37.130                                                                    19155570.799 7  79670418.52607      -671.630 7        43.124
R04        28.000    20996910.501 7 112437439.92907     -4175.832 7        45.387                                                                    20996902.796 6  87451373.10506     -3247.824 6        40.017
R12        32.000    24012587.173 5                     -2242.375 5        33.210                                                                    24012541.162 4                     -1744.500 4        26.407
C19        33.000                                                                                                                                    25473389.602 5 132646654.63305      2258.288 5        35.857                                                                    25473419.728 4                      1834.985 4        25.970
R21        34.000    21433564.113 7 114695399.30807      2704.863 7        47.809                                                                    21433563.443 6  89207628.16306      2103.731 6        41.590
R19        35.000    22509295.911 4                     -4719.492 4        25.594                                                                    22509313.606 4                     -3670.161 4        27.665
R05        36.000    19068713.507 8 101933316.49208      -647.416 8        48.191                                                                    19068713.023 7  79281365.56607      -503.595 7        45.828
C39        38.000                                                                                                                                    39068300.643 4 203438937.22904      -188.757 4        29.697                                                                    39068291.349 5 165310724.33705      -153.151 5        32.671
C06        41.000                                                                                                                                                                                                    38963219.121 6 156888719.30206       268.441 6        36.348
C29        43.000                                                                                                                                    21767092.168 8 113346857.41008      -548.431 8        51.301                                                                    21767090.040 8  92103719.76908      -445.710 8        49.266
C16        45.000                                                                                                                                    39290224.820 5 204594547.41405       223.859 5        32.245    39290225.223 5 158205439.15305       173.413 5        34.457
C09        46.000                                                                                                                                    39862574.703 4                       692.620 4        26.036
C32        47.000                                                                                                                                    22881399.503 7 119149508.71207     -2787.727 7        46.519                                                                    22881396.269 7  96818753.21207     -2265.264 7        44.888
C35        51.000                                                                                                                                    25327088.946 6 131884998.66906      2179.063 6        40.148                                                                    25327088.461 6 107167220.31006      1770.746 6        38.673
I09        54.000    37113045.042 7 145639557.61907      -581.513 7        44.838
C20        55.000                                                                                                                                    22123749.634 7 115204165.97407       451.573 7        47.485                                                                    22123744.996 7  93612899.95307       366.901 7        47.660
C30        58.000                                                                                                                                    23363606.050 6 121660593.35506     -3610.175 6        37.384                                                                    23363624.902 5  98859118.45905     -2933.577 5        31.909
> 2025 01 01 00 16 15.0000000  0 39
E19         1.000                                                                                                                                    26079992.292 5                     -2367.765 5        31.162    26080000.602 3                     -2430.555 3        22.533
G32         2.000    23129192.836 6 121544965.73406     -3441.541 6        38.024                                    23129190.439 1  94710202.24601     -2681.893 1        10.667    23129235.334 4                     -2682.047 4        25.624
G21         3.000    21253714.561 7 111689010.19707     -2411.374 7        42.986                                    21253708.979 4  87030331.62504     -1879.003 4        24.556
G14         4.000                                                                                                                                                                    25034983.935 3                     -2443.995 3        20.524
G02         5.000    20672835.578 7 108636666.09207     -1002.173 7        43.869                                    20672829.188 5  84651810.58605      -780.920 5        33.461
E04         7.000    23791075.082 7 125022927.77107      -298.897 7        42.908                                                                    23791073.035 8  93361269.43208      -223.229 8        52.027    23791070.144 8  95796780.70908      -229.054 8        48.990
G03         8.000    20693823.982 7 108746826.08907       977.287 7        47.683                                    20693817.222 6  84737796.85406       761.521 6        40.751    20693819.925 6  84737796.82506       761.513 6        39.396
E02         9.000    27742824.447 5 145789520.13705     -2827.555 5        30.657                                                                    27742819.796 5 108868847.41105     -2111.339 5        32.491    27742818.996 5 111708841.16505     -2166.900 5        33.449
E12        10.000    26581496.552 5 139686716.92205     -3198.643 5        34.705                                                                    26581492.371 5 104311503.81705     -2389.070 5        30.974    26581494.209 6 107032737.80306     -2451.158 6        40.257
G04        11.000    23970666.289 5                      2947.981 5        31.841                                                                                                    23970648.006 5  98155801.49305      2296.787 5        33.138
E09        12.000    25729732.272 5 135210657.32905      2001.854 5        32.713                                                                    25729714.538 6 100968976.98106      1495.198 6        39.751    25729712.401 6 103602907.53606      1534.120 6        39.501
E10        13.000    24557896.377 7 129052606.56007     -2473.565 7        45.299                                                                    24557892.390 6  96370453.77006     -1846.995 6        40.238    24557894.553 8  98884489.21508     -1895.268 8        48.254
E06        14.000    24243472.596 7 127400343.47107      1104.863 7        42.358                                                                    24243468.243 7  95136606.14107       824.909 7        42.176    24243467.633 7  97618391.54007       846.548 7        42.178
E11        15.000    23281308.145 6 122344096.20606     -1189.071 6        41.139                                                                    23281303.227 6  91360841.11506      -887.796 6        41.106    23281304.177 7  93744166.00407      -911.123 7        43.947
G19        16.000    24713657.424 6 129871163.88406      2679.223 6        37.648
E30        17.000    28450356.613 5                      -774.866 5        32.563                                                                    28450371.120 5                      -578.393 5        31.343    28450362.637 5 114557808.53405      -593.633 5        32.850
G28        18.000    23804320.356 5                      1159.094 5        31.140
E36        20.000    24813538.359 6 130396017.96006      1120.292 6        41.430                                                                    24813537.254 6  97373640.75906       836.720 6        40.346    24813538.673 7  99913849.64007       858.399 7        47.215
G08        21.000    24234433.497 3                     -4521.911 3        22.133                                                                                                    24234411.397 4                     -3523.614 4        29.052
G17        22.000    22837588.989 7 120012542.51407      1070.487 7        47.403                                    22837580.258 6  93516049.88406       834.147 6        38.676    22837582.747 6  93516092.89006       834.233 6        36.541
S23        24.000    38150464.291 6 200481997.38806      -824.439 6        40.872
S36        25.000    38198634.126 6 200734997.97406      -827.210 6        36.658
R20        27.000    19156379.604 6 102437763.91306      -867.796 6        36.503                                                                    19156380.107 7  79673784.63007      -674.962 7        42.997
R04        28.000    21000808.902 7 112458324.45807     -4178.085 7        45.281                                                                    21000803.101 6  87467616.64606     -3249.677 6        40.620
R12        32.000    24014683.322 5                     -2246.650 5        34.686
C19        33.000                                                                                                                                    25471225.967 5 132635366.65905      2257.128 5        34.948                                                                    25471252.203 4                      1835.144 4        24.541
R21        34.000    21431036.680 7 114681879.84907      2702.870 7        47.397                                                                    21431037.090 6  89197113.03406      2102.271 6        41.187
R19        35.000    22513712.988 3                     -4722.192 3        22.971
R05        36.000    19069320.985 7 101936564.01207      -651.748 7        47.668                                                                    19069320.534 7  79283891.40107      -506.872 7        45.919
C39        38.000                                                                                                                                    39068482.545 4 203439884.40704      -190.063 4        29.100                                                                    39068472.920 5 165311493.95805      -154.551 5        32.647
C06        41.000                                                                                                                                                                                                    38962886.983 6 156887379.64606       267.499 6        36.692
C29        43.000                                                                                                                                    21767620.776 8 113349606.98608      -551.527 8        51.465                                                                    21767618.096 8  92105954.00908      -448.179 8        49.079
C16        45.000                                                                                                                                    39290011.995 5 204593429.55905       223.080 5        31.947    39290011.341 5 158204574.80905       172.273 5        34.529
C09        46.000                                                                                                                                    39861911.498 4                       691.695 4        26.874
C32        47.000                                                                                                                                    22884076.733 7 119163452.05907     -2789.694 7        47.231                                                                    22884073.967 7  96830083.31607     -2266.815 7        45.223
C35        51.000                                                                                                                                    25324996.367 6 131874106.58706      2177.656 6        41.013                                                                    25324996.555 6 107158369.60706      1769.433 6        38.078
I09        54.000    37113786.295 7 145642466.55407      -582.041 7        44.963
C20        55.000                                                                                                                                    22123316.543 7 115201914.13707       449.029 7        46.803                                                                    22123312.891 8  93611070.13108       364.909 8        48.036
C30        58.000                                                                                                                                    23367072.193 6 121678649.09406     -3612.141 6        36.892                                                                    23367093.213 5  98873790.22205     -2935.123 5        32.808
> 2025 01 01 00 16 20.0000000  0 38
E19         1.000                                                                                                                                    26083009.613 5                     -2368.677 5        30.634    26083017.945 3                     -2432.554 3        22.952
G32         2.000    23132468.703 6 121562177.38106     -3443.096 6        37.176                                    23132464.977 1  94723613.87101     -2682.939 1         8.667    23132506.263 4                     -2682.506 4        26.587
G21         3.000    21256009.747 7 111701070.25507     -2412.704 7        42.279                                    21256004.585 4  87039729.07604     -1880.028 4        24.451
G02         5.000    20673790.663 7 108641681.59807     -1004.045 7        43.712                                    20673783.643 5  84655718.78005      -782.376 5        33.485
E04         7.000    23791360.072 7 125024426.97807      -300.893 7        43.247                                                                    23791358.303 8  93362388.97708      -224.744 8        51.861    23791355.189 8  95797929.45808      -230.546 8        48.573
G03         8.000    20692894.315 7 108741943.08207       975.735 7        47.611                                    20692888.166 6  84733991.91506       760.309 6        41.545    20692890.891 6  84733991.89706       760.396 6        39.258
E02         9.000    27745515.892 5 145803660.35005     -2828.975 5        30.868                                                                    27745510.481 5 108879406.64305     -2112.197 5        32.395    27745509.452 5 111719675.85705     -2167.033 5        32.760
E12        10.000    26584540.741 5 139702712.69005     -3199.450 5        34.995                                                                    26584537.067 5 104323448.67605     -2389.052 5        30.853    26584538.168 6 107044994.27306     -2451.482 6        40.234
G04        11.000    23967862.850 5                      2947.578 5        31.872                                                                                                    23967842.757 5  98144316.92605      2296.581 5        32.988
E09        12.000    25727829.146 5 135200648.32805      2001.250 5        32.868                                                                    25727809.824 6 100961502.79506      1494.336 6        39.237    25727808.021 6 103595238.34306      1533.521 6        39.102
E10        13.000    24560249.856 7 129064975.90807     -2474.393 7        45.851                                                                    24560246.530 6  96379690.61406     -1847.875 6        40.727    24560248.201 7  98893967.03107     -1895.958 7        47.898
E06        14.000    24242421.714 6 127394822.70206      1103.295 6        41.504                                                                    24242417.691 7  95132483.49607       823.949 7        42.669    24242417.404 6  97614161.36306       845.406 6        41.974
E11        15.000    23282440.210 6 122350043.80306     -1190.052 6        41.268                                                                    23282434.780 6  91365282.51206      -888.736 6        40.660    23282435.919 7  93748723.24807      -912.023 7        44.086
G19        16.000    24711108.392 6 129857769.81406      2678.186 6        37.543
E30        17.000    28451095.852 5 149511517.98015      -777.141 5        33.144                                                                    28451108.272 5                      -580.321 5        31.162    28451101.444 5 114560781.24105      -594.970 5        32.269
G28        18.000    23803221.338 5                      1157.064 5        32.407
E36        20.000    24812472.469 6 130390416.69806      1119.983 6        41.743                                                                    24812471.304 6  97369457.99806       836.399 6        40.470    24812472.743 7  99909557.76607       858.163 7        47.297
G08        21.000    24238736.285 3                     -4521.365 3        21.929                                                                                                    24238711.913 4                     -3523.795 4        28.370
G17        22.000    22836570.709 7 120007194.80407      1068.374 7        47.099                                    22836562.691 6  93511882.83306       832.497 6        38.916    22836565.313 6  93511925.84106       832.733 6        36.113
S23        24.000    38151247.979 6 200486118.38306      -824.165 6        40.973
S36        25.000    38199420.313 6 200739132.87806      -826.718 6        36.911
R20        27.000    19157190.600 5 102442110.67705      -870.955 5        35.395                                                                    19157193.536 7  79677165.48107      -677.551 7        43.636
R04        28.000    21004707.258 7 112479218.32207     -4179.597 7        46.341                                                                    21004704.992 6  87483867.44306     -3250.667 6        41.113
R12        32.000                                                                                                                                    24016762.575 4                     -1749.617 4        25.744
C19        33.000                                                                                                                                    25469062.138 5 132624083.07305      2256.528 5        32.353                                                                    25469089.395 3                      1833.505 3        22.114
R21        34.000    21428510.847 7 114668368.62407      2701.531 7        46.868                                                                    21428513.112 6  89186604.30906      2101.275 6        40.713
R19        35.000    22518126.686 3                     -4719.969 3        22.495                                                                    22518122.532 4                     -3672.716 4        28.370
R05        36.000    19069932.297 7 101939830.89907      -655.136 7        47.213                                                                    19069931.631 7  79286432.31907      -509.624 7        45.810
C39        38.000                                                                                                                                    39068663.449 4 203440836.69504      -190.775 4        28.389                                                                    39068655.682 5 165312267.72505      -154.765 5        32.269
C06        41.000                                                                                                                                                                                                    38962554.216 6 156886043.47106       267.115 6        36.870
C29        43.000                                                                                                                                    21768151.495 8 113352369.90008      -553.750 8        51.564                                                                    21768148.656 8  92108199.09808      -449.964 8        49.047
C16        45.000                                                                                                                                    39289798.115 5 204592316.36905       222.609 5        31.804    39289797.298 5 158203714.03505       171.826 5        34.324
C09        46.000                                                                                                                                    39861250.051 4                       691.553 4        27.892
C32        47.000                                                                                                                                    22886755.263 7 119177403.20107     -2790.894 7        47.761                                                                    22886753.076 7  96841419.76207     -2267.804 7        45.558
C35        51.000                                                                                                                                    25322905.630 7 131863219.32707      2177.118 7        42.299                                                                    25322905.596 6 107149522.84306      1769.124 6        37.917
I09        54.000    37114527.998 7 145645376.61207      -582.046 7        44.927
C20        55.000                                                                                                                                    22122885.901 7 115199673.13707       447.269 7        46.350                                                                    22122882.660 8  93609249.12908       363.487 8        48.322
C30        58.000                                                                                                                                    23370539.297 6 121696712.70206     -3613.313 6        36.174                                                                    23370561.987 5  98888468.42605     -2935.892 5        33.216
> 2025 01 01 00 16 25.0000000  0 39
E19         1.000                                                                                                                                    26086028.947 5                     -2369.933 5        30.302    26086035.110 3                     -2431.147 3        21.929
G32         2.000    23135747.138 6 121579398.12706     -3445.141 6        37.958                                    23135741.281 1  94737032.65501     -2684.552 1         7.000    23135773.919 4                     -2684.844 4        28.521
G21         3.000    21258306.885 7 111713138.87607     -2414.677 7        42.373                                    21258301.805 4  87049133.21104     -1881.581 4        24.421
G14         4.000    25040947.279 3                     -3139.430 3        23.143
G02         5.000    20674746.753 7 108646707.82307     -1006.483 7        44.283                                    20674740.217 5  84659635.33005      -784.274 5        33.497
E04         7.000    23791647.254 7 125025937.60307      -303.274 7        43.689                                                                    23791645.735 8  93363517.04208      -226.564 8        51.848    23791642.523 8  95799086.95108      -232.478 8        48.191
G03         8.000    20691966.152 7 108737069.36607       973.790 7        47.164                                    20691960.881 7  84730194.21907       758.793 7        42.053    20691964.398 6  84730194.21106       758.704 6        39.393
E02         9.000    27748205.743 5 145817807.51505     -2830.177 5        30.800                                                                    27748202.274 5 108889971.08205     -2113.287 5        31.932    27748201.373 5 111730515.89105     -2168.377 5        31.962
E12        10.000    26587585.870 5 139718712.31705     -3200.380 5        34.700                                                                    26587581.869 5 104335396.46105     -2389.988 5        31.932    26587582.632 6 107057253.73906     -2452.254 6        40.050
G04        11.000    23965058.087 5                      2946.975 5        31.894                                                                                                    23965037.311 5  98132834.37905      2296.373 5        33.467
E09        12.000    25725927.169 5 135190644.73705      1999.977 5        32.988                                                                    25725906.196 6 100954032.64306      1493.568 6        38.916    25725904.099 6 103587573.32506      1532.419 6        38.880
E10        13.000    24562604.430 7 129077351.37807     -2475.835 7        45.807                                                                    24562601.847 6  96388932.01206     -1848.804 6        41.335    24562603.064 7  98903449.52907     -1897.028 7        47.527
E06        14.000    24241372.547 6 127389310.97806      1101.269 6        40.088                                                                    24241368.985 7  95128367.63707       822.348 7        43.128    24241368.834 6  97609938.12606       843.888 6        41.504
E11        15.000    23283573.348 6 122355998.62006     -1191.716 6        41.216                                                                    23283567.695 6  91369729.27606      -889.890 6        40.520    23283569.013 7  93753286.02607      -913.198 7        44.194
G19        16.000    24708560.256 6 129844382.03606      2676.842 6        37.996
E30        17.000    28451838.171 5 149515409.20605      -779.483 5        33.808                                                                    28451847.565 5                      -582.124 5        31.623    28451841.644 5 114563762.84005      -597.707 5        31.245
G28        18.000    23802129.024 5                      1154.637 5        32.713
E36        20.000    24811407.073 6 130384819.03906      1119.196 6        41.492                                                                    24811405.904 6  97365277.93906       835.689 6        40.691    24811407.553 7  99905268.65607       857.509 7        47.173
G08        21.000    24243036.550 3                     -4522.086 3        22.438                                                                                                    24243016.140 4                     -3523.552 4        28.246
G17        22.000    22835554.583 7 120001859.19907      1065.806 7        46.668                                    22835547.369 6  93507725.21606       830.497 6        38.928    22835550.523 6  93507768.23706       830.411 6        36.291
S23        24.000    38152032.382 6 200490238.99906      -824.195 6        40.868
S36        25.000    38200204.157 6 200743266.55106      -826.854 6        36.616
R20        27.000    19158006.114 5 102446475.98505      -875.104 5        35.586                                                                    19158010.087 7  79680560.71707      -680.520 7        44.119
R04        28.000    21008611.105 7 112500121.32807     -4181.502 7        46.738                                                                    21008608.329 6  87500125.38406     -3252.466 6        41.182
R12        32.000                                                                                                                                    24018875.086 4                     -1752.795 4        26.850
C19        33.000                                                                                                                                    25466899.251 4 132612803.39904      2255.719 4        28.863                                                                    25466924.580 3                      1829.044 3        18.866
R21        34.000    21425988.037 7 114654865.04507      2699.772 7        46.292                                                                    21425989.930 6  89176101.54406      2099.828 6        41.337
R19        35.000    22522538.719 4                     -4725.578 4        24.406                                                                    22522532.397 4                     -3674.099 4        29.640
R05        36.000    19070546.900 7 101943116.89007      -659.182 7        46.635                                                                    19070546.214 7  79288988.08507      -512.704 7        45.627
C39        38.000                                                                                                                                    39068846.562 4 203441793.65704      -191.591 4        27.617                                                                    39068839.158 5 165313045.41505      -156.120 5        31.962
C06        41.000                                                                                                                                                                                                    38962222.802 6 156884710.47006       266.287 6        37.070
C29        43.000                                                                                                                                    21768684.781 8 113355145.76708      -556.550 8        51.187                                                                    21768681.761 8  92110454.72408      -452.347 8        48.797
C16        45.000                                                                                                                                    39289585.963 5 204591207.30705       221.467 5        31.849    39289585.039 5 158202856.46205       171.166 5        34.476
C09        46.000                                                                                                                                    39860589.924 4                       690.359 4        27.605
C32        47.000                                                                                                                                    22889435.124 7 119191361.73907     -2792.518 7        47.800                                                                    22889433.549 7  96852762.22907     -2269.253 7        45.589
C35        51.000                                                                                                                                    25320816.300 7 131852336.46507      2176.082 7        43.206                                                                    25320815.674 6 107140679.66406      1768.234 6        37.433
I09        54.000    37115269.665 7 145648287.53207      -582.404 7        44.954
C20        55.000                                                                                                                                    22122458.622 7 115197442.58307       444.945 7        46.404                                                                    22122454.348 8  93607436.62408       361.486 8        48.472
C30        58.000                                                                                                                                    23374008.369 5 121714783.81505     -3615.173 5        35.471                                                                    23374033.433 5  98903152.72505     -2938.043 5        32.635
> 2025 01 01 00 16 30.0000000  0 39
E19         1.000                                                                                                                                    26089048.602 5                     -2370.638 5        30.053    26089055.633 3                     -2433.380 3        22.819
G32         2.000    23139026.606 6 121596627.83606     -3446.848 6        38.360                                    23139019.325 1  94750458.56301     -2685.997 1         4.857    23139049.526 4                     -2686.227 4        28.076
G21         3.000    21260605.585 7 111725215.87907     -2416.192 7        43.445                                    21260600.362 4  87058543.86404     -1882.756 4        24.707
G14         4.000    25043942.993 4                     -3140.216 4        26.527                                                                                                    25043955.539 3                     -2446.892 3        22.248
G02         5.000    20675705.461 7 108651744.58907     -1008.383 7        44.457                                    20675698.785 5  84663560.09205      -785.753 5        33.473
E04         7.000    23791936.530 7 125027459.42907      -305.409 7        44.092                                                                    23791935.323 8  93364653.46208      -228.012 8        51.919    23791932.050 7  95800253.01807      -233.949 7        47.940
G03         8.000    20691040.406 7 108732204.78907       971.958 7        45.782                                    20691035.403 7  84726403.64707       757.371 7        42.209    20691039.444 6  84726403.63106       757.261 6        39.336
E02         9.000    27750896.463 5 145831961.50305     -2831.494 5        30.226                                                                    27750895.073 5 108900540.59105     -2113.998 5        31.155    27750894.386 5 111741361.15605     -2169.442 5        31.260
E12        10.000    26590630.773 5 139734715.70705     -3200.883 5        34.790                                                                    26590627.922 5 104347347.07405     -2390.833 5        32.251    26590627.949 6 107069516.07306     -2452.703 6        39.982
G04        11.000    23962253.020 5                      2946.561 5        31.208                                                                                                    23962234.714 5  98121353.74005      2295.754 5        33.587
E09        12.000    25724026.805 5 135180646.42605      1999.525 5        31.796                                                                    25724003.552 6 100946566.44306      1492.884 6        38.628    25724000.847 6 103579912.34506      1531.802 6        38.541
E10        13.000    24564959.991 7 129089732.77307     -2476.810 7        45.854                                                                    24564958.236 7  96398177.85507     -1849.678 7        42.136    24564959.154 7  98912936.57607     -1897.797 7        47.265
E06        14.000    24240325.126 6 127383808.13606      1099.688 6        38.595                                                                    24240321.800 7  95124258.40007       821.229 7        43.609    24240322.086 6  97605721.71006       842.529 6        41.128
E11        15.000    23284707.934 6 122361960.52606     -1193.076 6        41.769                                                                    23284702.059 6  91374181.32606      -890.788 6        40.417    23284703.629 7  93757854.22007      -914.080 7        44.492
G19        16.000    24706013.301 6 129831000.37706      2675.822 6        36.809
E30        17.000    28452581.712 5 149519311.74205      -781.675 5        33.479                                                                    28452589.917 5                      -583.785 5        31.600    28452584.700 4 114566753.06704      -598.547 4        28.834
G28        18.000    23801032.202 5                      1152.604 5        31.125
E36        20.000    24810342.269 6 130379224.83806      1118.463 6        41.759                                                                    24810341.187 6  97361100.45106       835.199 6        40.813    24810342.920 7  99900982.18607       857.099 7        47.218
G08        21.000    24247339.557 3                     -4522.296 3        22.609                                                                                                    24247319.245 4                     -3523.460 4        28.057
G17        22.000    22834541.720 7 119996535.52507      1063.582 7        46.279                                    22834534.305 6  93503576.90106       828.764 6        38.559    22834537.518 6  93503619.91406       829.045 6        36.140
S23        24.000    38152815.976 6 200494359.01306      -823.903 6        40.749
S36        25.000    38200996.220 6 200747400.11706      -826.749 6        36.809
R20        27.000    19158826.657 5 102450859.57605      -878.601 5        35.605                                                                    19158830.015 7  79683970.18507      -683.247 7        44.030
R04        28.000    21012517.462 7 112521033.20807     -4183.266 7        46.477                                                                    21012513.005 6  87516390.17206     -3253.544 6        40.729
R12        32.000    24020980.940 4 128315698.36414     -2257.632 4        28.370                                                                    24020995.185 4                     -1755.522 4        27.940
C19        33.000                                                                                                                                    25464740.791 4 132601527.47504      2254.757 4        25.970                                                                    25464719.744 6                      1832.204 6        36.049
R21        34.000    21423466.543 7 114641369.16407      2698.442 7        46.396                                                                    21423468.294 7  89165604.76507      2098.890 7        42.398
R19        35.000    22526950.230 3                     -4725.443 3        22.629                                                                    22526951.224 5                     -3675.280 5        30.136
R05        36.000    19071165.592 7 101946421.83807      -662.821 7        46.493                                                                    19071164.641 7  79291558.58807      -515.475 7        45.120
C39        38.000                                                                                                                                    39069029.549 4 203442755.31504      -192.803 4        27.976                                                                    39069023.622 5 165313826.70105      -156.560 5        31.117
C06        41.000                                                                                                                                                                                                    38961892.226 6 156883380.49406       265.719 6        36.994
C29        43.000                                                                                                                                    21769220.399 8 113357934.40608      -558.963 8        51.128                                                                    21769217.354 8  92112720.71708      -454.249 8        48.443
C16        45.000                                                                                                                                    39289375.256 5 204590102.27905       220.648 5        31.887    39289372.342 5 158202001.97505       170.895 5        33.922
C09        46.000                                                                                                                                    39859922.480 4                       690.411 4        28.076
C32        47.000                                                                                                                                    22892116.677 8 119205327.49508     -2793.848 8        48.060                                                                    22892115.333 7  96864110.53507     -2270.263 7        45.424
C35        51.000                                                                                                                                    25318728.000 7 131841457.82807      2175.306 7        43.983                                                                    25318726.052 6 107131839.90106      1767.546 6        37.146
I09        54.000    37116011.381 7 145651199.13307      -582.315 7        44.903
C20        55.000                                                                                                                                    22122032.663 7 115195222.27607       443.082 7        46.965                                                                    22122028.087 8  93605632.43508       360.015 8        48.475
C30        58.000                                                                                                                                    23377479.523 5 121732862.19905     -3616.306 5        35.300                                                                    23377507.848 5  98917842.89905     -2938.939 5        30.460
> 2025 01 01 00 16 35.0000000  0 39
E19         1.000                                                                                                                                    26092069.711 4                     -2371.895 4        29.346    26092075.297 3                     -2434.894 3        22.800
G32         2.000    23142307.048 6 121613867.69006     -3448.762 6        37.399                                    23142299.278 1  94763892.17101     -2687.335 1         7.125
G21         3.000    21262905.268 7 111737302.54207     -2418.131 7        43.901                                    21262900.600 4  87067962.05204     -1884.258 4        25.143
G14         4.000                                                                                                                                                                    25046945.597 4                     -2447.674 4        24.271
G02         5.000    20676666.199 7 108656793.13207     -1010.737 7        44.554                                    20676659.607 5  84667494.01905      -787.585 5        33.479
E04         7.000    23792228.367 7 125028993.69607      -307.917 7        44.077                                                                    23792227.276 8  93365799.17708      -229.912 8        51.860    23792223.882 7  95801428.62707      -235.896 7        47.775
G03         8.000    20690116.128 7 108727350.54907       969.986 7        44.066                                    20690111.982 7  84722621.11507       755.834 7        42.260    20690116.266 6  84722621.09506       755.835 6        40.648
E02         9.000    27753589.241 4 145846123.47604     -2833.186 4        27.832                                                                    27753589.309 5 108911116.06405     -2115.465 5        30.634    27753588.315 5 111752212.46605     -2170.715 5        30.732
E12        10.000    26593676.668 5 139750724.08505     -3202.065 5        34.348                                                                    26593674.175 5 104359301.36905     -2391.142 5        32.479    26593674.081 6 107081782.22306     -2453.544 6        39.432
G04        11.000    23959449.483 5                      2945.685 5        30.808                                                                                                    23959432.041 5  98109875.96505      2295.353 5        34.210
E09        12.000    25722129.097 5 135170654.60805      1997.919 5        30.166                                                                    25722102.070 6 100939105.07906      1491.915 6        38.048    25722098.788 6 103572256.33606      1530.852 6        38.102
E10        13.000    24567317.039 7 129102121.33007     -2478.269 7        44.954                                                                    24567315.955 7  96407429.03907     -1850.677 7        42.658    24567316.705 7  98922429.10707     -1898.921 7        47.138
E06        14.000    24239279.915 6 127378315.43106      1097.735 6        38.072                                                                    24239276.383 7  95120156.72307       819.742 7        43.767    24239277.043 6  97601513.02206       841.104 6        40.656
E11        15.000    23285843.838 6 122367930.66806     -1194.542 6        41.809                                                                    23285838.221 6  91378639.54206      -892.080 6        40.191    23285839.549 7  93762428.74707      -915.373 7        44.764
G19        16.000    24703466.997 6 129817625.99506      2674.444 6        36.049                                    24703459.338 1 101156534.00511      2083.968 1        11.259
E30        17.000    28453326.264 5 149523226.86105      -783.772 5        33.072                                                                    28453335.127 5                      -585.544 5        32.114    28453329.204 4 114569753.05204      -601.624 4        25.519
G28        18.000    23799936.998 4                      1150.084 4        29.175
E36        20.000    24809278.741 6 130373635.29306      1117.644 6        41.681                                                                    24809277.267 6  97356926.42406       834.596 6        40.858    24809279.206 7  99896699.29307       856.333 7        47.199
G08        21.000    24251637.869 4                     -4522.899 4        24.030                                                                                                    24251622.829 4                     -3524.119 4        27.653
G17        22.000    22833531.760 7 119991224.92407      1061.069 7        45.457                                    22833523.754 6  93499438.76806       826.802 6        38.306    22833526.850 6  93499481.77606       826.867 6        37.440
S23        24.000    38153600.647 6 200498479.70206      -823.939 6        40.572
S36        25.000    38201781.428 6 200751534.04406      -826.586 6        36.548
R20        27.000    19159649.609 6 102455262.61606      -882.365 6        36.635                                                                    19159653.105 7  79687394.75307      -686.312 7        43.782
R04        28.000    21016423.504 7 112541955.22407     -4185.282 7        46.123                                                                    21016420.323 6  87532662.86406     -3255.254 6        39.892
R12        32.000    24023104.300 5 128326994.83705     -2261.154 5        33.419                                                                    24023104.261 4                     -1758.722 4        26.958
C19        33.000                                                                                                                                    25462584.620 4 132590256.45904      2254.172 4        25.534                                                                    25462553.812 6 107740403.89416      1831.507 6        36.159
R21        34.000    21420946.516 7 114627882.02607      2696.654 7        46.275                                                                    21420947.876 7  89155114.78407      2097.448 7        43.962
R19        35.000                                                                                                                                    22531371.235 5                     -3676.771 5        30.740
R05        36.000    19071787.547 7 101949746.87007      -666.897 7        45.908                                                                    19071787.056 7  79294144.74207      -518.650 7        45.293
C39        38.000                                                                                                                                    39069215.524 4 203443722.56004      -193.893 4        28.275                                                                    39069209.395 5 165314612.72505      -157.427 5        30.792
C06        41.000                                                                                                                                                                                                    38961562.451 6 156882054.48006       264.958 6        37.395
C29        43.000                                                                                                                                    21769758.765 8 113360737.03808      -561.757 8        50.991                                                                    21769755.689 8  92114998.06808      -456.614 8        48.246
C16        45.000                                                                                                                                    39289163.594 5 204589002.40705       219.609 5        32.341    39289161.250 5 158201151.52105       170.072 5        34.010
C09        46.000                                                                                                                                    39859261.753 4                       689.363 4        28.237
C32        47.000                                                                                                                                    22894799.934 8 119219301.66108     -2795.519 8        48.093                                                                    22894798.776 7  96875465.66207     -2271.650 7        45.363
C35        51.000                                                                                                                                    25316640.699 7 131830584.62407      2174.249 7        44.676                                                                    25316637.631 6 107123004.50906      1766.912 6        36.457
I09        54.000    37116754.008 7 145654112.36007      -582.742 7        44.861
C20        55.000                                                                                                                                    22121608.105 7 115193013.45607       440.798 7        47.034                                                                    22121603.990 8  93603837.56708       358.046 8        48.447
C30        58.000                                                                                                                                    23380954.361 5 121750949.08405     -3617.893 5        34.614                                                                    23380985.790 4  98932540.02204     -2940.518 4        27.916
> 2025 01 01 00 16 40.0000000  0 38
E19         1.000                                                                                                                                    26095092.067 4                     -2372.753 4        29.687    26095096.267 3                     -2434.226 3        23.695
G32         2.000    23145589.124 5 121631116.57005     -3450.552 5        34.895                                    23145581.073 1  94777332.83901     -2688.711 1         8.286
G21         3.000    21265206.760 7 111749397.70907     -2419.915 7        44.379                                    21265202.435 4  87077386.85104     -1885.648 4        25.474
G02         5.000    20677628.899 7 108661852.32407     -1012.987 7        44.910                                    20677622.419 5  84671436.24605      -789.342 5        33.311
E04         7.000    23792522.037 7 125030539.27607      -310.252 7        43.661                                                                    23792521.428 8  93366953.34008      -231.713 8        51.858    23792518.072 7  95802612.90107      -237.750 7        47.542
G03         8.000    20689194.678 7 108722505.51707       967.961 7        43.217                                    20689190.331 7  84718845.76507       754.255 7        42.379    20689194.407 7  84718845.74507       754.313 7        42.119
E02         9.000    27756286.736 4 145860292.26504     -2834.272 4        26.862                                                                    27756284.783 4 108921696.63704     -2116.543 4        29.592    27756284.237 5 111763069.09305     -2172.038 5        30.377
E12        10.000    26596722.897 5 139766736.27905     -3202.845 5        34.190                                                                    26596721.835 5 104371258.50705     -2391.713 5        33.257    26596720.833 6 107094051.32406     -2454.274 6        39.210
G04        11.000    23956645.552 4                      2945.245 4        28.986                                                                                                    23956628.820 5  98098400.13205      2295.220 5        34.476
E09        12.000    25720227.894 5 135160668.07705      1996.612 5        30.438                                                                    25720201.424 6 100931647.73606      1490.977 6        37.482    25720198.153 6 103564604.45506      1529.955 6        37.690
E10        13.000    24569675.093 7 129114515.91507     -2479.653 7        43.994                                                                    24569674.600 7  96416684.72107     -1851.602 7        43.126    24569675.321 7  98931926.25307     -1899.935 7        47.011
E06        14.000    24238236.487 6 127372831.71306      1095.807 6        38.363                                                                    24238232.744 7  95116061.75807       818.274 7        43.818    24238233.515 6  97597311.22606       839.639 6        40.086
E11        15.000    23286981.310 6 122373907.97306     -1196.312 6        41.859                                                                    23286975.952 6  91383103.09706      -893.238 6        40.210    23286977.069 7  93767008.75007      -916.555 7        45.208
G19        16.000    24700922.281 5 129804257.96805      2672.704 5        34.038                                    24700916.657 2 101146117.36502      2082.658 2        12.000
E30        17.000    28454073.597 5 149527153.52305      -786.591 5        33.186                                                                    28454082.330 5                      -587.205 5        32.503    28454070.643 3                      -603.236 3        23.448
G28        18.000    23798846.455 4                      1148.045 4        24.767
E36        20.000    24808215.594 6 130368049.29706      1116.762 6        41.430                                                                    24808214.296 6  97352755.06606       833.968 6        40.863    24808216.086 7  99892419.11007       855.678 7        47.260
G08        21.000    24255942.802 3                     -4521.389 3        22.438                                                                                                    24255925.581 4                     -3524.188 4        26.599
G17        22.000    22832523.968 7 119985926.28907      1058.448 7        44.024                                    22832515.506 6  93495309.96706       824.763 6        38.030    22832517.890 6  93495352.96306       824.994 6        37.917
S23        24.000    38154384.460 6 200502600.05706      -824.114 6        40.477
S36        25.000    38202565.755 6 200755667.24006      -826.520 6        36.442
R20        27.000    19160478.571 6 102459683.94506      -886.255 6        37.633                                                                    19160479.717 7  79690833.55507      -689.242 7        43.827
R04        28.000    21020330.958 7 112562886.18007     -4187.217 7        47.034                                                                    21020328.072 6  87548942.46906     -3256.619 6        38.694
R12        32.000    24025225.448 6 128338309.72116     -2264.714 6        37.217                                                                    24025222.867 4                     -1761.412 4        28.199
C19        33.000                                                                                                                                    25460427.733 4 132578989.48804      2252.809 4        26.731                                                                    25460389.615 6 107731248.57806      1830.965 6        36.121
R21        34.000    21418427.433 7 114614402.55507      2694.948 7        45.108                                                                    21418428.547 7  89144630.76207      2096.113 7        45.342
R19        35.000    22535786.702 3                     -4730.492 3        20.667                                                                    22535788.706 5                     -3677.793 5        30.196
R05        36.000    19072412.309 7 101953090.94707      -670.739 7        45.776                                                                    19072412.989 7  79296745.71407      -521.740 7        45.731
C39        38.000                                                                                                                                    39069401.571 4 203444694.50804      -195.268 4        28.673                                                                    39069395.728 5 165315402.56805      -158.325 5        30.483
C06        41.000                                                                                                                                                                                                    38961233.312 6 156880731.56906       264.219 6        37.263
C29        43.000                                                                                                                                    21770299.547 8 113363552.54708      -564.436 8        50.708                                                                    21770296.479 8  92117285.92108      -458.471 8        48.086
C16        45.000                                                                                                                                    39288953.792 5 204587906.69805       218.511 5        32.251    39288951.151 5 158200304.28505       169.048 5        33.257
C09        46.000                                                                                                                                    39858600.557 4                       688.831 4        27.569
C32        47.000                                                                                                                                    22897484.895 8 119233283.10808     -2797.099 8        48.003                                                                    22897483.571 7  96886826.76307     -2272.666 7        45.305
C35        51.000                                                                                                                                    25314553.872 7 131819715.79207      2173.274 7        45.536                                                                    25314550.193 6 107114172.74806      1766.036 6        36.741
I09        54.000    37117496.609 7 145657026.36707      -582.952 7        44.789
C20        55.000                                                                                                                                    22121185.406 7 115190815.00707       438.542 7        47.323                                                                    22121181.884 8  93602051.15808       356.573 8        48.618
C30        58.000                                                                                                                                    23384431.465 5 121769043.36905     -3619.625 5        34.105                                                                    23384462.837 4  98947243.19804     -2941.313 4        25.789
> 2025 01 01 00 16 45.0000000  0 38
E19         1.000                                                                                                                                    26098115.653 4                     -2374.113 4        28.389    26098117.139 3                     -2434.210 3        22.133
G32         2.000    23148873.106 5 121648374.47005     -3452.120 5        33.293                                    23148864.881 1  94790780.57101     -2690.000 1         9.905
G21         3.000    21267509.839 7 111761501.38807     -2421.627 7        45.403                                    21267505.768 4  87086818.28304     -1886.976 4        26.012
G14         4.000    25052942.957 5                     -3143.842 5        31.645                                                                                                    25052895.261 3                     -2450.544 3        23.695
G02         5.000    20678593.653 7 108666922.12507     -1015.106 7        46.103                                    20678587.136 5  84675386.74105      -790.991 5        33.329
E04         7.000    23792817.811 7 125032096.14507      -312.631 7        43.644                                                                    23792817.656 8  93368115.93308      -233.443 8        51.803    23792814.436 7  95803805.81907      -239.486 7        47.501
G03         8.000    20688275.198 7 108717669.69707       966.228 7        43.173                                    20688270.482 7  84715077.59207       752.902 7        42.529    20688273.517 7  84715077.57207       753.026 7        43.029
E02         9.000    27758987.268 4 145874467.94404     -2836.237 4        28.133                                                                    27758982.535 4 108932282.32904     -2118.000 4        28.692    27758981.493 4 111773930.88804     -2173.058 4        29.915
E12        10.000    26599770.881 5 139782752.28605     -3203.567 5        33.976                                                                    26599769.334 5 104383218.51105     -2392.278 5        33.132    26599768.018 6 107106323.32706     -2454.737 6        38.670
G04        11.000    23953843.258 4                      2944.652 4        28.512                                                                                                    23953827.097 5  98086926.36905      2294.516 5        34.376
E09        12.000    25718325.653 5 135150687.02705      1995.668 5        31.962                                                                    25718301.842 6 100924194.39306      1490.307 6        36.578    25718299.148 6 103556956.67706      1529.160 6        37.800
E10        13.000    24572034.224 7 129126916.50507     -2480.808 7        42.845                                                                    24572034.358 7  96425944.90207     -1852.499 7        43.748    24572034.943 7  98941428.00607     -1900.901 7        46.991
E06        14.000    24237194.183 6 127367356.99006      1094.092 6        38.742                                                                    24237190.786 7  95111973.50707       816.920 7        43.772    24237191.608 6  97593116.31806       838.213 6        39.688
E11        15.000    23288120.321 7 122379892.42007     -1197.696 7        42.250                                                                    23288114.897 6  91387572.00906      -894.564 6        40.338    23288115.872 7  93771594.23907      -917.695 7        45.728
G19        16.000    24698378.764 5 129790896.26505      2671.676 5        32.814                                    24698374.459 1 101135705.67101      2081.782 1        11.333
E30        17.000    28454821.960 5 149531091.69705      -788.702 5        32.748                                                                    28454831.618 5                      -589.165 5        32.072
E36        20.000    24807152.805 6 130362466.82906      1116.115 6        41.120                                                                    24807152.020 6  97348586.33206       833.447 6        40.644    24807153.611 7  99888141.62707       855.193 7        47.335
G08        21.000    24260247.477 3                     -4522.508 3        23.733                                                                                                    24260225.672 4                     -3524.298 4        26.431
G17        22.000    22831517.281 7 119980639.72707      1056.114 7        43.109                                    22831509.548 6  93491190.57006       822.947 6        38.048    22831512.038 6  93491233.58106       822.807 6        38.252
S23        24.000    38155169.292 6 200506719.95106      -824.026 6        40.574
S36        25.000    38203351.124 6 200759799.82106      -826.290 6        36.605
R20        27.000    19161308.836 6 102464123.62006      -889.848 6        38.474                                                                    19161310.267 7  79694286.64507      -692.082 7        43.393
R04        28.000    21024242.731 8 112583826.17008     -4188.860 8        48.732                                                                    21024237.674 6  87565229.08506     -3257.938 6        37.834
R12        32.000    24027342.403 6                     -2268.462 6        37.796                                                                    24027350.966 3                     -1763.687 3        22.857
C19        33.000                                                                                                                                    25458260.755 4 132567726.34104      2251.883 4        24.947                                                                    25458226.132 5 107722096.36905      1830.187 5        35.452
R21        34.000    21415909.378 7 114600930.78707      2693.607 7        44.703                                                                    21415910.716 7  89134152.72807      2094.998 7        45.991
R19        35.000                                                                                                                                    22540210.895 4                     -3679.383 4        29.678
R05        36.000    19073040.799 7 101956453.86907      -674.637 7        46.916                                                                    19073042.093 7  79299361.32507      -524.672 7        46.302
C39        38.000                                                                                                                                    39069589.021 4 203445671.08304      -195.956 4        29.118                                                                    39069583.218 5 165316196.07105      -159.344 5        30.709
C06        41.000                                                                                                                                                                                                    38960905.871 6 156879411.76406       263.541 6        37.312
C29        43.000                                                                                                                                    21770842.609 8 113366380.93308      -566.954 8        50.406                                                                    21770839.755 8  92119584.19008      -460.762 8        48.037
C16        45.000                                                                                                                                    39288744.724 5 204586815.04905       217.920 5        33.240    39288741.153 5 158199460.16105       168.036 5        32.533
C09        46.000                                                                                                                                    39857937.921 4                       687.879 4        27.521
C32        47.000                                                                                                                                    22900171.222 7 119247271.84207     -2798.508 7        47.689                                                                    22900169.913 7  96898193.72107     -2274.007 7        45.103
C35        51.000                                                                                                                                    25312468.173 7 131808851.29807      2172.440 7        45.908                                                                    25312463.711 6 107105344.43606      1765.216 6        36.526
I09        54.000    37118239.421 7 145659941.14607      -583.085 7        44.781
C20        55.000                                                                                                                                    22120765.159 8 115188626.87908       436.545 8        48.126                                                                    22120761.779 8  93600273.10608       354.691 8        48.620
C30        58.000                                                                                                                                    23387909.793 5 121787145.01105     -3620.736 5        34.490                                                                    23387937.600 3                     -2942.318 3        22.114
> 2025 01 01 00 16 50.0000000  0 38
E19         1.000                                                                                                                                    26101139.838 4                     -2374.616 4        27.461    26101141.749 3                     -2438.147 3        23.124
G32         2.000    23152158.894 5 121665642.06305     -3454.750 5        32.072                                    23152150.701 1  94804235.82901     -2691.973 1        10.815    23152230.671 4                     -2692.377 4        26.431
G21         3.000    21269814.638 7 111773614.29607     -2423.566 7        46.094                                    21269810.617 4  87096256.91604     -1888.488 4        26.156
G14         4.000    25055926.065 5                     -3145.321 5        31.577                                                                                                    25055889.244 3                     -2450.484 3        22.629
G02         5.000    20679560.367 7 108672003.31007     -1017.392 7        46.091                                    20679553.909 5  84679346.10505      -792.772 5        33.281
E04         7.000    23793116.559 7 125033665.03207      -315.032 7        43.769                                                                    23793116.185 8  93369287.50308      -235.249 8        51.733    23793113.227 7  95805007.95407      -241.384 7        47.524
G03         8.000    20687356.687 7 108712843.81907       964.194 7        43.841                                    20687352.557 7  84711317.16807       751.318 7        42.658    20687354.690 7  84711317.15607       751.261 7        44.104
E02         9.000    27761687.359 4 145888651.07604     -2837.753 4        28.256                                                                    27761680.978 4 108942873.56204     -2118.034 4        27.964    27761680.815 4 111784798.49004     -2173.632 4        29.573
E12        10.000    26602819.830 5 139798772.87905     -3204.625 5        33.617                                                                    26602818.166 5 104395181.92505     -2392.898 5        33.443    26602816.003 6 107118598.83806     -2455.482 6        38.063
G04        11.000    23951041.071 4                      2943.882 4        27.234                                                                                                    23951026.155 5  98075455.09305      2294.192 5        34.690
E09        12.000    25716426.122 5 135140712.06905      1994.536 5        33.240                                                                    25716403.391 5 100916745.60805      1489.356 5        35.981    25716401.249 6 103549313.57206      1528.193 6        37.754
E10        13.000    24574394.955 6 129139323.83406     -2482.177 6        41.337                                                                    24574395.422 7  96435210.11407     -1853.531 7        43.996    24574395.895 7  98950934.91607     -1901.954 7        46.943
E06        14.000    24236154.017 6 127361891.99706      1092.024 6        38.468                                                                    24236150.850 7  95107892.51107       815.512 7        43.520    24236151.301 6  97588928.84106       836.840 6        38.874
E11        15.000    23289260.609 7 122385884.72607     -1199.379 7        42.262                                                                    23289255.507 6  91392046.76606      -895.666 6        40.310    23289256.215 7  93776185.73907      -918.882 7        46.097
G19        16.000    24695836.456 5 129777541.47405      2670.158 5        30.657                                    24695833.630 2 101125299.40902      2080.601 2        12.970
E30        17.000    28455572.847 5 149535041.97405      -791.276 5        31.623                                                                    28455583.593 5                      -590.984 5        31.902
E36        20.000    24806091.490 6 130356888.61606      1115.292 6        40.806                                                                    24806090.738 6  97344420.77606       832.884 6        40.753    24806091.828 7  99883867.41107       854.476 7        47.276
G08        21.000    24264546.665 3                     -4523.772 3        23.886                                                                                                    24264529.895 4                     -3524.379 4        25.609
G17        22.000    22830513.205 7 119975365.85807      1053.399 7        42.980                                    22830506.080 6  93487081.06106       820.836 6        38.264    22830508.146 6  93487124.05406       820.823 6        38.240
S23        24.000    38155953.597 6 200510840.17806      -824.132 6        40.665
S36        25.000    38204143.160 6 200763933.07406      -826.732 6        36.548
R20        27.000    19162142.622 6 102468582.51406      -893.745 6        38.742                                                                    19162143.616 7  79697754.65907      -695.144 7        42.815
R04        28.000    21028158.482 8 112604775.74508     -4190.902 8        49.885                                                                    21028150.528 6  87581523.17506     -3259.609 6        37.592
R12        32.000    24029461.037 5 128360994.41515     -2272.413 5        35.990
C19        33.000                                                                                                                                                                                                                                                                    25456060.343 5 107712947.91005      1829.291 5        35.000
R21        34.000    21413394.764 7 114587467.62607      2691.755 7        45.425                                                                    21413394.357 7  89123681.39007      2093.540 7        46.100
R19        35.000                                                                                                                                    22544630.767 4                     -3680.613 4        27.713
R05        36.000    19073674.525 7 101959836.56807      -678.511 7        47.142                                                                    19073674.999 7  79301992.32007      -527.749 7        46.579
C39        38.000                                                                                                                                    39069776.860 4 203446653.02704      -197.184 4        29.185                                                                    39069771.948 5 165316993.97705      -160.210 5        30.083
C06        41.000                                                                                                                                                                                                    38960579.498 6 156878095.62406       262.742 6        37.032
C29        43.000                                                                                                                                    21771388.455 8 113369222.90508      -569.785 8        50.214                                                                    21771385.665 7  92121893.53007      -462.995 7        47.785
C16        45.000                                                                                                                                    39288535.122 5 204585728.17905       217.065 5        32.982    39288532.389 5 158198619.74405       167.683 5        31.698
C09        46.000                                                                                                                                    39857277.788 4                       687.623 4        27.605    39857278.765 5                       531.562 5        32.850
C32        47.000                                                                                                                                    22902858.937 7 119261268.53407     -2800.153 7        47.332                                                                    22902857.692 7  96909567.17807     -2275.440 7        44.825
C35        51.000                                                                                                                                    25310383.052 7 131797991.87607      2171.367 7        45.994                                                                    25310378.620 6 107096520.29406      1764.325 6        37.025
I09        54.000    37118982.418 7 145662857.22307      -583.365 7        44.910
C20        55.000                                                                                                                                    22120347.052 8 115186449.81908       434.274 8        48.798                                                                    22120343.835 8  93598504.08108       352.839 8        48.636
C30        58.000                                                                                                                                    23391388.048 5 121805254.69405     -3622.826 5        34.410                                                                    23391391.741 5                     -2943.899 5        35.648
> 2025 01 01 00 16 55.0000000  0 38
E19         1.000                                                                                                                                    26104164.994 4                     -2376.209 4        25.895    26104167.468 3                     -2437.853 3        23.314
G32         2.000    23155448.014 5 121682918.67205     -3455.708 5        31.872                                    23155438.385 1  94817698.19101     -2692.743 1        11.407
G21         3.000    21272121.049 7 111785735.76207     -2425.172 7        46.097                                    21272117.062 4  87105702.20904     -1889.739 4        25.774
G14         4.000                                                                                                                                                                    25058887.382 3                     -2451.873 3        20.119
G02         5.000    20680529.053 7 108677095.25807     -1019.453 7        45.818                                    20680522.678 5  84683313.85505      -794.385 5        32.772
E04         7.000    23793417.818 7 125035245.30307      -317.174 7        44.241                                                                    23793416.869 8  93370467.57608      -236.878 8        51.565    23793414.166 7  95806218.81907      -243.066 7        47.521
G03         8.000    20686439.721 7 108708027.22607       962.380 7        43.831                                    20686436.397 7  84707563.97807       749.904 7        42.531    20686438.071 7  84707563.97107       749.840 7        44.968
E02         9.000    27764390.452 4 145902841.12304     -2838.689 4        28.948                                                                    27764381.145 4 108953470.07604     -2119.804 4        27.928    27764382.055 4 111795671.38004     -2175.240 4        29.346
E12        10.000    26605869.245 5 139814797.35105     -3205.162 5        33.443                                                                    26605867.206 5 104407148.29605     -2393.540 5        33.784    26605864.985 6 107130877.33306     -2456.035 6        37.486
G04        11.000    23948235.025 4                      2943.284 4        25.504                                                                                                    23948224.877 5  98063985.93705      2293.733 5        34.524
E09        12.000    25714529.266 5 135130742.59205      1993.665 5        33.048                                                                    25714505.789 5 100909300.91805      1488.492 5        34.867    25714504.006 6 103541674.66906      1527.304 6        37.546
E10        13.000    24576756.691 6 129151737.27606     -2483.255 6        40.029                                                                    24576757.699 7  96444479.88907     -1854.396 7        44.116    24576758.066 7  98960446.50707     -1902.750 7        46.822
E06        14.000    24235115.775 6 127356436.07606      1090.238 6        39.000                                                                    24235112.599 7  95103818.29007       814.164 7        43.245    24235112.487 6  97584748.33906       835.352 6        38.802
E11        15.000    23290402.555 7 122391884.26707     -1200.706 7        42.235                                                                    23290397.506 6  91396526.92706      -896.494 6        40.505    23290397.992 7  93780782.79207      -919.960 7        46.470
G19        16.000    24693295.697 4 129764192.98704      2668.775 4        28.000                                    24693293.855 1 101114897.96701      2079.568 1        11.333
E30        17.000    28456326.383 5 149539003.86705      -793.360 5        32.383                                                                    28456337.150 5                      -592.635 5        31.615
E36        20.000    24805030.931 6 130351314.03606      1114.467 6        40.393                                                                    24805030.126 6  97340257.93006       832.375 6        40.703    24805030.947 7  99879595.97607       853.975 7        47.164
G08        21.000    24268848.482 4                     -4523.720 4        24.782                                                                                                    24268832.736 4                     -3523.770 4        24.707
G17        22.000    22829512.992 7 119970103.99307      1051.204 7        44.199                                    22829504.919 6  93482980.91406       819.119 6        38.249    22829506.123 6  93483023.90806       818.934 6        37.985
S23        24.000    38156737.016 6 200514960.25206      -823.964 6        40.684
S36        25.000    38204930.434 6 200768066.29106      -826.705 6        36.514
R20        27.000    19162978.858 6 102473059.94306      -897.228 6        38.411                                                                    19162981.231 7  79701237.11607      -697.932 7        42.474
R04        28.000    21032074.745 8 112625734.18208     -4192.623 8        49.623                                                                    21032064.164 6  87597824.12106     -3260.949 6        36.786
R12        32.000    24031589.808 5                     -2275.754 5        30.891                                                                    24031584.627 4                     -1770.325 4        24.361
C19        33.000                                                                                                                                                                                                                                                                    25453891.843 5 107703802.67905      1828.579 5        35.214
R21        34.000    21410881.600 7 114574012.25307      2690.425 7        46.956                                                                    21410879.604 7  89113216.07307      2092.467 7        45.797
R19        35.000                                                                                                                                    22549053.528 4                     -3681.569 4        26.228
R05        36.000    19074311.248 8 101963238.25208      -682.247 8        48.707                                                                    19074311.194 7  79304638.07007      -530.669 7        46.338
C39        38.000                                                                                                                                    39069965.666 4 203447639.57204      -197.529 4        28.758                                                                    39069961.862 4 165317795.72304      -160.683 4        29.365
C06        41.000                                                                                                                                                                                                    38960253.739 6 156876782.64706       262.057 6        36.495
C29        43.000                                                                                                                                    21771936.886 8 113372077.83408      -572.284 8        49.913                                                                    21771933.963 7  92124213.39307      -465.182 7        47.623
C16        45.000                                                                                                                                    39288327.745 5 204584645.53405       215.939 5        32.958    39288324.202 5 158197782.59605       166.726 5        30.204
C09        46.000                                                                                                                                    39856619.780 4                       686.564 4        26.371    39856617.412 5                       531.026 5        32.467
C32        47.000                                                                                                                                    22905547.938 7 119275272.56107     -2801.553 7        46.769                                                                    22905547.007 7  96920946.60007     -2276.625 7        44.537
C35        51.000                                                                                                                                    25308298.338 7 131787136.90507      2170.597 7        45.762                                                                    25308294.642 6 107087699.74406      1763.607 6        37.410
I09        54.000    37119725.720 7 145665774.13207      -583.537 7        44.685
C20        55.000                                                                                                                                    22119931.224 8 115184283.19208       432.297 8        49.289                                                                    22119927.694 8  93596743.51608       351.112 8        48.402
C30        58.000                                                                                                                                    23394869.086 5 121823371.79605     -3624.094 5        34.829                                                                    23394870.737 6                     -2945.015 6        36.620
> 2025 01 01 00 17  0.0000000  0 37
E19         1.000    26107205.315 4 137194289.23414     -3182.917 4        29.374                                                                    26107190.632 4                     -2376.590 4        24.602    26107193.992 3                     -2437.554 3        23.676
G32         2.000    23158737.018 5 121700204.88405     -3458.441 5        31.721                                    23158727.849 1  94831167.93801     -2694.898 1         9.905
G21         3.000    21274429.032 7 111797866.30407     -2427.252 7        45.555                                    21274425.242 4  87115154.56604     -1891.367 4        25.534
G02         5.000    20681500.122 7 108682198.45207     -1022.040 7        45.046                                    20681493.480 5  84687290.35905      -796.396 5        32.515
E04         7.000    23793720.840 7 125036837.45107      -319.755 7        44.397                                                                    23793719.786 8  93371656.52508      -238.834 8        51.375    23793717.520 7  95807438.78707      -245.062 7        47.449
G03         8.000    20685524.776 7 108703220.44507       960.156 7        43.575                                    20685522.076 7  84703818.43307       748.173 7        42.578    20685523.005 7  84703818.42507       748.187 7        44.707
E02         9.000    27767091.801 4 145917038.60704     -2840.898 4        29.374                                                                    27767082.050 4 108964071.99904     -2120.731 4        26.623    27767083.377 4 111806549.92404     -2176.086 4        29.659
E12        10.000    26608919.176 5 139830826.25205     -3206.293 5        32.437                                                                    26608917.120 5 104419117.89505     -2394.098 5        33.916    26608915.000 6 107143159.19706     -2456.806 6        36.405
G04        11.000    23945428.558 3                      2943.742 3        22.343                                                                                                    23945424.242 5  98052519.27005      2292.864 5        34.495
E09        12.000    25712634.520 5 135120779.09605      1991.813 5        31.291                                                                    25712609.711 5 100901860.66305      1487.488 5        34.405    25712608.450 6 103534040.32706      1526.252 6        37.618
E10        13.000    24579120.598 6 129164157.32606     -2484.971 6        38.471                                                                    24579121.213 7  96453754.59007     -1855.593 7        44.132    24579121.290 7  98969963.15107     -1903.968 7        46.604
E06        14.000    24234079.495 6 127350989.72106      1088.005 6        39.568                                                                    24234076.271 7  95099751.22607       812.565 7        42.686    24234075.566 6  97580575.16206       833.792 6        38.790
E11        15.000    23291545.707 6 122397891.53306     -1202.445 6        41.926                                                                    23291540.947 6  91401012.87906      -897.987 6        40.503    23291541.173 7  93785385.76407      -921.331 7        46.637
G19        16.000    24690757.955 4 129750851.21204      2667.325 4        27.473                                    24690755.154 1 101104501.75801      2078.509 1         9.714
E30        17.000    28457083.981 5 149542977.85305      -796.325 5        32.784                                                                    28457092.457 5                      -594.435 5        30.868    28457116.041 4                      -609.932 4        28.028
G28        18.000    23794484.968 3                      1137.857 3        21.929
E36        20.000    24803971.347 6 130345743.58506      1113.511 6        40.181                                                                    24803970.168 6  97336098.18506       831.477 6        40.679    24803970.679 7  99875327.71607       853.151 7        46.904
G08        21.000    24273149.275 3                     -4523.312 3        23.714                                                                                                    24273136.082 4                     -3524.634 4        25.669
G17        22.000    22828514.658 7 119964854.71707      1048.411 7        45.374                                    22828506.169 6  93478890.56906       816.945 6        38.793    22828507.769 6  93478933.57306       816.880 6        37.055
S23        24.000    38157520.664 6 200519080.55206      -824.348 6        40.775
S36        25.000    38205713.679 6 200772200.87806      -827.265 6        36.715
R20        27.000    19163821.150 6 102477556.42106      -901.485 6        38.468                                                                    19163822.155 7  79704734.35607      -700.996 7        42.741
R04        28.000    21035988.436 8 112646702.16108     -4194.727 8        48.405                                                                    21035978.683 5  87614132.51005     -3262.463 5        35.671
C19        33.000                                                                                                                                                                                                                                                                    25451729.831 5 107694661.14305      1827.827 5        35.095
R21        34.000    21408368.453 8 114560565.20408      2688.333 8        48.121                                                                    21408366.742 7  89102757.25207      2090.981 7        45.865
R19        35.000    22553478.014 3                     -4730.171 3        20.214                                                                    22553481.325 4                     -3683.176 4        24.015
R05        36.000    19074952.316 8 101966659.53508      -686.377 8        49.265                                                                    19074951.007 7  79307299.05507      -533.857 7        46.013
C39        38.000                                                                                                                                    39070157.813 4 203448631.45204      -198.617 4        28.938                                                                    39070152.165 4 165318601.68604      -162.109 4        29.801
C06        41.000                                                                                                                                                                                                    38959928.524 6 156875473.19206       261.551 6        36.291
C29        43.000                                                                                                                                    21772487.592 8 113374946.22408      -575.251 8        49.552                                                                    21772484.695 7  92126544.19907      -467.513 7        47.334
C16        45.000                                                                                                                                    39288118.447 5 204583567.56905       214.419 5        32.437    39288116.263 4 158196949.05504       165.816 4        29.431
C09        46.000                                                                                                                                    39855960.779 4                       685.741 4        26.647    39855958.537 5                       530.506 5        32.198
C32        47.000                                                                                                                                    22908238.641 7 119289284.41707     -2803.474 7        46.378                                                                    22908237.877 7  96932332.38507     -2278.095 7        44.284
C35        51.000                                                                                                                                    25306214.791 7 131776286.95807      2169.250 7        45.797                                                                    25306211.418 6 107078883.29206      1762.546 6        37.894
I09        54.000    37120469.294 7 145668692.24707      -583.937 7        44.724
C20        55.000                                                                                                                                    22119517.505 8 115182127.49408       429.816 8        49.875                                                                    22119513.551 8  93594991.84008       349.172 8        48.107
C30        58.000                                                                                                                                    23398350.891 5 121841496.81405     -3625.825 5        34.086                                                                    23398351.257 6  99006092.87016     -2946.429 6        37.467
> 2025 01 01 00 17  5.0000000  0 38
E19         1.000    26110230.144 4 137210207.17404     -3184.423 4        29.659                                                                    26110217.746 3                     -2378.422 3        23.676    26110221.866 3                     -2438.320 3        23.029
G32         2.000    23162027.890 5 121717500.45505     -3460.453 5        30.347                                    23162019.138 1  94844645.02301     -2696.467 1        10.296
G21         3.000    21276738.903 7 111810005.77807     -2429.104 7        44.643                                    21276734.915 4  87124613.88004     -1892.804 4        24.887
G14         4.000    25064878.182 4                     -3149.281 4        28.654
G02         5.000    20682473.607 7 108687312.74607     -1024.362 7        44.041                                    20682466.385 5  84691275.51105      -798.206 5        32.257
E04         7.000    23794025.397 7 125038441.34607      -322.319 7        44.457                                                                    23794025.015 8  93372854.23408      -240.693 8        51.209    23794022.884 7  95808667.73207      -246.952 7        47.461
G03         8.000    20684611.584 7 108698423.35407       958.168 7        42.741                                    20684609.525 7  84700080.43407       746.623 7        42.559    20684609.940 7  84700080.42807       746.591 7        44.980
E02         9.000    27769792.848 4 145931243.26304     -2841.992 4        29.393                                                                    27769785.454 4 108974679.40604     -2122.251 4        26.491    27769786.470 4 111817434.01004     -2177.651 4        29.393
E12        10.000    26611970.934 5 139846859.41405     -3207.158 5        32.156                                                                    26611967.887 5 104431090.72605     -2395.006 5        33.802    26611966.283 5 107155444.34305     -2457.550 5        35.695
G04        11.000    23942623.992 3                      2939.171 3        18.896                                                                                                    23942624.614 5  98041054.92805      2292.341 5        34.167
E09        12.000    25710740.827 4 135110821.35504      1990.467 4        29.554                                                                    25710715.055 5 100894424.78605      1486.341 5        34.010    25710713.885 6 103526410.46206      1525.332 6        37.346
E10        13.000    24581486.321 6 129176583.80206     -2486.265 6        38.009                                                                    24581485.972 7  96463034.12207     -1856.640 7        44.342    24581485.798 7  98979484.75207     -1905.120 7        46.586
E06        14.000    24233045.120 6 127345552.82506      1086.159 6        40.527                                                                    24233041.393 6  95095691.21806       811.078 6        41.919    24233040.964 6  97576409.22106       832.252 6        39.252
E11        15.000    23292690.418 7 122403906.41007     -1203.981 7        42.006                                                                    23292685.565 6  91405504.50506      -899.216 6        40.822    23292685.760 7  93789994.56507      -922.574 7        46.891
G19        16.000    24688219.321 4 129737516.25004      2666.510 4        25.278                                    24688217.643 1 101094110.85101      2077.833 1         9.429
E30        17.000    28457842.639 5 149546963.66005      -798.827 5        32.958                                                                    28457849.534 5                      -596.067 5        30.106    28457867.198 4                      -611.442 4        28.227
G28        18.000    23793408.260 3                      1137.154 3        22.781
E36        20.000    24802912.253 6 130340177.15306      1112.456 6        40.429                                                                    24802911.057 6  97331941.42606       830.759 6        40.610    24802911.256 7  99871062.51407       852.469 7        46.715
G08        21.000    24277448.414 3                     -4522.834 3        23.848                                                                                                    24277440.824 4                     -3525.543 4        24.451
G17        22.000    22827517.532 7 119959617.90807      1045.783 7        46.577                                    22827509.833 6  93474809.93506       814.896 6        39.348    22827511.567 6  93474852.93606       814.789 6        36.907
S23        24.000    38158304.606 6 200523200.95706      -824.452 6        40.775
S36        25.000    38206501.776 6 200776336.74206      -827.503 6        36.756
R20        27.000    19164666.059 6 102482071.68906      -905.103 6        39.444                                                                    19164666.649 7  79708246.23007      -704.128 7        43.725
R04        28.000    21039900.754 7 112667679.38807     -4196.733 7        47.632                                                                    21039897.263 6  87630448.15506     -3264.082 6        36.219
R12        32.000                                                                                                                                    24035870.806 4                     -1775.644 4        28.322
C19        33.000                                                                                                                                    25449578.224 5 132522717.72505      2248.070 5        33.713                                                                    25449571.883 5 107685523.12005      1827.264 5        35.390
R21        34.000    21405856.352 7 114547126.34007      2686.601 7        47.958                                                                    21405855.461 7  89092304.80207      2089.570 7        45.506
R05        36.000    19075596.043 8 101970100.23408      -690.454 8        49.727                                                                    19075594.067 7  79309975.14707      -536.914 7        45.549
C39        38.000                                                                                                                                    39070348.783 4 203449628.38504      -199.919 4        28.275                                                                    39070343.687 4 165319411.71004      -162.887 4        29.431
C06        41.000                                                                                                                                                                                                    38959603.947 6 156874167.21006       260.382 6        36.095
C29        43.000                                                                                                                                    21773040.653 8 113377827.95208      -578.021 8        48.840                                                                    21773037.916 7  92128885.80107      -469.476 7        46.981
C16        45.000                                                                                                                                    39287910.043 5 204582494.07505       214.054 5        32.287    39287908.887 4 158196118.97404       165.586 4        28.588
C09        46.000                                                                                                                                    39855304.765 4                       685.549 4        26.994    39855300.135 5                       530.304 5        32.180
C32        47.000                                                                                                                                    22910930.194 7 119303303.94807     -2804.996 7        45.753                                                                    22910930.245 7  96943724.36807     -2279.129 7        44.131
C35        51.000                                                                                                                                    25304132.306 7 131765441.80007      2168.262 7        45.511                                                                    25304129.059 6 107070070.71306      1761.999 6        38.871
I09        54.000    37121213.242 7 145671611.46607      -584.190 7        44.664
C20        55.000                                                                                                                                    22119106.126 8 115179982.60608       427.539 8        50.148                                                                    22119101.460 7  93593248.90307       347.622 7        47.620
C30        58.000                                                                                                                                    23401834.633 5 121859629.58605     -3627.658 5        33.186                                                                    23401833.378 6  99020827.25006     -2947.735 6        37.807
> 2025 01 01 00 17 10.0000000  0 38
E19         1.000    26113259.633 5 137226131.72905     -3185.414 5        30.611                                                                    26113244.713 3                     -2378.471 3        21.143    26113253.022 3                     -2440.998 3        22.762
G32         2.000    23165317.569 4 121734805.30504     -3461.937 4        26.826                                    23165312.228 1  94858129.36301     -2697.587 1        10.815    23165316.240 5                     -2697.630 5        33.371
G21         3.000    21279050.774 7 111822153.98507     -2430.596 7        44.382                                    21279046.167 4  87134080.00504     -1893.967 4        24.526
G14         4.000    25067881.208 4                     -3150.528 4        25.323                                                                                                    25067885.208 5                     -2454.957 5        30.581
G02         5.000    20683449.342 7 108692438.00707     -1026.222 7        43.994                                    20683441.404 5  84695269.21305      -799.650 5        32.174
E04         7.000    23794332.626 7 125040056.84007      -324.291 7        44.609                                                                    23794332.355 8  93374060.60708      -242.157 8        51.012    23794330.426 7  95809905.57807      -248.427 7        47.629
G03         8.000    20683700.057 7 108693635.77307       956.509 7        42.392                                    20683698.745 7  84696349.85207       745.338 7        42.489    20683698.657 7  84696349.83907       745.367 7        45.081
E02         9.000    27772497.270 5 145945455.01305     -2842.899 5        30.875                                                                    27772488.911 4 108985292.06004     -2122.950 4        26.383    27772490.893 5 111828323.57205     -2178.663 5        30.060
E12        10.000    26615022.645 5 139862896.69405     -3207.890 5        32.240                                                                    26615019.492 5 104443066.61705     -2395.629 5        34.038    26615018.058 5 107167732.65205     -2457.939 5        35.133
G04        11.000                                                                                                                                                                    23939824.647 5  98029592.87905      2292.069 5        34.243
E09        12.000    25708847.175 4 135100869.30104      1989.559 4        29.450                                                                    25708821.326 5 100886993.14805      1485.974 5        33.772    25708820.404 6 103518784.97306      1524.640 6        37.388
E10        13.000    24583852.543 6 129189016.61506     -2487.303 6        38.417                                                                    24583851.925 7  96472318.36007     -1857.364 7        44.647    24583851.685 7  98989011.18807     -1905.817 7        46.617
E06        14.000    24232012.283 6 127340125.24806      1084.564 6        41.097                                                                    24232008.219 6  95091638.16406       809.848 6        40.701    24232008.025 6  97572250.42606       830.902 6        39.829
E11        15.000    23293836.587 7 122409928.71407     -1205.312 7        42.510                                                                    23293831.792 6  91410001.65206      -899.883 6        40.949    23293831.825 7  93794609.05107      -923.387 7        47.051
G19        16.000    24685671.382 3                      2663.760 3        20.310
E30        17.000    28458604.078 5 149550961.35905      -800.808 5        33.168                                                                    28458607.939 4                      -598.064 4        28.265
G28        18.000    23792337.015 3                      1129.162 3        19.940
E36        20.000    24801853.969 6 130334614.56906      1111.945 6        41.256                                                                    24801852.635 6  97327787.53306       830.520 6        40.579    24801852.567 7  99866800.27607       852.089 7        46.504
G08        21.000    24281752.748 4                     -4523.386 4        24.000                                                                                                    24281745.843 4                     -3525.545 4        25.338
G17        22.000    22826523.183 7 119954393.39107      1043.606 7        47.310                                    22826515.881 6  93470738.88906       813.199 6        40.102    22826517.629 6  93470781.88506       813.247 6        37.766
S23        24.000    38159088.075 6 200527321.32406      -824.196 6        40.813
S36        25.000    38207290.073 6 200780472.25406      -827.492 6        36.594
R20        27.000    19165513.383 6 102486605.68206      -908.659 6        40.410                                                                    19165514.349 7  79711772.66907      -706.805 7        43.960
R04        28.000    21043819.822 7 112688665.75907     -4198.218 7        47.805                                                                    21043816.364 6  87646770.89506     -3265.195 6        38.150
R12        32.000    24038012.877 3                     -2286.879 3        23.486                                                                    24038005.903 3                     -1781.206 3        23.714
C19        33.000                                                                                                                                    25447421.549 5 132511476.24005      2247.765 5        35.181                                                                    25447413.641 5 107676388.56205      1826.673 5        35.405
R21        34.000    21403345.849 8 114533695.62508      2685.310 8        48.047                                                                    21403345.147 7  89081858.69007      2088.562 7        45.076
R05        36.000    19076242.970 8 101973560.10208      -693.962 8        49.983                                                                    19076241.589 7  79312666.17207      -539.738 7        45.201
C39        38.000                                                                                                                                    39070539.742 4 203450630.23904      -200.939 4        27.928                                                                    39070536.151 5 165320225.86405      -163.721 5        30.045
C06        41.000                                                                                                                                                                                                    38959280.194 5 156872864.54305       260.216 5        35.767
C29        43.000                                                                                                                                    21773596.302 8 113380722.85008      -580.305 8        48.679                                                                    21773593.664 7  92131238.17007      -471.510 7        46.689
C16        45.000                                                                                                                                    39287705.108 5 204581425.02305       213.331 5        32.557    39287702.817 4 158195292.32104       165.413 4        28.275
C09        46.000                                                                                                                                    39854650.035 4                       684.500 4        26.707    39854645.301 5                       529.492 5        31.962
C32        47.000                                                                                                                                    22913623.017 7 119317331.00907     -2806.215 7        44.855                                                                    22913624.187 7  96955122.53707     -2280.227 7        44.379
C35        51.000                                                                                                                                    25302050.367 7 131754601.30607      2167.574 7        45.380                                                                    25302047.726 6 107061261.97106      1761.186 6        40.157
I09        54.000    37121957.483 7 145674531.66107      -584.149 7        44.653
C20        55.000                                                                                                                                    22118696.912 8 115177848.36408       425.675 8        50.603                                                                    22118691.414 7  93591514.68507       345.951 7        47.437
C30        58.000                                                                                                                                    23405315.474 5 121877770.02205     -3628.805 5        33.269                                                                    23405316.647 6  99035567.87406     -2948.927 6        38.279
> 2025 01 01 00 17 15.0000000  0 37
E19         1.000    26116291.382 4 137242063.09404     -3186.949 4        29.924                                                                    26116273.687 3                     -2379.172 3        20.595    26116284.456 3                     -2441.870 3        23.010
G32         2.000    23168606.609 3                     -3463.148 3        23.124                                                                                                    23168620.353 5  94871619.07415     -2699.326 5        34.310
G21         3.000    21281364.628 7 111834311.08907     -2432.227 7        44.569                                    21281359.297 4  87143553.05104     -1895.243 4        24.226
G14         4.000    25070880.334 3                     -3152.135 3        21.119                                                                                                    25070884.527 5                     -2456.213 5        31.532
G02         5.000    20684427.481 7 108697574.46107     -1028.359 7        44.190                                    20684418.677 5  84699271.63805      -801.308 5        32.006
E04         7.000    23794642.347 7 125041684.17607      -326.642 7        44.468                                                                    23794641.929 8  93375275.82608      -243.929 8        50.893    23794640.146 7  95811152.49907      -250.315 7        47.689
G03         8.000    20682790.730 7 108688857.94007       954.611 7        43.433                                    20682789.718 6  84692626.86406       743.852 6        41.940    20682789.707 7  84692626.86607       743.838 7        44.718
E02         9.000    27775203.017 5 145959674.13305     -2844.715 5        30.800                                                                    27775195.240 4 108995910.22904     -2124.466 4        27.401    27775197.423 5 111839218.65305     -2179.229 5        30.883
E12        10.000    26618075.884 5 139878938.34105     -3208.887 5        31.585                                                                    26618072.087 5 104455045.75605     -2395.967 5        34.086    26618070.472 5 107180024.29005     -2458.600 5        34.652
G04        11.000                                                                                                                                                                    23937028.094 5  98018133.25405      2291.659 5        34.243
E09        12.000                                                                                                                                    25706928.719 5 100879565.97205      1484.808 5        33.796    25706928.109 6 103511164.03606      1523.803 6        37.198
E10        13.000    24586220.728 6 129201455.96206     -2488.359 6        39.691                                                                    24586219.073 7  96481607.49707     -1858.317 7        44.894    24586218.638 7  98998542.65007     -1906.752 7        46.586
E06        14.000    24230982.224 6 127334707.22506      1082.611 6        41.421                                                                    24230976.530 6  95087592.25306       808.365 6        39.444    24230977.001 6  97568098.94306       829.560 6        40.162
E11        15.000    23294984.003 7 122415958.73207     -1206.729 7        43.069                                                                    23294979.287 6  91414504.59206      -901.020 6        41.368    23294979.215 7  93799229.45707      -924.611 7        47.120
G19        16.000    24683140.054 4                      2663.585 4        25.654
E30        17.000    28459368.274 5 149554971.09905      -802.863 5        33.629                                                                    28459368.513 4                      -599.885 4        27.473    28459377.520 5                      -615.488 5        32.018
E36        20.000    24800796.282 6 130329056.07306      1111.263 6        41.418                                                                    24800794.852 6  97323636.71006       829.892 6        40.632    24800794.751 7  99862541.17707       851.476 7        46.247
G08        21.000    24286056.292 3                     -4524.104 3        22.952                                                                                                    24286050.213 4                     -3525.485 4        25.789
G17        22.000    22825531.258 7 119949181.47207      1041.099 7        47.378                                    22825524.424 6  93466677.65506       811.246 6        40.384    22825526.225 6  93466720.65106       811.382 6        38.985
S23        24.000    38159872.930 6 200531441.96206      -824.049 6        40.822
S36        25.000    38208076.431 6 200784608.51006      -827.350 6        36.907
R20        27.000    19166365.180 6 102491158.65506      -912.400 6        40.536                                                                    19166365.602 7  79715313.85207      -709.731 7        43.968
R04        28.000    21047743.071 8 112709661.45408     -4199.996 8        48.206                                                                    21047738.004 6  87663100.89106     -3266.697 6        39.378
R12        32.000                                                                                                                                    24040150.753 3                     -1780.381 3        22.952
C19        33.000                                                                                                                                    25445262.017 6 132500239.25006      2247.026 6        36.019                                                                    25445255.328 5 107667257.61105      1825.878 5        35.095
R21        34.000    21400838.367 8 114520273.26508      2683.669 8        48.736                                                                    21400836.251 7  89071419.08507      2087.251 7        44.391
R05        36.000    19076894.081 8 101977039.52608      -697.790 8        50.326                                                                    19076892.247 7  79315372.39207      -542.793 7        44.436
C39        38.000                                                                                                                                    39070732.902 4 203451637.27804      -201.770 4        26.180                                                                    39070729.501 4 165321044.16304      -164.104 4        29.820
C06        41.000                                                                                                                                                                                                    38958957.091 5 156871565.40605       259.620 5        34.995
C29        43.000                                                                                                                                    21774154.872 8 113383631.17308      -582.969 8        48.783                                                                    21774151.865 7  92133601.43007      -473.714 7        46.263
C16        45.000                                                                                                                                    39287500.380 5 204580360.58305       212.532 5        32.365    39287496.614 4 158194469.32004       163.732 4        27.665
C09        46.000                                                                                                                                    39853994.884 4                       683.899 4        26.946    39853990.593 5                       528.990 5        32.138
C32        47.000                                                                                                                                    22916317.172 7 119331365.83107     -2807.660 7        44.012                                                                    22916319.498 7  96966526.98407     -2281.604 7        44.369
C35        51.000                                                                                                                                    25299969.923 7 131743765.76207      2166.727 7        45.424                                                                    25299967.926 6 107052457.23506      1760.454 6        41.061
I09        54.000    37122701.705 7 145677453.04207      -584.378 7        44.694
C20        55.000                                                                                                                                    22118289.735 8 115175724.99608       423.643 8        51.019                                                                    22118283.434 7  93589789.27707       344.208 7        46.759
C30        58.000                                                                                                                                    23408796.653 5 121895918.29505     -3630.237 5        34.790                                                                    23408801.388 6  99050314.85406     -2949.990 6        38.553
> 2025 01 01 00 17 20.0000000  0 38
E19         1.000    26119325.579 4 137258001.12104     -3188.160 4        28.531                                                                    26119307.097 3                     -2382.788 3        20.405    26119316.489 3                     -2443.836 3        21.595
G32         2.000    23171907.279 3                     -3465.348 3        23.943                                                                                                    23171916.216 5  94885118.04705     -2700.413 5        34.790
G21         3.000    21283679.782 7 111846477.19207     -2434.051 7        44.825                                    21283674.292 4  87153033.12304     -1896.659 4        24.030
G14         4.000                                                                                                                                                                    25073885.088 5                     -2456.884 5        30.604
G02         5.000    20685407.199 7 108702722.06307     -1030.589 7        44.345                                    20685398.298 5  84703282.75005      -803.056 5        31.864
E04         7.000    23794954.363 7 125043323.28307      -328.970 7        44.289                                                                    23794953.796 8  93376499.83108      -245.654 8        50.653    23794952.103 7  95812408.43707      -252.086 7        47.809
G03         8.000    20681882.923 7 108684089.81407       952.732 7        43.111                                    20681882.367 6  84688911.44406       742.387 6        41.013    20681882.094 7  84688911.45107       742.392 7        44.045
E02         9.000    27777908.039 4 145973900.46504     -2846.373 4        28.853                                                                    27777902.927 4 109006533.74104     -2125.314 4        26.503    27777904.473 5 111850119.34205     -2180.656 5        31.155
E12        10.000    26621129.220 5 139894984.22505     -3209.722 5        31.147                                                                    26621125.582 5 104467028.10905     -2396.834 5        34.343    26621124.236 5 107192319.20005     -2459.062 5        33.910
G04        11.000                                                                                                                                                                    23934229.669 5  98006676.05105      2291.325 5        33.904
E09        12.000    25705040.155 6 135080983.00506      1987.566 6        36.824                                                                    25705037.503 5 100872143.19805      1484.128 5        33.527    25705036.690 6 103503547.60206      1522.938 6        36.560
E10        13.000    24588589.736 6 129213901.82206     -2489.778 6        40.844                                                                    24588587.308 7  96490901.47907     -1859.245 7        45.073    24588586.982 7  99008079.07207     -1907.704 7        46.765
E06        14.000    24229953.308 6 127329298.68606      1080.769 6        40.927                                                                    24229946.981 6  95083553.40706       807.110 6        38.321    24229947.786 6  97563954.73806       828.118 6        40.584
E11        15.000    23296133.022 7 122421996.38107     -1208.224 7        43.814                                                                    23296128.177 6  91419013.22306      -902.288 6        41.487    23296128.147 7  93803855.71007      -925.836 7        47.241
E30        17.000    28460131.657 5 149558992.87605      -805.729 5        32.012                                                                    28460131.318 4                      -601.014 4        25.669    28460144.783 5                      -617.330 5        33.102
G28        18.000    23790168.851 3                      1130.388 3        23.010
E36        20.000    24799739.317 6 130323501.62606      1110.658 6        41.881                                                                    24799737.913 6  97319488.91106       829.296 6        40.553    24799737.614 7  99858285.17307       850.912 7        46.039
G08        21.000    24290360.653 3                     -4524.453 3        22.990                                                                                                    24290354.329 4                     -3525.312 4        26.659
G17        22.000    22824541.369 7 119943982.08107      1038.758 7        47.157                                    22824535.440 6  93462626.18606       809.421 6        40.582    22824537.275 6  93462669.17506       809.269 6        39.901
S23        24.000    38160656.966 6 200535562.74606      -824.255 6        40.889
S36        25.000    38208861.393 6 200788745.05306      -827.141 6        36.571
R20        27.000    19167219.657 6 102495730.53606      -916.160 6        40.632                                                                    19167219.868 7  79718869.77007      -712.610 7        43.625
R04        28.000    21051667.017 7 112730666.49507     -4201.856 7        47.729                                                                    21051660.505 6  87679438.13406     -3268.156 6        39.949
R12        32.000                                                                                                                                    24042304.604 3                     -1784.624 3        18.388
C19        33.000                                                                                                                                    25443106.762 5 132489006.61505      2246.043 5        35.681                                                                    25443097.771 5 107658130.20105      1825.352 5        34.576
R21        34.000    21398332.424 8 114506859.22708      2682.014 8        49.141                                                                    21398329.389 7  89060985.93007      2086.000 7        43.382
R19        35.000    22571196.850 3                     -4741.204 3        21.429                                                                    22571188.310 4                     -3688.605 4        24.797
R05        36.000    19077548.923 8 101980538.20108      -701.638 8        51.004                                                                    19077546.978 7  79318093.58207      -545.758 7        43.714
C39        38.000                                                                                                                                    39070925.052 4 203452649.40504      -202.857 4        25.113                                                                    39070924.653 4 165321866.62004      -165.292 4        29.972
C06        41.000                                                                                                                                                                                                    38958636.157 5 156870269.72605       258.915 5        33.880
C29        43.000                                                                                                                                    21774716.317 8 113386552.85808      -585.623 8        48.870                                                                    21774712.705 7  92135975.52907      -475.934 7        45.731
C16        45.000                                                                                                                                    39287297.432 5 204579300.69905       211.730 5        32.461    39287291.637 4 158193649.72604       163.756 4        26.228
C09        46.000                                                                                                                                    39853336.916 4                       683.083 4        27.545    39853336.793 5                       528.328 5        31.811
C32        47.000                                                                                                                                    22919013.807 7 119345408.33507     -2809.244 7        42.629                                                                    22919016.402 7  96977937.66107     -2282.771 7        44.394
C35        51.000                                                                                                                                    25297890.526 7 131732935.07307      2165.727 7        45.571                                                                    25297888.743 7 107043656.41407      1759.744 7        42.019
I09        54.000    37123446.560 7 145680375.54607      -584.646 7        44.429
C20        55.000                                                                                                                                    22117884.223 8 115173612.44408       421.496 8        51.158                                                                    22117877.439 7  93588072.64407       342.527 7        46.230
C30        58.000                                                                                                                                    23412283.712 6 121914074.32306     -3631.824 6        36.631                                                                    23412288.259 6  99065068.13306     -2951.193 6        38.643
> 2025 01 01 00 17 25.0000000  0 39
E19         1.000    26122361.731 4 137273946.11404     -3189.557 4        26.443                                                                    26122343.096 3                     -2382.132 3        20.048    26122347.864 3                     -2445.105 3        23.124
G32         2.000    23175212.492 4                     -3466.747 4        24.662                                                                                                    23175214.395 5  94898624.54705     -2702.007 5        34.971
G21         3.000    21285996.647 7 111858652.40707     -2435.782 7        44.662                                    21285991.277 4  87162520.29704     -1898.015 4        24.391
G14         4.000                                                                                                                                                                    25076888.498 4                     -2457.936 4        29.469
G02         5.000    20686388.986 7 108707881.04307     -1032.788 7        44.518                                    20686380.271 5  84707302.72905      -804.768 5        31.751
E04         7.000    23795268.662 7 125044974.39007      -331.294 7        44.190                                                                    23795267.975 8  93377732.80108      -247.370 8        50.556    23795266.237 7  95813673.56907      -253.818 7        47.996
G03         8.000    20680976.728 7 108679331.63507       950.846 7        42.072                                    20680976.756 6  84685203.77106       740.919 6        40.036    20680976.488 7  84685203.78407       740.861 7        43.979
E02         9.000    27780616.686 4 145988134.25204     -2847.617 4        27.557                                                                    27780611.759 4 109017162.91704     -2126.668 4        26.036    27780613.429 5 111861025.76705     -2181.765 5        31.902
E12        10.000    26624183.750 5 139911034.66105     -3210.453 5        31.358                                                                    26624180.369 5 104479013.84005     -2397.441 5        34.738    26624179.019 5 107204617.65505     -2460.220 5        34.290
G04        11.000                                                                                                                                                                    23931432.053 5  97995221.45905      2290.858 5        34.148
E09        12.000    25703150.445 6 135071049.08506      1986.341 6        39.024                                                                    25703147.050 5 100864724.98105      1483.450 5        33.629    25703146.548 6 103495935.87406      1522.010 6        36.544
E10        13.000    24590958.775 7 129226354.40407     -2491.077 7        42.250                                                                    24590956.950 7  96500200.47607     -1860.190 7        45.267    24590956.647 7  99017620.66307     -1908.802 7        46.942
E06        14.000    24228925.841 6 127323899.86106      1078.987 6        39.580                                                                    24228919.608 6  95079521.84106       805.616 6        36.526    24228920.425 6  97559817.97406       826.735 6        40.942
E11        15.000    23297283.526 7 122428041.89007     -1209.822 7        44.357                                                                    23297278.610 6  91423527.73906      -903.620 6        41.843    23297278.570 7  93808487.98907      -926.989 7        47.206
G19        16.000    24678095.322 5                      2660.870 5        31.857
E30        17.000    28460897.474 5 149563026.75005      -808.024 5        30.634                                                                    28460898.053 4                      -604.168 4        24.391    28460912.690 5 114600303.30715      -618.900 5        34.643
G28        18.000    23789100.200 3                      1127.388 3        22.762
E36        20.000    24798683.510 7 130317951.46207      1109.773 7        42.417                                                                    24798681.829 6  97315344.31406       828.656 6        40.293    24798681.424 7  99854032.44907       850.287 7        45.756
G08        21.000    24294665.037 3                     -4524.441 3        22.133                                                                                                    24294659.540 4                     -3525.398 4        26.707
G17        22.000    22823554.262 7 119938795.47307      1036.240 7        46.861                                    22823549.013 6  93458584.67806       807.459 6        40.605    22823550.422 6  93458627.66606       807.313 6        40.603
S23        24.000    38161441.798 6 200539683.97706      -824.332 6        40.882
S36        25.000    38209650.947 6 200792881.39206      -827.112 6        36.662
R20        27.000    19168077.287 6 102500321.56406      -920.025 6        40.644                                                                    19168078.376 7  79722440.54807      -715.574 7        43.287
R04        28.000    21055590.723 7 112751680.92007     -4203.731 7        46.366                                                                    21055585.400 6  87695782.70506     -3269.541 6        40.186
R12        32.000    24044403.863 3                     -2297.394 3        22.933
C19        33.000                                                                                                                                    25440956.923 5 132477778.60805      2245.249 5        34.619                                                                    25440941.415 5 107649006.59005      1824.330 5        33.737
R21        34.000    21395827.012 8 114493453.73008      2680.301 8        48.918                                                                    21395824.423 7  89050559.43007      2084.703 7        43.145
R19        35.000    22575631.153 4                     -4743.287 4        24.436                                                                    22575623.480 4                     -3689.546 4        26.587
R05        36.000    19078207.359 8 101984056.54008      -705.566 8        50.937                                                                    19078205.403 7  79320830.05307      -548.738 7        44.077
C39        38.000                                                                                                                                    39071114.976 3                      -204.949 3        21.548                                                                    39071119.835 5 165322693.38005      -165.511 5        30.015
C06        41.000                                                                                                                                                                                                    38958316.007 5 156868977.74605       257.931 5        33.425
C29        43.000                                                                                                                                    21775280.000 8 113389488.13608      -588.319 8        48.363                                                                    21775276.300 7  92138360.68607      -478.135 7        44.928
C16        45.000                                                                                                                                    39287094.047 5 204578245.62805       210.711 5        32.377    39287088.311 4 158192833.93704       162.614 4        26.048
C09        46.000                                                                                                                                    39852682.490 4                       682.724 4        27.928    39852682.903 5                       527.828 5        32.072
C32        47.000                                                                                                                                    22921712.316 6 119359458.72406     -2810.661 6        41.194                                                                    22921714.621 7  96989354.76207     -2283.982 7        44.418
C35        51.000                                                                                                                                    25295811.824 7 131722109.52207      2164.646 7        45.375                                                                    25295810.038 7 107034859.77807      1758.934 7        42.555
I09        54.000    37124191.689 7 145683299.32507      -584.775 7        44.390
C20        55.000                                                                                                                                    22117480.423 8 115171510.95708       419.299 8        50.924                                                                    22117473.728 7  93586365.01207       340.621 7        45.330
C30        58.000                                                                                                                                    23415774.325 6 121932238.38606     -3633.691 6        38.550                                                                    23415776.345 6  99079827.94106     -2952.594 6        38.501
> 2025 01 01 00 17 30.0000000  0 39
E19         1.000    26125398.223 4 137289897.58804     -3190.701 4        24.466                                                                    26125381.193 3                     -2382.468 3        21.452    26125382.889 3                     -2445.519 3        22.533
G32         2.000                                                                                                                                                                    23178515.551 5  94912138.07905     -2703.118 5        35.724
G21         3.000    21288315.234 7 111870836.28507     -2437.566 7        44.343                                    21288309.880 4  87172014.22204     -1899.407 4        24.677
G14         4.000    25079886.513 3                     -3155.179 3        20.905                                                                                                    25079893.107 4                     -2459.092 4        28.673
G02         5.000    20687372.719 7 108713050.85007     -1034.960 7        44.990                                    20687364.430 5  84711331.13705      -806.460 5        31.758
E04         7.000    23795585.072 7 125046636.97207      -333.521 7        44.283                                                                    23795584.287 8  93378974.34308      -249.100 8        50.523    23795582.660 8  95814947.49508      -255.505 8        48.236
G03         8.000    20680072.862 6 108674582.86206       948.871 6        40.260                                    20680072.898 6  84681503.43006       739.377 6        38.883    20680073.236 7  84681503.44307       739.390 7        43.937
E02         9.000    27783328.362 4 146002374.93704     -2848.573 4        28.028                                                                    27783320.922 4 109027797.13504     -2127.111 4        26.587    27783323.603 5 111871937.44505     -2182.733 5        32.892
E12        10.000    26627238.717 5 139927089.07605     -3211.075 5        30.641                                                                    26627235.171 5 104491002.54405     -2397.885 5        35.271    26627234.387 5 107216919.06205     -2460.528 5        34.205
G04        11.000    23928658.462 4                      2939.849 4        24.541                                                                                                    23928635.732 5  97983769.10105      2290.206 5        34.162
E09        12.000    25701265.370 6 135061120.75506      1985.184 6        40.386                                                                    25701258.355 5 100857310.96905      1482.521 5        33.251    25701257.836 6 103488328.43106      1521.153 6        36.408
E10        13.000    24593329.483 7 129238813.16907     -2492.302 7        43.846                                                                    24593327.758 7  96509504.10607     -1861.188 7        45.699    24593327.425 7  99027166.98007     -1909.673 7        47.079
E06        14.000    24227899.584 6 127318510.26506      1077.096 6        38.084                                                                    24227893.700 5  95075497.14805       804.341 5        35.519    24227895.036 6  97555688.28306       825.329 6        41.416
E11        15.000    23298435.349 7 122434094.74807     -1211.206 7        44.888                                                                    23298430.397 6  91428047.72106      -904.450 6        41.995    23298430.426 7  93813125.90407      -928.114 7        47.282
G19        16.000    24675556.840 5                      2659.598 5        32.539
E30        17.000    28461667.034 5 149567072.28205      -810.219 5        30.377                                                                    28461668.460 4                      -605.239 4        25.158    28461680.510 6 114603403.09906      -620.627 6        36.166
G28        18.000    23788026.926 3                      1125.018 3        22.552
E36        20.000    24797628.133 7 130312405.05107      1108.987 7        43.255                                                                    24797626.354 6  97311202.50806       828.071 6        40.243    24797626.002 7  99849782.59707       849.774 7        45.378
G08        21.000    24298970.333 3                     -4524.438 3        22.648                                                                                                    24298965.167 4                     -3525.662 4        27.557
G17        22.000    22822569.997 7 119933621.12007      1033.715 7        46.415                                    22822564.970 6  93454552.71806       805.491 6        40.660    22822565.780 6  93454595.71006       805.459 6        41.168
S23        24.000    38162227.324 6 200543805.06406      -824.031 6        40.975
S36        25.000    38210436.879 6 200797016.98306      -826.946 6        36.711
R20        27.000    19168939.903 6 102504931.14006      -923.757 6        40.546                                                                    19168940.639 7  79726025.75107      -718.323 7        43.088
R04        28.000    21059515.892 7 112772704.27307     -4205.500 7        44.835                                                                    21059511.049 6  87712134.19006     -3270.849 6        39.985
R12        32.000                                                                                                                                    24046580.222 4                     -1790.218 4        24.692
C19        33.000                                                                                                                                    25438810.969 5 132466554.71005      2244.365 5        33.030                                                                    25438785.744 5 107639886.29205      1823.772 5        32.461
R21        34.000    21393323.360 8 114480056.27008      2678.818 8        48.526                                                                    21393321.078 7  89040139.17207      2083.579 7        43.299
R19        35.000    22580061.091 4                     -4744.705 4        24.752                                                                    22580060.886 4                     -3689.697 4        25.594
R05        36.000    19078868.802 8 101987594.02008      -709.337 8        51.037                                                                    19078867.439 7  79323581.43507      -551.611 7        44.032
C39        38.000                                                                                                                                    39071310.953 3                      -205.214 3        21.143                                                                    39071316.315 5 165323524.07105      -166.468 5        30.317
C06        41.000                                                                                                                                                                                                    38957996.845 5 156867688.97105       257.303 5        32.413
C29        43.000                                                                                                                                    21775845.533 7 113392436.49107      -590.871 7        47.585                                                                    21775842.547 7  92140756.46407      -480.214 7        44.339
C16        45.000                                                                                                                                    39286893.324 5 204577194.83205       209.748 5        32.790    39286887.647 4 158192021.31204       161.987 4        24.872
C09        46.000                                                                                                                                    39852027.325 4                       682.166 4        28.332    39852031.683 5                       527.470 5        33.096
C32        47.000                                                                                                                                    22924413.882 6 119373516.49806     -2812.244 6        40.725                                                                    22924414.443 7  97000777.86507     -2285.233 7        44.634
C35        51.000                                                                                                                                    25293733.450 7 131711288.54407      2163.830 7        45.514                                                                    25293732.023 7 107026066.86707      1758.084 7        42.821
I09        54.000    37124936.758 7 145686224.00907      -585.007 7        44.412
C20        55.000                                                                                                                                    22117078.761 8 115169419.98808       417.286 8        51.047                                                                    22117071.990 7  93584665.94007       338.984 7        44.480
C30        58.000                                                                                                                                    23419263.944 6 121950409.90406     -3634.930 6        40.148                                                                    23419265.849 6  99094593.81406     -2953.754 6        37.977
