     2.11           OBSERVATION DATA    M (MIXED)           RINEX VERSION / TYPE
teqc  2019Feb25                         20260317 16:18:01UTCPGM / RUN BY / DATE
Linux 2.4.21-27.ELsmp|Opteron|gcc -static|Linux 64|=+       COMMENT
BIT 2 OF LLI FLAGS DATA COLLECTED UNDER A/S CONDITION       COMMENT
-Unknown-                                                   MARKER NAME
-Unknown-           -Unknown-                               OBSERVER / AGENCY
-Unknown-           -Unknown-           -Unknown-           REC # / TYPE / VERS
-Unknown-           -Unknown-                               ANT # / TYPE
        0.0000        0.0000        0.0000                  APPROX POSITION XYZ
        0.0000        0.0000        0.0000                  ANTENNA: DELTA H/E/N
     1     1                                                WAVELENGTH FACT L1/2
     7    L1    L2    C1    P1    P2    S1    S2            # / TYPES OF OBSERV
 SNR is mapped to RINEX snr flag value [0-9]                COMMENT
  L1 & L2: min(max(int(snr_dBHz/6), 0), 9)                  COMMENT
  2025     1     1    20     0    0.0000000     GPS         TIME OF FIRST OBS
    18                                                      LEAP SECONDS
                                                            END OF HEADER
 25  1  1 20  0  0.0000000  0 30G21E31G07G02G30G08G13G27G04R19E33E24
                                R10E09G09E04R09G14S35S31E05E06S33R08
                                R11R21R01R20R02E26
 116567686.051 6  90831999.76542  22182087.705    22182086.3914   22182094.4584
        36.500          14.0004
 123490155.158 8                  23499384.341
        49.100
 106896245.049 8  83295727.25048  20341668.006    20341667.4614   20341668.6274
        48.900          48.4004
 121099736.983 6  94363472.43842  23044513.156    23044512.2494   23044519.8954
        41.300          16.6004
 111703147.094 7  87041414.01746  21256397.064    21256396.3944   21256400.1574
        43.700          41.6004
 109868713.216 6  85612043.19845  20907303.914    20907303.3964   20907311.5034
        39.200          32.8004
 127206608.748 6  99122033.82841  24206614.371    24206614.1304   24206612.9854
        38.800          11.3004






 140529697.112 5                  26741908.286
        32.000
 139038650.921 6                  26458179.790
        41.900
 108434624.828 5                  20342061.902    20342059.535
        35.900
 128734143.868 7                  24497297.294
        47.200
 121391757.948 6  94591034.27744  23100087.212    23100087.6324   23100101.4214
        41.200          27.8004
 135069686.823 6                  25702900.158
        39.000


 118227485.276 6  92125302.95143  22497932.705    22497932.4774   22497932.2314
        40.800          20.5004


 198899796.280 7                  37849393.557
        44.200
 132305078.285 7                  25176818.158
        44.800
 128904643.933 6                  24529748.815
        41.600
 202049428.645 7                  38448747.871
        45.400
                  93022990.028 6                                  22334638.731
                        37.400
 110233725.080 7  85737349.207 6  20628740.404    20628740.751    20628748.600
        43.400          41.500
 117086251.200 6  91067091.245 6  21880315.634    21880312.728    21880328.782
        38.800          39.000
 115704732.312 7                  21644973.340    21644977.171
        47.500
 109510262.318 6  85174677.748 7  20478971.751    20478971.739    20478978.396
        38.100          44.200
 126515940.032 6  98401325.037 5  23709032.205    23709029.119    23709044.034
        36.100          34.400
 140057695.021 5                  26652093.817
        31.500
 25  1  1 20  0 15.0000000  0 30G21E31G07G02G30G08G13G27G04R19E33E24
                                R10E09G09E04R09G14S35S31E05E06S33R08
                                R11R21R01R20R02E26
 116541232.983 5  90811387.10542  22177054.692    22177053.4544   22177060.1184
        33.700          12.5004
 123488430.586 7                  23499055.869
        47.700
 106891975.896 8  83292400.61548  20340856.031    20340855.4904   20340856.1514
        48.500          48.7004
 121060439.921 6  94332851.55643  23037037.299    23037036.3434   23037042.2474
        40.100          18.3004
 111671287.340 7  87016588.25546  21250333.643    21250333.0094   21250338.2564
        42.600          41.3004
 109901172.152 7  85637335.91545  20913481.958    20913481.5114   20913486.7334
        43.200          34.0004
 127161870.564 6  99087172.83642  24198101.705    24198101.4284   24198098.9264
        39.700          13.3004






 140490751.507 5                  26734498.474
        33.900
 139011483.932 6                  26453009.140
        41.600
 108450104.229 6                  20344964.399    20344963.925
        37.600
 128746042.639 7                  24499561.129
        46.300
 121444862.725 7  94632414.31944  23110193.073    23110193.4934   23110205.9384
        43.000          27.5004
 135112395.456 6                  25711028.941
        40.200


 118193745.187 6  92099012.03643  22491511.900    22491511.7044   22491512.8464
        41.600          20.5004


 198899787.597 7                  37849384.913
        43.300
 132277636.097 7                  25171595.886
        43.800
 128934205.742 7                  24535373.824
        42.400
 202049440.678 7                  38448741.410
        44.800
                  93066540.093 5                                  22345094.064
                        34.800
 110208258.714 7  85717542.043 7  20623976.695    20623977.619    20623983.331
        43.200          44.300
 117025475.188 6  91019821.377 6  21868954.427    21868954.230    21868971.827
        36.100          39.100
 115714559.431 7  90000270.796 5  21646807.392    21646809.986    21646814.693
        47.300          33.300
 109497200.435 6  85164518.482 6  20476527.856    20476529.710    20476534.739
        39.300          41.900
 126476379.179 5  98370555.418 5  23701616.951                    23701623.524
        30.600          32.400


 25  1  1 20  0 30.0000000  0 29G21E31G07G02G30G08G13G27G04E33E24R10
                                E09G09E04R09G14S35S31E05E06S33R08R11
                                R21R01R20R02E26
 116514905.528 5  90790872.12941  22172044.215    22172042.9104   22172049.9024
        34.700           6.1004
 123486747.226 8                  23498735.990
        49.100
 106887815.152 7  83289158.50547  20340063.645    20340063.0914   20340064.1914
        46.200          46.7004
 121021213.211 7  94302285.60443  23029572.835    23029571.8794   23029578.8404
        42.700          18.4004
 111639503.997 7  86991821.95846  21244285.762    21244285.1364   21244288.5894
        45.300          39.1004
 109933748.340 6  85662719.89945  20919678.116    20919677.6834   20919685.0644
        39.600          31.1004
 127117222.918 5  99052382.50141  24189601.364    24189601.0434   24189602.2804
        33.800          11.4004




 140451845.106 5                  26727091.750
        33.800
 138984347.585 6                  26447846.290
        40.600
 108465647.944 6                  20347882.228    20347880.729
        36.700
 128758052.290 8                  24501846.745
        48.600
 121498005.796 6  94673824.24844  23120304.901    23120305.2944   23120319.7384
        40.600          27.0004
 135155149.595 6                  25719162.721
        40.300


 118160047.219 6  92072753.91043  22485099.332    22485099.1674   22485099.4624
        40.800          20.8004


 198899783.930 7                  37849393.145
        45.100
 132250281.008 6                  25166389.590
        41.000
 128963853.132 7                  24541015.711
        45.500
 202049458.644 7                  38448742.492
        45.200
                  93110146.462 6                                  22355564.069
                        36.800
 110182836.800 6  85697769.578 6  20619219.503    20619220.546    20619223.315
        40.300          37.400
 116964780.701 6  90972614.935 6  21857613.409    21857615.505    21857631.023
        36.900          39.000
 115724582.563 7  90008066.593 5  21648683.634    21648684.365    21648693.387
        45.300          33.800
 109484349.479 6  85154523.321 6  20474124.030    20474124.617    20474129.633
        38.400          41.900
 126436967.557 6                  23694234.599    23694235.190
        38.000
 140032947.392 5                  26647383.807
        30.200
 25  1  1 20  0 45.0000000  0 29G21E31G07G02G30G08G13G27G04E33E24R10
                                E09G09E04R09G14S35S31E05E06S33R08R11
                                R21R01R20R02E26
 116488691.445 5  90770445.66841  22167053.090    22167051.7584   22167061.2614
        34.400           6.5004
 123485092.537 8                  23498421.035
        49.800
 106883750.410 7  83285991.16647  20339290.475    20339289.9254   20339290.9894
        44.400          46.3004
 120982044.458 6  94271764.82541  23022119.074    23022118.0914   23022126.1704
        38.000          11.5004
 111607784.768 7  86967105.66246  21238249.443    21238248.8174   21238251.8404
        44.500          40.4004
 109966428.929 6  85688185.31144  20925896.101    20925895.6054   20925902.4224
        40.300          27.1004
 127072653.576 6  99017653.15942  24181122.355    24181122.0384   24181121.1684
        39.600          14.3004
 124380990.523 5                  23668912.958
        31.200


 140412965.379 5                  26719695.934
        33.400
 138957229.261 7                  26442683.911
        44.200
 108481243.406 6                  20350811.540    20350810.415
        37.500
 128770160.144 8                  24504150.154
        48.300
 121551174.078 6  94715253.89543  23130423.440    23130423.8334   23130438.7694
        41.300          23.1004
 135197936.413 6                  25727303.802
        36.700


 118126378.751 6  92046518.67343  22478692.034    22478691.9544   22478692.9814
        41.400          21.9004


 198899774.050 7                  37849396.821
        45.500
 132223000.652 6                  25161198.570
        40.600
 128993573.478 7                  24546671.052
        46.400
 202049469.907 6                  38448744.741
        41.900
 119769112.047 4  93153798.732 6  22366039.367                    22366048.463
        28.300          40.600
 110157446.927 6  85678021.659 6  20614468.550    20614469.630    20614472.158
        41.900          37.100
 116904155.222 5  90925461.937 6  21846285.564    21846284.941    21846302.154
        33.400          41.000
 115734788.862 6  90016004.932 5  21650592.013    21650591.016    21650602.381
        41.200          34.900
 109471697.218 6  85144682.675 7  20471758.087    20471757.282    20471766.510
        37.300          43.800
 126397693.121 6                  23686872.276    23686873.052
        37.000


 25  1  1 20  1  0.0000000  0 26E31G07G02G30G08G13G27E33E24R10E09G09
                                E04R09G14S35S31E05E06S33R11R21R01R20
                                R02E26
 123483475.789 8                  23498113.619
        48.900
 106879791.150 7  83282906.02947  20338537.047    20338536.5024   20338537.6104
        46.200          46.3004
 120942943.431 6  94241296.68041  23014675.111    23014673.9854   23014685.6144
        36.500          11.9004
 111576139.371 7  86942446.93546  21232228.086    21232227.4384   21232229.5754
        47.000          39.6004


 127028172.336 7  98982992.49842  24172658.035    24172657.7094   24172656.8124
        42.900          16.9004
 124435155.094 5                  23679220.454
        30.300
 140374122.060 5                  26712303.098
        34.800
 138930138.184 6                  26437528.177
        38.500
                                                  20353737.052

 128782375.546 8                  24506475.269
        48.200


 135240764.670 5                  25735452.639
        34.500
 121988988.599 5                  22844617.569    22844618.705
        32.400
 118092749.047 6  92020313.81043  22472292.299    22472292.2644   22472294.1434
        40.600          20.2004
 200819115.873 6                  38214605.437
        36.100
 198899766.495 7                  37849388.316
        46.900
 132195804.424 6                  25156022.789
        41.800
 129023375.877 7                  24552342.286
        43.200
 202049484.155 7                  38448741.888
        43.900
 110132098.126 7                  20609722.107    20609723.786
        44.700


 115745187.426 6  90024092.725 5  21652535.442    21652535.063    21652546.606
        41.200          34.600
 109459252.988 6  85135003.844 7  20469430.303    20469430.428    20469440.309
        36.900          46.300
 126358565.771 6                  23679538.603    23679537.874
        36.800


 25  1  1 20  1 15.0000000  0 29G21E31G07G30G08G13G27R19G17E33E24R10
                                E09G09E04R09G14S35S31E05E06S33R08R11
                                R21R01R20R02E26
 116436589.824 5  90729840.90541  22157147.643    22157147.9204   22157153.8634
        30.900           9.6004
 123481888.563 8                  23497811.448
        49.900
 106875929.083 7  83279896.59847  20337801.868    20337801.3184   20337802.4984
        47.600          46.1004
 111544559.515 7  86917839.27446  21226218.585    21226217.9424   21226220.1624
        47.600          41.4004
 110032121.532 5  85739248.32944  20938399.458    20938398.8594   20938403.4554
        34.700          28.4004
 126983770.884 6  98948393.94043  24164208.280    24164207.9594   24164209.3584
        41.600          19.3004
 124489357.126 4                  23689534.968
        26.900


 126075762.857 4                  23991413.915
        28.200


 138903065.974 6                  26432376.199
        36.400
 108512575.763 4                  20356697.570
        29.900
 128794689.986 8                  24508819.402
        48.900
 121657604.427 5  94798187.88742  23150679.930    23150680.1314   23150690.6144
        35.600          14.0004
 135283626.477 5                  25743610.992
        33.700
 122027903.546 5                  22851911.351    22851915.271
        35.200
 118059149.816 6  91994132.62343  22465898.449    22465898.4234   22465900.0144
        39.800          19.1004
 200819090.808 6                  38214595.640
        36.400
 198899752.577 7                  37849385.655
        45.200
 132168684.200 7                  25150861.755
        43.100
 129053251.736 7                  24558026.537
        42.900
 202049491.291 7                  38448750.957
        43.700
                  93241254.453 6                  22387045.525    22387046.720
                        39.800
 110106782.417 7  85638604.057 5  20604985.672    20604986.169    20604986.152
        43.900          32.900
 116782865.252 6  90831334.392 6  21823670.517    21823670.587    21823678.990
        39.700          36.700
 115755769.582 6  90032323.276 5  21654516.293    21654516.672    21654523.842
        41.800          32.000
 109447008.590 6  85125480.440 7  20467143.825    20467142.738    20467150.561
        39.400          45.500
 126319577.405 6                  23672233.474    23672230.854
        37.200


 25  1  1 20  1 30.0000000  0 30G21E31G07G02G30G08G13G27G04R19G17E33
                                E24R10E09G09E04R09G14S35S31E05E06S33
                                R11R21R01R20R02E26
 116410741.124 4  90709699.4124   22152235.126    22152235.0594   22152233.4104
        29.700           4.6004
 123480342.814 8                  23497517.570
        50.100
 106872176.454 7  83276972.45847  20337087.378    20337086.8204   20337088.4654
        46.400          46.2004
 120864951.811 6  94180537.98241  22999834.268    22999834.5404   22999847.8674
        36.800          10.1004
 111513057.581 7  86893292.33746  21220223.651    21220223.0124   21220226.0774
        46.800          39.5004
 110065136.602 6  85764974.35845  20944683.867    20944683.4654   20944688.0354
        41.700          33.3004
 126939461.774 7  98913867.40743  24155777.442    24155777.0494   24155777.5234
        42.000          18.3004




                  98038778.141 5                                  23563692.826
                        31.600
 126021797.773 5  98198874.41341  23981144.362    23981144.7864   23981164.5454
        33.200           9.0004


 138876024.786 6                  26427231.088
        39.600
 108528350.627 6                  20359650.832    20359652.253
        39.000
 128807115.415 7                  24511182.745
        47.700
 121710869.367 6  94839692.58242  23160815.865    23160816.2314   23160824.6884
        37.900          14.5004
 135326532.936 6                  25751780.484
        38.600


 118025593.116 7  91967984.54243  22459515.358    22459515.3624   22459513.0074
        42.200          22.1004
 200819071.191 5                  38214589.576
        34.100
 198899745.321 7                  37849382.364
        44.300
 132141652.254 7                  25145717.456
        43.900
 129083212.901 7                  24563728.924
        42.900
 202049505.190 7                  38448750.469
        42.600
 110081511.899 8  85618949.365 6  20600259.189    20600259.020    20600259.732
        48.700          37.600
 116722473.691 6  90784363.440 6  21812387.590    21812385.141    21812398.120
        38.500          41.300
 115766547.334 7  90040705.893 5  21656533.335    21656533.534    21656539.846
        44.900          34.400
 109434976.547 6  85116122.193 7  20464892.423    20464892.353    20464899.918
        37.600          46.000
 126280740.359 5                  23664955.396    23664952.837
        34.800


 25  1  1 20  1 45.0000000  0 28E31G07G02G30G08G13G27G04G17E33E24R10
                                E09G09E04R09G14S35S31E05E06S33R08R11
                                R21R01R20E26
 123478832.196 8                  23497229.810
        49.100
 106868527.169 8  83274128.80247  20336394.096    20336393.5294   20336393.8034
        49.100          47.2004
 120826049.199 5  94150224.39741  22992430.724    22992431.1264   22992441.7964
        34.800          11.2004
 111481627.586 7  86868801.49847  21214243.307    21214242.6504   21214245.3764
        47.000          42.2004
 110098261.368 7  85790785.86545  20950987.058    20950986.5894   20950992.2094
        44.300          31.4004
 126895238.845 6  98879407.95743  24147362.905    24147362.4904   24147363.4194
        40.800          21.5004
 124597877.224 5                  23710190.129
        32.000


 125967868.345 6  98156851.86842  23970880.792    23970880.8274   23970904.4434
        36.100          14.9004


 138849008.115 6                  26422090.385
        39.200
 108544183.630 6                  20362619.874    20362619.953
        37.300
 128819645.464 7                  24513567.836
        47.700
 121764164.837 5  94881221.05742  23170953.508    23170953.9194   23170964.1724
        35.200          15.1004
 135369477.985 6                  25759948.184
        40.800
 122105821.214 5                  22866496.641    22866497.925
        32.100
 117992072.699 7  91941864.79443  22453134.928    22453134.9684   22453135.1104
        42.400          21.8004


 198899737.880 7                  37849379.569
        44.700
 132114702.363 7                  25140589.837
        43.800
 129113252.939 7                  24569445.946
        44.300
 202049519.129 7                  38448757.964
        43.800
 119994363.470 5  93328914.184 6  22408102.168                    22408113.218
        33.200          36.200
 110056280.505 7  85599324.980 7  20595536.908    20595535.730    20595541.794
        43.100          44.000
 116662160.431 6  90737453.442 6  21801124.177    21801113.938    21801127.350
        38.100          41.300
 115777514.117 7  90049235.601 6  21658585.920    21658585.669    21658592.714
        43.900          36.600
 109423150.635 6  85106924.314 7  20462680.933    20462679.669    20462688.920
        38.100          46.500


 25  1  1 20  2  0.0000000  0 27E31G07G02G30G08G13G27G04E33E24R10E09
                                G09E04R09G14S35S31E05E06S33R08R11R21
                                R01R20E26
 123477355.350 8                  23496948.474
        50.100
 106864980.111 8  83271364.85148  20335718.560    20335718.0024   20335719.1924
        50.900          48.9004
 120787211.712 6  94119961.59442  22985041.696    22985041.8484   22985049.6584
        40.600          16.0004
 111450268.531 7  86844365.89047  21208275.541    21208274.8754   21208278.2594
        46.600          43.0004
 110131494.471 7  85816681.71345  20957309.203    20957308.6854   20957315.0524
        42.000          30.1004
 126851101.373 6  98845015.13743  24138963.033    24138962.6184   24138964.8894
        38.800          20.2004
 124652217.947 5                  23720527.788
        31.100


 140219062.923 5                  26682801.949
        33.300
 138822014.761 5                  26416953.510
        31.400
 108560074.615 6                  20365602.974    20365603.415
        39.700
 128832278.842 8                  24515972.413
        49.200
 121817489.068 5  94922772.09743  23181101.886    23181102.4534   23181112.0554
        34.400          19.1004
 135412459.915 6                  25768130.946
        41.400
 122144838.320 5                  22873809.176    22873810.043
        30.600
 117958587.365 7  91915772.35544  22446762.888    22446762.9504   22446765.7354
        43.300          24.1004


 198899728.773 7                  37849378.787
        44.000
 132087833.609 7                  25135476.880
        44.100
 129143370.377 7                  24575175.654
        45.500
 202049531.780 7                  38448762.569
        44.500
                  93372816.808 6                  22418635.540    22418633.658
                        36.100
 110031087.149 6  85579729.907 7  20590824.413    20590823.668    20590827.761
        37.100          45.700
 116601924.367 7  90690603.581 6  21789859.897    21789861.131    21789870.376
        42.300          40.700
 115788668.363 7  90057911.121 6  21660669.789    21660671.190    21660678.945
        42.600          36.200
 109411529.922 6  85097886.017 7  20460507.772    20460507.664    20460515.756
        38.500          45.100
 139960989.710 5                  26633689.627
        30.200
 25  1  1 20  2 15.0000000  0 30G21E31G07G02G30G08G13G27G04G17E33E24
                                R10E09G09E04R09G14S35S31E05E06S33R08
                                R11R21R01R20R02E26
 116333941.243 5                  22137611.674
        32.400
 123475910.853 8                  23496673.412
        50.200
 106861534.074 8  83268679.61248  20335062.810    20335062.2744   20335063.5984
        50.300          49.3004
 120748438.739 6  94089749.07443  22977660.899    22977660.6674   22977670.3904
        41.000          20.5004
 111418979.200 8  86819984.59247  21202322.595    21202321.9474   21202324.4234
        49.000          45.0004
 110164834.126 7  85842660.66145  20963653.170    20963652.5764   20963658.1824
        42.100          30.4004
 126807048.250 6  98810688.06543  24130580.372    24130579.9524   24130581.7554
        39.500          18.4004
 124706593.318 5  97173994.11841  23730870.843    23730870.4374   23730882.1794
        30.700          11.3004


 125860062.520 5  98072874.77542  23950377.048    23950377.3524   23950398.7444
        32.800          15.5004


 138795043.545 5                  26411817.362
        32.300
 108576021.350 6                  20368596.191    20368595.427
        40.700
 128845014.141 8                  24518395.198
        48.400
 121870840.351 5  94964344.27443  23191253.681    23191254.1284   23191267.9054
        32.400          20.1004
 135455477.349 7                  25776315.713
        43.400
 122183922.784 5                  22881125.761
        31.700
 117925135.661 7  91889706.10344  22440397.364    22440397.3904   22440401.5834
        44.200          25.0004


 198899716.979 7                  37849381.148
        44.800
 132061044.686 7                  25130379.865
        43.300
 129173563.761 6                  24580920.021
        38.300
 202049541.193 7                  38448758.093
        45.700
                  93416765.673 6                                  22429189.558
                        36.300
 110005929.884 6  85560163.203 7  20586114.987    20586113.095    20586119.594
        41.500          45.300
                  90643813.244 6                  21778612.801    21778629.177
                        41.900
 115800008.629 6  90066731.252 6  21662793.472    21662792.514    21662803.498
        41.200          38.500
 109400112.867 6  85089006.121 7  20458372.299    20458371.811    20458379.452
        36.900          43.100
 126165275.337 5                  23643314.302
        32.700
 139949346.252 4                  26631468.391
        29.800
 25  1  1 20  2 30.0000000  0 30G21E31G07G02G30G08G13G27G04G17E33E24
                                R10E09G09E04R09G14S35S31E05E06S33R08
                                R11R21R01R20R02E26
 116308576.030 5                  22132784.465
        31.400
 123474501.289 8                  23496405.333
        49.100
 106858191.881 8  83266075.29748  20334427.726    20334427.1994   20334427.5994
        50.000          49.2004
 120709733.157 6  94059589.06343  22970296.765    22970296.4754   22970303.5584
        41.300          19.2004
 111387762.659 8  86795659.99547  21196381.946    21196381.2764   21196384.2844
        49.200          46.3004
 110198282.553 6  85868724.38945  20970018.663    20970018.1004   20970021.6284
        41.300          32.3004
 126763082.605 6  98776429.16443  24122213.930    24122213.5414   24122214.6564
        40.200          18.2004
 124761010.417 5  97216396.86941  23741239.155    23741238.9014   23741238.0284
        31.900           6.9004


 125806240.122 5  98030935.49841  23940133.452    23940133.8584   23940158.9614
        33.400          10.2004


 138768096.805 6                  26406697.136
        39.900
 108592026.892 6                  20371596.812    20371596.739
        39.200
 128857853.831 7                  24520838.858
        47.300


 135498532.477 7                  25784510.107
        42.200
 122223000.634 5  95062409.779 4  22888444.363    22888445.977    22888461.636
        33.200          29.800
 117891720.267 7  91863668.17543  22434039.385    22434039.4294   22434040.0434
        47.300          21.8004


 198899705.076 7                  37849371.525
        44.100
 132034338.422 6                  25125297.178
        38.400
 129203835.387 7                  24586682.588
        42.600
 202049551.095 7                  38448766.021
        46.600
                  93460762.396 6                                  22439755.644
                        37.700
 109980812.084 7  85540627.007 7  20581417.256    20581415.200    20581418.751
        45.400          46.200
 116481685.264 5  90597084.937 6  21767381.875    21767380.764    21767399.359
        33.200          39.200
 115811537.170 6  90075697.930 6  21664950.732    21664951.686    21664959.755
        41.400          38.600
 109388902.681 5  85080287.130 6  20456276.628    20456275.899    20456282.793
        35.200          41.600
 126127018.796 5                  23636109.784    23636112.150
        35.300
 139937803.596 5                  26629276.721
        33.400
 25  1  1 20  2 45.0000000  0 28E31G07G02G30G08G13G27G04G17E33E24R10
                                E09G09E04G14S35S31E05E06S33R08R11R21
                                R01R20R02E26
 123473125.945 8                  23496143.490
        49.100
 106854953.072 8  83263551.54248  20333811.337    20333810.8104   20333811.3834
        50.800          49.7004
 120671094.622 6  94029481.33242  22962940.607    22962940.2104   22962949.9304
        39.100          13.4004
 111356618.352 8  86771391.69647  21190455.265    21190454.5864   21190458.6914
        49.700          46.7004
 110231838.818 7  85894872.16645  20976405.258    20976404.7134   20976406.9624
        44.100          32.9004
 126719203.970 5  98742238.02842  24113861.401    24113860.9954   24113864.5184
        35.000          15.8004
 124815516.366 5  97258792.56841  23751593.389    23751593.1174   23751589.9014
        32.300           6.4004


 125752454.417 5  97989025.2894   23929900.533    23929901.0874   23929924.2844
        30.600           4.3004


 138741173.680 6                  26401566.985
        37.300
 108608090.593 6                  20374610.532    20374607.546
        39.300
 128870797.141 7                  24523302.013
        46.700
 121977646.807 5  95047589.23944  23211576.754    23211576.9594   23211592.9374
        35.700          24.3004
 135541624.384 6                  25792709.940
        37.800
 117858340.502 7  91837658.00443  22427686.536    22427686.5804   22427683.0014
        45.800          20.2004
 200818988.784 5                  38214576.157
        32.600
 198899692.618 7                  37849374.485
        44.400
 132007714.251 6                  25120231.564
        40.000
 129234184.426 6                  24592459.456
        37.700
 202049559.848 7                  38448764.635
        47.100
                  93504806.070 5                                  22450324.427
                        31.100
 109955732.843 7  85521120.947 7  20576721.925    20576722.862    20576726.718
        45.500          46.900


 115823253.181 6  90084810.462 6  21667138.050    21667138.412    21667152.093
        37.300          36.300
 109377898.506 5  85071728.383 6  20454215.432    20454216.185    20454223.539
        34.300          38.600
 126088908.864 5                  23628971.555    23628971.783
        34.300
 139926361.335 5                  26627093.062
        32.400
 25  1  1 20  3  0.0000000  0 27E31G07G02G30G08G13G27G04E33E24R10E09
                                G09E04G14S35S31E05E06S33R08R11R21R01
                                R20R02E26
 123471791.881 8                  23495890.091
        49.000
 106851824.917 8  83261114.01248  20333216.266    20333215.7484   20333215.9734
        50.700          50.0004
 120632530.825 5  93999431.72641  22955600.984    22955600.4934   22955611.0584
        35.900           6.3004
 111325553.677 8  86747185.43847  21184543.222    21184542.5074   21184547.1484
        49.100          45.7004
 110265509.783 7  85921109.31945  20982812.254    20982811.6604   20982815.5354
        42.400          34.2004
 126675419.636 5  98708120.39042  24105531.457    24105531.0604   24105532.4944
        35.600          16.6004
 124870021.833 4  97301264.2354   23761962.826    23761962.3934   23761965.7154
        29.600           5.0004




 138714281.627 6                  26396451.845
        40.000
 108624220.109 6                  20377637.051    20377635.862
        39.600
 128883851.149 7                  24525786.409
        45.500
 122031090.787 6  95089233.66744  23221748.580    23221748.6064   23221764.0944
        39.600          27.3004
 135584760.116 5                  25800912.644
        30.700
 117825003.480 7  91811681.12742  22421343.519    22421343.5194   22421336.1724
        43.300          17.0004


 198899686.343 7                  37849365.860
        43.000
 131981179.561 6                  25115181.462
        38.100
 129264617.879 7                  24598250.535
        42.900
 202049575.057 7                  38448770.797
        46.800
 120277070.179 5  93548901.822 5  22460893.537                    22460910.904
        35.900          33.000
 109930699.569 7  85501650.663 7  20572034.345    20572036.115    20572041.075
        46.500          46.000
 116361921.145 5  90503820.449 6  21744989.724    21744978.441    21744990.507
        34.800          40.700
 115835163.803 6  90094074.170 5  21669370.414    21669367.628    21669377.123
        37.100          32.000
 109367108.031 5  85063335.863 6  20452196.562    20452198.030    20452207.633
        33.100          40.700
 126050952.739 5                  23621863.045    23621859.828
        35.500
 139915026.771 5                  26624936.181
        31.800
 25  1  1 20  3 15.0000000  0 28E31G07G02G30G08G13G27G04E33E24R10E09
                                G09E04R09G14S35S31E05E06S33R08R11R21
                                R01R20R02E26
 123470488.977 8                  23495642.209
        49.100
 106848797.460 8  83258754.94548  20332639.523    20332639.0004   20332639.3304
        51.000          49.8004
 120594032.044 4  93969433.4394   22948274.865    22948274.4504   22948285.0874
        27.600           2.6004
 111294558.928 7  86723033.69147  21178645.764    21178645.0314   21178648.4254
        47.100          45.4004
 110299284.997 6  85947427.65645  20989240.392    20989239.7804   20989243.5104
        37.800          32.1004
 126631720.267 6  98674068.89442  24097215.777    24097215.3714   24097216.8014
        37.900          16.7004
 124924564.505 4  97343764.9064   23772338.109    23772337.5954   23772345.9564
        28.600           3.0004




 138687410.399 6                  26391339.018
        40.100
 108640404.678 7                  20380672.673    20380672.975
        43.000
 128897005.709 7                  24528290.266
        44.300
 122084559.247 6  95130897.13044  23231921.107    23231921.0944   23231937.7734
        40.100          27.1004
 135627950.868 5                  25809140.832
        34.500
 122340432.639 6  95153705.073 5  22910433.257    22910432.588    22910444.893
        37.800          33.100
 117791699.212 7  91785729.90942  22415005.808    22415005.7734   22414997.3524
        42.000          16.3004


 198899676.115 7                  37849366.575
        44.900
 131954724.516 6                  25110146.401
        37.200
 129295125.451 7                  24604055.056
        45.600
 202049586.525 7                  38448771.003
        46.300
 120333821.717 4                  22471519.381
        27.600
 109905702.165 7  85482208.176 7  20567357.505    20567358.006    20567363.539
        46.900          44.900
 116302086.684 7  90457282.807 6  21733796.572    21733797.274    21733808.893
        42.600          40.900
 115847256.405 5  90103481.139 5  21671627.506    21671627.492    21671640.909
        35.700          33.600
 109356521.082 5  85055101.614 7  20450220.982    20450220.383    20450230.000
        34.200          43.700
 126013140.912 5                  23614779.765    23614784.778
        35.000
 139903789.872 5                  26622798.165
        30.600
 25  1  1 20  3 30.0000000  0 28E31G07G02G30G08G13G27G04E33E24R10E09
                                G09E04R09G14S35S31E05E06S33R08R11R21
                                R01R20R02E26
 123469220.428 8                  23495400.565
        49.800
 106845874.065 8  83256476.96848  20332083.343    20332082.8074   20332082.9264
        50.300          49.5004
 120555601.795 6  93939488.01141  22940964.385    22940964.0724   22940972.0124
        39.500          11.3004
 111263637.550 8  86698939.11947  21172762.264    21172761.5274   21172763.5914
        49.200          45.7004
 110333167.328 7  85973829.45645  20995687.660    20995687.0214   20995691.3574
        42.900          33.9004
 126588109.182 6  98640086.27542  24088918.011    24088917.5694   24088917.9664
        36.900          12.9004
 124979147.355 5  97386297.07841  23782730.195    23782729.9144   23782735.6024
        32.700           9.8004




 138660563.112 7                  26386231.047
        43.200
 108656647.910 7                  20383719.805    20383719.755
        44.200
 128910263.947 7                  24530813.617
        43.100
 122138055.098 6  95172581.99745  23242103.016    23242102.7884   23242116.2324
        41.400          30.0004
 135671090.611 6                  25817354.644
        37.000
 122379640.570 5  95184199.914 5  22917777.393    22917774.129    22917790.450
        34.200          35.900
 117758430.965 7  91759806.58243  22408676.991    22408676.9654   22408668.3744
        43.200          20.1004


 198899665.941 7                  37849365.153
        44.000
 131928352.322 5                  25105128.568
        34.400
 129325710.251 7                  24609873.894
        44.400
 202049597.854 7                  38448770.989
        46.000
 120390631.998 5                  22482105.467    22482111.752
        32.700
 109880743.967 7  85462796.288 7  20562687.592    20562686.806    20562692.638
        46.600          44.000
 116242333.901 7  90410808.703 7  21722630.279    21722629.982    21722643.877
        42.700          44.000
 115859538.290 6  90113033.619 5  21673927.438    21673927.096    21673938.840
        39.800          33.400
 109346141.117 5  85047028.355 7  20448279.518    20448277.204    20448289.240
        33.800          44.100
                  97980825.269 5                                  23607725.733
                        32.500
 139892653.945 5                  26620679.869
        34.900
 25  1  1 20  3 45.0000000  0 30G21E31G07G02G30G08G13G27G04G17E33E24
                                R10E09G09E04R09G14S35S31E05E06S33R08
                                R11R21R01R20R02E26
 116183595.684 4  90532710.61541  22109002.413    22109002.6004   22109012.3574
        26.400           7.0004
 123467988.583 8                  23495166.074
        49.900
 106843057.350 8  83254282.10448  20331547.747    20331547.2204   20331546.6404
        49.700          48.5004
 120517242.936 6  93909598.24442  22933662.170    22933661.8354   22933671.6904
        39.400          15.0004
 111232792.230 7  86674903.79447  21166891.959    21166891.2444   21166893.2404
        47.000          46.1004
 110367158.918 6  86000316.40045  21002154.754    21002154.0394   21002159.5684
        40.000          34.9004
 126544589.203 6  98606174.60042  24080635.472    24080634.9764   24080636.5884
        36.900          14.8004
 125033772.258 5  97428862.07141  23793125.434    23793125.3634   23793132.3434
        34.300          11.0004


 125537754.031 6  97821711.65342  23889040.270    23889039.7884   23889059.5304
        37.200          14.9004


 138633742.324 6                  26381125.763
        40.700
 108672952.173 7                  20386778.680    20386778.551
        42.000
 128923628.231 7                  24533355.946
        43.700
 122191580.506 6  95214289.84745  23252288.136    23252287.8374   23252302.7324
        39.700          31.5004
 135714334.857 6                  25825584.840
        38.100
 122418882.717 6  95214721.324 5  22925124.750    22925124.613    22925133.909
        38.600          32.900
 117725201.123 7  91733913.28244  22402351.833    22402351.7354   22402351.0354
        42.400          24.3004


 198899657.376 7                  37849362.528
        43.500
 131902065.826 5                  25100125.142
        34.200
 129356374.408 7                  24615709.598
        44.500
 202049610.754 7                  38448777.455
        47.500
 120447502.988 6  93681493.515 5  22492739.864    22492739.873    22492751.057
        38.400          32.800
 109855827.573 7  85443416.950 6  20558023.358    20558023.780    20558023.039
        45.200          37.900
 116182665.760 7  90364400.415 7  21711479.505    21711480.304    21711493.873
        47.100          43.900
 115872009.341 6  90122733.296 5  21676262.297    21676260.389    21676270.389
        40.400          32.700
 109335970.544 5  85039117.901 7  20446377.150    20446378.580    20446386.019
        34.700          43.700
 125937963.482 5  97951648.342 5  23600679.198    23600686.360    23600696.508
        30.200          34.100
 139881621.572 5                  26618576.202
        34.900
 25  1  1 20  4  0.0000000  0 27E31G07G30G08G13G27G04G17E33E24R10E09
                                G09E04R09G14S35S31E05E06S33R08R11R21
                                R01R20E26
 123466791.288 8                  23494937.861
        48.400
 106840345.545 8  83252168.98248  20331031.829    20331031.3064   20331029.8064
        49.700          48.2004
 111202021.138 7  86650926.32747  21161036.708    21161036.0384   21161037.9194
        47.000          45.5004
 110401257.351 7  86026886.59346  21008645.581    21008644.9154   21008648.5684
        43.600          38.5004
 126501158.537 6  98572332.54842  24072371.582    24072371.0244   24072372.4174
        38.200          16.0004
 125088436.880 6  97471457.85142  23803527.570    23803527.4864   23803537.3574
        38.200          14.3004


 125484163.739 6  97779953.50043  23878833.121    23878832.8004   23878853.9644
        36.200          18.3004
 139910693.827 5                  26624118.809
        34.900
 138606945.861 6                  26376026.862
        39.900
 108689315.637 6                  20389849.654    20389846.182
        36.500
 128937096.379 7                  24535918.861
        45.000
 122245132.911 6  95256018.70545  23262478.714    23262478.4244   23262493.6004
        39.800          30.6004
 135757615.460 5                  25833820.092
        32.500
 122458156.901 6                  22932479.299    22932478.545
        39.500
 117692007.642 6  91708048.25244  22396037.823    22396037.7034   22396037.1674
        41.600          25.8004


 198899648.800 6                  37849348.094
        41.300
 131875862.982 5                  25095137.139
        34.400
 129387115.737 7                  24621560.393
        43.600
 202049623.623 7                  38448789.064
        46.000
 120504432.209 6  93725771.308 5  22503373.947    22503374.469    22503384.647
        40.300          32.100
 109830951.032 7  85424068.544 5  20553369.559    20553372.385    20553367.753
        44.800          34.800
 116123080.814 7  90318056.864 6  21700345.130    21700345.352    21700355.696
        47.200          41.100
 115884667.554 7  90132578.408 5  21678631.925    21678633.081    21678636.012
        43.400          32.600
 109326007.248 6  85031368.684 7  20444514.219    20444514.231    20444522.247
        36.000          44.800
 139870690.762 6                  26616499.017
        37.300
 25  1  1 20  4 15.0000000  0 29E31G07G30G08G13G27G04R19G17E33E24R10
                                E09G09E04R09G14S35S31E05E06S33R08R11
                                R21R01R20R02E26
 123465625.597 8                  23494716.495
        49.500
 106837735.881 8  83250135.48147  20330534.731    20330534.2264   20330532.4994
        49.700          46.4004
 111171321.683 7  86627004.66247  21155195.023    21155194.3354   21155196.9074
        42.000          43.7004
 110435459.440 7  86053537.55146  21015153.617    21015152.9074   21015157.7084
        44.700          41.1004
 126457814.727 5  98538558.10942  24064122.273    24064121.7014   24064125.0594
        35.700          14.8004
 125143137.928 6  97514081.83841  23813935.993    23813935.9004   23813947.1514
        36.900           8.0004


                  98476991.158 5                                  23669015.675
                        32.300
 125430609.660 5  97738223.62142  23868642.254    23868642.5534   23868660.8874
        32.800          15.4004
 139872312.152 5                  26616808.390
        31.600
 138580170.853 6                  26370932.662
        38.700
 108705735.260 6                  20392931.800    20392929.693
        40.100
 128950665.426 7                  24538500.831
        45.300
 122298709.088 6  95297766.09745  23272674.240    23272673.9774   23272689.8964
        40.100          31.6004
 135800929.165 6                  25842060.094
        37.600
 122497460.440 5                  22939841.647    22939837.195
        35.700
 117658847.764 5  91682209.40243  22389723.585    22389723.4514   22389727.3194
        34.200          23.3004


 198899636.458 7                  37849364.835
        44.300
 131849741.027 6                  25090172.952
        38.500
 129417931.130 7                  24627423.896
        43.900
 202049633.569 7                  38448777.169
        45.900
 120561415.924 5                  22514002.752
        34.900
 109806111.318 7  85404748.819 6  20548718.226    20548718.356    20548722.493
        44.300          40.600
 116063576.840 7  90271776.332 6  21689225.536    21689224.798    21689234.136
        47.500          38.900
 115897509.360 6  90142566.404 5  21681030.923    21681032.173    21681042.210
        39.500          35.100
 109316248.978 5  85023778.868 7  20442688.165    20442689.536    20442698.541
        34.800          45.100
                  97893640.136 5                                  23586724.016
                        30.300
 139859858.815 6                  26614437.826
        37.400
 25  1  1 20  4 30.0000000  0 29E31G07G02G30G08G13G27G04R19G17E33E24
                                R10E09G09E04R09G14S35S31E05E06S33R08
                                R11R21R01R20E26
 123464493.686 8                  23494500.716
        48.000
 106835230.493 8  83248183.24447  20330057.549    20330057.0354   20330055.9094
        48.400          45.5004
 120402527.192 4  93820189.57242  22911838.086    22911838.2554   22911848.8134
        27.400          13.1004
 111140696.230 7  86603140.63946  21149366.497    21149365.8184   21149369.5604
        43.300          40.7004
 110469766.905 8  86080270.62746  21021682.381    21021681.6484   21021686.3884
        48.000          41.6004
 126414560.157 6  98504853.18242  24055891.482    24055890.8794   24055894.1394
        36.300          12.5004
 125197877.200 5  97556735.87541  23824358.033    23824357.9044   23824364.4894
        34.900           7.6004


                  98517359.209 4                                  23678718.372
                        29.500
 125377093.858 5  97696523.47142  23858458.018    23858458.0804   23858475.7474
        31.500          13.6004
 139833967.248 5                  26609512.395
        33.400
 138553419.360 6                  26365840.897
        37.200
 108722213.421 6                  20396018.507    20396016.561
        38.700
 128964337.368 7                  24541102.603
        46.800
 122352310.782 5  95339533.36144  23282873.053    23282872.8304   23282890.9824
        33.500          29.7004
 135844278.005 6                  25850308.794
        37.200
 122536795.441 5                  22947209.884    22947209.242
        35.500
 117625723.487 5  91656351.31942  22383419.572    22383419.1524   22383418.9064
        31.900          14.0004


 198899624.043 7                  37849359.255
        44.900
 131823702.403 6                  25085218.491
        40.500
 129448822.438 7                  24633301.939
        42.600
 202049642.268 7                  38448784.784
        46.300
 120618455.848 5                  22524648.703    22524648.249
        33.800
 109781310.803 6  85385459.515 7  20544081.959    20544077.058    20544083.668
        41.200          44.000
 116004156.352 7  90225560.715 6  21678119.738    21678119.009    21678129.917
        45.200          40.000
 115910537.029 5  90152698.958 6  21683470.357    21683467.732    21683481.292
        30.000          36.400
 109306697.945 5  85016350.318 7  20440901.872    20440901.437    20440910.477
        30.400          42.700
 139849127.909 5                  26612395.058
        35.100
 25  1  1 20  4 45.0000000  0 29G21E31G07G02G30G08G13G27R19G17E33E24
                                R10E09G09E04R09G14S35S31E05E06S33R08
                                R11R21R01R20E26
 116085842.342 6  90456544.63641  22090400.302    22090400.1734   22090412.0354
        38.300           8.5004
 123463398.022 8                  23494292.371
        48.500
 106832832.141 7  83246314.39647  20329600.784    20329600.2574   20329601.0064
        47.200          45.2004
 120364424.589 5  93790507.35241  22904592.557    22904592.4734   22904599.8394
        33.600          11.5004
 111110147.559 7  86579336.48346  21143550.945    21143550.2434   21143556.2454
        43.600          40.3004
 110504182.132 7  86107087.65346  21028231.121    21028230.3664   21028235.1154
        45.300          41.0004
 126371397.685 6  98471220.07342  24047678.260    24047677.6434   24047680.6814
        37.200          13.2004




 125323619.442 6  97654855.62842  23848285.265    23848285.2614   23848300.0514
        36.400          16.4004
 139795662.112 6                  26602222.960
        36.500
 138526693.930 6                  26360754.273
        37.100
 108738752.599 6                  20399123.891    20399124.603
        40.400
 128978114.779 7                  24543722.953
        43.800
 122405940.209 5  95381322.17644  23293080.137    23293080.0174   23293095.9904
        32.100          27.0004
 135887664.433 6                  25858566.525
        37.500
 122576164.455 5                  22954586.788    22954579.647
        32.300
 117592637.416 6  91630569.97643  22377124.234    22377123.6764   22377125.3614
        37.100          19.1004


 198899612.920 7                  37849361.021
        45.300
 131797749.790 6                  25080280.828
        40.200
 129479792.172 6                  24639195.534
        40.300
 202049652.516 7                  38448778.005
        45.500
 120675554.232 6                  22535314.369    22535315.515
        38.500
 109756552.006 6  85366202.693 7  20539444.673    20539443.468    20539451.232
        40.800          44.500
 115944822.566 6  90179412.523 6  21667033.538    21667030.217    21667044.930
        41.100          40.600
 115923752.862 7  90162977.875 5  21685944.279    21685944.059    21685953.903
        42.200          34.100
 109297356.430 4  85009084.747 6  20439153.416    20439154.464    20439163.330
        26.900          41.200
 139838500.869 5                  26610372.504
        35.800
 25  1  1 20  5  0.0000000  0 27G21E31G07G02G30G08G13G27G17E33E24R10
                                E09G09E04G14S35S31E05E06S33R08R11R21
                                R01R20E26
 116061722.402 5  90437749.98441  22085808.396    22085808.2984   22085817.2464
        33.300           7.9004
 123462338.202 8                  23494090.484
        48.100
 106830540.729 7  83244528.88447  20329165.186    20329164.6504   20329165.8954
        46.100          45.2004
 120326417.523 6  93760891.65343  22897365.383    22897365.0034   22897369.1224
        41.200          23.0004
 111079675.695 6  86555592.16646  21137752.589    21137751.8964   21137756.8634
        41.000          39.8004
 110538704.357 7  86133988.07646  21034800.682    21034799.9364   21034803.9874
        46.400          40.4004
 126328327.357 6  98437658.77142  24039482.641    24039482.0914   24039484.6534
        36.500          13.0004
 125307476.458 5  97642158.29441  23845205.292    23845205.0204   23845212.3394
        34.000           7.8004
 125270186.335 6  97613219.93242  23838115.999    23838115.9324   23838131.7604
        37.400          16.3004
 139757396.631 6                  26594941.265
        38.300
 138499994.299 6                  26355674.686
        36.300
 108755352.399 6                  20402237.437    20402235.408
        38.600
 128991997.183 7                  24546365.725
        44.700


 135931087.547 6                  25866827.796
        36.100
 117559589.215 6  91604818.13343  22370835.499    22370835.0264   22370836.8694
        37.600          20.0004


 198899602.971 7                  37849361.848
        45.500
 131771883.156 6                  25075356.045
        38.600
 129510839.790 7                  24645103.926
        43.400
 202049664.895 7                  38448782.048
        46.900
 120732709.957 6                  22546006.008    22546007.133
        36.100
 109731835.046 7  85346978.371 7  20534818.458    20534817.092    20534824.377
        42.100          44.600
 115885575.834 7  90133331.878 6  21655961.126    21655962.817    21655973.054
        42.200          41.400
 115937156.238 7  90173402.647 4  21688452.453    21688452.728    21688454.854
        42.900          29.200
 109288224.966 5  85001982.492 6  20437447.661    20437447.851    20437456.726
        31.100          40.200
 139827977.222 5                  26608372.294
        33.000
 25  1  1 20  5 15.0000000  0 27E31G07G02G30G08G13G27E33E24R10E09G09
                                E04R09G14S35S31E05E06S33R08R11R21R01
                                R20R02E26
 123461314.654 7                  23493895.435
        46.600
 106828356.891 7  83242827.18847  20328750.200    20328749.6954   20328750.2404
        47.200          45.6004
 120288484.071 7  93731333.36344  22890145.915    22890145.2814   22890150.7384
        44.400          26.0004
 111049281.414 7  86531908.30446  21131970.157    21131969.4474   21131972.3014
        43.700          41.8004
 110573333.818 7  86160972.06446  21041389.469    21041388.7184   21041393.2184
        45.100          37.8004
 126285350.026 6  98404170.00441  24031304.320    24031303.8334   24031306.5564
        37.700          11.9004
 125362335.938 5  97684905.70941  23855648.197    23855647.8404   23855654.2574
        30.800          11.3004
 139719171.527 5                  26587666.274
        35.100
 138473320.873 5                  26350597.962
        33.100
 108772013.642 6                  20405363.159    20405360.821
        37.200
 129005985.027 7                  24549027.997
        44.900


 135974548.017 5                  25875095.532
        34.600


 117526579.596 6  91579096.32944  22364552.752    22364552.4224   22364555.2634
        40.000          24.7004
 200818631.422 5                  38214513.196
        32.900
 198899595.090 7                  37849357.775
        45.400
 131746103.034 6                  25070449.862
        40.500
 129541965.551 7                  24651027.348
        45.900
 202049678.287 7                  38448776.959
        43.300
                                                  22556676.170

 109707160.344 7  85327786.870 7  20530202.649    20530202.065    20530206.399
        43.400          45.300
 115826417.300 6  90087319.859 6  21644904.350    21644904.436    21644915.777
        41.700          40.600
 115950747.361 6                  21690993.009    21690992.950
        41.900
 109279303.804 5  84995043.814 6  20435778.953    20435778.993    20435785.605
        33.400          37.800
 125715839.644 6                  23559101.629    23559101.576
        40.200


 25  1  1 20  5 30.0000000  0 25G21E31G07G02G30G08G13G27G17E33E24R10
                                E09G09E04G14S31E05E06S33R11R21R01R20
                                E26
 116013867.904 5                  22076705.081
        33.400
 123460326.034 8                  23493707.624
        49.000
 106826279.637 8  83241208.52947  20328354.600    20328354.0824   20328354.6134
        49.200          46.5004
 120250623.223 7  93701831.65444  22882940.400    22882939.4124   22882945.5154
        45.700          25.9004
 111018963.549 7  86508283.96547  21126202.598    21126201.8704   21126202.3034
        46.700          43.7004
 110608068.826 7  86188038.32146  21047998.738    21047998.0054   21048002.2414
        43.900          36.8004
 126242464.743 6  98370752.79841  24023141.002    24023140.3944   24023145.9124
        36.100          10.3004


 125163378.216 6  97529968.11143  23817801.464    23817801.3214   23817815.1984
        36.900          19.1004
 139680985.757 5                  26580399.451
        34.100
 138446672.123 6                  26345527.806
        39.300
 108788734.937 6                  20408501.675    20408501.564
        41.500
 129020076.857 7                  24551708.397
        43.800




 117493607.055 8  91553403.43844  22358279.153    22358278.8814   22358280.5884
        48.400          28.4004
 198899587.622 7                  37849356.053
        45.200
 131720408.190 6                  25065559.728
        38.200
 129573167.966 7                  24656964.781
        44.100
 202049693.031 7                  38448790.758
        46.500
 109682526.604 7  85308627.334 7  20525595.448    20525596.173    20525597.497
        47.400          45.400
 115767345.918 6  90041375.719 6  21633863.720    21633864.161    21633877.604
        41.000          39.400
 115964524.636 5  90194696.275 5  21693570.793    21693567.540    21693575.538
        34.700          31.800
 109270591.926 5  84988267.988 7  20434150.506    20434151.197    20434160.233
        34.900          42.600


 25  1  1 20  5 45.0000000  0 27G21E31G07G02G30G08G13G27G17E33E24R10
                                E09G09E04G14S31E05E06S33R08R11R21R01
                                R20R02E26
 115990123.837 5  90381991.93941  22072192.159    22072192.3024   22072205.6854
        35.700           7.5004
 123459367.053 8                  23493525.218
        48.400
 106824303.737 8  83239668.88447  20327978.693    20327978.1884   20327978.8314
        49.800          47.9004
 120212830.294 7  93672382.86344  22875748.606    22875747.5064   22875751.5504
        44.800          27.2004
 110988717.226 7  86484715.44347  21120446.765    21120446.0144   21120446.3454
        44.300          42.6004
 110642903.889 6  86215182.50845  21054626.809    21054626.1344   21054631.3054
        39.400          32.8004
 126199666.556 5  98337403.44341  24014998.200    24014997.4404   24015002.5554
        35.200           9.8004


 125110064.121 5  97488425.17542  23807657.446    23807656.9734   23807669.0644
        34.800          16.9004
 139642834.463 6                  26573143.810
        38.200
 138420043.176 6                  26340459.279
        37.900
 108805510.913 7                  20411648.412    20411649.680
        42.500
 129034267.500 7                  24554408.807
        45.600
 122620722.075 6  95548704.37644  23333951.666    23333951.3674   23333966.9374
        39.700          24.6004


 117460666.487 7  91527735.50544  22352011.026    22352010.7674   22352012.9974
        46.200          28.8004
 198899575.403 7                  37849351.698
        46.000
 131694793.799 6                  25060685.342
        40.500
 129604441.669 7                  24662915.936
        44.300
 202049702.506 7                  38448789.113
        45.600
 120904508.439 5  94036929.023 5  22578081.447    22578078.724    22578085.427
        33.400          33.400
 109657928.672 7  85289495.602 7  20520989.389    20520990.276    20520994.548
        46.500          45.200
 115708357.264 6  89995495.834 6  21622840.858    21622840.905    21622853.087
        37.900          39.000
 115978483.869 6                  21696184.784
        36.200
 109262083.941 6  84981650.667 7  20432560.827    20432560.605    20432567.713
        37.200          43.000




 25  1  1 20  6  0.0000000  0 28G21E31G07G02G30G08G13G27G17E33E24R10
                                E09G09E04R09G14S35S31E05E06S33R08R11
                                R21R01R20E26
 115966509.581 5  90363591.2114   22067692.005    22067691.7194   22067709.2414
        32.100           4.4004
 123458444.609 8                  23493350.017
        48.600
 106822436.408 8  83238213.80648  20327623.520    20327623.0114   20327623.8164
        50.000          48.7004
 120175112.422 7  93642992.61544  22868571.602    22868570.5204   22868573.7514
        44.400          26.3004
 110958549.673 8  86461208.27747  21114706.091    21114705.3314   21114706.7404
        48.800          44.1004
 110677845.588 6  86242409.75645  21061276.731    21061276.1774   21061281.1844
        40.200          30.0004
 126156962.813 6  98304127.68141  24006873.090    24006872.1964   24006877.3404
        40.400           9.2004


 125056879.642 6  97446905.42842  23797517.876    23797517.3624   23797530.2464
        36.900          14.3004
 139604724.854 5                  26565888.878
        33.200
 138393440.717 6                  26335397.108
        39.500
 108822348.857 6                  20414803.151    20414803.502
        36.900
 129048563.657 7                  24557129.716
        45.800
 122674477.408 6  95590591.33644  23344181.739    23344181.3914   23344194.7364
        39.600          24.2004


 122773512.581 4                  22991537.754
        28.300
 117427764.868 7  91502097.91644  22345750.271    22345750.0394   22345752.8284
        47.400          28.5004
 200818685.666 6                  38214526.544
        40.100
 198899565.573 7                  37849353.062
        44.700
 131669266.825 6                  25055829.220
        37.500
 129635793.397 7                  24668882.586
        44.100
 202049714.911 7                  38448795.141
        45.900
 120961882.163 5  94081552.491 5  22588801.005    22588797.681    22588801.800
        35.600          35.500
 109633373.611 7  85270397.289 7  20516391.325    20516391.288    20516398.493
        44.000          46.000
 115649458.733 7  89949686.151 6  21611836.275    21611837.605    21611845.084
        44.300          37.700
 115992629.328 6  90216554.481 5  21698832.546    21698831.910    21698834.121
        38.200          34.900
 109253787.337 5  84975197.792 7  20431008.760    20431007.888    20431016.060
        35.900          44.200


 25  1  1 20  6 15.0000000  0 29G21E31G07G02G30G08G13G27G17E33E24R10
                                E09G09E04R09G14S35S31E05E06S33R08R11
                                R21R01R20R02E26
 115943026.439 4  90345292.80841  22063223.716    22063223.3144   22063235.7634
        25.800           8.2004
 123457559.717 8                  23493181.340
        48.700
 106820678.857 8  83236844.30648  20327288.934    20327288.4384   20327289.4684
        50.400          48.8004
 120137471.133 7  93613661.93144  22861408.761    22861407.7024   22861410.9904
        42.900          27.8004
 110928462.229 7  86437763.51647  21108979.210    21108978.4644   21108982.2054
        46.500          43.9004
 110712894.745 6  86269720.75544  21067945.922    21067945.3864   21067950.2834
        41.600          28.3004
 126114354.962 5  98270926.80841  23998763.420    23998762.4414   23998770.5254
        34.100          11.1004


 125003653.679 6  97405431.28741  23787387.091    23787386.6674   23787403.9934
        37.000          11.5004
 139566658.154 6                  26558644.946
        39.600
 138366865.926 6                  26330341.709
        36.900
 108839250.011 6                  20417970.124    20417971.933
        36.300
 129062966.326 7                  24559871.245
        46.200
 122728259.871 6  95632499.33444  23354416.186    23354415.4224   23354428.7334
        41.200          26.3004
 136148726.332 5                  25908243.887
        33.100


 117394903.201 7  91476491.43944  22339497.308    22339497.1034   22339499.6804
        45.800          26.9004
 200818668.758 5                  38214488.365
        30.200
 198899559.106 7                  37849354.461
        43.700
 131643828.677 6                  25050986.105
        38.300
 129667224.027 7                  24674863.327
        46.600
 202049729.357 7                  38448798.284
        46.100
 121019312.218 5  94126219.939 6  22599517.880    22599520.749    22599532.170
        35.500          37.500
 109608862.873 7  85251333.379 7  20511806.346    20511806.918    20511813.001
        45.900          46.800
 115590651.952 7  89903947.782 6  21600845.965    21600847.900    21600854.157
        45.300          38.100
 116006963.383 5  90227703.054 6  21701521.199    21701523.344    21701517.502
        35.400          37.000
 109245702.968 6  84968910.008 7  20429496.219    20429497.271    20429504.151
        38.400          44.700




 25  1  1 20  6 30.0000000  0 27G21E31G07G02G30G08G13G27E33E24R10E09
                                G09E04G14S35S31E05E06S33R08R11R21R01
                                R20R02E26
 115919667.703 5  90327091.38641  22058780.448    22058780.3814   22058786.0644
        34.200          11.1004
 123456706.201 8                  23493019.354
        50.000
 106819025.096 8  83235555.64748  20326974.128    20326973.6374   20326974.6264
        49.500          48.3004
 120099900.682 6  93584386.45844  22854258.977    22854257.9714   22854262.5784
        40.400          25.7004
 110898448.973 7  86414376.57247  21103267.999    21103267.2754   21103271.3574
        46.800          43.6004
 110748044.794 7  86297110.37343  21074637.032    21074636.4474   21074634.7824
        42.400          20.1004
 126071837.058 6  98237795.94142  23990672.614    23990671.5684   23990680.5104
        40.800          12.2004
 125637227.769 4  97899146.22441  23907965.416    23907965.3944   23907971.6194
        29.300           7.8004
 139528628.677 6                  26551408.535
        41.100
 138340312.507 5                  26325287.730
        30.500
 108856242.818 5                  20421162.744
        34.400
 129077469.390 7                  24562630.600
        45.500
 122782062.976 6  95674423.47344  23364656.689    23364655.5854   23364667.3584
        39.400          25.8004
 136192358.547 5                  25916549.585
        34.300
 117362075.490 7  91450911.42343  22333250.165    22333250.0004   22333252.0314
        44.400          23.2004


 198899549.599 7                  37849351.823
        44.200
 131618473.301 5                  25046161.859
        33.700
 129698727.231 7                  24680857.705
        45.700
 202049742.613 7                  38448804.929
        46.500
 121076792.101 4                  22610262.666    22610264.725
        28.400
 109584390.199 7  85232299.083 7  20507227.693    20507227.543    20507232.682
        44.600          46.800
 115531931.469 7  89858276.490 6  21589872.912    21589873.250    21589881.605
        42.500          39.200
 116021478.895 5  90238993.176 5  21704223.462    21704226.078    21704233.051
        34.200          35.400
 109237825.015 5  84962782.703 7  20428024.581    20428022.432    20428030.904
        34.600          44.500
 125535114.809 6                  23525220.589
        38.000
 139767006.819 5                  26596776.531
        33.100
 25  1  1 20  6 45.0000000  0 28G21E31G07G02G30G08G13G27G17E33E24R10
                                E09G09E04R09G14S35S31E05E06S33R11R21
                                R01R20R02E26
 115896432.195 6  90308985.89442  22054357.542    22054357.4264   22054363.1294
        36.800          14.6004
 123455882.038 8                  23492862.622
        50.200
 106817473.243 8  83234346.39847  20326679.014    20326678.5234   20326678.8554
        48.100          47.1004
 120062399.494 6  93555164.96044  22847122.510    22847121.5004   22847127.6534
        38.700          26.4004
 110868508.238 7  86391046.14147  21097570.533    21097569.8544   21097574.5464
        47.200          43.3004
 110783293.541 7  86324576.89143  21081344.368    21081343.7564   21081341.2374
        44.400          20.5004
 126029407.630 6  98204733.93942  23982598.452    23982597.4554   23982606.4104
        41.900          15.4004


 124897316.240 5  97322572.18741  23767152.964    23767152.5264   23767168.6264
        35.400          10.7004
 139490634.561 6                  26544177.206
        37.500
 138313778.478 5                  26320239.752
        34.000
 108873271.286 5                  20424348.332
        35.500
 129092070.645 7                  24565409.410
        46.000
 122835884.440 6  95716361.90144  23374898.689    23374897.6344   23374908.8764
        37.100          25.5004
 136236019.989 6                  25924859.406
        37.000


 117329279.624 7  91425356.31343  22327008.387    22327008.1734   22327010.0894
        43.100          21.2004


 198899535.628 7                  37849344.494
        45.800
 131593198.787 4                  25041349.595
        28.400
 129730300.818 7                  24686866.507
        46.900
 202049750.472 7                  38448802.340
        45.800
 109559953.471 7  85213292.755 8  20502655.490    20502653.060    20502660.596
        45.300          48.800
                  89812671.164 6                                  21578925.996
                        41.200
                  90250422.593 6                                  21706982.786
                        36.000
 109230151.041 5  84956814.095 7  20426586.726    20426587.855    20426594.645
        35.100          42.600
 125499410.728 6                  23518521.470    23518519.241
        36.600
 139757197.691 5                  26594898.525
        31.800
 25  1  1 20  7  0.0000000  0 28G21E31G07G02G30G08G13G27G17E33E24R10
                                E09G09E04R09G14S35S31E05E06S33R08R11
                                R21R01R20R02
 115873329.105 5  90290983.55442  22049959.601    22049959.4944   22049965.4674
        33.300          15.5004
 123455095.628 8                  23492713.076
        49.200
 106816032.202 8  83233223.48747  20326405.354    20326404.8584   20326403.6534
        48.300          46.9004
 120024976.219 6  93526004.19144  22840000.293    22839999.2694   22840007.0774
        39.900          26.5004
 110838648.710 7  86367778.96646  21091888.051    21091887.3904   21091892.5944
        44.900          41.3004
 110818649.075 7  86352126.53143  21088070.743    21088070.0504   21088072.3754
        43.400          20.8004
 125987075.486 7  98171747.80643  23974543.488    23974542.5054   23974549.1184
        43.000          18.4004


 124844211.819 5  97281192.77642  23757047.190    23757046.7124   23757064.8254
        34.600          13.0004
 139452684.591 6                  26536955.378
        36.700
 138287272.171 4                  26315193.546
        29.200
 108890347.761 6                  20427554.625    20427556.002
        40.700
 129106778.540 7                  24568208.251
        46.800


 136279718.793 6                  25933173.375
        37.000


 117296524.208 7  91399832.72043  22320775.490    22320775.2804   22320777.8054
        44.100          22.2004


 198899525.331 7                  37849344.266
        44.900
 131568013.875 4                  25036559.312
        28.800
 129761953.053 7                  24692889.929
        45.700
 202049762.237 7                  38448805.604
        47.000


 109535561.662 8  85194321.310 8  20498091.029    20498091.249    20498095.033
        48.700          48.000
 115414753.869 6  89767138.863 7  21567993.235    21567993.633    21567986.462
        36.100          42.900
 116051086.907 5  90261998.284 5  21709755.627    21709752.713    21709766.823
        30.400          35.200
 109222690.736 5  84951011.594 7  20425195.491    20425194.627    20425200.166
        35.400          42.900
 125463864.012 6                  23511860.998    23511859.291
        38.500
 25  1  1 20  7 15.0000000  0 28G21E31G07G02G30G08G13G27G17E33E24R10
                                E09G09E04R09G14S35S31E05E06S33R08R11
                                R21R01R20E26
 115850355.138 6  90273081.82242  22045589.000    22045588.8444   22045593.0124
        39.500          16.2004
 123454344.332 8                  23492570.096
        49.600
 106814699.192 8  83232184.76548  20326151.296    20326150.7734   20326150.0634
        50.600          48.5004
 119987628.858 7  93496902.57644  22832892.254    22832891.1724   22832899.9964
        42.400          26.2004
 110808868.185 6  86344573.35946  21086220.690    21086220.0204   21086223.2434
        38.400          36.2004
 110854108.400 7  86379757.01144  21094819.534    21094818.8554   21094824.1944
        44.200          24.7004
 125944838.341 6  98138835.74343  23966506.331    23966505.3434   23966509.5934
        41.100          20.6004


 124791150.787 5  97239847.13041  23746965.979    23746965.5144   23746968.8184
        31.200          10.2004
 139414776.504 6                  26529741.840
        37.900


 108907485.294 5                  20430767.408    20430765.737
        35.100
 129121590.382 7                  24571026.818
        46.400


 136323452.172 6                  25941494.331
        38.700


 117263806.679 7  91374338.57043  22314548.918    22314548.7804   22314550.1724
        42.700          19.8004
 200818532.377 6                  38214499.093
        36.900
 198899516.157 7                  37849337.447
        45.400
 131542916.168 5                  25031781.012
        31.200
 129793681.189 7                  24698927.824
        47.700
 202049774.266 7                  38448798.459
        45.900
 121249571.050 6  94305307.348 6  22642505.334                    22642522.720
        36.900          36.300
 109511212.032 7  85175382.750 7  20493532.242    20493533.686    20493537.614
        47.400          47.000
                  89721678.027 7                                  21557063.629
                        42.500
 116066155.167 6  90273717.887 5  21712579.261    21712579.561    21712583.708
        39.800          32.900
 109215441.192 5  84945373.105 6  20423836.032    20423838.607    20423842.666
        35.800          41.700
 139737848.389 5                  26591227.366
        35.800
 25  1  1 20  7 30.0000000  0 29G21E31G07G02G30G08G13G27G17E33E24R10
                                E09G09E04R09G14S35S31E05E06S33R08R11
                                R21R01R20R02E26
 115827507.042 6  90255278.12842  22041241.067    22041240.8444   22041244.4534
        39.900          15.4004
 123453624.196 8                  23492432.706
        49.500
 106813470.545 8  83231227.35648  20325917.542    20325917.0244   20325917.1724
        52.400          50.9004
 119950353.881 6  93467857.38643  22825799.108    22825798.0134   22825805.2214
        40.100          23.6004
 110779162.882 7  86321426.35546  21080569.848    21080569.1114   21080568.5364
        44.800          38.1004
 110889667.376 7  86407465.31445  21101586.826    21101586.1784   21101595.7014
        43.700          32.7004
 125902692.447 6  98105994.79443  23958486.982    23958486.0484   23958488.3434
        38.700          20.8004


 124738129.793 5  97198532.42141  23736876.602    23736876.1464   23736879.8144
        34.000          11.8004
 139376906.604 5                  26522533.478
        35.800
 138234331.866 5                  26305122.905
        35.400
 108924679.973 5                  20433996.301    20434000.558
        31.600
 129136502.168 7                  24573864.205
        46.700


 136367216.010 6                  25949822.861
        38.100


 117231123.041 7  91348870.83444  22308330.465    22308330.3894   22308330.4274
        42.700          24.1004
 200818510.437 5                  38214513.939
        32.700
 198899504.105 7                  37849340.358
        44.800
 131517901.955 5                  25027021.390
        30.100
 129825481.076 7                  24704978.441
        47.100
 202049784.863 7                  38448800.936
        45.300
 121307252.107 6  94350169.789 6  22653294.132    22653290.642    22653295.954
        37.800          37.200
 109486900.801 8  85156474.000 7  20488983.952    20488984.039    20488988.569
        49.100          46.200
 115297794.605 6  89676286.050 7  21546149.235                    21546158.276
        39.100          43.700
 116081404.455 6  90285578.331 5  21715432.053    21715429.813    21715436.872
        36.500          34.300
 109208398.394 5  84939895.288 7  20422519.731    20422520.167    20422526.990
        34.400          44.000
 125393232.670 7                  23498627.296    23498625.650
        42.400
 139728350.910 5                  26589417.366
        31.300
 25  1  1 20  7 45.0000000  0 26G21E31G07G02G30G08G13G27E33E24E09G09
                                E04G14S35S31E05E06S33R08R11R21R01R20
                                R02E26
 115804790.696 6  90237577.06142  22036917.608    22036917.3404   22036920.8414
        40.800          14.7004
 123452940.814 8                  23492302.628
        50.500
 106812351.955 8  83230355.72848  20325704.180    20325703.6624   20325705.3164
        51.600          51.6004
 119913157.201 6  93438873.22143  22818721.536    22818720.5624   22818724.1574
        40.800          20.9004
 110749538.778 7  86298342.64046  21074931.086    21074930.3534   21074931.6714
        46.800          41.5004
 110925331.262 7  86435255.38745  21108370.803    21108370.2274   21108385.0204
        42.700          31.8004
 125860643.787 6  98073229.60443  23950486.456    23950485.5444   23950484.9664
        40.800          20.2004


 139339080.906 5                  26515336.700
        33.300
 138207899.284 6                  26300093.144
        38.400
 129151519.411 7                  24576721.829
        46.900


 136411015.729 5                  25958157.613
        35.100
 117198479.050 6  91323433.97744  22302119.007    22302118.9054   22302119.6974
        40.400          26.3004


 198899495.064 7                  37849335.967
        44.000
 131492976.846 4                  25022278.514
        28.600
 129857358.241 7                  24711044.660
        46.400
 202049797.167 7                  38448810.782
        44.500
 121364985.656 6  94395073.095 6  22664073.705    22664073.584    22664078.789
        36.800          39.600
 109462633.976 8  85137599.766 7  20484444.279    20484443.446    20484447.722
        50.500          45.400
 115239527.876 6  89630967.717 7  21535255.466    21535258.342    21535269.218
        41.600          43.400
 116096839.644 6  90297583.403 5  21718316.944    21718314.529    21718322.781
        36.400          30.700
 109201567.988 5  84934582.798 7  20421243.154    20421240.559    20421251.303
        32.600          45.400
 125358150.346 5                  23492052.603    23492051.564
        35.300


 25  1  1 20  8  0.0000000  0 28G21E31G07G02G30G08G13G27G17E33E24R10
                                E09G09E04R09G14S35S31E05E06S33R08R11
                                R21R01R20E26
 115782201.471 6  90219975.13541  22032618.312    22032617.8794   22032621.8054
        36.300          11.5004
 123452289.028 8                  23492178.400
        48.800
 106811338.580 7  83229566.06448  20325511.474    20325510.9604   20325512.7724
        47.800          49.9004
 119876034.089 6  93409946.28843  22811656.656    22811655.6824   22811659.8474
        38.700          20.4004
 110719991.037 7  86275318.46746  21069308.073    21069307.3454   21069309.8224
        47.200          40.9004
 110961094.685 6  86463122.95745  21115178.578    21115178.0284   21115190.3334
        39.300          30.1004
 125818687.646 6  98040536.54543  23942500.282    23942499.4024   23942499.5064
        40.500          18.1004


 124632219.216 4  97116005.89342  23716705.286    23716704.9784   23716726.3854
        27.600          12.8004
 139301294.473 5                  26508145.358
        33.800
 138181488.602 5                  26295075.321
        32.200
 108959211.101 5                  20440480.144
        30.700
 129166636.945 8                  24579599.027
        49.100


 136454845.971 6                  25966503.055
        40.700
                                                  23050980.112

 117165869.605 7  91298024.00343  22295914.315    22295914.2174   22295914.1264
        43.200          22.2004


 198899483.755 7                  37849327.726
        42.100
 131468136.218 5                  25017580.606
        35.100
 129889307.311 7                  24717124.078
        45.700
 202049807.723 7                  38448811.797
        42.100
                  94440012.847 5                                  22674863.900
                        34.200
 109438406.271 8  85118755.966 8  20479909.625    20479908.527    20479914.324
        48.400          49.300
 115181351.265 7  89585719.411 7  21524384.592    21524385.994    21524396.405
        44.700          42.800
 116112455.515 7                  21721237.833    21721239.904
        43.100
 109194945.733 5  84929432.122 7  20420005.398    20420004.866    20420012.596
        35.100          44.900


 25  1  1 20  8 15.0000000  0 28G21E31G07G02G30G08G13G27E33E24R10E09
                                G09E04R09G14S35S31E05E06S33R08R11R21
                                R01R20R02E26
 115759741.619 6  90202474.09242  22028345.615    22028345.1464   22028347.4664
        38.100          15.3004
 123451670.707 8                  23492061.085
        48.900
 106810432.551 8  83228860.02148  20325339.085    20325338.5624   20325339.9624
        48.100          48.6004
 119838987.211 6  93381078.81843  22804607.262    22804606.2834   22804609.8024
        41.200          20.9004
 110690521.793 7  86252355.40047  21063700.751    21063700.0324   21063703.6954
        46.200          44.4004
 110996959.236 6  86491069.28144  21122002.108    21122001.5504   21122013.5954
        39.500          28.7004
 125776826.427 6  98007917.35342  23934533.513    23934532.5924   23934532.7434
        37.000          16.5004
 126023458.998 5                  23981467.839
        34.200
 139263549.606 6                  26500961.705
        38.900
 138155101.374 5                  26290046.997
        34.400
                                                  20443737.972

 129181856.629 8                  24582494.932
        51.000
 123159337.611 6  95968344.46543  23436443.020    23436443.3914   23436449.8324
        38.300          19.0004
 136498708.587 6                  25974846.826
        39.100
                                                  23058445.414

 117133296.639 6  91272642.55743  22289714.247    22289714.1044   22289715.8674
        39.000          22.5004


 198899472.345 7                  37849330.502
        42.200
 131443381.930 5                  25012845.238
        31.500
 129921330.033 7                  24723218.111
        43.300
 202049818.024 6                  38448812.477
        37.300
                  94484990.062 5                                  22685660.521
                        31.700
 109414219.775 8  85099944.196 8  20475382.657    20475383.979    20475387.861
        52.200          49.300
 115123267.454 7  89540543.368 6  21513528.970    21513531.403    21513540.719
        43.400          41.700
 116128254.127 6                  21724195.631    21724196.523
        41.700
 109188532.986 5  84924444.415 7  20418805.843    20418803.959    20418814.738
        30.100          46.600
 125288470.274 5                  23479002.862    23479001.219
        33.100


 25  1  1 20  8 30.0000000  0 27G21E31G07G30G08G13G27G17E33E24R10E09
                                G09E04R09G14S35S31E05E06S33R11R21R01
                                R20R02E26
 115737418.848 6  90185079.80342  22024096.702    22024096.2024   22024098.9104
        39.400          14.5004
 123451093.440 7                  23491950.695
        47.000
 106809641.567 8  83228243.67548  20325187.972    20325187.4454   20325188.4144
        48.700          48.0004
 110661138.977 6  86229459.67647  21058109.156    21058108.4234   21058113.4474
        41.500          42.0004
 111032932.221 5  86519100.27244  21128847.614    21128847.0514   21128857.6194
        34.400          26.8004
 125735067.903 6  97975378.25142  23926586.181    23926585.2834   23926585.7844
        36.400          12.1004
 126078787.947 4  98243230.04641  23991995.174    23991995.0054   23992001.3944
        29.400          11.8004
 124526366.705 5  97033578.15642  23696582.420    23696582.1574   23696592.7264
        30.900          13.3004
 139225854.073 6                  26493787.672
        36.900
 138128746.001 5                  26285029.280
        32.600
 108994064.583 6                  20447011.026    20447010.748
        37.300
 129197185.896 8                  24585411.925
        49.800
 123213319.579 5  96010407.90143  23446714.675    23446714.5374   23446726.5654
        34.700          19.2004
 136542610.508 6                  25983201.973
        40.700
 123170611.967 5                  23065923.715
        30.700
 117100767.805 7  91247295.45943  22283524.884    22283524.7464   22283525.9214
        42.200          21.3004


 198899468.388 6                  37849332.215
        41.900
 131418714.732 6                  25008153.236
        39.800
 129953433.839 6                  24729327.082
        40.600
 202049835.457 6                  38448802.666
        41.900
 109390082.307 8  85081170.593 8  20470864.589    20470864.988    20470871.558
        50.500          49.600
 115065284.411 7  89495445.604 6  21502692.553    21502694.305    21502706.281
        46.200          40.900
 116144242.674 6                  21727184.656    21727184.761
        39.600
 109182337.356 5  84919625.559 7  20417644.821    20417644.910    20417655.018
        35.200          44.700
 125253945.316 4  97419642.569 6  23472508.926                    23472513.795
        24.900          36.100


 25  1  1 20  8 45.0000000  0 27G21E31G07G02G30G08G13G27G17E33E24R10
                                E09G09E04G14S35S31E05E06S33R08R11R21
                                R01R20E26
 115715219.052 6  90167781.36642  22019872.026    22019871.4504   22019874.4434
        41.400          17.4004
 123450541.895 8                  23491845.916
        49.500
 106808950.510 8  83227705.16848  20325056.159    20325055.6364   20325056.8864
        49.500          48.6004
 119765128.285 6  93323489.39142  22790550.163    22790550.1374   22790550.2784
        41.500          16.9004
 110631827.632 7  86206619.67746  21052532.781    21052532.0974   21052536.2794
        44.200          41.6004
 111068997.670 6  86547203.21244  21135712.025    21135711.5024   21135718.5154
        36.500          26.7004
 125693397.543 5  97942907.84342  23918658.088    23918657.2084   23918655.8134
        32.200          14.4004
 126134142.779 4  98286384.48641  24002527.966    24002527.5334   24002539.0994
        25.100           6.9004
 124473562.146 5  96992432.38841  23686530.529    23686530.5464   23686549.6494
        34.100           9.7004
 139188193.042 6                  26486620.852
        37.600
 138102406.259 6                  26280022.660
        39.200
 109011559.299 5                  20450297.875    20450295.625
        35.900
 129212609.465 8                  24588346.993
        49.700
 123267313.830 5  96052481.00843  23456990.083    23456989.4354   23457005.0054
        33.900          20.9004
 136586536.786 5                  25991559.553
        35.400
 117068267.806 7  91221970.78644  22277341.307    22277341.2004   22277341.2604
        42.900          24.5004


 198899455.848 7                  37849324.036
        44.700
 131394133.879 5                  25003470.567
        32.600
 129985603.245 6                  24735449.286
        41.800
 202049845.337 6                  38448813.143
        41.400
                  94575060.974 6                                  22707307.463
                        39.000
 109365978.654 8  85062423.255 8  20466355.237    20466354.333    20466360.398
        48.200          48.100
 115007387.842 6  89450415.083 6  21491874.797    21491873.081    21491887.665
        37.300          40.200
 116160405.263 6                  21730211.304    21730207.127
        39.100
 109176344.000 5  84914964.070 7  20416526.840    20416525.998    20416533.616
        33.400          45.400
 139682424.201 5                  26580679.637
        32.800
 25  1  1 20  9  0.0000000  0 28G21E31G07G02G30G08G27G17E33E24R10E09
                                G09E04R09G14S35S31E05E06S33R08R11R21
                                R01R20R02E26
 115693150.745 6  90150585.43342  22015672.639    22015671.9874   22015675.0984
        37.300          15.6004
 123450025.126 8                  23491747.729
        49.500
 106808368.803 8  83227251.86248  20324945.449    20324944.9354   20324946.3474
        49.900          49.8004
 119728311.790 6  93294812.24442  22783542.613    22783542.5464   22783546.7434
        36.500          13.8004
 110602597.018 6  86183842.57247  21046970.173    21046969.4634   21046973.7014
        40.700          42.2004
 111105164.844 6  86575385.43344  21142595.015    21142594.5104   21142599.7074
        36.400          27.9004


 124420802.782 5  96951321.82242  23676493.923    23676494.0704   23676512.6724
        34.500          13.8004
 139150575.807 5                  26479460.760
        33.000


 109029115.409 5                  20453588.287    20453587.754
        34.200
 129228136.296 8                  24591301.696
        49.500
 123321328.798 6  96094637.17542  23467279.014    23467278.2364   23467291.6374
        38.300          17.5004
 136630495.928 6                  25999923.899
        38.700
                                                  23080858.362

 117035805.904 6  91196675.72743  22271161.080    22271160.9554   22271164.2814
        38.300          22.3004


 198899445.508 7                  37849320.969
        44.600
 131369641.450 5                  24998812.130
        34.500
 130017847.205 7                  24741586.400
        44.900
 202049856.120 6                  38448802.470
        38.700
                  94620148.985 6                                  22718118.979
                        38.800
 109341917.910 8  85043709.415 7  20461851.997    20461852.648    20461857.232
        48.700          45.600
 114949586.985 6  89405459.034 5  21481069.996    21481070.044    21481082.409
        41.500          35.900
 116176750.975 6                  21733264.862    21733263.610
        40.800
 109170561.983 5  84910466.990 7  20415443.882    20415444.080    20415453.178
        35.800          44.500
 125184990.213 6  97366154.383 5  23459613.480                    23459625.497
        36.700          33.300
 139673549.879 5                  26578988.144
        31.600
 25  1  1 20  9 15.0000000  0 28G21E31G07G02G30G08G27G17E33E24R10E09
                                G09E04R09G14S35S31E05E06S33R08R11R21
                                R01R20R02E26
 115671215.383 5  90133493.02842  22011498.707    22011497.9834   22011500.7534
        32.600          13.2004
 123449543.674 8                  23491656.337
        49.800
 106807897.246 8  83226884.39148  20324855.924    20324855.4064   20324856.8034
        48.900          49.4004
 119691575.947 6  93266187.14743  22776555.369    22776555.1594   22776559.2384
        41.100          20.0004
 110573448.110 7  86161129.15646  21041422.902    21041422.2004   21041425.9824
        42.700          41.3004
 111141433.874 6  86603646.99644  21149495.703    21149495.1584   21149502.0594
        38.900          28.0004


 124368089.466 5  96910246.32441  23666464.315    23666464.5164   23666481.5174
        34.200          11.0004
 139113003.143 6                  26472313.314
        37.500
 138049799.994 6                  26270005.720
        38.800
 109046734.249 6                  20456893.012    20456889.944
        36.300
 129243766.872 8                  24594276.207
        49.400
 123375364.983 6  96136742.83742  23477544.625    23477544.4474   23477571.0574
        38.000          17.3004
 136674488.333 6                  26008295.704
        37.300
                  95892558.743 5                                  23088341.399
                        34.400
 117003382.519 6  91171410.68744  22264991.832    22264991.6184   22264994.9674
        41.000          24.0004


 198899436.470 7                  37849323.299
        43.400
 131345237.705 4                  24994166.878
        28.200
 130050166.056 7                  24747736.452
        46.200
 202049868.738 7                  38448816.202
        43.200
 121712430.668 6  94665274.204 6  22728938.944    22728938.941    22728965.306
        36.100          40.100
 109317900.952 8  85025029.542 7  20457357.833    20457357.191    20457362.550
        48.400          46.600
 114891883.209 7  89360578.580 5  21470287.407    21470288.675    21470294.495
        42.500          33.900
 116193280.066 6                  21736355.483    21736355.773
        38.300
 109164991.912 5  84906134.738 7  20414398.255    20414400.546    20414411.804
        33.300          44.900
 125150843.509 6  97339595.678 5  23453211.718    23453213.957    23453222.675
        37.500          32.900
 139664781.015 6                  26577324.875
        36.300
 25  1  1 20  9 30.0000000  0 28G21E31G07G02G30G08G13G27G17E33E24R10
                                E09G09E04R09G14S35S31E05E06S33R08R11
                                R21R20R02E26
 115649411.158 5  90116502.74841  22007351.227    22007350.4054   22007351.4864
        31.600          10.7004
 123449095.988 8                  23491571.222
        50.500
 106807534.264 8  83226601.50648  20324787.628    20324787.1234   20324787.9894
        50.100          50.5004
 119654918.303 6  93237623.00043  22769579.295    22769579.0994   22769584.2984
        41.600          22.0004
 110544379.608 8  86138478.42447  21035892.353    21035891.6874   21035893.4904
        50.400          45.0004
 111177802.950 5  86631986.53344  21156416.881    21156416.3724   21156423.2634
        35.200          25.8004
 125568948.262 5  97845938.34142  23894981.045    23894980.8714   23894979.0324
        33.000          13.3004


 124315421.002 5  96869206.58341  23656443.662    23656443.9794   23656458.5544
        35.900          11.0004
 139075474.080 6                  26465172.010
        39.700
 138023535.190 6                  26265007.057
        41.200
 109064412.874 6                  20460208.836    20460206.229
        37.000
 129259499.636 8                  24597270.522
        51.600
 123429420.429 6  96178863.66642  23487836.126    23487836.3624   23487856.5624
        38.800          17.4004
 136718512.576 6                  26016673.268
        36.300
                  95923659.934 4                                  23095827.825
                        29.400
 116970996.372 6  91146174.74744  22258827.776    22258827.5224   22258832.8974
        40.700          25.3004


 198899427.604 7                  37849322.936
        44.600
 131320922.402 5                  24989540.244
        34.700
 130082558.203 7                  24753899.603
        45.800
 202049881.774 7                  38448823.661
        46.800
 121770495.404 5  94710435.120 6  22739783.653    22739789.431    22739811.173
        35.400          38.100
 109293926.239 8  85006382.510 7  20452870.706    20452871.273    20452875.062
        49.900          45.800
 114834275.446 7  89315772.734 6  21459524.409    21459523.919    21459532.618
        43.900          38.400
 109159632.997 5  84901966.672 7  20413399.385    20413400.911    20413408.511
        35.600          44.400
                  97313159.554 4                                  23446852.468
                        29.700
 139656116.714 6                  26575674.956
        39.200
 25  1  1 20  9 45.0000000  0 26E31G07G02G30G08G13G27E33E24R10E09G09
                                E04R09G14S35S31E05E06S33R08R11R21R01
                                R20E26
 123448681.382 8                  23491492.502
        49.700
 106807279.392 8  83226402.90048  20324738.562    20324738.0534   20324739.9284
        49.700          50.5004
 119618338.815 7  93209119.72244  22762618.721    22762618.3644   22762623.1534
        45.100          25.3004
 110515391.171 8  86115890.06347  21030375.456    21030374.7774   21030377.4134
        51.000          47.1004
 111214271.050 6  86660403.24843  21163357.677    21163357.2214   21163358.6924
        36.100          19.9004
 125527666.886 6  97813771.04442  23887126.340    23887126.5814   23887124.4534
        37.300          17.0004


 139037988.083 6                  26458037.871
        38.100
 137997293.972 6                  26260015.021
        41.100
 109082151.236 5                  20463536.121    20463533.291
        33.400
 129275333.853 8                  24600283.047
        50.800
 123483494.061 6  96220998.67942  23498127.243    23498127.4304   23498145.2164
        38.400          14.8004
 136762567.514 5                  26025055.258
        32.400
 123370408.211 5                  23103318.904    23103319.385
        31.300
 116938646.721 7  91120967.20844  22252673.642    22252673.4104   22252675.9464
        44.600          24.5004


 198899418.429 7                  37849318.823
        44.100
 131296694.167 6                  24984932.209
        36.600
 130115022.720 7                  24760077.379
        46.000
 202049894.098 7                  38448828.047
        46.300
 121828604.813 6                  22750642.558    22750640.570
        38.500
 109269993.388 8  84987768.056 7  20448392.871    20448392.183    20448397.469
        49.600          46.400
 114776763.570 7  89271041.506 6  21448776.272    21448776.437    21448787.238
        44.900          41.800
 116226841.552 6                  21742640.850    21742639.525
        36.200
 109154484.242 6  84897962.076 7  20412437.932    20412438.063    20412446.419
        37.400          45.500
 139647556.284 6                  26574045.050
        38.900
 25  1  1 20 10  0.0000000  0 28G21E31G07G02G30G08G13G27G17E33E24R10
                                E09G09E04R09G14S35S31E05E06S33R08R11
                                R21R01R20E26
 115606170.014 6                  21999125.497
        36.200
 123448296.171 8                  23491419.261
        49.700
 106807129.181 8  83226285.83848  20324710.090    20324709.5904   20324711.8604
        50.600          51.0004
 119581834.187 7  93180674.73344  22755671.212    22755670.8554   22755675.8714
        42.700          26.9004
 110486479.412 8  86093361.41947  21024873.907    21024873.2234   21024876.4854
        50.400          47.6004
 111250834.274 7  86688894.11044  21170313.456    21170312.9834   21170314.5514
        43.600          24.5004
 125486478.929 6  97781676.56243  23879289.220    23879289.5824   23879288.1044
        40.300          19.1004


 124210213.510 5  96787241.77242  23636418.136    23636418.6054   23636433.6224
        33.000          16.4004
 139000541.683 6                  26450912.490
        39.300
 137971072.549 6                  26255024.038
        37.200
 109099946.129 6                  20466875.894    20466875.207
        39.400
 129291265.708 8                  24603315.292
        49.700
 123537581.882 6  96263144.78542  23508424.314    23508424.5064   23508437.7694
        40.400          14.0004
 136806649.262 4                  26033444.937
        25.100
 123410457.146 5                  23110841.007    23110839.608
        32.100
 116906329.868 7  91095785.25943  22246523.903    22246523.6534   22246521.8714
        46.200          20.4004


 198899405.392 7                  37849306.628
        42.300
 131272549.769 6                  24980333.380
        36.600
 130147555.763 7                  24766268.021
        46.500
 202049902.468 7                  38448834.853
        47.000
 121886754.426 5                  22761490.459    22761493.122
        35.300
 109246098.692 8  84969183.257 7  20443921.560    20443921.075    20443926.741
        49.700          47.400
 114719344.603 7  89226382.508 6  21438047.478    21438045.835    21438056.560
        43.100          41.900
 116243909.928 6                  21745835.802    21745835.443
        39.700
 109149542.054 6  84894118.146 7  20411515.150    20411514.620    20411522.877
        38.600          45.900
 139639096.212 6                  26572434.056
        37.200
 25  1  1 20 10 15.0000000  0 28G21E31G07G02G30G08G13G27G17E33E24R10
                                E09G09E04R09G14S35S31E05E06S33R08R11
                                R21R01R20E26
 115584761.978 6  90066061.27442  21995052.603    21995052.6034   21995054.1304
        37.600          12.7004
 123447949.871 8                  23491353.228
        49.800
 106807093.343 8  83226257.90548  20324704.491    20324703.9914   20324704.6074
        52.700          51.9004
 119545414.453 6  93152295.88944  22748741.086    22748740.6894   22748744.9324
        40.800          26.3004
 110457654.153 8  86070900.17347  21019388.493    21019387.8054   21019391.2844
        48.200          46.3004
 111287501.778 7  86717466.20844  21177292.956    21177292.4874   21177292.8804
        44.400          26.7004
 125445394.282 6  97749662.58443  23871470.330    23871470.5984   23871471.5294
        41.400          20.1004


 124157681.875 6  96746308.60842  23626425.805    23626426.2874   23626440.1224
        37.100          14.8004
 138963144.903 6                  26443796.209
        41.800
 137944880.510 6                  26250039.707
        37.200
 109117807.002 6                  20470224.651    20470227.882
        40.700
 129307304.744 8                  24606367.146
        49.600
 123591693.177 6  96305309.10541  23518718.772    23518718.8564   23518735.8534
        38.800          10.7004


                                                  23118325.028

 116874055.546 7  91070636.60943  22240381.870    22240381.6074   22240375.8864
        46.500          19.0004


 198899397.933 7                  37849312.535
        42.900
 131248498.953 6                  24975757.898
        39.800
 130180166.730 7                  24772473.696
        44.500
 202049917.015 7                  38448838.618
        46.900
 121944953.610 5  94846215.711 5  22772363.245    22772363.722    22772396.481
        35.400          33.200
 109222252.084 8  84950635.899 7  20439458.613    20439459.115    20439462.783
        51.900          46.600
 114662028.776 7  89181803.734 6  21427336.063    21427336.907    21427345.334
        44.800          41.000
 116261164.510 6                  21749064.693    21749065.797
        41.500
 109144816.275 6  84890442.541 7  20410629.260    20410629.833    20410638.502
        38.800          44.800
 139630746.113 5                  26570845.119
        34.400
 25  1  1 20 10 30.0000000  0 29G21E31G07G02G30G08G13G27G17E33E24R10
                                E09G09E04R09G14S35S31E05E06S33R08R11
                                R21R01R20R02E26
 115563483.476 6  90049480.75542  21991003.559    21991003.1354   21991005.9794
        37.800          15.0004
 123447634.158 8                  23491293.451
        50.000
 106807163.768 8  83226312.77048  20324717.329    20324716.8294   20324717.4184
        51.700          52.3004
 119509071.486 6  93123976.83744  22741825.882    22741825.4134   22741828.6154
        41.700          27.6004
 110428907.385 7  86048500.08947  21013918.252    21013917.5504   21013920.7424
        47.700          45.8004
 111324264.970 7  86746112.82244  21184287.808    21184287.3304   21184291.1314
        44.400          29.8004
 125404405.030 6  97717722.96643  23863670.184    23863670.4434   23863673.4094
        39.600          18.8004


 124105193.189 5  96705408.93342  23616428.858    23616429.8284   23616453.9744
        34.900          16.0004
 138925789.611 7                  26436687.153
        42.200
 137918709.488 5                  26245057.128
        34.300
 109135725.858 6                  20473585.814    20473584.774
        37.200
 129323442.536 8                  24609438.064
        49.200
 123645819.180 6  96347484.6384   23529019.409    23529019.4404   23529035.6814
        38.300           4.7004


 123490660.039 6                  23125837.658    23125836.643
        37.600
 116841815.438 7  91045514.52543  22234245.988    22234245.7204   22234244.4504
        44.500          20.9004


 198899388.018 7                  37849301.567
        42.800
 131224533.650 6                  24971197.843
        40.000
 130212847.138 7                  24778692.693
        44.700
 202049928.237 7                  38448837.872
        47.000
 122003193.109 5  94891512.918 4  22783234.706    22783232.188    22783280.974
        32.100          27.600
 109198445.191 8  84932119.386 7  20435004.070    20435004.252    20435008.309
        51.300          46.500
 114604808.437 7  89137299.243 6  21416643.270    21416642.629    21416649.865
        43.700          39.300
 116278596.532 6                  21752326.327    21752328.825
        41.600
 109140298.643 6  84886928.786 7  20409785.717    20409787.487    20409793.285
        40.200          42.900
 124982575.742 6                  23421664.156    23421660.914
        39.500
 139622497.849 5                  26569273.343
        34.800
 25  1  1 20 10 45.0000000  0 29G21E31G07G02G30G08G13G27G17E33E24R10
                                E09G09E04R09G14S35S31E05E06S33R08R11
                                R21R01R20R02E26
 115542336.535 6  90033002.71942  21986979.617    21986978.9244   21986981.3584
        37.600          16.5004
 123447350.190 8                  23491239.231
        49.700
 106807341.872 8  83226451.54248  20324751.413    20324750.9134   20324751.1394
        52.000          52.1004
 119472807.006 7  93095718.96844  22734923.662    22734923.1124   22734927.3274
        44.300          29.1004
 110400240.572 7  86026162.28847  21008463.010    21008462.3044   21008465.3174
        45.600          44.6004
 111361124.832 7  86774834.72445  21191301.935    21191301.4624   21191306.3554
        42.500          30.0004
 125363512.532 6  97685858.71742  23855888.930    23855889.1664   23855891.8424
        40.300          15.4004


 124052749.016 5  96664543.99542  23606450.690    23606451.8884   23606475.3524
        34.200          16.5004
 138888477.425 6                  26429587.592
        40.000
 137892560.742 6                  26240082.781
        36.000
 109153703.766 4                  20476955.641    20476954.222
        28.500
 129339680.177 7                  24612527.536
        47.000
 123699960.817 5  96389672.29142  23539321.196    23539321.0764   23539337.9954
        31.900          13.1004
 136939148.222 5                  26058654.107
        30.600
 123530807.477 5                  23133346.236    23133348.938
        35.400
 116809610.825 7  91020419.97043  22228118.343    22228118.0934   22228120.1524
        43.400          22.2004


 198899376.149 7                  37849319.337
        44.200
 131200655.173 6                  24966654.747
        39.800
 130245597.991 6                  24784923.757
        41.800
 202049937.839 7                  38448839.759
        46.300
 122061474.251 5                  22794124.423    22794127.498
        35.800
 109174679.298 8  84913634.803 7  20430556.170    20430556.705    20430560.811
        52.200          45.600
 114547685.076 7  89092870.244 6  21405964.749    21405964.931    21405976.415
        42.800          41.400
 116296206.784 5                  21755621.419    21755619.125
        32.100
 109135990.357 6  84883577.914 6  20408977.989    20408978.083    20408985.621
        37.600          41.300
                                                  23415440.646

 139614352.755 5                  26567725.246
        34.700
 25  1  1 20 11  0.0000000  0 26G21E31G07G02G30G08G13G27G17E33E24R10
                                E09G09E04G14S35S31E05E06S33R11R21R01
                                R20E26
 115521320.786 6  90016626.87842  21982979.686    21982978.9984   21982980.5934
        41.300          15.3004
 123447097.898 8                  23491190.866
        48.800
 106807627.693 8  83226674.25048  20324805.974    20324805.4874   20324805.5054
        52.600          52.0004
 119436621.212 7  93067522.39945  22728037.539    22728036.9544   22728041.5304
        44.300          31.7004
 110371653.967 7  86003886.99047  21003022.504    21003021.7854   21003025.2444
        46.300          44.2004
 111398080.841 7  86803631.60645  21198336.014    21198335.5814   21198340.2044
        43.700          32.4004
 125322717.102 7  97654070.15542  23848124.796    23848124.9704   23848128.5784
        42.600          14.1004


 124000349.504 5  96623713.79443  23596486.469    23596487.7794   23596503.5934
        34.900          19.0004
 138851208.476 6                  26422493.605
        40.500
 137866434.094 5                  26235110.011
        31.300
 109171739.759 6                  20480338.751    20480339.965
        36.400
 129356017.552 7                  24615637.008
        47.600


 136983351.318 5                  26067059.884
        34.500
 116777441.595 7  90995353.12043  22221996.651    22221996.3794   22221998.5994
        43.500          22.1004


 198899362.608 7                  37849308.274
        43.200
 131176863.747 6                  24962126.390
        38.700
 130278419.083 7                  24791170.951
        42.000
 202049946.382 7                  38448837.165
        44.400
 109150954.598 8  84895182.258 7  20426117.351    20426117.841    20426121.581
        52.500          46.700
 114490659.348 7  89048517.094 7  21395309.547    21395309.694    21395320.154
        43.800          43.200
 116313994.897 6                  21758971.666    21758973.245
        38.400
 109131891.388 6  84880389.784 6  20408210.637    20408212.049    20408220.750
        37.400          41.800
 139606310.860 5                  26566192.996
        35.600
 25  1  1 20 11 15.0000000  0 28G21E31G07G02G30G08G13G27G17E33E24R10
                                E09G09E04G14S35S31E05E06S33R08R11R21
                                R01R20R02E26
 115500444.626 6  90000359.79642  21979006.272    21979005.6154   21979008.4024
        40.500          17.5004
 123446885.439 8                  23491150.384
        48.500
 106808029.528 8  83226987.36148  20324882.114    20324881.6234   20324881.6924
        52.000          51.5004
 119400522.727 7  93039393.89845  22721169.414    22721168.8204   22721172.6214
        45.100          33.6004
 110343155.989 7  85981680.76947  20997600.026    20997599.3244   20997602.3154
        47.900          45.2004
 111435140.934 7  86832509.60745  21205387.270    21205386.8374   21205394.2424
        45.500          33.6004
 125282027.417 6  97622363.99042  23840382.908    23840383.0374   23840384.4074
        41.700          13.4004


 123948003.107 6  96582925.06543  23586518.170    23586519.4304   23586539.3834
        38.200          20.2004
 138813991.319 6                  26415413.664
        37.000
 137840339.092 4                  26230143.778
        29.000
 109189844.319 6                  20483736.734    20483736.372
        38.100
 129372462.730 7                  24618766.263
        46.500


 137027590.572 6                  26075480.809
        36.500
 116745316.007 7  90970320.15044  22215883.849    22215883.6214   22215887.2154
        47.700          25.8004
 200818304.209 5                  38214452.083
        34.500
 198899356.664 7                  37849309.338
        42.400
 131153167.564 6                  24957617.812
        37.700
 130311318.301 6                  24797431.001
        41.700
 202049962.181 7                  38448834.867
        44.700
 122178165.610 6                  22815916.426    22815914.003
        37.600
 109127279.438 8  84876768.276 7  20421686.623    20421686.955    20421689.814
        51.700          45.800
 114433740.251 7  89004246.886 7  21384676.031    21384674.149    21384684.843
        44.100          43.400
 116331969.527 6                  21762311.463    21762314.593
        36.300
 109128009.858 6  84877370.839 7  20407485.760    20407486.658    20407495.224
        38.100          42.600
 124883454.393 7  97131521.863 5  23403089.399    23403087.480    23403093.103
        45.200          34.400
 139598380.389 5                  26564684.885
        35.800
 25  1  1 20 11 30.0000000  0 27G21E31G07G02G30G08G13G27E33E24R10E09
                                G09E04G14S35S31E05E06S33R08R11R21R01
                                R20R02E26
 115479702.348 6  89984197.07042  21975059.337    21975058.6714   21975061.3854
        38.200          16.7004
 123446706.713 7                  23491115.960
        47.600
 106808541.663 8  83227386.41548  20324979.636    20324979.1454   20324978.6464
        51.800          51.0004
 119364506.023 7  93011329.10345  22714315.393    22714314.8084   22714318.8444
        44.300          33.5004
 110314740.994 8  85959539.21147  20992192.703    20992192.0154   20992195.7304
        48.200          45.2004
 111472298.850 7  86861463.75045  21212457.853    21212457.4024   21212464.0124
        43.500          31.3004
 125241437.895 7  97590735.81942  23832659.448    23832659.5954   23832659.6254
        42.700          13.7004


 138776820.133 6                  26408338.498
        38.000
 137814269.121 6                  26225183.706
        37.000
 109208010.193 6                  20487146.738    20487146.316
        41.800
 129389009.655 7                  24621915.252
        46.100


 137071860.018 5                  26083903.498
        35.800
 116713228.097 7  90945316.62144  22209777.663    22209777.4804   22209781.2594
        46.100          24.8004


 198899350.822 7                  37849306.239
        43.700
 131129561.012 6                  24953127.251
        36.300
 130344289.621 6                  24803705.271
        41.600
 202049977.355 7                  38448840.344
        45.800
 122236570.099 5                  22826820.161    22826817.880
        30.800
 109103647.903 8  84858388.208 7  20417263.094    20417262.674    20417267.813
        50.600          44.000
 114376922.195 7  88960055.213 7  21374059.767    21374059.184    21374066.479
        46.700          44.500
                  90494617.197 5                                  21765714.120
                        30.900
 109124340.296 6  84874516.718 7  20406801.381    20406801.141    20406808.719
        39.100          44.000
 124850738.034 7  97106075.749 5  23396955.134    23396955.880    23396961.717
        44.300          35.700
 139590555.543 6                  26563195.122
        36.800
 25  1  1 20 11 45.0000000  0 28G21E31G07G02G30G08G13G27G17E33E24R10
                                E09G09E04G14S35S31E05E06S33R08R11R21
                                R01R20R02E26
 115459091.403 5  89968136.67942  21971136.250    21971135.5624   21971138.9324
        33.500          13.5004
 123446558.738 7                  23491087.487
        47.200
 106809161.136 8  83227869.10648  20325097.324    20325096.8244   20325096.7154
        51.200          51.1004
 119328568.571 7  92983326.07945  22707475.829    22707475.2174   22707480.3294
        44.500          32.1004
 110286406.218 7  85937460.16047  20986799.303    20986798.6104   20986803.9424
        47.200          43.8004
 111509551.182 6  86890491.46245  21219545.988    21219545.5154   21219547.6164
        41.400          30.9004
 125200945.914 6  97559183.59542  23824955.282    23824955.3664   23824953.0214
        41.900          14.7004




 138739692.371 6                  26401272.027
        36.400
 137788218.671 6                  26220229.169
        38.700
 109226234.585 7                  20490564.815    20490564.540
        42.500
 129405655.207 7                  24625083.183
        47.300
 123916781.877 5  96558600.95143  23580581.285    23580581.1074   23580596.2934
        34.500          21.2004
 137116156.415 6                  26092332.429
        37.800
 116681174.965 7  90920340.18544  22203677.964    22203677.7284   22203681.0224
        45.000          24.3004


 198899342.305 7                  37849308.122
        43.900
 131106041.157 5                  24948651.223
        34.900
 130377329.740 6                  24809992.722
        41.500
 202049990.981 7                  38448843.613
        44.700
 122295019.757 5                  22837737.755    22837734.421
        33.100
 109080057.055 8  84840039.747 7  20412848.475    20412847.483    20412853.101
        49.100          44.100
 114320202.611 7  88915940.161 7  21363461.568    21363463.723    21363466.439
        45.300          44.100
                  90508874.247 5                                  21769144.856
                        32.000
 109120879.718 6  84871825.220 7  20406153.084    20406153.574    20406161.335
        40.500          42.800
 124818179.767 7  97080752.755 6  23390854.328    23390854.342    23390861.516
        43.100          36.000
 139582833.356 6                  26561726.910
        37.400
 25  1  1 20 12  0.0000000  0 28E31G07G02G30G08G13G27G17E33E24R10E09
                                G09E04R09G14S35S31E05E06S33R08R11R21
                                R01R20R02E26
 123446439.229 8                  23491064.780
        48.100
 106809885.824 8  83228433.77748  20325235.451    20325234.9514   20325234.7184
        50.500          50.5004
 119292708.293 7  92955383.16945  22700651.569    22700650.9174   22700656.6834
        43.200          31.0004
 110258149.725 7  85915442.08947  20981422.914    20981422.1504   20981426.8474
        44.700          42.3004
 111546895.331 6  86919590.71945  21226651.989    21226651.5334   21226653.8074
        39.300          31.6004
 125160549.482 6  97527705.85441  23817265.965    23817265.9964   23817264.9074
        38.200          11.5004




 138702605.986 5                  26394213.307
        32.500
 137762187.212 5                  26215269.519
        34.100
 109244514.963 7                  20493993.861    20493992.781
        43.000
 129422397.057 7                  24628268.962
        47.900
 123971002.702 4  96600850.47743  23590894.812    23590894.2674   23590909.2364
        27.000          19.9004
 137160477.326 6                  26100767.528
        37.900
 123732193.847 5  96236082.327 5  23171059.580                    23171049.048
        35.800          30.700
 116649154.308 7  90895389.05343  22197584.466    22197584.1894   22197587.6634
        43.300          23.4004


 198899330.580 7                  37849303.391
        43.600
 131082605.951 6                  24944190.784
        37.100
 130410436.248 6                  24816293.378
        41.300
 202050000.044 7                  38448845.992
        44.700


 109056504.852 8  84821721.317 7  20408441.181    20408441.236    20408444.573
        49.500          43.300
 114263579.962 6  88871900.502 7  21352883.976    21352883.238    21352884.215
        40.100          43.200
 116387013.081 4  90523266.491 5  21772599.990                    21772608.190
        28.500          33.200
 109117625.721 6  84869294.331 7  20405546.288    20405546.041    20405552.984
        40.000          45.200
 124785777.457 6  97055550.964 6  23384783.171    23384781.834    23384790.426
        40.400          36.300
 139575211.782 5                  26560275.647
        35.800
 25  1  1 20 12 15.0000000  0 28G21E31G07G02G30G08G13G27G17E33E24R10
                                E09G09E04R09G14S35S31E05E06S33R08R11
                                R21R20R02E26
 115418280.012 5  89936332.08441  21963366.596    21963365.8054   21963370.8564
        31.200           8.9004
 123446354.957 8                  23491048.816
        48.100
 106810722.742 8  83229085.90048  20325394.288    20325393.7744   20325394.5744
        51.800          51.3004
 119256932.538 6  92927506.13744  22693844.813    22693844.2144   22693848.4944
        41.000          29.6004
 110229978.599 7  85893490.55747  20976062.236    20976061.4544   20976066.2884
        43.300          42.3004
 111584337.896 6  86948766.71045  21233778.537    21233778.1624   21233780.9394
        40.100          32.7004
 125120255.587 6  97496307.96241  23809599.382    23809599.4894   23809597.0314
        38.600          10.8004




 138665568.062 5                  26387165.640
        31.000
 137736181.904 5                  26210324.244
        33.100
 109262858.777 6                  20497434.405    20497433.708
        41.700
 129439241.860 8                  24631474.161
        48.100
 124025240.609 5  96643113.44543  23601216.931    23601216.3814   23601228.1894
        33.700          21.3004
 137204829.298 6                  26109207.194
        38.600
 123772538.877 5  96267499.414 5  23178589.944                    23178612.834
        33.500          31.000
 116617173.078 7  90870468.67043  22191499.535    22191499.3074   22191500.5824
        44.000          19.6004


 198899319.931 7                  37849301.321
        43.100
 131059262.308 6                  24939749.147
        40.000
 130443615.808 6                  24822606.467
        39.000
 202050011.478 7                  38448850.799
        46.400
                  95209520.867 6                                  22859621.462
                        36.600
 109032998.218 8  84803438.441 7  20404042.912    20404042.809    20404047.242
        49.400          44.800
 114207061.477 6  88827941.917 7  21342314.069    21342310.834    21342324.053
        41.500          42.900
 109114585.549 6  84866929.810 7  20404977.892    20404977.171    20404986.242
        40.100          46.500
 124753538.447 6  97030476.245 6  23378744.831    23378746.614    23378748.521
        41.200          36.800
 139567697.767 5                  26558846.095
        35.600
 25  1  1 20 12 30.0000000  0 28G21E31G07G02G30G08G13G27G17E33E24R10
                                E09G09E04R09G14S35S31E05E06S33R11R21
                                R01R20R02E26
 115398068.659 5  89920582.99641  21959522.264    21959521.2324   21959526.0704
        33.500          10.8004
 123446302.402 8                  23491038.952
        48.500
 106811668.537 8  83229822.86048  20325574.107    20325573.5984   20325574.8034
        52.000          51.3004
 119221238.104 7  92899692.47844  22687053.860    22687053.2344   22687054.8474
        42.000          28.9004
 110201889.617 7  85871603.01647  20970718.028    20970717.2644   20970721.5144
        43.900          43.1004
 111621874.965 7  86978016.31445  21240921.545    21240921.1614   21240925.8584
        42.300          33.8004
 125080061.276 5  97464987.79341  23801948.993    23801949.0954   23801948.0574
        34.700           8.3004


 123686920.414 5  96379500.91643  23536841.944    23536841.7754   23536857.6714
        33.800          19.2004
 138628575.412 5                  26380125.936
        30.600
 137710198.631 5                  26205379.281
        32.600
 109281262.381 7                  20500889.527    20500888.466
        43.600
 129456186.092 8                  24634697.986
        48.800


 137249208.693 5                  26117651.221
        34.100


 116585227.751 6  90845576.15842  22185419.530    22185419.2224   22185420.3294
        40.500          16.7004


 198899308.534 6                  37849303.333
        41.800
 131036007.042 6                  24935322.358
        39.500
 130476864.666 6                  24828933.458
        38.600
 202050021.769 7                  38448856.822
        44.000
 109009533.756 8  84785188.240 7  20399651.508    20399650.741    20399656.632
        48.900          43.200
 114150644.604 8  88784062.217 7  21331771.343    21331772.006    21331781.188
        49.200          43.500
 116424633.165 5  90552469.090 6  21779629.387    21779630.465    21779628.844
        34.500          36.700
 109111755.404 6  84864728.613 7  20404446.704    20404447.395    20404457.316
        39.500          46.600
 124721384.432 6  97005525.915 6  23372737.225    23372739.674    23372735.410
        38.700          38.300
 139560287.735 6                  26557435.997
        37.000
 25  1  1 20 12 45.0000000  0 27E31G07G02G30G08G13G27G17E33E24R10E09
                                G09E04R09G14S35S31E05E06S33R11R21R01
                                R20R02E26
 123446283.792 8                  23491035.643
        49.300
 106812725.696 8  83230646.61448  20325775.645    20325775.1314   20325776.2144
        51.500          52.2004
 119185627.591 6  92871944.20244  22680277.715    22680277.0724   22680276.9994
        41.800          27.1004
 110173885.267 7  85849781.44647  20965389.178    20965388.4184   20965391.5954
        47.400          42.9004
 111659508.656 7  87007341.29745  21248082.409    21248082.0124   21248087.6404
        44.600          33.5004
 125039968.908 5  97433746.7334   23794319.592    23794319.7574   23794318.4944
        35.800           3.6004
 127024116.225 5                  24171886.779
        35.500


 138591630.476 6                  26373098.158
        36.700
 137684240.059 6                  26200440.193
        36.100
 109299728.256 6                  20504351.796    20504350.204
        41.700
 129473231.969 7                  24637941.824
        47.700
 124133761.576 5  96727649.09443  23621871.414    23621871.1334   23621878.3614
        34.800          23.5004
 137293617.518 5                  26126102.666
        34.300
 123853419.490 5                  23193758.019
        31.900
 116553320.615 6  90820713.36342  22179348.264    22179347.9784   22179347.3334
        40.200          16.3004


 198899299.313 6                  37849297.278
        41.200
 131012842.518 6                  24930914.849
        39.900
 130510184.949 5                  24835274.509
        33.100
 202050032.911 7                  38448865.359
        46.000
 108986113.855 8  84766972.836 6  20395268.455    20395268.574    20395270.551
        49.200          41.400
 114094331.971 8  88740263.715 6  21321246.809    21321247.944    21321255.570
        49.200          41.000
 116443673.346 4  90567278.126 5  21783188.981    21783186.903    21783190.777
        29.400          34.900
 109109138.008 6  84862692.901 7  20403958.440    20403957.618    20403966.538
        36.400          45.300
 124689487.900 5  96980702.118 6  23366760.472                    23366756.944
        30.600          37.100
 139552984.251 6                  26556047.614
        38.700
 25  1  1 20 13  0.0000000  0 26E31G07G02G30G08G27G17E33E24R10E09G09
                                E04G14S35S31E05E06S33R08R11R21R01R20
                                R02E26
 123446301.816 8                  23491039.855
        49.900
 106813897.010 8  83231559.32448  20325998.641    20325998.1274   20325999.0714
        51.100          51.4004
 119150104.350 5  92844263.84743  22673518.313    22673517.6744   22673514.7484
        35.700          23.4004
 110145968.623 8  85828028.22847  20960076.381    20960075.6304   20960077.4384
        49.800          43.8004
 111697241.173 7  87036743.21045  21255262.716    21255262.3194   21255266.2094
        42.300          31.8004
 127079996.073 5  99023391.1864   24182521.707    24182521.5914   24182523.9954
        35.300           4.1004
 123582896.458 5  96298409.98143  23517046.119    23517046.0394   23517051.1374
        32.300          20.5004
 138554736.320 5                  26366074.540
        35.300
 137658309.023 6                  26195507.160
        41.000
 109318258.918 6                  20507826.336    20507825.424
        41.300
 129490381.975 8                  24641205.414
        48.100
 124188045.922 6  96769948.24443  23632200.446    23632200.3794   23632206.5534
        39.000          23.8004
 137338058.289 5                  26134558.322
        30.300




 198899292.696 6                  37849293.987
        38.600
 130989771.626 7                  24926524.869
        42.100
 130543579.224 6                  24841628.519
        36.600
 202050048.262 7                  38448863.744
        42.900
 122587844.802 5                  22892419.369
        32.800
 108962741.518 8  84748794.388 6  20390895.376    20390895.237    20390897.734
        49.800          41.200
 114038126.751 7  88696548.806 7  21310741.793    21310742.015    21310753.683
        47.200          43.200
                  90582227.945 5                                  21786787.071
                        33.400
 109106735.629 6  84860824.437 7  20403509.199    20403509.365    20403515.874
        38.000          45.200
 124657773.821 5  96956007.412 6  23360811.245                    23360802.715
        32.600          36.600
 139545790.067 6                  26554679.694
        38.400
 25  1  1 20 13 15.0000000  0 28G21E31G07G02G30G08G13G27G17E33E24R10
                                E09G09E04G14S35S31E05E06S33R11R21R01
                                R20R02R12E26
 115338253.443 5  89873963.92742  21948137.766    21948137.1904   21948141.8294
        35.900          13.7004
 123446349.138 8                  23491048.307
        49.400
 106815175.558 8  83232555.58148  20326242.380    20326241.8664   20326241.8714
        52.000          51.9004
 119114661.435 5  92816646.05643  22666767.749    22666767.1324   22666769.4264
        34.300          19.4004
 110118132.667 8  85806337.84347  20954778.890    20954778.1394   20954778.9814
        48.800          43.2004
 111735064.994 6  87066216.31944  21262459.554    21262459.1574   21262463.5584
        40.900          29.5004
 124960092.450 6                  23779120.897
        37.200
 127135900.100 5                  24193159.108
        32.400
 123530927.814 6  96257915.51843  23507148.479    23507148.5554   23507158.8264
        36.900          21.1004
 138517886.122 6                  26359065.195
        38.100
 137632397.867 6                  26190577.401
        41.000
 109336847.219 7                  20511315.787    20511314.930
        44.100
 129507628.746 7                  24644487.081
        46.500


 137382523.344 5                  26143024.249
        35.300
 116489546.864 6  90771075.08442  22167224.401    22167223.9144   22167225.0684
        36.300          15.3004


 198899282.634 7                  37849295.436
        44.600
 130966787.250 7                  24922151.669
        42.500
 130577040.002 6                  24847995.771
        37.900
 202050059.682 7                  38448860.502
        43.600
 108939409.282 8  84730647.049 7  20386528.561    20386528.752    20386533.153
        50.800          44.100
 113982022.404 8  88652912.278 6  21300258.013    21300258.358    21300267.866
        48.000          41.600
 116482242.252 6  90597312.509 5  21790415.540    21790412.253    21790416.906
        40.700          35.900
 109104541.342 5  84859117.741 7  20403095.581    20403095.915    20403106.251
        34.100          44.900
 124626181.920 5  96931436.108 5  23354887.614    23354887.602    23354881.536
        32.300          33.600
 130383473.347 4                  24408057.439
        28.200
 139538697.886 6                  26553329.099
        36.800
 25  1  1 20 13 30.0000000  0 30G21E31G07G02G30G08G13G27G17E33E24R10
                                E09G09E04R09G14S35S31E05E06S33R08R11
                                R21R01R20R02R12E26
 115318586.826 6  89858639.31842  21944395.588    21944394.6364   21944399.4474
        37.200          15.1004
 123446431.583 8                  23491064.056
        50.700
 106816567.242 8  83233639.99448  20326506.665    20326506.1474   20326506.8014
        52.100          51.2004
 119079304.838 6  92789095.57743  22660043.735    22660043.1454   22660042.7244
        37.300          23.5004
 110090383.460 7  85784715.05647  20949498.996    20949498.2634   20949498.6484
        47.200          42.0004
 111772985.715 6  87095764.89645  21269677.267    21269676.8744   21269679.9794
        41.900          30.7004
 124920307.776 6  97340518.54442  23771547.678    23771547.5854   23771549.9044
        38.800          12.6004
 127191833.946 5  99110595.94141  24203800.310    24203800.2574   24203819.7584
        32.200           9.4004
 123479010.212 6  96217460.96743  23497277.431    23497277.4624   23497278.4684
        39.100          23.3004
 138481085.778 6                  26352061.615
        38.800
 137606512.655 6                  26185651.272
        41.800
 109355499.086 7                  20514816.815    20514816.980
        46.000
 129524978.107 7                  24647788.968
        46.300
 124296614.492 4  96854547.95441  23652856.828    23652857.0154   23652869.0404
        27.600           6.1004
 137427018.651 5                  26151488.776
        34.400


 116457754.054 7  90746301.39143  22161177.119    22161176.4854   22161174.6814
        43.000          18.8004


 198899275.847 7                  37849298.933
        45.500
 130943895.367 6                  24917794.978
        41.900
 130610572.768 6                  24854377.299
        40.500
 202050074.158 7                  38448862.510
        46.600
 122705240.230 5                  22914346.381
        31.300
 108916123.239 8  84712535.681 7  20382172.064    20382172.336    20382175.288
        52.400          46.300
 113926025.485 7  88609359.278 7  21289793.981    21289793.322    21289804.511
        46.600          42.100
 116501815.881 6  90612536.323 6  21794064.889    21794069.048    21794079.147
        37.300          38.600
 109102561.259 5  84857577.735 7  20402726.978    20402726.487    20402736.462
        35.900          45.800
                  96906993.097 6                  23348988.548    23348994.564
                        36.800


 139531713.860 5                  26551998.390
        35.900
 25  1  1 20 13 45.0000000  0 29G21E31G07G02G30G08G13G27G17E33E24R10
                                E09G09E04G14S35S31E05E06S33R08R11R21
                                R01R20R02R12E26
 115299052.961 5  89843418.19142  21940678.355    21940677.0724   21940681.5084
        34.000          12.1004
 123446543.640 8                  23491085.394
        49.400
 106818066.682 8  83234808.36748  20326791.957    20326791.4434   20326792.1714
        50.800          50.3004
 119044029.598 6  92761608.51844  22653329.294    22653328.6244   22653330.6484
        40.000          24.5004
 110062715.842 7  85763155.85046  20944234.603    20944233.8664   20944234.4214
        45.000          40.9004
 111810997.418 7  87125384.36645  21276911.924    21276911.5274   21276914.7734
        42.300          30.2004
 124880622.273 6  97309594.75342  23763996.702    23763996.7464   23763998.0984
        38.100          13.1004
 127247791.899 4  99154199.52141  24214455.588    24214455.4864   24214466.7544
        27.100           9.9004
 123427138.703 6  96177042.32843  23487405.072    23487404.7594   23487409.0874
        38.200          23.1004
 138444330.192 6                  26345066.007
        38.300
 137580647.786 6                  26180726.364
        37.200
 109374208.903 7                  20518326.103    20518326.412
        44.400
 129542424.418 7                  24651109.178
        45.100


 137471538.153 4                  26159958.108
        24.500
 116425995.245 6  90721554.28043  22155133.959    22155133.5124   22155131.0244
        41.300          20.8004


 198899265.481 7                  37849285.080
        44.200
 130921090.725 6                  24913455.395
        41.400
 130644172.023 6                  24860771.334
        39.500
 202050085.383 7                  38448863.212
        46.100
 122763990.255 6                  22925317.235
        36.400
 108892878.107 8  84694456.069 8  20377821.432    20377821.693    20377826.528
        51.600          49.000
 113870130.712 7  88565885.741 7  21279348.626    21279346.806    21279359.888
        43.900          44.300
 116521562.507 6  90627894.716 6  21797762.091    21797760.167    21797771.643
        37.500          37.500
 109100789.695 6  84856199.852 7  20402396.413    20402396.888    20402404.587
        36.800          44.700
                  96882674.665 6                                  23343135.540
                        37.200


 139524832.512 5                  26550690.119
        33.800
 25  1  1 20 14  0.0000000  0 27G21E31G07G02G30G08G13G27G17E33E24R10
                                E09G09E04G14S35S31E05E06S33R11R21R01
                                R20R12E26
 115279658.043 5  89828305.32441  21936988.118    21936986.9114   21936990.1254
        31.800          11.5004
 123446691.062 8                  23491113.649
        49.500
 106819679.767 8  83236065.31048  20327098.984    20327098.4664   20327098.9514
        51.300          50.1004
 119008841.831 7  92734189.62744  22646634.675    22646633.9914   22646635.3014
        44.900          26.2004
 110035135.946 7  85741665.04046  20938985.627    20938984.8724   20938986.8034
        46.300          40.7004
 111849105.687 6  87155079.07144  21284164.043    21284163.6774   21284167.1014
        41.400          28.1004
 124841042.170 6  97278753.11541  23756463.307    23756463.2764   23756465.9544
        39.900          11.5004




 138407625.504 6                  26338081.087
        38.000
 137554809.199 5                  26175808.930
        31.800
 109392983.185 6                  20521845.514    20521846.111
        41.900
 129559973.507 7                  24654448.358
        45.100


 137516087.835 6                  26168438.978
        36.300
 116394276.444 7  90696838.34643  22149097.710    22149097.3214   22149094.6744
        46.800          23.3004


 198899257.997 7                  37849286.390
        43.200
 130898379.359 7                  24909134.020
        42.600
 130677843.407 6                  24867180.037
        41.300
 202050099.847 7                  38448874.145
        46.800
 108869679.848 8  84676412.944 8  20373479.999    20373480.897    20373485.495
        51.700          49.500
 113814344.821 7  88522496.891 7  21268924.434    21268925.185    21268935.234
        47.300          42.400
 116541487.990 5  90643392.146 6  21801490.882    21801486.133    21801498.991
        33.400          38.400
 109099232.748 6  84854988.900 7  20402103.862    20402104.699    20402112.505
        37.100          44.400


 139518059.797 6                  26549399.953
        38.300
 25  1  1 20 14 15.0000000  0 29G21E31G07G02G30G08G13G27G17E33E24R10
                                E09G09E04R09G14S35S31E05E06S33R08R11
                                R21R01R20R02E26
 115260398.204 6  89813297.78142  21933321.468    21933320.5974   21933325.3854
        37.700          13.2004
 123446869.622 8                  23491147.370
        49.000
 106821402.485 8  83237407.66048  20327426.575    20327426.0704   20327426.2384
        52.100          49.9004
 118973737.791 7  92706835.95344  22639953.375    22639952.6384   22639956.3034
        45.700          27.0004
 110007639.739 7  85720239.42147  20933752.667    20933751.8984   20933754.7634
        47.600          42.2004
 111887305.810 6  87184845.33444  21291435.914    21291435.5394   21291436.1044
        38.500          24.7004
 124801563.513 6  97247990.50241  23748952.700    23748952.6874   23748953.2884
        37.200          10.7004




 138370967.647 6                  26331105.355
        39.900
 137528992.529 6                  26170897.681
        37.000
 109411817.082 7                  20525379.295    20525379.954
        43.700
 129577620.807 7                  24657807.366
        47.200


 137560662.856 6                  26176924.061
        38.700
 124096603.129 5                  23239258.638    23239264.326
        35.300
 116362593.340 7  90672150.26144  22143069.525    22143069.1364   22143066.1444
        46.700          26.4004


 198899249.834 7                  37849281.900
        44.300
 130875757.057 7                  24904827.579
        42.700
 130711582.285 6                  24873601.016
        41.200
 202050112.421 7                  38448871.659
        46.700
 122881600.018 5                  22947280.286    22947279.596
        33.600
 108846524.344 8  84658403.062 8  20369147.563    20369147.966    20369151.817
        50.300          48.600
 113758663.895 7  88479189.722 7  21258517.311    21258518.320    21258530.242
        47.600          43.200
 116561587.189 6  90659024.831 6  21805249.912    21805248.105    21805260.023
        37.300          37.200
 109097885.775 5  84853941.232 7  20401851.860    20401851.485    20401860.784
        35.200          44.900
                  96834422.155 5                                  23331502.082
                        31.300
 139511391.483 6                  26548132.071
        39.400
 25  1  1 20 14 30.0000000  0 28G21E31G07G02G30G08G13G27G17E33E24R10
                                E09G09E04R09G14S35S31E05E06S33R08R11
                                R21R01R20E26
 115241271.323 5  89798393.73541  21929682.772    21929682.0174   21929685.7974
        32.700          11.6004
 123447076.969 8                  23491187.334
        49.800
 106823232.675 8  83238833.78048  20327775.471    20327774.9754   20327773.9614
        52.700          50.4004
 118938715.538 7  92679546.01644  22633288.757    22633288.0244   22633292.7534
        45.800          26.9004
 109980225.235 7  85698877.47147  20928535.537    20928534.7374   20928538.4274
        46.100          42.8004


 124762184.382 5  97217305.47341  23741458.561    23741458.4454   23741459.7844
        33.200          10.5004


 123271911.373 6  96056039.82444  23457833.064    23457832.9484   23457855.1634
        37.100          24.6004
 138334354.706 6                  26324140.126
        40.900
 137503183.484 4                  26165985.497
        27.700
 109430708.741 6                  20528920.934    20528920.057
        38.200
 129595364.106 7                  24661183.553
        46.300


 137605260.861 6                  26185405.884
        37.200
 124137239.649 5                  23246868.589    23246871.017
        35.700
 116330943.819 7  90647488.30344  22137046.422    22137046.0514   22137046.2984
        45.900          29.1004


 198899237.307 7                  37849280.805
        43.800
 130853221.777 7                  24900539.874
        43.400
 130745386.376 6                  24880032.735
        41.400
 202050121.605 7                  38448866.848
        44.700
 122940452.041 4  95620538.731 5  22958269.201    22958268.850    22958296.547
        26.300          32.000
 108823409.385 8  84640424.769 8  20364818.675    20364820.205    20364826.846
        48.400          48.600
 113703086.286 7  88435962.832 6  21248131.665    21248131.693    21248143.164
        46.800          41.600
 116581857.867 5  90674790.963 6  21809042.123    21809039.839    21809052.738
        33.500          36.900
 109096746.598 6  84853055.236 7  20401639.645    20401639.154    20401646.669
        36.200          42.900
 139504825.455 6                  26546883.208
        40.200
 25  1  1 20 14 45.0000000  0 26G21E31G07G02G30G08G27G17E33E24R10E09
                                G09E04R09G14S35S31E05E06S33R11R21R01
                                R20E26
 115222285.150 5  89783599.33441  21926081.057    21926080.2354   21926073.0534
        32.900          11.7004
 123447320.557 7                  23491232.639
        46.900
 106825177.933 8  83240349.54848  20328145.618    20328145.1224   20328143.8314
        52.800          50.6004
 118903782.899 7  92652325.93543  22626640.635    22626639.8574   22626644.6004
        44.300          22.5004
 109952900.198 7  85677585.21747  20923336.366    20923335.5624   20923338.6284
        43.300          42.4004




 123220240.093 6  96015777.12443  23448004.073    23448004.0814   23448016.4534
        36.500          23.0004
 138297794.443 6                  26317181.676
        38.900
 137477417.553 6                  26161085.196
        37.000
 109449665.583 7                  20532482.239    20532481.790
        44.800
 129613210.734 7                  24664579.229
        46.800


 137649889.159 6                  26193899.872
        37.400
 124177912.971 5                  23254481.954    23254484.598
        30.300
 116299335.401 7  90622858.38645  22131031.725    22131031.3634   22131033.9554
        43.100          30.1004


 198899228.326 7                  37849282.003
        43.800
 130830781.166 7                  24896269.475
        43.400
 130779262.923 6                  24886479.396
        40.700
 202050134.166 7                  38448874.803
        46.200
 108800342.682 7  84622483.947 7  20360501.857    20360502.549    20360509.280
        46.200          46.100
 113647620.115 8  88392822.643 6  21237767.579    21237767.406    21237776.602
        48.100          40.700
 116602307.306 6  90690695.967 5  21812873.128    21812872.811    21812873.717
        41.000          32.200
 109095823.250 6  84852337.091 7  20401466.777    20401467.207    20401474.722
        37.200          44.100
 139498369.323 6                  26545654.400
        38.900
 25  1  1 20 15  0.0000000  0 28G21E31G07G02G30G08G13G27G17E33E24R10
                                E09G09E04R09G14S35S31E05E06S33R08R11
                                R21R01R20E26
 115203432.690 6  89768909.19742  21922479.844    21922478.8344   21922485.7164
        36.300          14.8004
 123447593.078 7                  23491284.496
        45.900
 106827231.193 8  83241949.47448  20328536.193    20328535.6934   20328535.3354
        53.100          52.1004
 118868933.015 7  92625170.37843  22620009.035    22620008.2534   22620011.0774
        43.400          19.4004
 109925657.654 7  85656357.24747  20918152.531    20918151.6554   20918155.2304
        45.800          43.2004
 112002560.112 6  87274608.71543  21313342.196    21313342.6204   21313349.8404
        37.000          23.8004
 124683755.224 6                  23726529.331
        36.000


 123168615.349 5  95975550.62443  23438180.471    23438180.3604   23438188.9724
        33.500          23.6004
 138261279.894 5                  26310230.745
        32.500
 137451667.357 4                  26156185.650
        28.000
 109468680.751 7                  20536046.854    20536047.649
        45.700
 129631153.288 7                  24667994.120
        47.800
 124622703.598 4                  23714910.039
        28.700
 137694540.131 6                  26202397.231
        39.100


 116267760.723 6  90598254.76744  22125022.159    22125021.8244   22125026.6794
        37.500          28.2004


 198899216.743 7                  37849279.141
        44.000
 130808428.186 7                  24892016.176
        44.200
 130813204.433 6                  24892937.259
        38.400
 202050143.364 7                  38448874.127
        44.700
 123058260.462 5                  22980280.320
        32.900
 108777316.891 7  84604574.994 7  20356192.404    20356191.936    20356200.152
        43.600          44.700
 113592258.477 8  88349763.771 6  21227422.266    21227422.299    21227430.658
        48.100          41.200
 116622927.792 7  90706734.036 5  21816724.528    21816726.424    21816734.292
        42.000          31.900
 109095108.385 6  84851781.052 7  20401335.319    20401335.379    20401340.949
        36.900          45.800
 139492015.853 6                  26544444.841
        37.700
 25  1  1 20 15 15.0000000  0 27G21E31G07G02G30G08G13G27G17E33E24R10
                                E09G09E04G14S35S31E05E06S33R08R11R21
                                R01R20E26
 115184720.794 5  89754328.59642  21918921.728    21918920.6154   21918924.5874
        35.300          16.5004
 123447901.037 7                  23491343.467
        44.900
 106829399.278 8  83243638.86348  20328948.798    20328948.2984   20328949.0184
        52.600          52.6004
 118834172.733 6  92598084.57643  22613393.877    22613393.0994   22613395.1554
        41.400          19.9004
 109898504.425 7  85635198.88047  20912985.266    20912984.3774   20912988.8704
        45.300          44.5004
 112041130.225 6  87304663.34044  21320682.739    21320682.7654   21320689.9114
        37.800          25.4004
 124644691.007 5                  23719101.381
        34.000


 123117044.390 5  95935366.06343  23428364.804    23428364.5684   23428374.7264
        34.000          22.1004
 138224817.767 6                  26303295.110
        37.800
 137425943.621 6                  26151291.332
        36.700
 109487760.500 7                  20539627.233    20539627.147
        45.200
 129649198.242 7                  24671427.800
        46.800
 124677092.894 5                  23725261.626
        31.300
 137739220.278 6                  26210899.166
        40.400
 116236226.429 6  90573682.57643  22119020.987    22119020.7914   22119025.2614
        37.600          23.9004


 198899207.925 7                  37849273.154
        43.700
 130786169.463 7                  24887779.780
        44.300
 130847217.270 5                  24899409.556
        33.800
 202050156.447 7                  38448878.952
        45.500
 123117214.939 5                  22991294.361    22991295.400
        34.300
 108754339.120 8  84586703.280 7  20351896.476    20351896.701    20351897.986
        48.800          42.300
 113537008.800 7  88306791.991 6  21217096.561    21217097.421    21217105.408
        47.200          39.700
 116643725.684 7  90722910.186 5  21820616.803    21820618.511    21820623.222
        43.100          32.300
 109094608.123 5  84851391.993 7  20401241.093    20401240.778    20401247.957
        35.700          46.900
 139485771.711 5                  26543255.845
        35.500
 25  1  1 20 15 30.0000000  0 28G21E31G07G02G30G08G27G17E33E24R10E09
                                G09E04R09G14S35S31E05E06S33R08R11R21
                                R01R20R02E26
 115166145.416 5  89739854.30242  21915386.869    21915385.8104   21915388.9964
        34.800          15.7004
 123448240.097 7                  23491408.187
        45.200
 106831677.852 8  83245414.35148  20329381.815    20329381.3104   20329383.4814
        51.800          52.3004
 118799498.264 6  92571065.67243  22606796.110    22606795.3104   22606796.4404
        41.000          19.4004
 109871436.425 7  85614106.90547  20907833.843    20907832.9634   20907838.8804
        47.600          45.3004
 112079790.857 7  87334788.49144  21328041.679    21328041.7374   21328047.8814
        44.000          29.0004


 123065523.325 6  95895220.38744  23418560.700    23418560.4774   23418571.0024
        38.700          24.6004
 138188404.135 6                  26296364.528
        39.300
 137400241.841 5                  26146397.527
        35.900
 109506900.846 7                  20543216.925    20543215.410
        43.800
 129667341.108 8                  24674880.836
        48.700
 124731491.120 5                  23735612.036
        34.000
 137783924.932 6                  26219406.128
        37.600


 116204728.282 7  90549138.54944  22113028.479    22113028.3054   22113030.7604
        42.300          26.2004


 198899197.499 7                  37849274.321
        43.400
 130764000.881 7                  24883561.356
        42.900
 130881296.913 6                  24905895.370
        37.000
 202050167.499 7                  38448879.820
        44.800
 123176200.232 5  95803901.651 5  23002304.735    23002304.418    23002328.105
        33.900          31.300
 108731404.681 8  84568865.429 6  20347604.327    20347602.718    20347605.662
        48.200          40.700
 113481867.296 8  88263904.336 6  21206791.824    21206792.848    21206798.708
        48.200          38.400
 116664696.250 6  90739220.472 5  21824549.198    21824547.078    21824547.545
        40.400          35.500
 109094318.585 5  84851166.860 8  20401183.911    20401183.125    20401194.669
        33.000          48.800
 124349054.323 5  96715998.640 5  23302970.359    23302971.698    23302977.866
        35.500          33.700
 139479632.647 5                  26542088.035
        35.000
 25  1  1 20 15 45.0000000  0 28G21E31G07G02G30G08G13G27G17E33E24R10
                                E09G09E04R09G14S35S31E05E06S33R11R21
                                R01R20R02E26
 115147710.269 5  89725489.34642  21911878.305    21911877.1924   21911880.2704
        34.100          12.3004
 123448613.700 7                  23491480.022
        45.400
 106834070.545 8  83247278.76148  20329836.660    20329836.1424   20329839.2874
        50.600          51.5004
 118764913.235 6  92544116.44543  22600215.138    22600214.2754   22600214.2524
        41.700          21.3004
 109844457.392 7  85593084.24647  20902698.966    20902698.0454   20902704.7244
        47.300          45.9004
 112118545.158 7  87364986.64444  21335414.893    21335414.9694   21335424.1224
        42.000          27.1004
 124566873.268 6                  23704290.147
        37.000


 123014055.566 6  95855116.23344  23408765.060    23408764.8644   23408775.6044
        39.400          24.8004
 138152042.657 6                  26289445.197
        41.800
 137374565.480 5                  26141511.116
        35.000
 109526104.819 6                  20546816.428    20546813.970
        37.100
 129685585.285 8                  24678352.248
        48.900
 124785901.350 5  97235803.34841  23745966.504    23745966.4964   23745979.3344
        33.800           9.3004
 137828657.363 5                  26227919.570
        35.400
                  96709476.239 5                                  23285029.751
                        32.800
 116173269.708 6  90524625.36543  22107041.230    22107041.0164   22107044.0584
        38.900          23.9004


 198899190.035 7                  37849271.839
        43.900
 130741925.988 6                  24879359.616
        40.100
 130915446.580 6                  24912393.361
        37.700
 202050181.112 7                  38448883.817
        44.800
 108708517.509 8  84551064.311 6  20343320.947    20343320.362    20343322.152
        50.800          41.100
 113426837.788 7  88221103.811 6  21196505.871    21196507.369    21196514.731
        47.200          39.300
 116685842.597 6  90755667.562 6  21828493.339    21828498.601    21828503.491
        41.100          37.800
 109094243.019 6  84851108.070 8  20401170.940    20401170.882    20401180.499
        36.600          48.900
 124319104.472 5  96692704.406 5  23297359.668    23297356.028    23297363.945
        34.400          32.100
 139473602.196 6                  26540940.412
        36.500
 25  1  1 20 16  0.0000000  0 28G21E31G07G02G30G08G13G27G17E33E24R10
                                E09G09E04R09G14S35S31E05E06S33R11R21
                                R01R20R02E26
 115129413.726 6  89711232.37242  21908397.776    21908396.6004   21908398.1784
        38.800          16.0004
 123449019.826 7                  23491556.728
        45.700
 106836575.586 8  83249230.72348  20330313.982    20330313.4684   20330315.7214
        50.100          50.5004
 118730416.055 7  92517235.69443  22593649.654    22593648.7914   22593649.8654
        44.400          23.8004
 109817565.674 8  85572129.64447  20897582.797    20897581.8994   20897587.2964
        48.800          46.4004
 112157390.761 6  87395255.93143  21342806.402    21342806.4604   21342818.1514
        41.600          23.2004
 124528124.741 6                  23696915.509
        36.300


 122962639.463 6  95815052.30244  23398979.861    23398979.6694   23398991.2834
        40.500          26.2004
 138115731.715 6                  26282535.761
        41.800
 137348912.720 5                  26136630.095
        33.500
 109545371.104 6                  20550432.631    20550431.701
        39.600
 129703928.710 8                  24681842.386
        49.300


 137873415.345 6                  26236439.273
        38.900
 124381609.154 5  96741239.291 5  23292666.296                    23292680.120
        35.200          32.100
 116141848.774 6  90500141.54044  22101062.901    22101062.7054   22101064.3994
        41.000          24.3004


 198899183.185 7                  37849274.375
        44.200
 130719943.138 6                  24875177.792
        39.300
 130949664.138 6                  24918907.383
        37.900
 202050195.224 7                  38448887.185
        46.200
 108685675.588 8  84533298.374 7  20339047.025    20339047.445    20339050.245
        52.500          44.100
 113371919.104 8  88178389.445 6  21186244.591    21186245.528    21186253.382
        48.400          39.300
 116707162.415 6  90772249.656 6  21832481.473    21832483.877    21832491.727
        41.600          39.900
 109094379.973 6  84851214.574 8  20401198.818    20401198.843    20401206.264
        37.600          48.700
 124289320.655 6  96669539.202 5  23291777.609    23291774.826    23291786.039
        36.900          34.900
 139467678.496 6                  26539813.129
        36.100
 25  1  1 20 16 15.0000000  0 29G21E31G07G02G30G08G13G27G17E33E24R10
                                E09G09E04R09G14S35S31E05E06S33R08R11
                                R21R01R20R02E26
 115111252.173 5  89697080.56742  21904940.527    21904939.3654   21904941.8374
        35.600          13.2004
 123449454.399 8                  23491639.504
        48.200
 106839189.020 8  83251267.14048  20330811.958    20330811.4494   20330812.0574
        51.000          49.7004
 118696003.210 7  92490420.60244  22587100.629    22587099.7754   22587101.5414
        46.200          25.9004
 109790757.501 8  85551240.15047  20892482.161    20892481.2944   20892485.2154
        50.700          47.8004
 112196323.414 6  87425593.15342  21350213.714    21350213.6884   21350230.9744
        38.900          16.5004
 124489477.863 6  97004807.26841  23689562.108    23689561.9744   23689565.8714
        38.800           8.6004


 122911271.209 6  95775025.67744  23389205.651    23389205.4954   23389217.3934
        40.800          28.6004
 138079467.541 7                  26275634.369
        43.200
 137323279.353 6                  26131753.059
        37.400
 109564695.144 5                  20554052.511    20554052.866
        34.600
 129722367.184 7                  24685350.552
        46.800


 137918194.674 7                  26244963.144
        42.700
 124422476.775 4                  23300314.392    23300315.295
        27.600
 116110461.518 7  90475683.97744  22095089.690    22095089.4674   22095090.9514
        42.900          25.7004


 198899171.772 7                  37849273.471
        45.200
 130698048.307 6                  24871012.092
        38.700
 130983945.390 6                  24925429.896
        39.000
 202050205.824 7                  38448892.734
        46.900
 123353345.309 5                  23035382.078    23035382.674
        33.600
 108662875.013 8  84515564.612 7  20334779.052    20334779.621    20334784.536
        50.900          46.000
 113317107.429 7  88135758.304 6  21176002.419    21176001.595    21176009.386
        47.200          40.600
 116728651.326 7  90788963.238 6  21836501.892    21836504.013    21836514.260
        43.400          41.000
 109094724.971 6  84851482.892 8  20401262.646    20401262.939    20401270.919
        38.600          48.300
 124259699.039 6  96646500.197 5  23286226.653    23286223.875    23286233.410
        36.000          35.400
 139461857.684 5                  26538704.476
        34.600
 25  1  1 20 16 30.0000000  0 28G21E31G07G02G30G08G13G27G17E33E24R10
                                E09G09E04R09G14S35S31E05E06S33R11R21
                                R01R20R02E26
 115093232.367 6  89683039.14842  21901511.950    21901510.6544   21901512.4294
        36.700          12.9004
 123449924.290 7                  23491728.761
        47.500
 106841917.780 8  83253393.43248  20331331.017    20331330.4994   20331330.3814
        51.700          50.5004
 118661681.911 7  92463676.87844  22580568.637    22580567.7744   22580571.2774
        42.900          26.3004
 109764040.043 8  85530421.35147  20887397.879    20887397.0124   20887400.2874
        50.200          47.8004
 112235349.650 6  87456003.20843  21357641.553    21357641.4734   21357661.2324
        40.000          18.2004
 124450939.941 6  96974777.76141  23682229.237    23682228.8754   23682232.0574
        40.400           9.7004


 122859958.084 6  95735041.95745  23379441.616    23379441.5274   23379453.3114
        41.500          30.0004
 138043257.286 6                  26268743.046
        38.700
 137297672.368 6                  26126880.745
        37.900
 109584084.417 6                  20557695.419    20557692.936
        39.100
 129740907.517 7                  24688879.158
        44.500


 137963002.105 6                  26253483.486
        40.700


 116079114.853 7  90451258.07544  22089123.848    22089123.6744   22089125.8734
        42.300          25.2004


 198899164.266 7                  37849275.381
        43.200
 130676248.690 6                  24866866.529
        40.100
 131018296.978 7                  24931967.648
        43.200
 202050219.052 7                  38448898.882
        45.700
 108640122.974 8  84497868.556 7  20330521.891    20330522.811    20330526.733
        50.500          44.900
 113262410.521 7  88093216.418 6  21165780.004    21165781.116    21165787.396
        45.700          40.900
 116750315.895 7  90805813.417 6  21840558.142    21840558.764    21840566.042
        45.200          40.800
 109095284.990 6  84851918.423 8  20401366.391    20401365.617    20401374.769
        37.200          48.100
 124230247.382 5  96623593.398 5  23280708.117    23280705.517    23280710.407
        34.500          32.100
 139456146.649 5                  26537620.610
        31.900
 25  1  1 20 16 45.0000000  0 27G21E31G07G02G30G08G13G27G17E33E24R10
                                E09G09E04G14S35S31E05E06S33R11R21R01
                                R20R02E26
 115075349.763 6  89669104.68741  21898108.783    21898107.4694   21898108.9434
        37.600           9.4004
 123450424.405 7                  23491823.940
        46.900
 106844757.086 8  83255605.84548  20331870.998    20331870.4844   20331870.6654
        52.000          51.7004
 118627447.472 7  92437000.78445  22574054.955    22574054.0614   22574057.3624
        46.600          30.1004
 109737408.589 8  85509669.57147  20882330.048    20882329.1774   20882332.7854
        50.000          47.0004
 112274464.022 6  87486482.10742  21365083.107    21365082.8974   21365104.7714
        41.100          15.6004
 124412506.323 7  96944829.4854   23674914.642    23674914.1514   23674917.1044
        42.000           4.7004


 122808695.161 6  95695097.40445  23369684.742    23369684.5994   23369698.3634
        41.600          30.3004
 138007096.223 6                  26261860.189
        36.700
 137272086.659 7                  26122012.564
        43.500
 109603533.608 6                  20561343.002    20561342.643
        41.200
 129759544.558 7                  24692426.750
        47.400


 138007832.261 6                  26262014.748
        40.300
 116047803.671 6  90426859.74443  22083166.291    22083166.1044   22083167.9154
        38.600          23.0004


 198899155.037 7                  37849272.116
        45.000
 130654539.341 6                  24862734.961
        40.600
 131052713.755 6                  24938514.170
        40.700
 202050231.601 6                  38448881.975
        41.300
 108617414.457 8  84480206.364 7  20326273.614    20326275.015    20326276.116
        50.900          43.900
 113207823.847 6  88050760.330 6  21155578.020    21155577.115    21155587.960
        40.400          41.400
 116772150.706 7  90822796.012 6  21844639.960    21844640.708    21844647.520
        44.100          36.200
 109096055.207 6  84852517.426 8  20401511.941    20401511.879    20401518.688
        38.700          48.800
                                                  23275232.976

 139450540.346 5                  26536551.233
        34.700
 25  1  1 20 17  0.0000000  0 28G21E31G07G02G30G08G13G27G17E33E24R10
                                E09G09E04R12G14S35S31E05E06S33R11R21
                                R01R20R02E26
 115057605.460 6  89655277.96642  21894732.832    21894731.4284   21894732.5554
        37.400          13.6004
 123450955.639 7                  23491925.257
        47.200
 106847707.902 8  83257905.16648  20332432.840    20332432.3174   20332431.8764
        51.400          51.0004
 118593301.122 7  92410393.37045  22567556.444    22567555.5284   22567558.9634
        46.500          31.3004
 109710864.139 8  85488985.62147  20877279.296    20877278.4294   20877280.7994
        50.800          47.3004


 124374177.971 6  96914963.2894   23667621.305    23667620.9614   23667621.8624
        40.400           4.0004


 122757483.615 6  95655192.87245  23359940.630    23359940.4564   23359953.4994
        37.700          31.6004
 137970985.565 6                  26254988.797
        36.300
 137246523.026 6                  26117147.025
        39.400
 109623044.010 7                  20565009.015    20565009.200
        46.800
 129778279.050 7                  24695990.595
        45.800
 125058095.996 5  97447922.09442  23797760.818    23797761.1044   23797780.2684
        31.300          16.0004
 138052685.902 6                  26270553.093
        37.900


 116016528.989 7  90402489.89944  22077214.012    22077213.8074   22077216.8564
        42.200          27.4004


 198899144.672 7                  37849273.024
        45.400
 130632921.254 6                  24858617.978
        38.500
 131087196.296 6                  24945075.599
        39.600
 202050242.259 7                  38448897.706
        45.200
 108594750.403 7  84462578.731 7  20322025.912    20322028.610    20322033.915
        46.200          42.700
 113153348.982 6  88008391.117 7  21145393.418    21145394.689    21145408.817
        39.300          42.200
 116794156.729 7  90839911.777 6  21848758.818    21848758.361    21848766.479
        44.200          38.200
 109097036.076 6  84853280.321 8  20401693.221    20401693.074    20401702.883
        38.000          48.700
                  96578164.931 5                                  23269768.959
                        32.300
 139445040.090 5                  26535505.732
        34.100
 25  1  1 20 17 15.0000000  0 30G21E31G07G02G30G08G13G27G17E33E24R10
                                E09G09E04R12R09G14S35S31E05E06S33R08
                                R11R21R01R20R02E26
 115039999.993 6  89641559.45442  21891382.642    21891381.3324   21891382.4834
        38.400          12.0004
 123451518.259 7                  23492031.825
        46.700
 106850770.793 8  83260291.83148  20333015.932    20333015.4004   20333015.2574
        51.000          51.8004
 118559243.675 8  92383855.23345  22561075.945    22561075.0424   22561078.0794
        49.100          35.1004
 109684407.409 8  85468370.00247  20872245.891    20872245.0334   20872246.3114
        50.200          47.9004
 112352959.076 5  87547647.05043  21380025.177    21380024.9904   21380038.9534
        34.200          18.5004
 124335955.608 6  96885180.0004   23660347.165    23660346.7324   23660348.3164
        40.400           3.6004
 128033898.560 5  99766709.33541  24364039.365    24364039.2054   24364049.9474
        33.300           7.4004
 122706324.022 6  95615328.79845  23350205.739    23350205.4854   23350218.1784
        41.100          32.6004
 137934925.904 5                  26248126.061
        31.800
 137220981.872 6                  26112286.197
        41.400
 109642615.725 7                  20568677.774    20568677.213
        45.400
 129797111.220 7                  24699574.653
        46.000
 125112590.047 5  97490355.64542  23808124.245    23808124.5444   23808142.1494
        35.700          15.5004
 138097562.844 5                  26279094.663
        35.300
 129684304.873 6                  24277169.931
        36.700
 124586224.985 4  96900416.118 5  23330995.551                    23331002.990
        26.000          33.000
 115985291.183 7  90378148.77344  22071269.439    22071269.2344   22071272.6254
        42.700          27.7004


 198899133.717 7                  37849268.275
        44.400
 130611394.941 6                  24854521.726
        41.000
 131121744.674 6                  24951649.756
        38.200
 202050252.851 7                  38448886.371
        42.400
                  96125657.866 4                                  23079585.857
                        28.600
 108572131.385 7  84444986.146 7  20317796.769    20317796.506    20317800.947
        46.300          42.700
 113098986.634 7  87966109.439 7  21135237.608    21135239.035    21135249.348
        44.600          42.000
 116816333.387 7  90857160.243 6  21852906.226    21852905.308    21852914.741
        42.000          36.500
 109098228.502 6  84854207.768 8  20401916.925    20401915.993    20401926.330
        38.200          48.700
 124142967.912 6  96555645.007 5  23264351.619                    23264340.083
        36.300          32.200
 139439645.960 5                  26534478.644
        33.800
 25  1  1 20 17 30.0000000  0 30G21E31G07G02G30G08G13G27G17E33E24R10
                                E09G09E04R12R09G14S35S31E05E06S33R08
                                R11R21R01R20R02E26
 115022531.302 6  89627947.45641  21888058.278    21888056.9334   21888058.5514
        38.100          10.4004
 123452109.963 7                  23492144.923
        46.500
 106853943.547 8  83262764.09248  20333619.721    20333619.1804   20333620.0534
        51.400          53.1004
 118525273.162 8  92357384.81646  22554611.783    22554610.8984   22554613.7814
        51.700          38.2004
 109658036.378 8  85447821.14147  20867226.883    20867226.0164   20867228.4094
        49.800          47.5004
 112392337.188 5  87578331.30942  21387517.165    21387516.8394   21387532.1504
        34.400          12.7004
 124297837.323 6  96855477.3744   23653094.390    23653094.1364   23653094.7454
        39.100           4.9004


 122655214.514 6  95575503.77045  23340479.136    23340478.8464   23340491.6834
        41.700          31.8004
 137898915.126 5                  26241274.550
        31.700
 137195460.852 6                  26107428.765
        38.200
 109662246.472 6                  20572360.224    20572358.924
        41.300
 129816038.700 7                  24703175.518
        45.200


 138142460.964 5                  26287639.096
        35.300
 129640481.542 5                  24268965.341    24268967.902
        35.000
                  96932327.104 5                                  23338690.138
                        35.500
 115954087.948 7  90353834.60244  22065331.362    22065331.1934   22065334.3594
        42.000          28.5004


 198899120.330 7                  37849272.930
        46.400
 130589958.324 7                  24850442.841
        42.900
 131156356.628 6                  24958238.245
        40.200
 202050260.142 6                  38448896.204
        39.800
 123649292.489 5                  23090633.398
        30.800
 108549555.298 7  84427426.959 7  20313573.055    20313571.542    20313577.916
        46.100          42.300
 113044735.033 7  87923913.857 6  21125097.588    21125099.725    21125110.074
        43.700          40.800
 116838678.280 6  90874539.537 5  21857085.354    21857087.903    21857093.329
        40.800          35.300
 109099629.962 6  84855297.791 8  20402178.701    20402179.121    20402188.197
        39.700          48.600
 124114178.495 5                  23258954.658    23258952.093
        30.100
 139434355.883 5                  26533476.162
        32.200
 25  1  1 20 17 45.0000000  0 28G21E31G07G02G30G08G13G27G17E33E24R10
                                E09G09E04R09G14S35S31E05E06S33R08R11
                                R21R01R20E26
 115005209.998 6  89614450.52241  21884762.219    21884760.8654   21884762.5004
        38.100          10.5004
 123452740.903 7                  23492265.030
        47.300
 106857236.514 8  83265330.01048  20334245.904    20334245.3724   20334247.0824
        51.000          52.6004
 118491400.118 8  92330990.36246  22548165.482    22548164.6154   22548168.7964
        50.100          38.8004
 109631761.582 8  85427347.28747  20862226.312    20862225.4544   20862229.2694
        48.600          47.2004
 112431811.419 5  87609090.60742  21395029.545    21395029.2324   21395041.6544
        31.800          16.3004
 124259833.677 6                  23645861.336
        38.000
 128146562.904 4                  24385483.047
        29.700
 122604165.447 5  95535725.79245  23330762.242    23330761.9564   23330777.6644
        34.900          30.5004
 137862963.835 5                  26234434.753
        35.500
 137169970.242 6                  26102577.457
        39.500
 109681946.613 7                  20576053.835    20576053.937
        42.100
 129835071.543 7                  24706797.860
        45.100


 138187390.022 5                  26296187.154
        33.300


 115922929.577 6  90329555.37744  22059401.090    22059400.9474   22059405.2924
        41.200          27.1004


 198899114.146 7                  37849261.098
        44.700
 130568621.799 7                  24846381.848
        42.800
 131191041.964 6                  24964840.128
        37.900
 202050275.354 6                  38448889.313
        39.200
 123708498.086 5  96217812.384 5  23101689.065                    23101711.871
        33.600          34.800
 108527032.560 8  84409909.261 6  20309359.051    20309358.849    20309364.118
        50.400          41.600
 112990605.137 6  87881813.030 6  21114981.920    21114983.336    21114992.773
        40.000          38.700
 116861201.221 7  90892057.341 6  21861299.243    21861300.672    21861307.100
        42.500          36.100
 109101250.951 6  84856558.540 7  20402483.388    20402483.456    20402490.349
        41.600          47.000
 139429180.124 5                  26532486.519
        31.700
 25  1  1 20 18  0.0000000  0 28G21E31G07G02G30G08G13G27G17E33E24R10
                                E09G09E04G14S35S31E05E06S33R08R11R21
                                R01R20R02E26
 114988024.359 6  89601059.17341  21881491.834    21881490.5474   21881492.2284
        38.300           6.5004
 123453399.189 7                  23492390.204
        47.900
 106860637.990 8  83267980.49648  20334893.270    20334892.7434   20334894.0364
        50.800          52.0004
 118457613.129 7  92304663.01146  22541736.611    22541735.7264   22541740.5794
        47.300          37.8004
 109605571.333 8  85406939.31347  20857242.405    20857241.5514   20857246.0884
        48.600          47.4004


 124221933.210 6                  23638651.474
        40.900
 128202931.011 5  99898426.30941  24396209.747    24396209.7214   24396216.2244
        34.000           8.7004
 122553165.302 6  95495985.89944  23321058.848    23321058.5274   23321072.7544
        37.000          28.3004
 137827060.415 6                  26227601.748
        37.800
 137144498.019 6                  26097731.618
        38.300
 109701704.529 6                  20579762.843    20579762.804
        41.000
 129854197.772 7                  24710437.200
        43.000
 125275963.909 5  97617671.15741  23839222.307    23839222.4814   23839235.2194
        32.100          10.7004
 138232338.075 5                  26304743.117
        34.200
 115891804.186 7  90305301.87245  22053478.770    22053478.6234   22053482.0964
        44.500          30.0004


 198899103.245 7                  37849259.958
        44.800
 130547373.607 6                  24842337.596
        40.200
 131225788.745 6                  24971451.004
        39.500
 202050286.036 7                  38448901.789
        45.000
 123767770.349 5  96263912.414 6  23112758.638    23112756.800    23112779.803
        30.400          36.700
 108504551.157 7  84392423.828 6  20305149.951    20305148.933    20305155.409
        47.200          40.000
 112936585.562 7  87839797.908 6  21104890.920    21104891.957    21104898.322
        45.000          39.400
 116883890.004 7  90909704.139 6  21865544.498    21865543.983    21865553.420
        42.400          39.100
 109103079.384 6  84857980.661 7  20402823.929    20402824.484    20402832.648
        40.600          47.700
 124057065.340 6  96488888.065 5  23248245.379    23248244.909    23248254.105
        36.000          32.000
 139424094.762 5                  26531522.905
        30.000
 25  1  1 20 18 15.0000000  0 27G21E31G07G02G30G08G13G17E33E24R10E09
                                G09E04G14S35S31E05E06S33R08R11R21R01
                                R20R02E26
 114970980.471 6  89587778.02841  21878249.398    21878248.0664   21878249.2514
        41.600           7.1004
 123454090.588 8                  23492521.855
        48.600
 106864153.847 8  83270720.08448  20335562.478    20335561.9374   20335562.6474
        49.100          50.8004
 118423918.290 8  92278407.48746  22535324.214    22535323.3074   22535328.5094
        49.700          37.7004
 109579471.710 7  85386601.93747  20852275.713    20852274.8954   20852278.9294
        46.600          45.3004
 112510812.644 6  87670823.44242  21410102.805    21410102.2204   21410111.9574
        41.600          12.8004
 124184142.020 7                  23631458.877
        42.100
 122502219.940 6  95456288.76943  23311363.665    23311363.2634   23311375.2544
        38.900          23.7004
 137791210.838 6                  26220779.334
        37.000
 137119050.106 6                  26092889.289
        38.600
 109721526.248 7                  20583484.342    20583484.079
        46.100
 129873423.038 7                  24714096.752
        45.800


 138277310.659 5                  26313304.408
        32.800
 115860717.644 7  90281078.59245  22047563.846    22047563.6994   22047566.0014
        45.300          32.5004


 198899094.215 7                  37849252.553
        42.700
 130526219.639 6                  24838313.252
        39.500
 131260602.494 6                  24978074.852
        40.400
 202050297.577 7                  38448910.173
        47.600
                  96310033.576 6                                  23123856.593
                        38.300
 108482117.177 8  84374975.097 6  20300952.531    20300953.983    20300959.064
        51.700          41.900
 112882682.400 7  87797873.397 6  21094818.023    21094817.133    21094825.009
        43.600          40.100
 116906750.029 6  90927484.080 6  21869819.912    21869820.003    21869830.303
        41.400          38.300
 109105121.071 6  84859568.679 7  20403205.753    20403206.253    20403214.600
        40.100          46.900
 124028784.108 5                  23242952.168    23242949.422
        32.600
 139419129.987 4                  26530581.912
        24.400
 25  1  1 20 18 30.0000000  0 27G21E31G07G02G30G08G13G27G17E33E24R10
                                E09G09E04G14S35S31E05E06S33R11R21R01
                                R20R02E26
 114954077.890 6  89574607.26941  21875031.755    21875030.4274   21875033.5064
        39.500           9.6004
 123454814.377 8                  23492659.537
        49.000
 106867783.578 8  83273548.41748  20336253.321    20336252.7674   20336253.2044
        50.100          51.1004
 118390315.308 8  92252223.55746  22528929.193    22528928.2954   22528932.7654
        49.000          36.6004
 109553462.385 7  85366334.92547  20847326.028    20847325.2244   20847328.6464
        44.700          42.1004
 112550548.298 6  87701786.47843  21417661.887    21417661.3514   21417667.8944
        41.600          20.8004
 124146459.861 6                  23624289.876
        41.000


 122451329.268 5  95416634.23843  23301677.311    23301676.8784   23301688.6874
        32.800          20.4004
 137755414.839 6                  26213968.088
        40.100
 137093625.718 5                  26088050.526
        34.600
 109741410.688 7                  20587212.346    20587213.185
        45.500
 129892746.605 7                  24717773.951
        46.100
 125384943.159 6  97702588.99043  23859979.908    23859980.0864   23859981.0704
        36.200          19.8004
 138322306.742 5                  26321871.706
        32.500
 115829669.340 6  90256885.11645  22041655.757    22041655.6104   22041656.7744
        40.600          30.9004


 198899086.103 7                  37849259.730
        42.700
 130505159.468 6                  24834304.656
        39.800
 131295482.302 6                  24984712.962
        40.600
 202050310.395 7                  38448916.290
        46.800
 108459730.198 8  84357563.028 6  20296763.588    20296764.551    20296764.865
        52.300          37.300
 112828895.894 7  87756039.600 7  21084765.940    21084765.949    21084774.375
        44.200          42.100
 116929780.421 7  90945396.586 6  21874129.803    21874129.596    21874139.052
        43.500          38.500
 109107375.419 6  84861322.017 7  20403627.356    20403627.780    20403634.799
        39.200          46.100
 124000672.593 5  96445029.900 5  23237693.812    23237691.679    23237686.480
        32.300          32.500
 139414273.107 5                  26529657.302
        35.000
 25  1  1 20 18 45.0000000  0 28G21E31G07G02G30G08G13G27G17E33E24R10
                                E09G09E04G14S35S31E05E06S33R08R11R21
                                R01R20R02E26
 114937317.574 6  89561547.49442  21871842.592    21871841.2644   21871844.0954
        39.700          12.2004
 123455571.281 8                  23492803.395
        49.300
 106871528.063 8  83276466.17348  20336965.617    20336965.0724   20336965.7484
        50.800          51.2004
 118356805.379 8  92226112.09445  22522552.682    22522551.7934   22522554.7344
        49.300          34.7004
 109527544.320 7  85346139.03146  20842393.516    20842392.7254   20842396.1654
        42.600          40.6004
 112590372.761 6  87732818.46244  21425240.269    21425239.8094   21425241.6294
        40.400          25.8004
 124108887.556 5                  23617139.273
        35.600


 122400494.033 6  95377022.90742  23292003.661    23292003.2014   23292014.8054
        37.800          17.5004
 137719673.409 6                  26207166.391
        40.400


 109761358.955 7                  20590952.348    20590952.369
        43.500
 129912169.060 7                  24721469.372
        46.900
 125439443.031 5  97745055.94843  23870353.026    23870353.4774   23870354.4884
        35.500          21.9004


 115798659.956 6  90232721.97344  22035755.172    22035755.0074   22035755.6454
        41.500          29.1004


 198899078.992 7                  37849255.464
        42.500
 130484193.933 6                  24830316.244
        41.700
 131330428.769 6                  24991363.764
        39.200
 202050324.394 7                  38448916.563
        46.100
                  96402336.445 5                                  23146015.459
                        33.700
 108437390.949 8  84340188.030 6  20292582.267    20292583.097    20292585.942
        51.000          40.900
 112775227.341 7  87714297.536 7  21074736.389    21074737.696    21074744.682
        45.900          43.400
 116952981.539 7  90963441.862 6  21878471.776    21878471.081    21878480.492
        43.700          39.600
 109109843.047 6  84863241.277 7  20404089.328    20404089.935    20404096.999
        39.300          47.300
                  96423297.704 5                                  23232450.828
                        34.500
 139409524.809 6                  26528752.041
        39.200
 25  1  1 20 19  0.0000000  0 26G21E31G07G02G30G08G13G17E33E24R10E09
                                G09E04G14S35S31E05E06S33R08R11R21R01
                                R20E26
 114920696.630 7  89548596.31543  21868679.962    21868678.6394   21868682.4744
        42.100          18.3004
 123456357.944 8                  23492953.294
        49.500
 106875384.089 8  83279470.84348  20337699.338    20337698.7884   20337699.5864
        50.800          51.3004
 118323385.352 7  92200070.67245  22516192.537    22516191.6344   22516193.8914
        47.200          32.5004
 109501714.507 7  85326011.90146  20837477.531    20837476.7274   20837480.2564
        45.000          40.4004
 112630282.385 6  87763916.81244  21432835.817    21432835.4064   21432837.4364
        39.300          29.5004
 124071422.040 5  96679020.83141  23610008.122    23610007.9794   23610004.9834
        31.600           7.4004
 122349711.436 6  95337452.55142  23282357.079    23282356.5294   23282350.4264
        39.400          16.4004
 137683983.504 6                  26200374.565
        40.100


 109781367.621 7                  20594705.006    20594703.336
        42.000
 129931686.977 8                  24725183.883
        48.400
 125493946.121 5  97787525.44543  23880720.215    23880720.5724   23880727.8254
        33.400          21.2004


 115767686.345 6  90208586.73144  22029860.161    22029860.0324   22029862.4444
        38.900          27.9004


 198899070.059 7                  37849247.509
        42.200
 130463319.934 6                  24826342.313
        39.300
 131365438.395 6                  24998026.121
        40.600
 202050336.812 7                  38448918.343
        46.300
                  96448515.162 5                                  23157106.304
                        34.200
 108415096.299 8  84322847.676 7  20288410.616    20288409.548    20288414.329
        49.700          43.300
 112721673.915 7  87672644.989 7  21064729.794    21064730.504    21064737.813
        46.400          45.000
 116976349.761 7  90981617.088 6  21882843.244    21882842.844    21882851.597
        44.400          39.200
 109112520.396 6  84865323.639 7  20404590.108    20404590.914    20404597.933
        39.900          47.900
 139404882.058 6                  26527868.207
        38.900
 25  1  1 20 19 15.0000000  0 30G21E31G07G02G30G08G13G27G17E33E24R10
                                E09G09E04R12R09G14S35S31E05E06S33R08
                                R11R21R01R20R02E26
 114904218.496 7  89535756.29243  21865543.578    21865542.2734   21865548.4624
        42.600          20.4004
 123457177.805 8                  23493109.129
        49.500
 106879355.241 8  83282565.23548  20338455.014    20338454.4644   20338455.3584
        50.900          51.7004
 118290059.083 7  92174102.28345  22509850.832    22509849.9294   22509852.5584
        46.600          31.4004
 109475976.633 7  85305956.43747  20832580.383    20832579.5654   20832582.0274
        46.600          43.0004
 112670280.217 6  87795083.86745  21440448.000    21440447.5494   21440449.8504
        40.800          31.2004
 124034067.140 5  96649913.08041  23602901.887    23602901.7354   23602899.1954
        30.400           6.8004


 122298984.860 5  95297925.94242  23272679.202    23272678.6124   23272695.1384
        32.700          13.8004
 137648348.834 6                  26193593.223
        38.600
 137017510.702 4                  26073567.509
        29.400
 109801440.342 6                  20598470.911    20598468.285
        40.600
 129951303.651 8                  24728917.357
        48.900
 125548455.433 5  97829999.82943  23891075.470    23891075.7424   23891101.0684
        30.000          18.1004
 138457454.798 5                  26347573.383
        34.700


 124915386.685 5                  23392643.140
        33.600
 115736751.831 6  90184481.95044  22023972.158    22023972.0744   22023977.2444
        38.900          27.4004


 198899063.079 7                  37849247.308
        43.000
 130442541.014 5                  24822385.874
        34.800
 131400514.315 6                  25004699.680
        41.600
 202050350.578 7                  38448917.663
        46.900
                  96494713.501 5                                  23168209.687
                        35.600
 108392849.910 8  84305544.928 7  20284247.729    20284246.673    20284252.304
        49.800          44.700
 112668239.599 7  87631085.057 7  21054745.700    21054744.464    21054752.720
        46.300          44.500
 116999888.063 6  90999924.614 6  21887241.734    21887242.594    21887254.026
        41.400          38.400
 109115411.346 6  84867572.156 8  20405131.151    20405130.956    20405138.843
        39.500          48.500
 123917389.556 6                  23222064.080    23222065.916
        38.000
 139400348.164 6                  26527005.969
        37.100
 25  1  1 20 19 30.0000000  0 30G21E31G07G02G30G08G13G27G17E33E24R10
                                E09G09E04R12R09G14S35S31E05E06S33R08
                                R11R21R01R20R02E26
 114887881.469 7  89523026.29043  21862435.514    21862434.2364   21862441.4534
        42.500          20.6004
 123458028.614 8                  23493271.430
        49.100
 106883439.537 8  83285747.77848  20339232.409    20339231.8594   20339233.0004
        50.900          51.2004
 118256824.747 7  92148205.55444  22503526.232    22503525.3294   22503529.1294
        45.300          29.6004
 109450328.775 8  85285971.07747  20827700.891    20827700.0964   20827701.7384
        50.300          46.9004
 112710363.757 6  87826317.70745  21448074.301    21448073.7874   21448077.9604
        41.300          31.3004
 123996820.984 5  96620890.25741  23595812.679    23595812.0094   23595813.1264
        33.900           8.8004


 122248312.475 5  95258441.44642  23263044.058    23263043.6654   23263050.0134
        32.900          14.0004
 137612767.495 6                  26186822.622
        38.300
 136992178.166 6                  26068743.494
        38.100
 109821575.048 7                  20602249.850    20602248.550
        44.000
 129971016.810 8                  24732668.133
        48.800


 138502540.772 5                  26356153.566
        34.900


 124956684.226 5                  23400369.177
        31.900
 115705854.313 5  90160406.02843  22018095.559    22018095.3724   22018099.0144
        35.500          22.9004


 198899055.625 7                  37849252.942
        43.200
 130421855.219 5                  24818453.337
        31.800
 131435654.251 6                  25011386.454
        41.400
 202050363.784 7                  38448926.495
        45.900
 124123948.887 5  96540929.083 5  23179275.249                    23179302.115
        35.600          34.800
 108370649.674 8  84288278.080 7  20280093.368    20280093.783    20280097.554
        51.800          46.400
 112614922.662 6  87589616.435 7  21044778.698    21044779.623    21044789.448
        41.000          44.600
 117023593.882 6  91018362.376 6  21891675.996    21891677.165    21891687.993
        41.400          36.500
 109118513.278 6  84869984.776 8  20405711.074    20405710.702    20405719.809
        39.400          48.800
 123889955.843 6                  23216924.080    23216922.692
        39.300
 139395921.236 5                  26526160.748
        34.800
 25  1  1 20 19 45.0000000  0 29G21E31G07G02G30G08G13G27G17E33E24R10
                                E09G09E04R09G14S35S31E05E06S33R08R11
                                R21R01R20R02E26
 114871684.274 6  89510405.16643  21859352.627    21859351.3934   21859359.9464
        39.100          20.7004
 123458908.929 8                  23493438.459
        48.100
 106887635.583 8  83289017.40848  20340031.002    20340030.4614   20340031.7254
        50.900          51.0004
 118223681.434 7  92122379.70244  22497218.281    22497217.3924   22497222.2774
        42.900          26.6004
 109424769.796 8  85266054.96247  20822836.471    20822835.6764   20822839.0014
        51.400          47.8004
 112750531.286 6  87857617.01544  21455717.383    21455716.8164   21455721.7334
        40.100          28.8004
 123959682.641 5  96591951.41641  23588744.900    23588744.0784   23588747.3104
        31.200           9.2004


 122197693.135 6  95218998.29443  23253412.930    23253412.7744   23253415.9024
        38.200          20.0004
 137577238.393 6                  26180061.938
        41.600
 136966866.434 5                  26063925.403
        33.300
 109841770.283 7                  20606037.067    20606036.784
        44.400
 129990824.893 8                  24736438.130
        49.900
 125657515.609 5  97915028.27143  23911828.414    23911827.9584   23911849.9244
        33.700          21.2004
 138547646.517 5                  26364736.034
        32.800
 124998012.076 4                  23408100.296
        27.100
 115674992.505 5  90136357.88843  22012222.104    22012221.8764   22012226.7684
        31.900          22.3004


 198899045.424 7                  37849250.876
        43.300
 130401261.209 5                  24814533.540
        33.300
 131470856.551 6                  25018085.232
        41.000
 202050375.374 7                  38448921.701
        45.200
 124183390.241 5  96587160.400 5  23190382.190                    23190394.355
        32.500          32.000
 108348494.248 8  84271046.041 7  20275947.775    20275948.464    20275951.573
        52.700          47.700
 112561722.383 5  87548238.616 7  21034829.728    21034829.654    21034847.185
        30.900          43.800
 117047465.705 6  91036929.195 5  21896145.034    21896145.635    21896153.064
        40.900          34.900
 109121825.162 6  84872560.721 8  20406330.167    20406329.995    20406338.892
        38.500          49.000
 123862690.083 7                  23211811.927    23211813.138
        43.600
 139391599.737 5                  26525339.125
        35.800
 25  1  1 20 20  0.0000000  0 29G21E31G07G02G30G08G13G27G17E33E24R10
                                E09G09E04R12R09G14S35S31E05E06S33R08
                                R11R21R01R20E26
 114855630.346 6  89497895.64243  21856297.974    21856296.7404   21856304.2004
        40.700          20.9004
 123459821.815 8                  23493612.422
        48.100
 106891946.626 8  83292376.65648  20340851.586    20340851.0504   20340852.2594
        51.600          50.4004
 118190632.453 7  92096627.37244  22490929.349    22490928.4824   22490933.9324
        44.400          26.2004
 109399303.045 8  85246210.73348  20817990.576    20817989.7814   20817993.8464
        51.300          49.6004
 112790785.537 6  87888983.92144  21463376.382    21463375.8684   21463381.8334
        39.000          27.8004
 123922655.262 6  96563098.89641  23581699.057    23581698.4634   23581701.8664
        36.300           9.1004


 122147130.252 6  95179599.16743  23243790.105    23243789.9314   23243796.2574
        37.100          23.8004
 137541764.823 6                  26173310.578
        36.000
 136941578.560 6                  26059116.223
        36.500
 109862029.173 6                  20609835.729    20609835.360
        41.600
 130010730.862 8                  24740225.540
        48.100
 125712035.586 5  97957510.99443  23922202.838    23922202.3964   23922224.1964
        34.300          21.8004
 138592774.767 5                  26373323.678
        34.000
 129201471.517 5                  24186790.918    24186788.249
        34.200
 125039374.454 5                  23415906.054
        32.500
 115644169.397 6  90112339.88343  22006357.495    22006357.3214   22006360.2134
        39.300          23.3004


 198899037.404 7                  37849248.511
        43.500
 130380762.196 5                  24810630.832
        33.000
 131506123.997 7                  25024797.085
        42.200
 202050388.118 7                  38448921.446
        45.600


 108326386.973 8  84253851.532 7  20271810.433    20271810.979    20271814.039
        52.100          47.000
 112508642.605 6  87506954.231 7  21024919.861    21024918.437    21024926.921
        39.900          42.200
 117071505.817 6  91055626.967 5  21900640.988    21900643.104    21900651.061
        38.300          35.000
 109125349.606 6  84875301.954 8  20406988.278    20406987.918    20406997.124
        37.600          48.500
 139387386.865 6                  26524538.182
        37.400
 25  1  1 20 20 15.0000000  0 29G21E31G07G02G30G08G13G27G17E33E24R10
                                E09G09E04R12R09G14S35S31E05E06S33R11
                                R21R01R20R02E26
 114839717.039 6  89485495.72743  21853269.214    21853267.9854   21853274.8644
        38.400          21.0004
 123460764.337 8                  23493791.734
        48.300
 106896369.968 8  83295823.39748  20341693.289    20341692.7574   20341693.4434
        52.200          50.1004
 118157675.311 7  92070946.62744  22484657.868    22484656.9974   22484662.1244
        42.800          25.1004
 109373925.877 8  85226436.29748  20813161.573    20813160.7694   20813165.3524
        50.500          49.9004
 112831123.331 5  87920415.92644  21471051.014    21471050.4644   21471058.8984
        34.400          24.7004
 123885736.500 6  96534331.04141  23574672.560    23574671.9304   23574676.4154
        37.400          11.6004


 122096621.088 6  95140241.85944  23234178.747    23234178.6094   23234187.0404
        40.400          26.8004
 137506344.194 5                  26166570.480
        31.900
 136916311.557 5                  26054304.954
        35.200
 109882349.060 7                  20613650.551    20613648.961
        44.200
 130030731.679 8                  24744031.289
        48.000
 125766557.033 5  97999994.88043  23932577.018    23932576.5094   23932598.2404
        34.400          18.1004
 138637922.601 6                  26381916.575
        36.100
 129157494.623 5                  24178557.453    24178559.359
        30.200
 125080767.766 6                  23423592.246    23423608.970
        38.800
 115613382.164 7  90088349.82044  22000498.190    22000498.0214   22000501.0824
        42.000          24.2004


 198899027.476 7                  37849240.793
        42.500
 130360355.518 5                  24806747.269
        34.300
 131541453.579 7                  25031519.736
        42.800
 202050398.509 7                  38448928.006
        45.000
 108304324.946 8  84236692.160 7  20267682.241    20267682.392    20267685.430
        52.800          47.100
 112455680.569 7  87465761.658 6  21015024.652    21015025.723    21015027.813
        45.400          38.500
 117095711.036 5  91074453.205 5  21905170.285    21905172.218    21905179.491
        30.600          35.700
 109129083.882 6  84878206.397 8  20407686.909    20407685.997    20407695.551
        36.300          48.100
 123808670.435 5  96295706.609 6  23201688.831    23201689.823    23201709.711
        35.200          36.100
 139383279.807 6                  26523756.641
        39.400
 25  1  1 20 20 30.0000000  0 28G21E31G07G02G30G08G13G27G17E33E24R10
                                E09G09E04R09G14S35S31E05E06S33R11R21
                                R01R20R02E26
 114823944.666 5  89473205.59643  21850266.566    21850265.3464   21850271.4724
        34.300          18.8004
 123461736.592 7                  23493976.855
        47.500
 106900905.849 8  83299357.83548  20342556.571    20342556.0354   20342556.1174
        51.700          49.8004
 118124810.431 6  92045337.78043  22478404.710    22478403.8304   22478406.6954
        40.800          23.1004
 109348638.708 8  85206731.99848  20808350.219    20808349.4064   20808353.3724
        49.000          49.2004
 112871544.415 4  87951912.83644  21478744.235    21478743.6944   21478751.7034
        28.600          25.2004
 123848926.715 6  96505648.06741  23567667.364    23567666.7474   23567671.6634
        37.600          10.4004


 122046166.199 6  95100926.88244  23224576.266    23224576.1234   23224589.4224
        41.200          29.9004
 137470976.850 5                  26159845.882
        33.400
 136891065.616 5                  26049501.934
        35.500
 109902729.950 7                  20617473.117    20617472.905
        43.700
 130050827.371 7                  24747856.102
        47.000
 125821079.867 5  98042479.87742  23942953.751    23942953.5374   23942970.9964
        35.900          17.0004
 138683089.746 5                  26390509.498
        31.900
 125122192.034 5                  23431365.372    23431364.561
        34.700
 115582631.004 6  90064387.87044  21994646.201    21994646.0234   21994650.4564
        40.800          26.1004


 198899015.312 6                  37849239.849
        41.200
 130340041.455 6                  24802883.083
        36.200
 131576845.230 7                  25038254.695
        44.000
 202050407.459 7                  38448928.261
        46.200
 108282308.556 8  84219568.332 8  20263562.648    20263562.937    20263565.304
        52.000          48.300
 112402837.077 7  87424661.287 6  21005147.246    21005146.447    21005153.688
        45.400          39.800
                  91093407.803 5                                  21909737.371
                        34.200
 109133028.260 6  84881274.264 8  20408424.817    20408424.217    20408433.494
        36.300          48.600
 123781914.385 4  96274896.339 6  23196674.091    23196672.037    23196693.181
        26.500          36.600
 139379278.775 6                  26522995.929
        37.500
 25  1  1 20 20 45.0000000  0 28G21E31G07G02G30G08G13G27G17E33E24R10
                                E09G09E04G14S35S31E05E06S33R08R11R21
                                R01R20R02E26
 114808317.253 6  89461028.45743  21847293.472    21847292.2704   21847296.6184
        38.200          18.0004
 123462742.529 8                  23494168.521
        48.200
 106905558.217 8  83302983.02948  20343441.931    20343441.4044   20343441.3564
        52.000          49.4004
 118092042.160 7  92019804.24344  22472168.844    22472167.9504   22472170.1594
        42.900          24.7004
 109323445.783 8  85187101.12948  20803556.069    20803555.2474   20803559.1574
        50.000          50.0004
 112912052.386 5  87983477.48344  21486457.588    21486457.2494   21486461.5234
        32.200          24.5004
 123812230.088 5  96477053.32741  23560686.264    23560685.6124   23560688.2724
        34.800          10.2004


 121995769.636 6  95061657.25144  23214985.672    23214985.5474   23215002.0314
        41.300          28.1004
 137435667.106 6                  26153123.390
        37.900
 136865844.654 6                  26044703.492
        39.600
 109923176.195 7                  20621310.325    20621310.027
        45.900
 130071021.758 8                  24751699.153
        48.400
 125875607.503 6  98084968.56043  23953330.643    23953330.4024   23953345.9474
        38.400          18.9004
 138728279.918 4                  26399108.268
        25.800
 115551919.841 7  90040457.09544  21988802.445    21988802.3024   21988805.6964
        45.300          26.9004


 198899006.133 7                  37849242.827
        42.600
 130319824.097 6                  24799037.473
        37.500
 131612302.689 7                  25045002.417
        45.600
 202050419.161 7                  38448923.870
        45.100


 108260341.846 8  84202483.192 7  20259450.302    20259450.712    20259454.662
        49.800          47.500
 112350116.711 7  87383656.734 7  20995294.124    20995293.781    20995303.898
        44.900          43.900
 117144570.175 6  91112493.627 4  21914317.930    21914322.191    21914325.327
        41.800          28.600
 109137186.670 6  84884508.590 8  20409203.236    20409202.785    20409211.212
        38.200          48.500
 123755396.139 5  96254220.822 5  23191703.957    23191701.721    23191699.791
        33.400          30.400
 139375387.768 6                  26522255.932
        39.000
 25  1  1 20 21  0.0000000  0 26G21E31G07G02G30G08G13G17E33E24R10E09
                                G09E04G14S35S31E05E06S33R11R21R01R20
                                R02E26
 114792832.765 6  89448962.66342  21844347.342    21844346.2204   21844349.4034
        37.600          15.8004
 123463779.765 8                  23494365.577
        49.000
 106910324.909 8  83306697.32048  20344348.694    20344348.1584   20344348.7064
        51.400          50.5004
 118059368.725 6  91994344.56643  22465948.689    22465947.7644   22465952.5294
        38.500          23.3004
 109298345.086 8  85167542.14248  20798778.816    20798777.9944   20798782.4504
        50.400          48.6004
 112952643.845 5  88015106.84743  21494179.623    21494179.5164   21494185.5264
        30.600          23.0004
 123775644.521 6  96448545.07841  23553723.914    23553723.3024   23553726.1614
        40.400          10.9004
 121945429.354 7  95022431.64543  23205406.467    23205406.3654   23205423.9454
        42.900          23.5004
 137400412.954 5                  26146412.055
        35.600
 136840646.285 7                  26039908.449
        42.000
 109943685.128 7                  20625156.408    20625156.118
        43.700
 130091312.396 8                  24755560.237
        48.600
 125930137.553 5  98127459.18443  23963705.902    23963705.5984   23963724.0734
        35.200          18.5004
 138773490.893 4                  26407711.215
        28.500
 115521246.440 7  90016555.74144  21982966.376    21982966.1984   21982967.0014
        44.900          27.9004


 198898997.279 6                  37849240.609
        41.600
 130299701.250 5                  24795206.800
        34.500
 131647823.435 7                  25051762.108
        44.800
 202050430.879 6                  38448926.025
        41.000
 108238422.723 8  84185434.993 8  20255348.403    20255348.495    20255353.178
        48.900          48.500
 112297517.793 7  87342746.536 7  20985463.429    20985463.156    20985475.616
        44.600          44.700
 117169274.955 6                  21918941.329    21918940.317
        37.100
 109141556.865 6  84887907.652 7  20410019.507    20410019.410    20410027.923
        37.100          45.800
 123728985.259 5                  23186756.694    23186754.819
        32.900


 25  1  1 20 21 15.0000000  0 28G21E31G07G02G30G08G13G17E33E24R10E09
                                G09E04R12R09G14S35S31E05E06S33R11R21
                                R01R20R02E26
 114777488.035 5  89437005.74542  21841429.290    21841428.1194   21841428.7404
        33.500          12.5004
 123464844.763 7                  23494567.900
        46.400
 106915202.634 8  83310498.08948  20345276.692    20345276.1694   20345276.8994
        50.800          48.7004
 118026786.744 7  91968956.19843  22459749.319    22459748.3804   22459752.6554
        43.500          23.5004
 109273333.316 8  85148052.40648  20794019.463    20794018.6414   20794022.6094
        49.000          49.2004
 112993316.690 4  88046800.01443  21501911.526    21501911.4554   21501924.1924
        28.500          19.9004
 123739167.116 6  96420121.14442  23546784.092    23546783.4894   23546784.5754
        40.500          16.2004
 121895142.171 7  94983247.21244  23195835.773    23195835.6444   23195852.6964
        44.400          28.4004
 137365211.093 5                  26139714.745
        31.200
 136815467.008 6                  26035115.553
        40.600
 109964253.425 7                  20629015.837    20629016.426
        46.600
 130111695.638 8                  24759439.396
        49.300
 125984665.940 6  98169948.53643  23974083.649    23974083.2924   23974100.7424
        36.900          19.6004
 138818718.642 5                  26416323.353
        34.200
 128981429.606 4                  24145596.962    24145593.506
        27.100
 125246642.537 6  97414156.568 5  23454674.732    23454672.531    23454695.095
        36.100          31.600
 115490607.330 7  89992681.13445  21977135.402    21977135.2194   21977135.9694
        46.500          31.1004


 198898984.201 6                  37849230.834
        39.500
 130279669.697 6                  24791396.174
        38.400
 131683403.740 7                  25058532.247
        44.700
 202050439.179 7                  38448930.456
        42.700
 108216547.680 8  84168421.114 8  20251256.182    20251256.289    20251260.405
        49.400          49.400
 112245037.282 7  87301928.502 7  20975657.609    20975658.381    20975668.332
        47.500          44.400
 117194141.687 6                  21923587.101    21923588.001
        36.800
 109146134.766 6  84891468.266 7  20410877.594    20410877.068    20410884.073
        37.600          46.100
 123702741.936 4  96213222.690 5  23181828.660    23181824.394    23181837.248
        29.100          35.000
 139367938.926 5                  26520839.139
        35.500
 25  1  1 20 21 30.0000000  0 26E31G07G02G30G08G13G17E33E24R10E09G09
                                E04R12R09G14S35S31E05E06S33R11R21R20
                                R02E26
 123465944.449 7                  23494776.906
        46.900
 106920198.448 8  83314390.92848  20346227.694    20346227.1714   20346228.0754
        51.600          49.1004
 117994303.641 6  91943644.85144  22453569.057    22453568.1454   22453572.0504
        41.700          25.8004
 109248417.751 8  85128637.65348  20789277.954    20789277.1144   20789280.9944
        48.600          48.2004
 113034076.668 5  88078561.07243  21509670.188    21509670.0954   21509680.1904
        34.400          20.5004
 123702805.142 7  96391787.16343  23539863.902    23539863.3754   23539865.4774
        43.900          18.4004
 121844915.301 7  94944109.82344  23186279.361    23186279.2544   23186291.2584
        44.700          27.8004


 136790313.882 6                  26030330.974
        40.800
 109984888.252 7                  20632886.515    20632885.139
        43.300
 130132178.344 7                  24763337.171
        47.300
 126039199.327 5  98212441.86842  23984459.119    23984458.7484   23984480.2414
        31.700          17.9004
 138863969.935 5                  26424933.489
        35.300
 128937383.060 5                  24137351.877    24137350.106
        33.300
 125288200.966 5  97446490.683 4  23462457.061    23462456.567    23462481.330
        35.500          28.300
 115460009.544 7  89968838.68345  21971312.255    21971312.0724   21971312.5444
        46.800          30.2004


 198898975.183 7                  37849232.873
        43.600
 130259736.363 6                  24787601.864
        36.900
 131719050.302 7                  25065316.479
        43.300
 202050450.971 7                  38448928.950
        42.800
 108194723.996 7  84151447.166 8  20247170.839    20247170.174    20247176.172
        45.900          49.400
 112192682.773 7  87261208.398 7  20965871.370    20965872.307    20965882.343
        44.600          43.600
 109150927.604 6  84895196.021 7  20411774.484    20411774.107    20411781.076
        38.000          46.400
 123676674.665 6  96192948.076 5  23176945.910    23176943.605    23176950.744
        37.100          31.200
 139364371.505 5                  26520154.004
        32.900
 25  1  1 20 21 45.0000000  0 27E31G07G02G30G08G13G17E33E24R10E09G09
                                E04R12R09G14S35S31E05E06S33R08R11R21
                                R20R02E26
 123467077.535 7                  23494993.051
        46.600
 106925311.141 8  83318374.83248  20347200.242    20347199.7104   20347201.1364
        51.100          48.3004
 117961918.438 6  91918409.68643  22447405.343    22447404.3514   22447408.3174
        40.900          21.8004
 109223597.328 8  85109297.05948  20784555.050    20784554.2194   20784558.4284
        48.600          49.3004
 113074922.117 6  88110388.74744  21517444.631    21517444.5244   21517453.4004
        39.300          24.2004
 123666557.378 6  96363542.06943  23532964.434    23532963.9784   23532967.5884
        40.300          18.8004
 121794747.657 6  94905018.62843  23176731.777    23176731.6844   23176736.3404
        38.800          20.7004
 137294889.153 4                  26126350.019
        29.600
 136765185.444 6                  26025546.916
        40.100
 110005588.370 7                  20636769.517    20636768.372
        43.100
 130152759.047 8                  24767253.772
        48.800
 126093736.338 5  98254937.82443  23994838.676    23994838.2704   23994858.8094
        34.800          18.7004
 138909243.277 5                  26433547.595
        31.100
                                                  24129101.563

 125329794.673 5                  23470247.263    23470248.829
        34.200
 115429451.682 7  89945027.38344  21965497.228    21965497.0544   21965497.5794
        46.000          28.1004


 198898968.674 7                  37849235.950
        44.500
 130239900.066 6                  24783828.284
        39.500
 131754761.690 7                  25072111.419
        42.500
 202050465.101 7                  38448939.131
        43.500


 108172950.508 7  84134512.231 8  20243095.660    20243095.216    20243102.618
        43.700          50.200
 112140453.534 7  87220585.781 7  20956114.762    20956116.595    20956122.204
        47.500          44.800
 109155934.321 5  84899090.210 7  20412709.072    20412710.035    20412717.067
        34.000          45.800
 123650781.829 5                  23172088.469    23172088.733
        32.700


 25  1  1 20 22  0.0000000  0 26E31G07G02G30G08G13G17E33E24R10E09G09
                                E04R09G14S35S31E05E06S33R11R21R01R20
                                R02E26
 123468242.177 7                  23495214.649
        47.100
 106930539.044 8  83322448.51048  20348195.407    20348194.8714   20348195.8984
        51.800          49.1004
 117929629.690 7  91893249.76243  22441261.947    22441260.9504   22441263.8564
        44.700          23.9004
 109198870.564 7  85090029.42648  20779849.554    20779848.7234   20779853.2264
        47.400          49.3004
 113115850.973 6  88142281.33044  21525234.080    21525233.9734   21525242.3134
        40.300          26.0004
 123630422.341 7  96335384.87243  23526089.175    23526088.8004   23526091.4674
        44.200          19.5004
 121744637.639 5  94865972.43143  23167196.344    23167196.2774   23167200.3464
        34.800          23.4004
 137259895.124 6                  26119685.089
        37.000
 136740080.020 7                  26020769.910
        43.600
 110026352.017 6                  20640664.428    20640662.869
        39.200
 130173435.830 8                  24771187.281
        48.100
 126148274.305 5  98297434.68743  24005217.285    24005216.8924   24005237.7944
        34.100          20.4004
 138954536.750 6                  26442168.385
        38.800
 125371422.035 5                  23478041.871    23478036.987
        33.900
 115398932.100 7  89921245.89144  21959689.436    21959689.2354   21959689.2454
        45.000          27.4004


 198898962.310 7                  37849238.897
        42.300
 130220159.368 6                  24780072.071
        39.200
 131790535.859 7                  25078918.907
        44.900
 202050479.242 6                  38448937.495
        41.400
 108151225.571 7  84117615.035 8  20239031.038    20239031.195    20239036.813
        45.300          49.000
 112088348.156 7  87180059.457 7  20946378.218    20946377.620    20946385.742
        45.900          42.400
 117269746.895 6  91209854.130 6  21937737.020    21937736.416    21937745.867
        41.500          36.200
 109161152.573 5  84903148.724 7  20413684.311    20413684.996    20413692.199
        32.100          45.300
 123625061.792 6  96152811.485 5  23167269.735    23167268.762    23167280.735
        40.400          34.000
 139357613.645 5                  26518856.625
        31.600
 25  1  1 20 22 15.0000000  0 30G21E31G07G02G30G08G13G27G17E33E24R10
                                E09G09E04R12R09G14S35S31E05E06S33R08
                                R11R21R01R20R02E26
 114717534.386 6  89390297.49641  21830026.228    21830026.6394   21830023.8624
        38.000          10.1004
 123469437.343 8                  23495442.433
        49.500
 106935881.300 8  83326611.30248  20349211.856    20349211.3294   20349211.7344
        50.200          48.1004
 117897436.736 7  91868164.49344  22435135.731    22435134.7304   22435135.8014
        47.400          26.7004
 109174236.747 8  85070834.23848  20775161.988    20775161.1524   20775165.7004
        48.100          48.4004
 113156861.855 6  88174237.80744  21533039.891    21533039.7574   21533046.6724
        38.800          27.4004
 123594399.258 7  96307314.92743  23519233.582    23519233.2564   23519235.4594
        42.100          18.8004
 129164259.210 5                  24579141.933
        30.900
 121694389.660 6  94826816.52043  23157671.050    23157670.9394   23157678.7324
        36.900          23.5004
 137224924.551 5                  26113030.994
        34.700
 136714996.402 6                  26015996.889
        38.600
 110047178.256 6                  20644571.958    20644569.525
        37.600
 130194207.542 7                  24775140.292
        46.900
 126202812.402 4  98339931.66543  24015596.373    24015595.9844   24015616.9354
        28.900          21.5004
 138999849.066 5                  26450788.206
        35.500
 128805186.989 5                  24112601.883    24112602.581
        33.300
 125413081.818 5                  23485836.670    23485839.481
        30.800
 115368449.729 7  89897493.43244  21953888.292    21953888.0734   21953889.6764
        47.200          28.7004
 200817401.383 5                  38214290.527
        32.400
 198898955.217 7                  37849231.103
        42.800
 130200513.268 6                  24776332.448
        41.400
 131826371.665 7                  25085738.538
        44.500
 202050493.829 7                  38448949.367
        44.100
                  97050409.143 5                                  23301615.520
                        33.300
 108129548.277 7  84100754.964 7  20234974.070    20234972.778    20234979.325
        45.900          47.900
 112036366.342 6  87139629.271 6  20936660.164    20936660.842    20936668.584
        41.600          41.800
 117295277.752 6  91229711.344 6  21942515.959    21942513.678    21942522.937
        40.200          37.100
 109166581.607 5  84907371.310 7  20414700.286    20414699.062    20414707.114
        30.500          44.700
 123599513.970 6                  23162482.126    23162484.296
        38.200
 139354372.459 5                  26518241.910
        35.900
 25  1  1 20 22 30.0000000  0 27G21E31G07G02G30G08G13G27G17E33E24R10
                                E09G09E04R09G14S35S31E05E06S33R11R21
                                R01R20E26
 114702911.929 6  89378903.40542  21827241.216    21827241.4934   21827242.9344
        38.900          16.1004
 123470660.945 7                  23495674.213
        47.000
 106941336.143 8  83330861.78448  20350249.818    20350249.3004   20350249.2804
        50.700          48.2004
 117865337.965 8  91843152.62844  22429027.859    22429026.8624   22429024.8104
        48.800          26.8004
 109149694.057 8  85051710.05948  20770491.803    20770490.9724   20770495.1224
        49.200          48.6004
 113197952.405 6  88206256.41943  21540857.878    21540857.7404   21540863.5564
        37.300          21.0004
 123558486.958 6  96279331.32142  23512401.095    23512400.8274   23512401.3984
        41.900          17.7004
 129220966.495 5                  24589934.988
        35.000


 137190008.558 6                  26106390.834
        37.000
 136689932.822 5                  26011227.218
        34.700
 110068065.013 6                  20648488.236    20648488.746
        38.200
 130215072.129 7                  24779110.238
        45.500
 126257348.156 5  98382426.71843  24025974.337    24025974.0474   24025995.9254
        31.800          20.3004
 139045177.910 6                  26459417.571
        38.500


 115338002.792 7  89873768.57244  21948094.672    21948094.4444   21948096.2504
        42.700          25.5004
 200817384.118 4                  38214297.830
        28.200
 198898945.995 7                  37849231.000
        42.700
 130180960.011 6                  24772612.565
        40.200
 131862266.827 7                  25092569.543
        43.500
 202050505.117 6                  38448933.587
        41.600
 108107916.679 8  84083930.378 8  20230924.706    20230925.302    20230930.736
        49.500          49.800
 111984506.546 6  87099294.030 6  20926967.557    20926966.530    20926978.511
        37.800          40.300
 117320969.328 7  91249693.591 6  21947321.409    21947321.388    21947329.828
        43.700          38.800
 109172218.992 4  84911756.068 7  20415757.857    20415757.312    20415763.606
        29.400          46.700
 139351236.970 5                  26517645.199
        34.800
 25  1  1 20 22 45.0000000  0 30G21E31G07G02G30G08G13G27G17E33E24R10
                                E09G09E04R12R09G14S35S31E05E06S33R08
                                R11R21R01R20R02E26
 114688435.216 6  89367622.94042  21824486.887    21824486.9894   21824488.6694
        41.800          16.0004
 123471916.691 7                  23495913.206
        46.300
 106946907.166 8  83335202.82548  20351309.828    20351309.3014   20351309.6504
        50.100          48.2004
 117833337.260 8  91818217.15745  22422938.120    22422937.1234   22422937.2014
        48.100          31.7004
 109125246.450 8  85032659.96847  20765839.577    20765838.7554   20765841.9784
        48.000          47.8004
 113239126.068 6  88238339.71943  21548693.562    21548693.4694   21548692.7364
        36.600          22.1004
 123522689.012 7  96251436.80743  23505587.965    23505587.7334   23505588.2104
        42.400          18.0004
 129277690.850 5                  24600727.841
        30.900


 137155150.981 5                  26099752.261
        34.400
 136664892.732 6                  26006463.370
        38.800
 110089016.062 7                  20652421.039    20652420.567
        42.200
 130236033.040 7                  24783099.133
        46.900
 126311884.705 4  98424922.43943  24036354.184    24036353.9524   24036374.2574
        28.400          18.4004
 139090526.853 6                  26468046.402
        40.900
 128716988.665 5 100113210.282 5  24096082.638    24096081.966    24096094.992
        35.700          31.500


 115307594.784 6  89850073.99644  21942308.553    21942308.2994   21942309.2514
        38.700          25.0004


 198898938.128 6                  37849227.794
        41.500
 130161503.267 7                  24768910.540
        42.800
 131898224.826 7                  25099412.247
        42.100
 202050517.846 7                  38448948.473
        43.200
                  97143211.586 5                                  23323905.231
                        32.700
 108086334.642 8  84067144.332 8  20226887.775    20226888.039    20226892.646
        49.300          49.700
 111932772.972 7  87059056.882 6  20917304.698    20917304.409    20917310.635
        46.000          38.300
 117346825.289 6  91269803.691 6  21952155.306    21952156.093    21952163.643
        40.500          36.800
                  84916305.968 7                                  20416857.057
                        45.600
 123548840.576 7                  23153003.369    23153003.446
        42.700
 139348210.702 5                  26517069.363
        33.100
 25  1  1 20 23  0.0000000  0 30G21E31G07G02G30G08G13G27G17E33E24R10
                                E09G09E04R12R09G14S35S31E05E06S33R08
                                R11R21R01R20R02E26
 114674101.094 7  89356453.52742  21821759.750    21821759.6074   21821760.6714
        42.700          16.0004
 123473201.362 7                  23496157.893
        45.300
 106952591.470 8  83339632.13648  20352391.915    20352391.3924   20352392.0114
        48.600          48.4004
 117801432.056 7  91793356.05345  22416865.882    22416864.8814   22416867.8104
        46.700          32.1004
 109100891.025 8  85013681.73648  20761205.143    20761204.3304   20761206.2204
        50.800          48.2004
 113280379.344 5  88270485.10943  21556544.178    21556544.0224   21556542.5804
        35.400          22.8004
 123487002.774 7  96223629.33842  23498796.293    23498796.1414   23498795.5344
        42.300          14.2004
 129334428.940 5 100780081.23341  24611525.739    24611525.9674   24611533.5704
        31.300           7.4004
 121544526.196 5  94710047.14242  23129157.194    23129157.1274   23129161.3174
        33.400          16.1004
 137120348.995 5                  26093127.823
        33.300
 136639873.061 6                  26001700.134
        38.900
 110110028.419 7                  20656363.254    20656363.331
        43.600
 130257087.018 7                  24787104.425
        44.800
 126366418.651 5  98467416.15042  24046729.482    24046729.3574   24046751.8644
        31.500          17.2004
 139135892.454 6                  26476679.562
        39.000
 128672856.558 5                  24087826.132    24087826.685
        35.700
                  97640994.474 5                                  23509313.970
                        31.100
 115277222.671 6  89826407.43143  21936529.508    21936529.2944   21936529.4874
        38.900          23.6004


 198898927.983 7                  37849229.609
        44.100
 130142140.103 7                  24765225.291
        43.200
 131934242.252 6                  25106266.094
        40.500
 202050528.798 7                  38448955.743
        45.000


 108064799.229 7  84050394.597 8  20222856.388    20222855.369    20222860.906
        46.300          48.500
 111881162.967 7  87018915.813 7  20907658.812    20907661.172    20907668.672
        45.000          42.400
 117372842.020 7  91290038.840 6  21957026.375    21957027.720    21957032.972
        43.300          37.700
                  84921018.678 7                                  20417990.323
                        46.500
 123523808.866 7                  23148311.419    23148311.618
        42.100
 139345290.706 6                  26516513.985
        37.400
 25  1  1 20 23 15.0000000  0 28G21E31G07G02G30G08G13G27G17E33E24R10
                                E09G09E04R09G14S35S31E05E06S33R08R11
                                R21R01R20E26
 114659917.061 7  89345401.14042  21819059.782    21819059.3894   21819061.2554
        42.300          13.8004
 123474522.192 7                  23496409.483
        44.600
 106958396.369 8  83344155.40648  20353496.582    20353496.0554   20353496.8284
        50.400          48.3004
 117769629.763 7  91768575.12945  22410814.765    22410813.7594   22410817.4944
        47.200          31.2004
 109076635.364 8  84994781.20848  20756588.853    20756588.0404   20756590.1964
        50.600          48.3004
 113321719.078 5  88302697.88444  21564410.566    21564410.3524   21564411.2684
        32.000          25.6004
 123451435.560 7  96195914.69141  23492029.352    23492029.2504   23492025.3544
        46.100          11.0004
 129391187.757 5 100824308.75941  24622329.338    24622329.7894   24622338.5304
        30.600           8.0004
 121494960.426 5                  23119718.654
        33.900


 136614881.025 6                  25996944.599
        37.500
 110131109.507 7                  20660316.728    20660316.151
        43.400
 130278241.156 7                  24791130.907
        44.100


 139181281.799 5                  26485313.533
        33.400


 115246893.749 6  89802774.52243  21930756.619    21930756.4594   21930759.2294
        41.700          22.6004


 198898923.088 7                  37849225.205
        43.400
 130122877.946 7                  24761560.238
        42.000
 131970326.166 6                  25113133.325
        41.200
 202050544.509 6                  38448956.973
        41.700


 108043317.744 8  84033686.807 8  20218837.534    20218836.776    20218842.451
        48.300          49.100
 111829684.500 7  86978877.142 6  20898034.509    20898037.619    20898045.025
        43.200          40.300
 117399026.287 4  91310404.307 6  21961925.986    21961921.196    21961930.248
        28.900          36.500
                  84925899.611 7                                  20419163.229
                        45.200
 139342484.215 6                  26515981.176
        39.100
 25  1  1 20 23 30.0000000  0 27G21E31G07G02G30G08G13G27G17E33E24R10
                                E09G09E04R12R09G14S35S31E05E06S33R11
                                R21R01E26
 114645873.652 6  89334458.28741  21816387.503    21816387.1144   21816388.5624
        37.400           9.5004
 123475869.404 7                  23496666.088
        46.400
 106964312.086 8  83348765.02647  20354621.920    20354621.4064   20354622.6884
        48.000          47.1004
 117737921.064 7  91743867.14445  22404780.087    22404779.0864   22404783.6484
        46.200          32.6004
 109052469.898 8  84975951.00348  20751990.467    20751989.6764   20751992.3714
        51.600          49.8004
 113363135.307 6  88334970.20843  21572292.052    21572291.8694   21572292.6284
        38.600          23.4004
 123415977.999 7  96168285.43242  23485279.667    23485279.5564   23485276.7594
        42.200          13.4004
 129447957.067 4 100868544.47641  24633130.712    24633130.9714   24633143.2274
        25.400           6.9004




 136589906.746 6                  25992191.463
        37.900
 110152249.399 7                  20664284.121    20664283.894
        46.600
 130299485.558 7                  24795173.245
        44.900


 139226684.665 5                  26493956.132
        32.500
 128584556.446 6                  24071289.741    24071287.874
        38.500
 125621950.340 5                  23524945.864    23524952.031
        33.500
 115216598.248 7  89779167.63744  21924991.009    21924990.8624   21924994.7174
        42.000          26.2004


 198898913.987 7                  37849223.604
        43.800
 130103707.079 7                  24757912.799
        42.800
 132006466.622 7                  25120010.100
        42.800
 202050555.918 7                  38448954.867
        45.300
 108021880.622 8  84017013.471 8  20214827.340    20214827.344    20214829.810
        49.800          48.500
 111778328.241 6  86938933.453 6  20888440.317    20888439.661    20888448.955
        41.800          41.700
                  91330892.125 5                                  21966856.644
                        35.700
 139339781.546 6                  26515466.422
        38.800
 25  1  1 20 23 45.0000000  0 27G21E31G07G02G30G08G13G17E33E24R10E09
                                G09E04R12G14S35S31E05E06S33R11R21R01
                                R20R02E26
 114631975.278 6  89323628.52241  21813743.728    21813743.2814   21813743.5034
        38.600           7.5004
 123477247.184 7                  23496928.414
        45.600
 106970343.032 8  83353464.41247  20355769.161    20355768.6474   20355770.2864
        48.700          46.5004
 117706310.570 7  91719235.70645  22398764.921    22398763.9334   22398768.2384
        46.200          32.0004
 109028399.244 8  84957194.65448  20747410.182    20747409.4004   20747412.1774
        53.000          49.2004
 113404631.788 6  88367305.11144  21580189.154    21580188.9044   21580191.3024
        38.800          28.0004
 123380634.563 7  96140745.14142  23478554.661    23478554.5594   23478550.5984
        43.500          13.2004




 136564954.544 6                  25987445.334
        39.700
 110173452.684 7                  20668258.952    20668258.746
        43.100
 130320824.313 7                  24799234.249
        44.000


 139272105.423 5                  26502598.271
        34.200
 128540383.043 5  99975863.171 5  24063021.253    24063018.543    24063028.260
        35.900          31.400
 115186340.511 7  89755590.18644  21919233.603    21919233.4784   21919238.1204
        42.900          25.1004


 198898904.890 7                  37849228.223
        44.000
 130084631.980 7                  24754283.162
        43.200
 132042667.670 6                  25126898.675
        41.200
 202050567.412 7                  38448956.048
        44.300
 108000492.357 8  84000378.148 7  20210823.284    20210823.512    20210826.947
        50.300          47.500
 111727099.106 6  86899088.622 7  20878866.286    20878865.340    20878876.704
        40.900          43.700
 117451901.691 6  91351505.361 5  21971807.761                    21971814.193
        39.500          35.200
 109203562.859 5  84936146.324 7  20421617.585    20421617.445    20421623.798
        35.300          42.400
 123449764.416 6                  23134435.052    23134434.045
        40.500
 139337187.057 5                  26514972.392
        35.800
 25  1  1 20 24  0.0000000  0 28G21E31G07G02G30G08G13G17E33E24R10E09
                                G09E04R12R09G14S35S31E05E06S33R11R21
                                R01R20R02E26
 114618221.666 7  89312911.52642  21811125.999    21811125.4454   21811126.2054
        42.200          12.0004
 123478654.770 7                  23497196.267
        45.900
 106976488.655 7  83358253.14547  20356938.676    20356938.1444   20356939.6424
        47.900          46.2004
 117674797.836 7  91694680.43945  22392767.785    22392766.8244   22392770.7684
        46.100          32.2004
 109004422.860 8  84938511.77048  20742847.215    20742846.4244   20742849.4414
        51.300          49.0004
 113446207.554 6  88399701.79444  21588099.326    21588098.9694   21588105.5604
        38.500          29.1004
 123345404.860 6  96113293.48042  23471851.441    23471851.3254   23471846.2944
        41.900          14.0004




 136540023.820 6                  25982700.371
        40.000
 110194718.432 7                  20672251.387    20672249.951
        44.700
 130342256.619 7                  24803313.142
        44.200


 139317542.894 6                  26511245.468
        38.300
 128496194.829 6  99941494.384 4  24054751.878    24054750.522    24054757.842
        39.500          29.900
                  97771156.059 5                                  23540647.112
                        33.100
 115156119.790 6  89732041.57643  21913480.910    21913480.7944   21913486.8534
        41.700          23.2004


 198898894.776 7                  37849221.900
        43.600
 130065652.027 6                  24750672.994
        38.900
 132078928.286 7                  25133798.510
        42.500
 202050577.935 7                  38448962.880
        45.400
 107979152.205 8  83983780.272 8  20206830.894    20206832.285    20206834.776
        52.600          49.100
 111675996.705 7  86859342.399 7  20869317.233    20869316.481    20869326.486
        44.300          42.600
 117478564.657 4  91372243.238 6  21976791.615                    21976805.164
        29.700          36.600
 109210465.415 6  84941514.981 7  20422908.856    20422909.266    20422915.833
        37.100          44.200
 123425428.951 7                  23129880.477    23129879.903
        43.900
 139334700.100 5                  26514498.756
        35.200
 25  1  1 20 24 15.0000000  0 28G21E31G07G02G30G08G13G17E33E24R10E09
                                G09E04R12R09G14S35S31E05E06S33R11R21
                                R01R20R02E26
 114604613.312 7  89302307.61642  21808537.222    21808536.6504   21808536.5994
        42.700          15.0004
 123480092.716 7                  23497469.690
        45.700
 106982749.687 7  83363131.84247  20358130.253    20358129.7214   20358131.0344
        47.100          46.6004
 117643383.811 7  91670202.11345  22386790.282    22386789.2994   22386792.5664
        44.600          30.6004
 108980541.578 8  84919902.97548  20738303.135    20738302.3354   20738304.6944
        51.200          48.6004
 113487862.907 6  88432160.48844  21596027.479    21596027.1224   21596034.2524
        37.600          29.7004
 123310289.675 6  96085931.03042  23465168.981    23465168.7804   23465165.6994
        41.900          17.0004
 121296206.998 4                  23081899.039
        28.000
 136947331.829 5                  26060206.568
        30.800
 136515114.877 6                  25977960.672
        38.400
 110216047.274 7                  20676252.143    20676251.136
        45.400
 130363782.889 7                  24807409.364
        44.000


 139362997.521 6                  26519895.322
        39.700
 128451992.114 6                  24046471.956    24046472.882
        36.900
                  97803758.817 5                                  23548490.781
                        30.700
 115125936.722 7  89708522.31944  21907739.403    21907739.3014   21907741.4444
        42.300          24.8004


 198898883.991 7                  37849221.846
        42.900
 130046767.976 6                  24747079.206
        39.100
 132115248.914 6                  25140709.266
        41.900
 202050588.502 7                  38448967.191
        45.900
 107957861.009 8  83967220.487 8  20202844.360    20202845.802    20202850.713
        52.800          48.700
 111625022.134 7  86819695.581 6  20859789.808    20859789.059    20859798.826
        44.700          40.300
 117505388.237 6  91393105.930 5  21981808.233    21981812.771    21981820.987
        37.800          35.600
 109217578.229 5  84947047.182 7  20424236.927    20424238.219    20424248.149
        35.500          45.900
 123401267.824 6                  23125351.246    23125349.649
        39.800
 139332321.259 5                  26514046.406
        32.300
 25  1  1 20 24 30.0000000  0 27G21E31G07G02G30G08G13G17E33E24R10E09
                                G09E04R12R09G14S35S31E05E06S33R11R21
                                R01R20E26
 114591155.479 5  89291820.98642  21805974.675    21805974.1124   21805976.6534
        33.600          14.2004
 123481566.080 7                  23497750.419
        45.200
 106989131.221 7  83368104.43947  20359344.635    20359344.1174   20359345.6574
        46.200          46.1004
 117612073.891 6  91645804.88844  22380830.606    22380829.5694   22380834.5814
        38.200          25.4004
 108956760.797 8  84901372.51048  20733778.275    20733777.4664   20733778.8714
        52.000          48.9004
 113529602.406 5  88464684.71343  21603970.676    21603970.3194   21603975.8894
        35.800          21.1004
 123275294.628 6  96058662.17642  23458508.017    23458507.8254   23458508.2044
        40.700          16.6004


 136912884.806 5                  26053626.804
        34.300
 136490232.943 6                  25973225.940
        38.300
 110237444.767 7                  20680265.030    20680264.444
        45.700
 130385408.005 7                  24811524.721
        45.600


 139408474.183 6                  26528549.626
        38.400
 128407780.517 6                  24038202.128    24038200.304
        38.900


 115095796.325 7  89685036.27544  21902002.818    21902002.7424   21902005.3594
        42.100          26.4004


 198898878.333 7                  37849213.113
        44.000
 130027984.999 6                  24743503.681
        36.000
 132151634.357 6                  25147632.877
        39.100
 202050602.626 7                  38448967.830
        45.400
 107936623.957 8  83950702.814 7  20198870.257    20198871.137    20198875.208
        52.200          46.100
 111574181.281 7  86780152.820 6  20850290.887    20850289.088    20850297.120
        47.100          36.200
 117532376.870 7  91414096.999 5  21986868.094    21986867.806    21986869.650
        42.200          32.900
 109224906.658 5  84952747.060 7  20425611.334    20425610.434    20425617.901
        35.100          46.400
 139330055.626 6                  26513614.378
        36.100
 25  1  1 20 24 45.0000000  0 25E31G07G02G30G08G13G17E33E24R10E09G09
                                E04R12G14S35S31E05E06S33R11R21R01R20
                                E26
 123483063.472 7                  23498035.062
        45.300
 106995621.989 7  83373162.19147  20360579.462    20360578.9354   20360580.7994
        45.300          45.3004
 117580857.042 6  91621480.15743  22374890.145    22374889.1444   22374893.5704
        36.100          23.0004
 108933069.391 8  84882911.68048  20729269.801    20729268.9884   20729270.7514
        51.400          49.5004
 113571414.570 6  88497265.59643  21611923.739    21611923.3644   21611930.3074
        37.100          22.9004
 123240408.474 6  96031478.17743  23451871.398    23451871.2554   23451872.2454
        40.200          18.8004


 136878490.799 4                  26047082.172
        29.600
 136465366.686 6                  25968493.796
        37.200
 110258899.104 8                  20684290.592    20684290.577
        48.400
 130407120.581 7                  24815656.797
        47.000
 126748154.530 5                  24119369.356
        30.900
 139453961.185 5                  26537207.098
        33.000
 128363548.251 6                  24029913.909    24029914.920
        37.000
 115065687.487 7  89661574.87844  21896275.187    21896275.1344   21896276.2094
        43.300          28.3004
 200817286.400 5                  38214249.822
        35.600
 198898866.501 7                  37849215.179
        44.500
 130009291.875 6                  24739947.016
        37.100
 132188073.116 6                  25154568.421
        38.200
 202050611.047 6                  38448939.914
        38.500
 107915429.817 8  83934218.425 7  20194903.550    20194903.954    20194907.832
        52.300          46.600
 111523463.221 8  86740705.541 6  20840813.422    20840812.378    20840818.667
        50.100          39.700
 117559518.605 7  91435207.210 5  21991938.029    21991939.726    21991949.029
        42.500          35.400
 109232438.962 5  84958605.516 7  20427015.661    20427016.867    20427026.037
        33.800          45.300
 139327891.975 5                  26513201.893
        35.300
 25  1  1 20 25  0.0000000  0 29G21E31G07G02G30G08G13G27G17E33E24R10
                                E09G09E04R12R09G14S35S31E05E06S33R11
                                R21R01R20R02E26
 114564660.992 6  89271189.00741  21800932.265    21800932.5014   21800936.3474
        39.500           7.1004
 123484590.897 7                  23498325.431
        44.900
 107002228.223 8  83378309.86448  20361837.421    20361836.8984   20361838.0724
        48.700          48.8004
 117549739.914 6  91597233.11843  22368969.018    22368967.9944   22368970.8434
        37.900          18.9004
 108909473.643 8  84864525.39948  20724779.186    20724778.3864   20724780.6344
        51.400          48.7004
 113613305.130 5  88529907.42142  21619899.456    21619899.1034   21619899.4984
        32.200          16.3004
 123205637.647 6  96004384.03343  23445255.846    23445255.7084   23445258.9934
        41.400          21.8004
 129788872.701 5                  24698004.730
        31.400
 121147711.559 5                  23053639.811
        34.100
 136844155.779 5                  26040551.545
        35.600
 136440521.848 6                  25963765.673
        37.300
 110280416.438 7                  20688326.832    20688326.440
        47.500
 130428926.427 7                  24819806.161
        46.600
 126802667.972 5  98807328.06342  24129744.445    24129744.2674   24129762.0594
        33.400          12.7004


 128319224.639 6                  24021632.648    24021631.355
        38.300


 115035616.031 7  89638142.60644  21890552.513    21890552.4604   21890555.0274
        43.200          27.8004


 198898853.463 7                  37849202.833
        42.700
 129990694.911 5                  24736408.452
        34.600
 132224570.921 6                  25161513.558
        40.400
 202050618.932 7                  38448961.454
        45.700
 107894284.727 8  83917772.222 8  20190946.744    20190946.738    20190952.919
        52.700          48.100
 111472874.480 8  86701358.867 6  20831359.880    20831359.936    20831368.827
        49.600          41.600
 117586819.395 7  91456441.022 4  21997047.387    21997049.637    21997055.407
        43.500          28.700
 109240181.144 5  84964627.221 7  20428465.944    20428464.367    20428474.856
        34.300          46.800
 123329835.091 6  95923306.587 5  23111966.284    23111964.571    23111982.496
        38.200          31.500
 139325836.395 5                  26512811.859
        31.700
 25  1  1 20 25 15.0000000  0 30G21E31G07G02G30G08G13G27G17E33E24R10
                                E09G09E04R12R09G14S35S31E05E06S33R08
                                R11R21R01R20R02E26
 114551643.711 6  89261045.74941  21798456.190    21798456.0474   21798462.3374
        36.300           8.1004
 123486157.635 7                  23498623.736
        45.000
 107008959.250 8  83383554.79748  20363118.184    20363117.6574   20363119.4744
        49.200          49.9004
 117518731.818 6  91573071.01744  22363072.235    22363071.1854   22363070.6584
        41.700          26.3004
 108885983.100 8  84846221.08748  20720309.001    20720308.1974   20720311.2744
        50.000          49.4004


 123170991.745 6  95977387.27943  23438662.244    23438662.1064   23438668.5454
        38.900          19.1004
 129845744.158 5                  24708822.770
        31.000


 136809889.230 5                  26034027.368
        33.400
 136415707.932 6                  25959043.577
        40.400
 110302006.174 7                  20692377.081    20692375.441
        45.700
 130450834.688 7                  24823974.851
        46.600
 126857186.264 5  98849809.69142  24140117.341    24140116.9574   24140136.8454
        34.200          12.9004
 139544993.054 5                  26554540.585
        32.700
 128274973.118 6                  24013349.958    24013347.840
        38.800


 115005591.369 7  89614746.77244  21884839.067    21884838.9874   21884841.5274
        45.500          28.4004


 198898849.125 7                  37849213.216
        42.200
 129972203.298 6                  24732890.542
        41.200
 132261136.891 6                  25168472.029
        38.900
 202050635.738 7                  38448975.110
        47.200
 125495735.651 5                  23435443.807
        31.900
 107873198.498 8  83901371.824 7  20187001.834    20187001.350    20187006.547
        52.800          47.200
 111422424.923 8  86662120.388 7  20821930.470    20821931.569    20821941.462
        48.700          43.600
 117614288.137 7                  22002186.974    22002185.998
        44.200
 109248142.378 5  84970819.280 7  20429952.127    20429954.276    20429963.182
        33.700          46.400
 123306381.649 6  95905064.887 6  23107569.738    23107572.307    23107586.627
        38.200          36.800
 139323898.149 5                  26512444.230
        33.800
 25  1  1 20 25 30.0000000  0 29G21E31G07G02G30G08G13G27G17E33E24R10
                                E09G09E04R09G14S35S31E05E06S33R08R11
                                R21R01R20R02E26
 114538770.533 6  89251014.90041  21796008.106    21796007.7534   21796009.4024
        39.800          11.2004
 123487752.213 7                  23498927.366
        44.600
 107015803.806 8  83388888.20148  20364420.677    20364420.1634   20364422.3974
        49.800          50.9004
 117487821.779 6  91548985.37544  22357190.106    22357189.0564   22357189.0304
        41.200          27.8004
 108862586.651 8  84827990.05548  20715856.993    20715856.1984   20715859.7514
        49.900          49.7004


 123136459.648 7  95950479.15042  23432090.928    23432090.7944   23432098.1534
        43.200          17.5004
 129902625.711 4                  24719647.508
        25.600


 136775680.406 6                  26027521.128
        39.300
 136390913.451 6                  25954325.123
        41.600
 110323657.226 7                  20696439.197    20696438.554
        47.800
 130472833.808 7                  24828161.546
        47.500
 126911697.880 5  98892286.00942  24150487.872    24150487.9974   24150510.6564
        30.900          14.6004
 139590535.273 5                  26563211.395
        31.300


 114975602.191 7  89591378.60044  21879132.633    21879132.5264   21879131.9724
        45.900          27.0004


 198898842.852 7                  37849208.387
        43.100
 129953805.945 6                  24729388.361
        37.100
 132297759.409 6                  25175442.214
        40.800
 202050649.744 7                  38448975.897
        46.500
 125555541.864 5                  23446609.813
        32.000
 107852159.330 9  83885007.960 7  20183065.818    20183065.655    20183067.991
        54.700          44.600
 111372103.706 7  86622981.754 7  20812526.250    20812526.039    20812536.338
        47.600          43.000
 117641912.695 7  91499299.196 4  22007354.950    22007355.734    22007359.908
        43.400          29.600
 109256311.102 5  84977172.720 7  20431480.630    20431479.573    20431488.748
        32.900          43.800
 123283101.525 6  95886957.989 5  23103209.005    23103207.748    23103228.597
        39.500          32.500
 139322065.909 5                  26512092.764
        34.500
 25  1  1 20 25 45.0000000  0 30G21E31G07G02G30G08G13G27G17E33E24R10
                                E09G09E04R12R09G14S35S31E05E06S33R08
                                R11R21R01R20R02E26
 114526042.212 7  89241096.86742  21793586.299    21793585.9784   21793587.1114
        42.100          15.0004
 123489375.277 7                  23499235.807
        46.200
 107022762.570 8  83394310.59548  20365745.106    20365744.5884   20365746.5704
        50.500          51.6004
 117457010.790 6  91524976.90744  22351326.085    22351324.9724   22351326.2814
        40.700          26.2004
 108839285.220 8  84809833.06548  20711422.004    20711421.1864   20711426.3394
        50.200          50.1004
 113739503.984 6  88628185.86143  21643907.573    21643908.1814   21643911.0384
        37.800          23.6004
 123102042.170 6  95923660.34843  23425539.818    23425539.6934   23425547.3654
        41.400          18.2004




 136741530.053 6                  26021021.034
        39.600
 136366139.043 7                  25949611.847
        42.500
 110345370.384 7                  20700511.443    20700511.437
        47.200
 130494924.368 7                  24832365.075
        47.500
 126966203.051 6  98934757.28542  24160864.927    24160864.9894   24160882.3794
        36.100          12.0004


 128186421.375 5  99700603.489 5  23996770.769    23996769.353    23996779.942
        30.100          33.400


 114945649.203 7  89568038.63344  21873432.289    21873432.2184   21873430.1794
        43.500          26.3004


 198898834.197 7                  37849206.017
        43.000
 129935503.550 6                  24725907.917
        36.200
 132334438.940 7                  25182422.103
        42.600
 202050661.726 7                  38448975.253
        45.500
 125615355.150 4                  23457782.146
        29.000
 107831168.405 9  83868681.689 7  20179136.823    20179137.353    20179140.762
        54.400          46.200
 111321912.025 7  86583943.861 7  20803147.505    20803148.156    20803157.177
        46.500          43.200
 117669693.367 6  91520906.324 5  22012554.533    22012554.014    22012557.557
        41.700          33.000
 109264687.820 5  84983687.962 7  20433048.306    20433046.515    20433055.962
        32.200          43.800
 123259995.201 7                  23098876.545    23098877.080
        44.300
 139320340.388 5                  26511764.363
        33.300
 25  1  1 20 26  0.0000000  0 30G21E31G07G02G30G08G13G27G17E33E24R10
                                E09G09E04R12R09G14S35S31E05E06S33R08
                                R11R21R01R20R02E26
 114513462.560 6  89231294.60942  21791192.292    21791191.7424   21791192.8124
        39.900          15.8004
 123491030.349 7                  23499550.856
        46.800
 107029839.308 8  83399824.93048  20367092.192    20367091.6654   20367092.9224
        50.100          52.1004
 117426302.797 6  91501048.69444  22345481.547    22345480.4654   22345483.3114
        39.500          27.4004
 108816082.590 8  84791753.08348  20707006.886    20707006.0774   20707011.1174
        49.400          50.6004
 113781712.091 5  88661075.35743  21651951.304    21651951.5904   21651945.3774
        31.700          18.1004
 123067743.280 6  95896933.94143  23419013.608    23419013.5644   23419017.9294
        40.600          18.2004


 120950601.289 5  94247259.23043  23016134.238    23016134.4124   23016141.9114
        34.900          18.3004
 136707441.916 6                  26014535.151
        41.300
 136341388.344 7                  25944900.441
        42.200
 110367149.160 7                  20704598.861    20704598.214
        47.800
 130517109.691 8                  24836587.619
        48.200
 127020705.094 5  98977226.03041  24171242.176    24171241.9314   24171253.2524
        33.700           9.0004


 128142125.416 5  99666151.073 5  23988480.314    23988479.157    23988488.650
        31.700          32.500


 114915735.919 7  89544729.60044  21867739.361    21867739.2414   21867739.6104
        43.000          27.4004


 198898826.945 7                  37849201.442
        43.400
 129917299.853 4                  24722445.085
        29.500
 132371178.766 7                  25189413.237
        43.800
 202050675.129 7                  38448981.084
        46.500


 107810229.378 8  83852395.802 7  20175217.235    20175217.784    20175222.744
        53.100          46.900
 111271853.811 7  86545009.776 7  20793792.129    20793793.061    20793801.961
        46.000          42.300
 117697633.286 5  91542637.380 5  22017778.420    22017774.557    22017787.084
        32.900          35.500
 109273276.254 5  84990367.789 7  20434654.010    20434653.057    20434662.062
        34.000          43.900
 123237066.748 7  95851106.699 5  23094579.753    23094578.917    23094584.119
        45.800          34.500
 139318725.215 5                  26511457.543
        34.200
 25  1  1 20 26 15.0000000  0 30G21E31G07G02G30G08G13G27G17E33E24R10
                                E09G09E04R12R09G14S35S31E05E06S33R08
                                R11R21R01R20R02E26
 114501028.372 6  89221605.64742  21788826.230    21788825.6044   21788826.0854
        39.200          16.2004
 123492714.081 7                  23499871.425
        47.600
 107037030.722 8  83405428.62348  20368460.593    20368460.0754   20368460.9574
        51.100          51.5004
 117395694.762 7  91477198.37644  22339657.780    22339656.7394   22339658.7004
        42.600          26.7004
 108792975.713 8  84773747.71948  20702609.858    20702609.0944   20702613.8754
        50.700          50.7004
 113823996.108 4  88694023.81342  21659986.414    21659986.9594   21659992.1294
        27.600          15.1004
 123033559.889 6  95870297.55943  23412508.307    23412508.3694   23412511.7944
        38.500          18.3004


 120901498.153 4  94208997.41542  23006793.854    23006793.8804   23006794.3864
        28.900          15.1004
 136673413.005 6                  26008058.627
        40.100
 136316657.867 7                  25940195.618
        43.400
 110388990.177 7                  20708695.486    20708694.922
        46.800
 130539386.345 8                  24840826.506
        48.100




 128097813.912 5  99631686.481 5  23980186.126    23980181.865    23980199.009
        31.100          33.900


 114885859.050 7  89521448.92144  21862054.319    21862054.1454   21862055.7844
        43.300          28.3004


 198898818.452 7                  37849200.275
        42.900
 129899191.545 4                  24719002.795
        25.800
 132407975.396 7                  25196415.461
        44.600
 202050686.935 7                  38448982.882
        46.300


 107789338.980 8  83836147.692 7  20171308.456    20171308.834    20171313.763
        53.300          47.400
 111221926.415 7  86506177.414 7  20784462.711    20784463.973    20784471.094
        46.700          42.900
 117725729.191 5  91564489.762 5  22023033.122    22023030.019    22023042.220
        35.000          35.600
 109282073.182 5  84997209.816 7  20436299.914    20436300.001    20436307.471
        34.500          43.700
 123214313.280 7  95833409.535 5  23090315.950    23090316.119    23090318.790
        45.600          32.600
 139317217.098 6                  26511171.231
        36.100
 25  1  1 20 26 30.0000000  0 28G21E31G07G02G30G08G13G17E33E24R10E09
                                G09E04R12R09G14S35S31E05E06S33R11R21
                                R01R20R02E26
 114488739.775 6  89212030.17542  21786486.587    21786485.8854   21786487.2654
        37.100          14.5004
 123494426.422 7                  23500197.618
        47.400
 107044336.856 8  83411121.69448  20369850.106    20369849.5884   20369850.8854
        50.600          50.4004
 117365187.021 7  91453426.21244  22333851.125    22333850.0794   22333852.1424
        44.500          26.1004
 108769964.880 8  84755817.20048  20698230.523    20698229.7594   20698234.8874
        49.400          50.1004


 122999492.334 6  95843751.38843  23406025.835    23406025.9284   23406028.7734
        40.500          18.5004
 120852455.074 5  94170782.4054   22997536.859    22997536.8064   22997489.9374
        31.600           5.0004
 136639443.571 6                  26001594.366
        39.700
 136291947.669 6                  25935492.862
        40.700
 110410893.460 7                  20712805.103    20712803.861
        46.400
 130561754.181 8                  24845083.266
        48.000




 128053487.019 6  99597209.949 5  23971912.603    23971908.366    23971904.431
        36.600          32.800


 114856018.653 7  89498196.64844  21856376.007    21856375.8204   21856377.9824
        42.600          29.6004


 198898808.488 7                  37849196.649
        42.900


 132444828.562 7                  25203428.222
        44.500
 202050697.951 7                  38448981.871
        45.200
 107768497.315 8  83819937.516 7  20167408.240    20167407.907    20167413.252
        52.000          47.900
 111172130.294 7  86467447.195 7  20775154.252    20775154.976    20775166.779
        43.400          42.900
 117753980.295 6  91586462.754 5  22028318.579    22028319.457    22028328.675
        40.400          34.900
 109291078.171 5  85004213.700 7  20437984.640    20437983.969    20437992.728
        34.600          44.600
 123191734.798 7  95815848.380 5  23086082.365    23086083.089    23086089.896
        44.800          32.700
 139315816.089 5                  26510904.535
        34.800
 25  1  1 20 26 45.0000000  0 29G21E31G07G02G30G08G13G17E33E24R10E09
                                G09E04R12R09G14S35S31E05E06S33R08R11
                                R21R01R20R02E26
 114476601.431 6  89202571.69042  21784176.809    21784176.1124   21784176.6394
        37.100          12.8004
 123496171.513 7                  23500530.247
        47.200
 107051762.074 8  83416907.54948  20371263.362    20371262.8484   20371263.4924
        49.800          49.1004
 117334784.063 7  91429735.72043  22328065.420    22328064.4324   22328064.8474
        43.000          23.5004
 108747054.493 8  84737964.96148  20693871.125    20693870.3834   20693875.3374
        48.300          49.4004


 122965545.120 6  95817298.98243  23399565.951    23399566.0274   23399568.6964
        38.500          18.1004


 136605538.024 6                  25995140.784
        38.100
 136267261.855 6                  25930795.218
        39.200
 110432863.381 7                  20716926.091    20716925.646
        46.200
 130584217.211 8                  24849357.496
        48.000




 128009148.731 4  99562724.670 4  23963605.746    23963608.319    23963604.250
        29.200          29.200


 114826218.890 7  89474976.04945  21850705.606    21850705.4104   21850707.7324
        42.800          30.3004


 198898800.431 7                  37849191.238
        42.900


 132481742.223 7                  25210452.033
        43.400
 202050710.022 7                  38448980.901
        44.400
 125854776.717 5                  23502494.343
        32.000
 107747708.887 8  83803768.741 8  20163518.632    20163519.022    20163522.949
        52.500          48.100
 111122470.232 6  86428822.786 7  20765877.285    20765873.578    20765886.154
        40.500          42.100
 117782390.263 6  91608559.368 5  22033634.226    22033635.009    22033639.648
        39.600          30.500
 109300295.121 5  85011382.424 7  20439707.129    20439707.954    20439715.165
        33.900          42.800
 123169335.590 6  95798426.807 5  23081881.272    23081882.008    23081893.949
        40.400          35.800
 139314526.387 5                  26510660.742
        34.300
 25  1  1 20 27  0.0000000  0 28G21E31G07G02G30G08G13G17E33E24R10E09
                                G09E04R12R09G14S35S31E05E06S33R11R21
                                R01R20R02E26
 114464612.038 6  89193229.34742  21781893.975    21781893.3054   21781894.6764
        36.400          12.1004
 123497947.790 7                  23500868.435
        47.700
 107059304.949 8  83422785.07948  20372699.258    20372698.7404   20372698.7364
        49.700          48.3004
 117304484.725 7  91406125.98343  22322299.563    22322298.5224   22322299.9644
        44.100          22.9004
 108724243.257 7  84720189.98748  20689530.408    20689529.6174   20689534.6664
        47.800          49.2004


 122931716.905 6  95790939.30543  23393130.419    23393130.4274   23393130.5834
        39.000          18.1004
 120754559.932 6  94094501.45142  22978828.166    22978828.1794   22978862.2534
        38.300          13.9004
 136571695.134 6                  25988701.394
        38.600
 136242598.904 6                  25926100.842
        41.400
 110454898.119 7                  20721059.896    20721059.044
        45.600
 130606773.765 8                  24853649.507
        48.700
 127238651.721 5                  24212709.231
        31.900






 114796458.313 7  89451785.98845  21845041.720    21845041.5244   21845044.8204
        44.700          30.9004


 198898794.157 7                  37849191.623
        43.200
 129845452.430 5                  24708774.582
        30.300
 132518714.633 7                  25217488.625
        42.900
 202050723.851 7                  38448985.690
        45.500
 107726972.116 8  83787640.167 8  20159637.924    20159637.819    20159642.775
        51.900          48.600
 111072945.210 7  86390303.371 6  20756620.830    20756620.450    20756630.088
        45.700          41.200
 117810957.388 6                  22038977.287    22038981.156
        38.900
 109309722.746 5  85018714.984 7  20441470.097    20441470.158    20441477.338
        34.900          42.400
 123147114.583 6  95781143.751 5  23077718.006    23077716.151    23077726.232
        39.100          34.700
 139313346.532 5                  26510435.713
        33.200
 25  1  1 20 27 15.0000000  0 28G21E31G07G02G30G08G13G17E33E24R10E09
                                G09E04R12R09G14S35S31E05E06S33R11R21
                                R01R20R02E26
 114452771.016 6  89184002.64842  21779639.792    21779639.1804   21779640.9884
        36.000          13.1004
 123499754.716 7                  23501211.712
        46.300
 107066965.006 8  83428753.91248  20374156.776    20374156.2584   20374156.7844
        51.400          49.3004
 117274288.773 7  91382596.78543  22316552.449    22316551.3944   22316555.1864
        45.800          23.8004
 108701530.925 8  84702492.07748  20685208.634    20685207.8564   20685212.5794
        49.500          50.1004
 113994038.412 6  88826424.46843  21692318.485    21692317.6224   21692319.2684
        36.800          20.5004
 122898007.513 6  95764672.22042  23386714.878    23386714.8074   23386714.7314
        39.400          16.2004
 120705706.756 6  94056434.26541  22969533.650    22969533.4944   22969564.7624
        36.200          10.7004
 136537914.629 6                  25982272.369
        39.200
 136217958.233 7                  25921411.855
        42.700
 110476997.833 7                  20725204.271    20725204.198
        45.100
 130629423.134 8                  24857959.468
        48.700
 127293124.594 6  99189472.35541  24223083.561    24223083.4774   24223083.1324
        36.500           9.1004
 139909781.447 5                  26623946.620
        34.700
 127920594.905 6                  23946987.248    23946982.871
        37.600


 114766736.347 6  89428626.02644  21839385.254    21839385.0004   21839388.6024
        41.300          29.3004


 198898787.433 7                  37849192.401
        43.400
 129827736.366 5                  24705397.122
        30.700
 132555745.070 7                  25224535.341
        42.800
 202050738.065 7                  38448990.121
        46.100
 107706286.750 8  83771551.542 7  20155767.015    20155766.869    20155770.707
        51.000          47.400
 111023555.216 7  86351889.018 7  20747391.606    20747391.678    20747400.019
        47.000          42.300
 117839680.530 6                  22044354.674    22044352.759
        39.300
 109319360.219 5  85026210.786 7  20443272.611    20443272.705    20443280.551
        34.800          43.400
 123125071.376 7  95763998.981 6  23073591.146    23073590.024    23073598.146
        42.700          36.500
 139312275.999 6                  26510231.204
        36.900
 25  1  1 20 27 30.0000000  0 28G21E31G07G02G30G08G13G17E33E24R10E09
                                G09E04R12R09G14S35S31E05E06S33R08R11
                                R21R20R02E26
 114441071.480 6  89174886.19142  21777414.783    21777414.2604   21777414.5314
        36.200          12.4004
 123501585.273 7                  23501560.580
        46.100
 107074735.396 8  83434808.74148  20375635.340    20375634.8224   20375636.1094
        50.500          49.5004
 117244189.645 7  91359143.05344  22310824.178    22310823.0834   22310827.4004
        47.100          26.0004
 108678910.766 8  84684865.98648  20680903.351    20680902.5734   20680907.9404
        50.300          50.8004
 114036698.526 5  88859666.05943  21700437.585    21700436.8574   21700435.2854
        35.600          21.8004
 122864410.246 6  95738492.52742  23380319.563    23380319.3984   23380320.2174
        39.000          14.8004
 120656909.484 6  94018410.59341  22960244.859    22960244.6364   22960277.8864
        36.400          10.7004
 136504189.777 6                  25975855.210
        41.100
 136193332.900 7                  25916726.589
        43.100
 110499154.832 7                  20729361.026    20729361.018
        44.900
 130652158.193 7                  24862285.938
        46.800
 127347584.078 5  99231908.01042  24233434.605    24233434.0824   24233453.6384
        34.400          12.2004
 139955438.788 6                  26632636.737
        37.800
 127876210.624 5                  23938674.755    23938670.876
        31.000


 114737046.115 6  89405490.81344  21833736.288    21833735.9984   21833737.5404
        41.300          27.6004


 198898774.366 7                  37849193.501
        42.900
 129810111.638 6                  24702049.516
        37.000
 132592826.307 7                  25231590.852
        42.900
 202050745.496 7                  38448991.686
        46.500
                  98026728.413 5                                  23536031.336
                        31.100
 107685645.859 8  83755497.494 8  20151904.411    20151904.277    20151909.054
        51.200          48.000
 110974293.707 7  86313574.639 7  20738185.736    20738185.122    20738196.222
        46.800          44.200
 109329200.510 5  85033864.343 7  20445113.340    20445112.496    20445121.567
        34.900          45.000
 123103199.164 6  95746987.255 6  23069488.660    23069489.009    23069498.795
        38.800          38.600
 139311307.920 5                  26510044.547
        35.400
 25  1  1 20 27 45.0000000  0 29G21E31G07G02G30G08G13G17E33E24R10E09
                                G09E04R12R09G14S35S31E05E06S33R08R11
                                R21R01R20R02E26
 114429526.100 5  89165889.77441  21775217.377    21775216.6894   21775217.4134
        35.200          10.6004
 123503451.888 7                  23501915.977
        46.100
 107082628.627 8  83440959.28848  20377137.470    20377136.9474   20377138.6324
        49.600          49.3004
 117214200.081 7  91335774.68445  22305117.999    22305116.9264   22305121.2614
        46.600          30.2004
 108656395.479 8  84667321.60648  20676619.564    20676618.8004   20676623.5934
        50.700          51.3004
 114079439.649 6  88892970.77543  21708571.537    21708571.2384   21708567.3924
        38.300          23.4004
 122830937.708 5  95712409.97741  23373950.355    23373950.2084   23373949.5364
        35.400          11.3004
 120608180.727 5  93980440.38942  22950971.299    22950970.9514   22951002.5564
        35.300          13.5004
 136470533.318 6                  25969450.295
        41.100
 136168735.303 7                  25912046.899
        43.100
 110521382.103 7                  20733532.945    20733533.154
        47.400
 130674991.290 7                  24866631.251
        47.300
 127402042.133 5  99274342.61742  24243802.497    24243801.9654   24243819.6734
        35.900          16.0004
 140001116.155 5                  26641325.764
        35.800
 127831818.986 5                  23930397.853    23930386.484
        34.500


 114707400.061 7  89382389.99944  21828094.480    21828094.0654   21828094.5764
        42.700          27.1004


 198898768.043 7                  37849193.796
        43.600
 129792590.697 6                  24698709.860
        38.700
 132629970.573 7                  25238659.380
        43.700
 202050758.433 7                  38448996.574
        46.100
                  98073292.698 5                                  23547215.419
                        31.800
 107665062.186 8  83739487.991 8  20148052.144    20148052.144    20148057.024
        50.600          48.200
 110925173.855 7  86275370.418 7  20729005.936    20729006.034    20729018.087
        47.300          45.600
 117897584.916 5                  22055185.936    22055182.372
        33.000
 109339256.042 6  85041685.340 7  20446994.214    20446995.295    20447002.734
        37.800          46.600
 123081510.793 7  95730118.506 6  23065431.001    23065430.413    23065432.838
        43.000          40.200
 139310454.717 5                  26509882.536
        34.100
 25  1  1 20 28  0.0000000  0 28G21E31G07G02G30G08G13G17E33E24R10E09
                                G09E04R12G14S35S31E05E06S33R08R11R21
                                R01R20R02E26
 114418122.998 6  89157004.28642  21773048.795    21773048.1114   21773047.6384
        39.500          15.8004
 123505342.373 7                  23502275.285
        46.200
 107090632.591 8  83447196.13048  20378660.146    20378659.6234   20378661.5464
        48.900          48.5004
 117184308.226 7  91312482.45445  22299430.725    22299429.6934   22299434.3454
        47.200          32.0004
 108633973.193 8  84649849.68948  20672353.119    20672352.3594   20672356.4584
        50.800          50.9004
 114122249.334 5  88926328.97643  21716715.797    21716715.4174   21716714.1514
        35.900          22.4004
 122797578.201 5  95686415.49741  23367604.594    23367604.5144   23367600.6734
        34.200           7.6004
 120559508.617 5  93942514.24542  22941707.747    22941707.4484   22941737.5374
        33.700          13.0004
 136436933.333 6                  25963057.589
        39.500
 136144153.261 7                  25907369.307
        43.100
 110543667.220 8                  20737712.917    20737712.936
        48.100
 130697910.053 7                  24870992.671
        47.900
 127456486.360 5  99316766.44243  24254163.737    24254163.0404   24254181.2814
        34.100          18.6004
 140046801.190 5                  26650016.924
        34.100


 114677786.092 6  89359314.19444  21822460.233    21822459.7244   21822458.9684
        41.800          28.1004


 198898754.829 7                  37849193.233
        43.800
 129775161.605 6                  24695392.561
        39.100
 132667165.493 7                  25245737.119
        43.600
 202050766.027 7                  38449000.665
        46.200
                  98119855.365 4                                  23558400.288
                        29.600
 107644523.583 8  83723513.481 7  20144208.129    20144209.272    20144213.168
        50.800          47.600
 110876183.827 8  86237267.090 7  20719852.115    20719851.308    20719863.137
        48.000          45.900
 117926765.565 5                  22060652.278    22060648.631
        34.800
 109349514.641 6  85049664.266 7  20448912.734    20448913.196    20448919.875
        38.200          46.800
 123059994.234 7  95713383.440 6  23061397.355    23061397.206    23061400.012
        42.500          40.500
 139309704.331 5                  26509740.444
        33.200
 25  1  1 20 28 15.0000000  0 27G21E31G07G02G30G08G13G17E33E24R10E09
                                G09E04R12G14S35S31E05E06S33R11R21R01
                                R20R02E26
 114406872.734 6  89148237.86843  21770907.126    21770906.3624   21770907.2874
        40.800          18.5004
 123507267.087 7                  23502641.659
        46.500
 107098757.831 7  83453527.47847  20380206.076    20380205.5494   20380207.2254
        45.400          46.5004
 117154524.925 7  91289274.79645  22293762.342    22293761.3274   22293767.3244
        46.500          31.2004
 108611654.556 8  84632458.53148  20668105.960    20668105.2144   20668108.5464
        51.500          50.5004
 114165137.734 6  88959748.45843  21724878.259    21724877.9154   21724876.8354
        40.100          21.0004
 122764342.361 5  95660517.42141  23361279.436    23361279.3344   23361275.8764
        35.600          11.9004
 120510903.770 6  93904640.64542  22932457.899    22932457.5554   22932483.7694
        37.500          16.9004
 136403400.515 6                  25956676.054
        38.300
 136119597.231 6                  25902696.311
        41.600
 110566021.370 7                  20741906.473    20741906.419
        47.800
 130720924.760 8                  24875372.005
        48.200
 127510926.632 4  99359187.22741  24264522.461    24264522.2114   24264541.3024
        25.500          11.3004
 140092504.154 4                  26658711.682
        26.100
 127742985.950 6  99355598.394 5  23913733.934    23913733.223    23913739.782
        36.400          32.900
 114648214.605 7  89336271.49544  21816833.009    21816832.4734   21816832.5574
        42.500          29.7004


 198898745.381 7                  37849184.772
        42.900
 129757834.861 6                  24692095.107
        37.900
 132704421.258 6                  25252825.996
        41.300
 202050777.228 7                  38449001.139
        46.400
 107624040.836 8  83707582.461 7  20140374.304    20140374.695    20140379.069
        49.900          45.600
 110827334.724 7  86199273.389 7  20710722.948    20710722.799    20710734.883
        47.200          45.700
 117956104.202 4                  22066132.802    22066126.507
        27.700
 109359986.346 6  85057808.994 7  20450868.615    20450870.587    20450879.148
        37.800          47.800
 123038659.764 6  95696790.090 6  23057394.829    23057393.293    23057402.810
        39.800          41.400
 139309067.170 5                  26509620.456
        35.300
 25  1  1 20 28 30.0000000  0 26G21E31G07G02G30G08G13G17E33E24R10E09
                                G09E04R12G14S35S31E05E06S33R11R21R20
                                R02E26
 114395774.845 6  89139590.22943  21768794.956    21768794.2594   21768795.7204
        39.900          19.9004
 123509225.353 7                  23503013.973
        47.400
 107107003.822 7  83459952.93647  20381776.279    20381775.7344   20381776.3624
        46.700          46.0004
 117124849.752 7  91266151.33944  22288115.623    22288114.6314   22288119.1464
        42.800          28.5004
 108589439.098 8  84615147.77648  20663878.157    20663877.4204   20663880.6054
        51.800          50.5004
 114208103.682 6  88993228.37943  21733052.160    21733051.7494   21733053.0314
        39.700          20.3004
 122731229.676 6  95634715.27242  23354978.722    23354978.5934   23354974.5554
        37.100          13.8004
 120462365.887 5  93866819.16241  22923219.171    22923218.7964   22923243.6174
        34.900          11.9004
 136369934.359 6                  25950306.050
        38.600
 136095066.435 6                  25898027.336
        40.400
 110588443.595 7                  20746112.974    20746112.508
        47.300
 130744034.542 8                  24879769.484
        48.600




 127698554.767 6  99321040.819 5  23905417.281    23905419.609    23905422.935
        38.100          35.000
 114618684.983 7  89313261.41145  21811213.798    21811213.2714   21811214.1434
        46.200          32.2004


 198898740.094 7                  37849189.297
        43.000
 129740609.849 6                  24688818.005
        37.600
 132741736.916 6                  25259927.802
        41.100
 202050792.323 7                  38449004.422
        46.300
 107603613.303 8  83691694.418 7  20136550.563    20136551.762    20136557.013
        49.000          45.800
 110778626.486 7  86161389.313 7  20701619.433    20701619.680    20701630.208
        47.000          44.400
 109370670.322 6  85066118.771 8  20452869.279    20452868.758    20452877.664
        37.400          48.900
 123017507.588 6  95680338.444 7  23053434.623    23053431.932    23053438.534
        41.900          42.100
 139308542.561 6                  26509520.543
        36.900
 25  1  1 20 28 45.0000000  0 29G21E31G07G02G30G08G13G17E33E24R10E09
                                G09E04R12R09G14S35S31E05E06S33R08R11
                                R21R01R20R02E26
 114384820.997 6  89131054.82743  21766710.682    21766709.9404   21766711.9624
        40.000          21.7004
 123511208.656 8                  23503391.923
        49.000
 107115362.133 8  83466465.90448  20383366.450    20383365.8874   20383367.4734
        48.800          48.0004
 117095274.559 7  91243105.79144  22282488.457    22282487.4564   22282489.8514
        42.400          27.0004
 108567318.692 8  84597911.08848  20659668.828    20659668.0864   20659671.7084
        51.600          51.1004
 114251138.569 6  89026761.97142  21741242.235    21741241.8384   21741242.0564
        41.800          15.5004
 122698232.095 6  95609002.90042  23348700.019    23348699.9124   23348695.4584
        37.100          14.2004


 136336526.736 6                  25943948.470
        38.600
 136070552.385 6                  25893363.274
        36.500
 110610925.497 8                  20750330.281    20750330.764
        48.200
 130767230.848 7                  24884183.438
        46.700




 127654105.126 5  99286468.960 5  23897095.613    23897101.371    23897100.539
        35.900          34.000
 126507793.571 5                  23690844.809    23690846.572
        32.400
 114589188.837 7  89290277.40045  21805600.096    21805599.5694   21805601.6034
        46.000          32.3004


 198898729.526 6                  37849176.053
        41.800
 129723478.372 6                  24685557.805
        37.200
 132779103.840 6                  25267039.196
        40.100
 202050802.502 7                  38449001.466
        46.000
 126333730.696 5                  23591931.885
        33.500
 107583232.595 7  83675842.751 7  20132736.765    20132737.141    20132742.204
        46.800          45.800
 110730050.762 8  86123608.264 7  20692543.406    20692542.819    20692551.316
        48.400          43.800
 118015243.779 5                  22077203.365    22077200.186
        35.600
 109381558.044 6  85074586.985 8  20454905.488    20454905.157    20454912.606
        36.300          48.000
 122996529.032 7  95664021.786 7  23049501.440    23049501.697    23049506.806
        45.000          42.000
 139308122.240 5                  26509441.841
        32.900
 25  1  1 20 29  0.0000000  0 28G21E31G07G02G30G08G13G17E33E24R10E09
                                G09E04R12R09G14S35S31E05E06S33R08R11
                                R21R20R02E26
 114374021.414 6  89122639.61143  21764654.676    21764653.8814   21764657.7394
        39.500          22.4004
 123513227.025 8                  23503775.320
        48.400
 107123842.905 8  83473074.28048  20384979.984    20384979.4394   20384981.7744
        49.900          49.2004
 117065809.664 7  91220146.20844  22276880.885    22276879.8884   22276882.1864
        42.600          27.8004
 108545303.624 8  84580756.47748  20655479.669    20655478.9324   20655483.1044
        50.700          51.4004
 114294251.987 7  89060356.48143  21749446.012    21749445.5034   21749450.0244
        43.100          19.4004
 122665359.846 6  95583388.11242  23342444.284    23342444.1244   23342440.1814
        38.200          14.3004


 136303188.001 6                  25937603.038
        37.400
 136046065.235 5                  25888702.946
        32.800
 110633476.935 7                  20754559.728    20754559.215
        45.200
 130790523.546 7                  24888616.214
        45.900
 127674278.153 6  99486512.51642  24295606.040    24295606.1024   24295618.8554
        36.800          14.6004


 127609647.311 6  99251890.755 5  23888780.766    23888780.706    23888778.823
        38.400          33.700
 126550341.226 4                  23698815.524    23698812.012
        27.800
 114559736.211 7  89267327.30045  21799995.553    21799995.0304   21799997.3554
        47.300          32.7004


 198898724.292 7                  37849174.671
        42.500
 129706450.526 5                  24682316.625
        35.500
 132816531.883 6                  25274162.338
        40.900
 202050817.462 7                  38449009.153
        45.700
 126393617.653 5                  23603105.230    23603108.263
        34.000
 107562909.084 8  83660035.586 7  20128936.062    20128935.730    20128940.212
        49.400          47.900
 110681618.506 8  86085938.808 7  20683493.957    20683493.404    20683501.553
        50.100          44.700
 109392659.607 5  85083221.520 7  20456980.667    20456979.315    20456988.525
        35.000          47.400
 122975734.399 7  95647848.223 7  23045603.732    23045603.842    23045611.191
        45.800          43.300
 139307816.155 5                  26509381.031
        34.000
 25  1  1 20 29 15.0000000  0 28G21E31G07G02G30G08G13G17E33E24R10E09
                                G09E04R12G14S35S31E05E06S33R08R11R21
                                R01R20R02E26
 114363369.191 6  89114339.26143  21762628.603    21762627.7274   21762631.0654
        39.700          23.3004
 123515273.269 8                  23504164.795
        48.100
 107132439.142 8  83479772.61948  20386616.133    20386615.5924   20386617.7174
        49.300          49.0004
 117036448.418 7  91197267.38444  22271293.487    22271292.5174   22271295.4044
        44.000          28.5004
 108523387.006 8  84563678.59248  20651309.518    20651308.7674   20651312.7214
        50.600          51.5004
 114337436.553 7  89094006.72144  21757663.768    21757663.2324   21757673.0654
        42.700          26.7004
 122632606.076 6  95557865.75142  23336210.051    23336209.8774   23336207.4194
        40.300          16.0004


 136269911.158 5                  25931271.409
        35.200
 136021597.640 5                  25884045.109
        33.600
 110656091.288 7                  20758802.617    20758801.975
        46.900
 130813905.295 7                  24893066.324
        45.100
 127728684.926 5  99528907.19443  24305955.740    24305955.3114   24305969.1454
        35.800          19.2004


 127565173.876 6  99217300.426 5  23880443.401    23880446.513    23880454.446
        36.100          33.500
 114530319.960 8  89244405.55045  21794397.201    21794396.6744   21794399.4784
        49.000          32.9004


 198898717.495 7                  37849183.659
        43.100
 129689519.218 6                  24679096.733
        37.700
 132854013.656 6                  25281295.296
        41.600
 202050830.421 7                  38449008.348
        45.900
 126453504.360 4                  23614284.468    23614286.551
        26.700
 107542635.665 8  83644267.387 8  20125141.665    20125141.943    20125146.697
        50.400          48.600
 110633322.859 8  86048375.623 7  20674467.631    20674467.823    20674475.627
        50.300          44.000
 118074997.379 6                  22088372.486    22088371.967
        36.000
 109403967.550 5  85092016.629 7  20459092.371    20459093.869    20459101.890
        33.700          45.800
 122955116.889 7  95631812.392 6  23041739.474    23041740.351    23041746.372
        46.000          41.500
 139307617.221 5                  26509343.877
        35.900
 25  1  1 20 29 30.0000000  0 26G21E31G07G02G30G08G13G17E33E24R10E09
                                G09E04R12G14S35S31E05E06S33R11R21R20
                                R02E26
 114352865.405 6  89106154.52943  21760628.290    21760627.3474   21760632.5364
        38.000          23.9004
 123517348.244 8                  23504560.017
        48.600
 107141151.840 8  83486561.68148  20388274.320    20388273.7884   20388275.5354
        49.700          48.4004
 117007191.839 6  91174470.11544  22265725.194    22265724.2384   22265728.9854
        40.000          26.6004
 108501569.954 8  84546678.28648  20647158.039    20647157.2934   20647161.0294
        51.400          51.8004
 114380692.743 7  89127712.77744  21765894.819    21765894.2694   21765902.5094
        42.900          25.1004
 122599972.046 6  95532436.68242  23329999.107    23329998.9604   23329997.5694
        41.100          15.0004
 120268806.400 5  93716032.59843  22886394.631    22886394.0374   22886407.4774
        34.800          21.4004
 136236697.432 4                  25924950.144
        28.800
 135997150.572 6                  25879394.417
        36.100
 110678768.769 7                  20763056.726    20763056.863
        47.900
 130837376.855 7                  24897532.988
        46.800
 127783080.911 4  99571293.46642  24316303.235    24316303.2484   24316319.5254
        29.000          16.9004
 140321220.552 5                  26702240.550
        34.000
 127520686.068 6                  23872120.656    23872121.050
        36.600
 114500941.033 8  89221512.89245  21788806.166    21788805.6524   21788808.4524
        48.100          32.3004


 198898708.905 7                  37849183.458
        44.000
 129672685.584 6                  24675895.308
        36.000
 132891549.756 6                  25288439.200
        40.800
 202050842.716 7                  38449013.825
        45.600
 107522413.473 8  83628538.996 8  20121358.063    20121358.937    20121361.992
        51.800          48.700
 110585165.327 8  86010919.845 7  20665468.058    20665468.512    20665475.745
        50.600          42.600
 109415482.386 5  85100972.627 7  20461245.765    20461246.701    20461256.179
        32.800          45.900
 122934677.448 7  95615915.023 6  23037908.361    23037908.860    23037916.696
        43.200          40.400
 139307526.279 6                  26509326.702
        36.500
 25  1  1 20 29 45.0000000  0 26G21E31G07G02G30G08G13G17E33E24R10E09
                                G09E04R12G14S35S31E05E06S33R11R21R20
                                R02E26
 114342511.365 6  89098086.48544  21758659.120    21758658.1814   21758662.1704
        39.900          24.0004
 123519453.287 7                  23504960.164
        47.600
 107149982.382 8  83493442.59448  20389954.030    20389953.5034   20389955.5644
        48.700          48.0004
 116978041.838 6  91151755.95043  22260179.017    22260178.0114   22260181.5264
        39.300          23.5004
 108479854.063 8  84529756.80948  20643025.427    20643024.6854   20643028.5034
        51.900          52.3004
 114424021.662 6  89161475.45144  21774139.679    21774139.1034   21774149.3134
        41.600          24.2004
 122567459.367 7  95507102.18642  23323813.775    23323813.6284   23323810.3784
        42.000          14.5004
 120220585.979 6  93678458.61244  22877220.797    22877220.2474   22877227.2274
        36.900          24.0004
 136203548.475 5                  25918642.987
        33.800
 135972725.262 5                  25874745.401
        31.000
 110701511.140 8                  20767324.914    20767324.454
        48.800
 130860939.398 7                  24902016.261
        46.500


 140367001.391 5                  26710953.094
        35.500
 127476185.131 5                  23863787.709    23863785.355
        34.700
 114471600.792 8  89198650.39845  21783222.723    21783222.2184   21783223.9904
        48.100          32.1004
 200816972.269 6                  38214199.941
        37.300
 198898700.226 7                  37849175.650
        42.500
 129655950.960 5                  24672698.818
        30.400
 132929141.412 6                  25295592.496
        39.200
 202050854.730 7                  38449014.586
        45.400
 107502243.848 8  83612851.530 8  20117582.369    20117583.018    20117587.469
        50.200          48.400
 110537147.772 8  85973572.935 7  20656494.166    20656495.182    20656503.863
        49.700          43.700
 109427205.801 5  85110090.830 7  20463438.007    20463439.124    20463448.576
        32.500          45.900
 122914417.532 7  95600157.309 6  23034114.061    23034113.539    23034118.147
        45.600          39.000
 139307544.857 6                  26509330.436
        38.800
 25  1  1 20 30  0.0000000  0 26G21E31G07G30G08G13G17E33E24R10E09G09
                                E04R12G14S35S31E05E06S33R11R21R01R20
                                R02E26
 114332308.615 6  89090136.35344  21756717.718    21756716.7264   21756720.3274
        41.400          25.2004
 123521589.447 7                  23505366.244
        46.800
 107158931.880 8  83500416.20247  20391657.453    20391656.9304   20391658.6894
        48.000          47.6004
 108458240.763 8  84512915.27248  20638912.189    20638911.4384   20638915.2464
        53.000          52.4004
 114467424.041 7  89195295.73044  21782398.519    21782397.9384   21782403.1144
        43.700          24.7004
 122535069.385 6  95481863.30342  23317647.941    23317647.8214   23317646.5594
        40.000          12.9004
 120172431.801 5  93640936.29144  22868055.357    22868054.1554   22868059.6504
        35.600          24.2004


 135948323.037 6                  25870103.840
        36.900
 110724319.952 8                  20771603.072    20771603.104
        48.300
 130884593.933 7                  24906517.199
        46.300


 140412795.327 5                  26719666.920
        31.900
 127431748.798 6                  23855486.323
        36.000
 114442300.427 8  89175818.96045  21777648.142    21777647.6644   21777647.4524
        48.200          32.2004


 198898694.159 7                  37849179.362
        43.900
 129639316.767 4                  24669542.030
        27.200
 132966789.366 6                  25302758.623
        38.800
 202050868.149 7                  38449020.926
        43.700
 107482128.102 8  83597205.956 8  20113817.604    20113817.671    20113823.065
        48.500          48.700
 110489271.802 8  85936336.206 7  20647547.883    20647548.311    20647556.357
        49.700          42.800
 118165747.396 6                  22105348.888    22105350.060
        37.900
 109439138.849 5  85119372.105 7  20465675.277    20465673.393    20465680.170
        33.000          43.700
 122894338.548 7  95584540.308 6  23030350.742    23030350.056    23030356.287
        43.500          40.700
 139307674.010 6                  26509353.084
        36.300
 25  1  1 20 30 15.0000000  0 26G21E31G07G02G30G08G13G17E33E24R10E09
                                G09E04R12G14S35S31E05E06S33R11R21R20
                                R02E26
 114322254.590 6  89082302.05144  21754803.806    21754802.8094   21754806.7504
        41.900          26.7004
 123523753.991 7                  23505778.602
        47.300
 107167997.667 7  83507480.41647  20393383.565    20393383.0514   20393384.5074
        45.800          46.8004
 116920026.926 6  91106535.73143  22249145.459    22249145.1114   22249146.1654
        38.200          18.8004
 108436727.474 8  84496151.66748  20634818.205    20634817.4544   20634821.3684
        52.700          52.4004
 114510896.815 7  89229170.59744  21790671.309    21790670.7064   21790674.2664
        43.300          27.2004
 122502799.657 6  95456718.10441  23311508.125    23311507.9024   23311505.5104
        36.400           9.3004
 120124341.235 6  93603463.45344  22858908.665    22858907.7134   22858906.0644
        37.300          26.2004


 135923940.827 6                  25865463.713
        36.000
 110747192.131 7                  20775893.405    20775892.289
        47.000
 130908337.493 7                  24911035.615
        46.600


 140458599.933 5                  26728383.733
        35.100
 127387221.147 6  99078873.276 5  23847129.700    23847137.634    23847131.230
        38.500          33.000
 114413037.178 8  89153016.44145  21772079.623    21772079.1454   21772079.0834
        48.700          32.5004


 198898686.047 7                  37849179.509
        43.200


 133004490.811 5                  25309928.762
        35.600
 202050880.479 7                  38449013.888
        44.700
 107462063.828 8  83581600.385 8  20110065.006    20110064.110    20110069.433
        50.600          48.900
 110441535.122 8  85899207.718 7  20638628.370    20638629.168    20638635.452
        50.700          43.900
 109451278.059 5  85128813.697 7  20467940.680    20467940.675    20467949.349
        31.300          42.100
 122874438.105 6  95569062.192 6  23026617.260    23026617.856    23026624.132
        39.400          37.400
 139307910.996 6                  26509399.781
        36.200
 25  1  1 20 30 30.0000000  0 27G21E31G07G02G30G08G13G17E33E24R10E09
                                G09E04R12G14S35S31E05E06S33R11R21R01
                                R20R02E26
 114312350.895 6  89074584.94544  21752919.006    21752918.0004   21752922.4354
        41.600          27.2004
 123525948.432 7                  23506196.390
        46.400
 107177181.418 7  83514636.55247  20395131.477    20395130.9774   20395132.0224
        45.400          46.2004
 116891197.411 6  91084071.27143  22243657.501    22243657.1884   22243659.3634
        40.100          21.9004
 108415316.046 8  84479467.43548  20630743.861    20630743.1104   20630746.8264
        52.300          51.9004
 114554441.214 7  89263101.27044  21798958.003    21798957.3954   21798961.3584
        42.300          26.7004
 122470652.022 6  95431668.04941  23305391.619    23305391.3744   23305387.8204
        38.200          10.0004
 120076316.081 5  93566041.53544  22849771.783    22849770.9524   22849766.6674
        34.400          25.9004
 136104345.581 6                  25899797.316
        36.500
 135899580.380 6                  25860826.960
        39.700
 110770129.472 7                  20780195.284    20780194.839
        44.700
 130932171.475 7                  24915571.425
        47.200


 140504416.165 6                  26737102.775
        36.800
 127342680.601 5  99044230.696 5  23838789.341    23838785.640    23838792.643
        35.900          32.800
 114383812.679 7  89130244.10045  21766517.990    21766517.4904   21766518.2414
        46.700          32.6004


 198898677.883 7                  37849173.929
        43.200
 129606337.063 6                  24663265.681
        36.300
 133042246.839 6                  25317115.804
        36.200
 202050892.291 7                  38449021.758
        46.100
 107442052.696 8  83566036.147 7  20106318.968    20106319.175    20106324.659
        50.200          47.400
 110393939.953 8  85862189.327 7  20629731.379    20629732.508    20629741.386
        50.000          44.600
 118227007.815 6                  22116811.055    22116811.187
        41.400
 109463625.006 5  85138416.869 7  20470249.823    20470247.237    20470259.465
        30.000          42.400
 122854717.701 6  95553724.187 6  23022923.064    23022921.434    23022930.473
        36.800          39.100
 139308257.539 6                  26509465.335
        39.500
 25  1  1 20 30 45.0000000  0 28G21E31G07G02G30G08G13G17E33E24R10E09
                                G09E04R12G14S35S31E05E06S33R08R11R21
                                R01R20R02E26
 114302595.409 7  89066983.31644  21751063.666    21751062.6384   21751066.9224
        43.200          28.5004
 123528170.417 7                  23506619.474
        46.600
 107186480.913 7  83521882.89247  20396900.406    20396899.9064   20396901.1034
        46.200          45.6004
 116862473.197 6  91061688.84644  22238191.567    22238191.2504   22238193.2654
        38.900          24.2004
 108394004.439 8  84462860.96948  20626688.238    20626687.4924   20626691.1804
        52.100          52.2004
 114598054.593 6  89297085.77544  21807257.327    21807256.6974   21807260.5564
        41.600          25.8004
 122438624.390 6  95406711.47442  23299297.640    23299297.3454   23299293.2134
        39.900          12.1004
 120028353.956 6  93528668.74344  22840650.740    22840650.0074   22840641.5254
        36.500          28.1004
 136071454.934 6                  25893537.581
        40.300
 135875239.297 5                  25856195.167
        34.500
 110793129.656 7                  20784510.687    20784510.487
        45.700
 130956093.435 7                  24920123.868
        46.200


 140550241.584 6                  26745823.104
        37.200


 114354624.620 7  89107500.17145  21760964.250    21760963.7684   21760964.2754
        46.300          32.4004


 198898668.267 6                  37849164.954
        41.900
 129589997.050 6                  24660162.953
        36.700
 133080055.146 4                  25324308.998
        27.200
 202050903.072 7                  38449022.916
        45.700


 107422092.355 8  83550511.404 7  20102583.398    20102584.253    20102588.466
        50.100          45.200
 110346484.489 7  85825279.588 7  20620864.578    20620863.447    20620873.760
        47.700          46.600
 118257860.220 6                  22122578.711    22122578.932
        36.300
 109476177.535 5  85148179.858 7  20472601.966    20472600.902    20472608.033
        34.100          42.600
 122835175.361 7  95538524.570 6  23019263.259    23019264.622    23019268.774
        44.200          40.600
 139308711.205 6                  26509550.976
        37.000
