     2.11           OBSERVATION DATA    M (MIXED)           RINEX VERSION / TYPE
teqc  2019Feb25                         20260317 16:18:01UTCPGM / RUN BY / DATE
Linux 2.4.21-27.ELsmp|Opteron|gcc -static|Linux 64|=+       COMMENT
BIT 2 OF LLI FLAGS DATA COLLECTED UNDER A/S CONDITION       COMMENT
-Unknown-                                                   MARKER NAME
-Unknown-           -Unknown-                               OBSERVER / AGENCY
-Unknown-           -Unknown-           -Unknown-           REC # / TYPE / VERS
-Unknown-           -Unknown-                               ANT # / TYPE
        0.0000        0.0000        0.0000                  APPROX POSITION XYZ
        0.0000        0.0000        0.0000                  ANTENNA: DELTA H/E/N
     1     1                                                WAVELENGTH FACT L1/2
     7    L1    L2    C1    P1    P2    S1    S2            # / TYPES OF OBSERV
 SNR is mapped to RINEX snr flag value [0-9]                COMMENT
  L1 & L2: min(max(int(snr_dBHz/6), 0), 9)                  COMMENT
  2025     1     1     6     0    0.0000000     GPS         TIME OF FIRST OBS
    18                                                      LEAP SECONDS
                                                            END OF HEADER
 25  1  1  6  0  0.0000000  0 27G18R01G23G15G26G11G20E27E03G05G29R16
                                E15E26S35R23R17R02S31G13S33E07E08E21
                                E13R24R08
 119089414.912 7  92796965.88244  22661963.943    22661963.5594   22661963.9254
        43.600          24.8004
 103085642.092 7  80177762.531 6  19284300.945    19284299.923    19284305.291
        45.500          38.300
 124488901.731 5  97004165.63042  23689408.861    23689408.7504   23689409.2194
        31.800          14.3004
 112018715.264 6  87287296.58546  21316436.960    21316436.7064   21316435.7954
        40.900          38.4004
 130150189.242 6 101415724.63044  24766736.815    24766736.5024   24766738.4464
        39.200          27.5004
 126746194.180 5  98763313.88042  24119001.211    24119001.5324   24119001.4294
        33.800          16.3004
 120653316.246 6                  22959569.969
        36.400


 133460005.579 6                  25396564.534
        38.900
 108999889.388 8  84934970.75947  20741984.427    20741984.0524   20741983.3004
        48.200          44.1004
 107086006.669 8  83443605.23248  20377789.805    20377789.2424   20377789.8314
        49.600          49.6004


 130379129.291 7                  24810319.796
        44.700
 141731716.789 5                  26970653.911
        34.800


 122352440.327 5                  22872483.939    22872487.980
        32.900
 113025068.042 7                  21121411.616    21121411.709
        44.900
 109364803.366 7  85061541.757 7  20494918.039    20494916.972    20494922.336
        46.500          42.400
 198901853.969 6                  37849759.733
        40.800
 111446527.694 8  86841467.62545  21207573.101    21207572.8964   21207572.0504
        48.400          32.5004
 202041696.531 7                  38447270.729
        44.800


 129888870.301 7                  24717029.104
        42.300
 138364982.886 7                  26329984.109
        43.300
 124843199.120 8                  23756854.958
        48.800
 104503361.779 8  81280409.691 6  19542655.587    19542655.455    19542658.682
        51.300          39.400
 122835797.246 5  95538965.789 5  22938726.934    22938720.897    22938725.011
        33.200          31.500
 25  1  1  6  0 15.0000000  0 25G18R01G23G15G26G11E27E03G05G29R16E15
                                E26S35R17R02S31G13S33E07E08E21E13R24
                                R08
 119053177.417 7  92768728.90744  22655067.297    22655066.9534   22655067.8384
        46.100          25.1004
 103096974.178 7  80186576.349 6  19286420.954    19286421.543    19286427.040
        47.800          39.800
 124445826.655 5  96970600.64142  23681215.306    23681215.2844   23681213.3124
        32.600          15.0004
 111974545.544 6  87252878.65546  21308030.373    21308030.1454   21308031.5554
        38.200          36.0004
 130152828.512 6 101417781.14244  24767239.163    24767238.8554   24767242.4254
        40.200          28.2004
 126785082.154 6  98793616.18242  24126401.791    24126402.1084   24126402.3584
        39.900          15.5004


 133471022.048 6                  25398660.280
        36.800
 109026401.470 7  84955629.54747  20747029.752    20747029.3684   20747028.3464
        46.300          42.8004
 107084326.004 8  83442295.64148  20377470.319    20377469.7254   20377469.8734
        51.000          50.2004


 130397669.946 7                  24813847.851
        45.300
 141701620.467 6                  26964925.952
        38.500
 200873747.059 5                  38225002.733
        34.800
 112981036.943 7                  21113186.058    21113187.930
        47.400
 109316992.355 7  85024355.450 6  20485955.186    20485956.181    20485960.627
        47.400          40.700
 198901841.695 7                  37849760.078
        43.200
 111425152.483 7  86824811.63745  21203504.205    21203503.9914   21203504.0234
        45.800          30.9004
 202041670.852 7                  38447263.990
        43.300


 129860133.972 7                  24711560.027
        42.700
 138391796.729 7                  26335086.789
        42.800
 124832693.728 8                  23754856.068
        49.700
 104505183.882 8  81281826.966 6  19542996.217    19542996.309    19542998.436
        52.000          38.700
 122895687.775 5  95585547.276 5  22949907.971    22949904.488    22949919.312
        31.000          33.800
 25  1  1  6  0 30.0000000  0 26G18R01G23G15G26G11E27E03G05G29R16E15
                                E26S35R17R02S31R15G13S33E07E08E21E13
                                R24R08
 119016963.473 7  92740510.24844  22648175.906    22648175.5854   22648175.5424
        44.400          25.7004
 103108500.986 8  80195541.632 6  19288576.624    19288577.365    19288583.525
        48.300          40.000
 124402801.162 5  96937074.32042  23673031.077    23673031.0854   23673026.5854
        34.600          15.4004
 111930480.029 5  87218541.90845  21299643.068    21299642.6844   21299647.3034
        34.600          35.2004
 130155593.284 6 101419935.41444  24767765.720    24767765.4394   24767768.0874
        40.100          27.2004
 126824002.575 6  98823943.72642  24133806.695    24133807.0214   24133809.2254
        38.000          14.4004
 145752820.543 5                  27735836.146
        33.100
 133482145.970 5                  25400778.181
        34.100
 109052994.058 8  84976351.03247  20752090.734    20752090.3414   20752088.5734
        48.000          42.2004
 107082794.096 8  83441101.96548  20377178.601    20377177.9894   20377178.2124
        50.800          50.4004
 128029562.199 5  99578556.638 6  23967402.352    23967404.174    23967400.664
        30.900          38.400
 130416240.652 7                  24817381.561
        44.700
 141671525.013 6                  26959199.684
        41.800
 200873758.352 6                  38225002.487
        40.100
 112937043.476 7  87839838.473 5  21104960.138    21104960.444    21104965.646
        42.900          32.900
 109269319.367 8  84987276.475 6  20477023.156    20477023.395    20477025.494
        49.400          39.300
 198901832.581 7                  37849760.748
        42.900
 127831350.385 5                  23921897.624    23921906.106
        35.300
 111403925.905 7  86808271.45945  21199466.104    21199465.8994   21199464.9454
        45.900          32.0004
 202041647.716 7                  38447261.504
        44.600


 129831483.433 7                  24706108.371
        43.400
 138418685.691 7                  26340203.994
        42.400
 124822215.773 8                  23752861.699
        49.700
 104507123.820 8  81283335.827 6  19543357.925    19543358.117    19543361.263
        50.700          39.400
                  95632175.783 5                                  22961111.541
                        33.700
 25  1  1  6  0 45.0000000  0 28G18R01G23G15G26G11G20E27E03G25G05G29
                                R16E15E26S35R23R17R02S31R15G13S33E07
                                E08E21E13R24
 118980769.216 7  92712306.98944  22641289.750    22641289.4514   22641287.4244
        43.600          25.9004
 103120218.255 7  80204655.076 6  19290767.864    19290768.170    19290774.759
        47.900          39.900
 124359821.386 5  96903583.60841  23664859.082    23664859.1804   23664848.0724
        32.800          10.1004
 111886514.783 6  87184283.23046  21291281.001    21291280.6124   21291281.2424
        38.400          37.3004
 130158479.644 6 101422184.46344  24768315.374    24768315.0664   24768314.6264
        39.100          25.9004
 126862951.533 5  98854293.56541  24141215.583    24141215.9854   24141221.7724
        34.000          11.7004
 120777818.830 4                  22983224.455
        29.500
 145795472.205 5                  27743952.864
        31.600
 133493373.374 4                  25402912.684
        29.800


 109079662.809 8  84997131.86146  20757165.301    20757164.8904   20757163.4044
        48.100          41.0004
 107081406.961 8  83440021.08748  20376914.590    20376913.9824   20376914.1274
        51.200          51.4004
                  99581116.926 6                                  23968013.549
                        36.900
 130434837.513 7                  24820920.210
        44.100
 141641426.532 7                  26953472.099
        42.400
 200873769.069 6                  38225005.939
        39.100
 122486854.248 5                  22897628.664    22897634.310
        31.700
 112893084.236 7  87805648.030 6  21096746.661    21096745.586    21096755.072
        42.300          36.400
 109221780.947 8  84950302.157 6  20468114.913    20468115.305    20468116.738
        49.900          38.800
 198901822.931 7                  37849753.008
        42.900
 127871152.287 5                  23929348.664    23929346.859
        33.700
 111382844.368 7  86791844.30545  21195455.680    21195455.4844   21195453.7744
        43.700          32.1004
 202041623.921 7                  38447249.721
        44.200


 129802915.002 7                  24700671.746
        43.200
 138445645.583 6                  26345333.081
        40.300
 124811761.351 7                  23750871.765
        47.900
 104509177.940 8  81284933.566 7  19543742.996    19543743.052    19543747.352
        51.400          42.200
 25  1  1  6  1  0.0000000  0 27G18R01G15G26G11G20E27E03G25G05G29R16
                                E15E26S35R17R02S31R15G13S33E07E08E21
                                E13R24R08
 118944594.879 7  92684119.24244  22634406.754    22634406.4554   22634403.3074
        43.800          27.1004
 103132125.788 7  80213916.485 6  19292995.413    19292994.975    19293002.548
        46.900          40.100
 111842650.448 6  87150103.22746  21282933.232    21282932.8434   21282933.7964
        39.900          39.3004
 130161487.522 5 101424528.22144  24768886.786    24768886.4334   24768887.1104
        33.200          24.2004
 126901929.026 4  98884665.70041  24148632.462    24148633.0964   24148639.3844
        29.400           8.8004
 120819285.535 5                  22991107.120
        34.700
 145838109.857 5                  27752068.093
        33.200
 133504704.275 5                  25405069.048
        31.100


 109106407.399 8  85017971.84146  20762254.642    20762254.2224   20762252.1504
        48.700          40.0004
 107080165.040 8  83439053.34848  20376678.799    20376678.1914   20376677.9584
        52.200          52.8004
                  99583811.328 6                                  23968663.191
                        36.800
 130453460.678 6                  24824464.861
        40.100
 141611325.171 6                  26947743.881
        40.500
 200873778.734 5                  38225006.462
        34.300
 112849159.658 7  87771484.391 5  21088539.886    21088540.833    21088547.091
        46.300          35.200
 109174377.646 8  84913432.959 6  20459231.203    20459231.283    20459234.589
        48.300          39.900
 198901812.181 7                  37849749.914
        42.600
 127911040.895 4  99486417.412 4  23936810.409    23936803.965    23936813.312
        27.400          29.000
 111361908.327 7  86775530.53545  21191471.324    21191471.1374   21191469.9924
        44.200          31.3004
 202041598.809 7                  38447253.137
        45.700


 129774428.990 6                  24695251.626
        41.400
 138472676.339 5                  26350475.280
        33.300
 124801330.673 7                  23748886.825
        46.100
 104511346.421 8  81286620.209 7  19544148.772    19544149.786    19544153.357
        52.100          44.500
                  95725562.343 5                                  22983537.256
                        31.000
 25  1  1  6  1 15.0000000  0 26G18R01G23G15G26G11G20E27E03G05G29R16
                                E15E26S35R17R02S31R15G13S33E07E08E21
                                E13R24
 118908439.662 7  92655946.36644  22627526.923    22627526.6554   22627524.3204
        46.300          28.8004
 103144222.531 8  80223325.028 6  19295258.668    19295259.025    19295264.635
        48.300          40.000
 124273816.373 6                  23648521.164    23648520.8384
        38.000
 111798886.735 7  87116001.63846  21274605.475    21274605.1494   21274604.8354
        42.900          41.9004
 130164615.984 5 101426965.94343  24769481.818    24769481.4974   24769483.3074
        31.400          22.8004
 126940934.413 4  98915059.60741  24156059.569    24156059.8994   24156062.4434
        29.300           7.5004
 120860766.934 6  94177084.38141  22999003.415    22999003.9154   22999006.0044
        37.500           7.8004
 145880732.587 5                  27760176.269
        30.300
 133516137.629 4                  25407244.099
        28.500
 109133227.398 8  85038870.52146  20767358.061    20767357.6504   20767354.0304
        48.900          37.6004
 107079067.577 8  83438198.18348  20376469.729    20376469.1304   20376469.4554
        51.700          53.4004
 128040007.346 4  99586639.150 5  23969354.535                    23969341.939
        28.600          32.500
 130472109.334 6                  24828012.529
        40.900
 141581219.918 7                  26942016.014
        42.300


 112805268.953 7  87737347.211 6  21080337.232    21080336.931    21080343.819
        44.400          36.800
 109127108.757 7  84876668.337 6  20450372.953    20450372.341    20450377.248
        46.900          40.300
 198901799.423 7                  37849749.355
        42.300
                  99517508.440 4                                  23944293.934
                        28.600
 111341116.723 7  86759329.30544  21187514.835    21187514.6124   21187512.6964
        43.100          29.3004
 202041572.754 7                  38447245.934
        46.300


 129746024.661 7                  24689845.723
        44.100


 124790922.862 7                  23746906.955
        45.000
 104513628.467 8  81288395.132 7  19544574.764    19544575.346    19544580.080
        50.800          44.400
 25  1  1  6  1 30.0000000  0 27G18R01G23G15G26G11G20E27E03G05G29R16
                                E15E26S35R17R02S31R15G13S33E07E08E21
                                E13R24R08
 118872310.113 7  92627793.48444  22620650.594    22620650.3174   22620649.4554
        46.300          29.7004
 103156514.526 8  80232885.427 6  19297559.411    19297559.295    19297563.581
        48.400          39.400
 124230979.087 6  96803355.42842  23640360.829    23640360.4854   23640365.6394
        37.500          17.7004
 111755230.257 7  87081983.64946  21266297.134    21266296.7954   21266296.2834
        42.000          39.8004
 130167871.080 5 101429502.39243  24770101.049    24770100.7594   24770101.7284
        35.100          21.0004
 126979973.698 5  98945479.89341  24163487.549    24163487.7144   24163491.9954
        34.200           7.9004
 120902269.187 5  94209423.8024   23006902.208    23006902.4404   23006901.5304
        33.900           5.1004
 145923346.258 5                  27768286.552
        32.000
 133527679.835 6                  25409444.109
        40.100
 109160128.508 8  85059832.33546  20772477.130    20772476.7104   20772471.3694
        49.700          36.3004
 107078120.864 8  83437460.48549  20376289.860    20376289.2614   20376289.6074
        52.300          54.3004


 130490789.826 6                  24831568.312
        41.900
 141551117.171 6                  26936286.290
        40.600


 112761418.891 7  87703241.688 5  21072143.449    21072142.987    21072150.563
        43.400          35.000
 109079981.353 6  84840013.652 6  20441539.095    20441536.227    20441547.430
        39.100          41.800
 198901792.040 7                  37849752.592
        42.300
 127991082.462 6                  23951791.404
        38.300
 111320476.745 7  86743246.25444  21183587.155    21183586.8924   21183583.6964
        42.200          26.8004
 202041550.571 7                  38447239.723
        44.800


 129717708.560 7                  24684457.768
        44.800


 124780544.420 7                  23744932.354
        46.600
 104516030.869 8  81290263.653 7  19545024.237    19545023.832    19545029.026
        49.600          42.800
                  95819192.738 4                                  23005999.308
                        29.700
 25  1  1  6  1 45.0000000  0 28G18R01G23G15G26G11G20E27E03G05G29R16
                                E15E26S35R23R17R02S31R15G13S33E07E08
                                E21E13R24R08
 118836198.645 7  92599654.67244  22613777.628    22613777.3744   22613777.2514
        44.600          28.2004
 103168994.066 7  80242591.758 6  19299893.343    19299892.896    19299899.167
        47.700          38.500
 124188185.996 6  96770010.16243  23632219.095    23632219.3404   23632221.2674
        39.500          19.3004
 111711673.598 7  87048043.43346  21258009.062    21258008.7144   21258007.2234
        45.200          41.6004
 130171245.386 5 101432131.63443  24770747.763    24770747.5224   24770740.6344
        33.300          19.1004
 127019039.593 5  98975920.8524   24170922.594    24170922.6704   24170926.1614
        32.200           4.0004
 120943784.982 4  94241773.82241  23014803.169    23014803.0264   23014800.3394
        29.600           6.1004
 145965943.239 4                  27776390.219
        26.000
 133539323.102 7                  25411658.569
        43.500
 109187103.017 8  85080851.40045  20777609.965    20777609.5414   20777604.0094
        49.200          35.8004
 107077317.461 8  83436834.45148  20376136.342    20376135.7484   20376136.7674
        51.400          53.9004
 128047695.771 6  99592703.259 5  23970785.288    23970790.324    23970807.670
        36.100          30.300
 130509494.679 7                  24835127.165
        42.000
 141521009.220 6                  26930557.484
        41.800


 122667079.728 6                  22931320.890
        36.200
 112717602.280 6  87669162.091 6  21063952.200    21063951.694    21063960.903
        38.100          38.800
 109032988.091 7  84803463.261 7  20432734.762    20432733.145    20432740.337
        43.700          42.000
 198901781.368 6                  37849758.298
        41.400
                                                  23959301.365

 111299980.774 7  86727275.41744  21179685.865    21179685.5974   21179683.3594
        43.600          27.4004
 202041526.325 7                  38447236.561
        44.100


 129689473.307 7                  24679084.678
        44.200


 124770187.667 7                  23742961.288
        47.200
 104518546.160 8  81292219.993 7  19545494.612    19545495.266    19545498.788
        49.900          42.300


 25  1  1  6  2  0.0000000  0 24G18R01G23G15G26G11E27E03G05G29R16E15
                                E26S35R17R02S31G13S33E08E21E13R24R08
 118800112.418 7  92571535.48844  22606910.910    22606910.6694   22606909.9794
        45.400          27.8004
 103181667.948 7  80252449.272 6  19302264.215    19302263.733    19302270.071
        46.900          40.500
 124145444.074 6  96736704.74242  23624091.268    23624091.6974   23624087.2744
        39.700          16.2004
 111668224.191 7  87014186.77247  21249740.266    21249739.9224   21249739.6764
        44.900          42.4004
 130174745.715 4 101434859.16542  24771408.323    24771408.0694   24771405.1124
        29.900          14.3004


 146008530.220 5                  27784498.100
        31.300
 133551074.378 7                  25413894.334
        42.500
 109214157.574 8  85101932.82845  20782757.543    20782757.1374   20782752.4384
        49.500          34.6004
 107076664.487 8  83436325.62848  20376012.383    20376011.7984   20376012.5504
        49.900          53.5004
 128051855.953 4                  23971572.478    23971570.547
        29.600
 130528230.846 7                  24838693.001
        42.100
 141490903.303 6                  26924828.454
        40.400


                  87635114.211 6                  21055782.075    21055778.661
                        41.100
 108986136.257 7  84767022.932 6  20423953.464    20423952.327    20423959.189
        45.200          40.500
 198901774.888 6                  37849753.589
        41.300
 111279636.115 6  86711422.48144  21175813.781    21175813.4824   21175812.1684
        41.400          25.6004
 202041505.682 6                  38447227.940
        40.900
 129661326.084 7                  24673728.555
        46.100


 124759859.725 8                  23740996.114
        49.400
 104521181.424 8  81294269.595 6  19545987.398    19545988.182    19545991.194
        49.400          39.300
 123316586.804 5  95912906.446 5  23028501.988                    23028503.459
        34.300          32.700
 25  1  1  6  2 15.0000000  0 27G18R01G23G15G26G11G20E27E03G25G05G29
                                R16E15E26S35R17R02S31G13S33E07E08E21
                                E13R24R08
 118764044.986 6  92543431.01144  22600048.641    22600048.4054   22600048.1404
        40.400          26.9004
 103194529.324 7  80262452.554 6  19304670.277    19304669.841    19304677.029
        47.800          41.500
 124102746.794 6  96703434.11742  23615967.742    23615967.6494   23615961.9784
        38.000          15.2004
 111624875.735 7  86980408.70346  21241490.716    21241490.4034   21241491.5804
        46.500          41.2004
 130178365.268 6 101437679.42942  24772102.048    24772101.7714   24772092.5044
        38.000          14.9004
 127097265.162 5                  24185807.260
        34.000
 121026760.621 4  94306499.84541  23030614.192    23030613.8664   23030610.5384
        26.600           7.3004
 146051100.424 5                  27792605.935
        31.500
 133562927.047 7                  25416150.412
        43.500
 129490901.462 6 100902015.24542  24641297.545    24641296.8124   24641302.6924
        36.000          14.6004
 109241285.656 8  85123071.56545  20787919.555    20787919.1624   20787914.5374
        48.000          32.9004
 107076155.370 8  83435928.90048  20375915.508    20375914.9184   20375915.7934
        48.900          51.9004


 130546991.878 7                  24842263.720
        43.100
 141460792.743 6                  26919097.340
        41.900


 112630084.104 6  87601093.147 6  21047601.440    21047600.191    21047604.924
        41.500          39.600
 108939419.629 7  84730687.784 6  20415198.247    20415195.468    20415205.903
        43.200          40.000
 198901765.918 7                  37849739.951
        43.100
 111259436.282 6  86695682.40443  21171969.207    21171968.9174   21171969.5194
        38.800          23.7004
 202041482.912 7                  38447228.418
        45.000


 129633260.533 7                  24668387.516
        46.900
 138608952.044 5                  26376399.456
        33.100
 124749554.148 7                  23739034.847
        47.900
 104523930.364 7  81296407.642 6  19546500.477    19546501.690    19546505.740
        46.800          38.800
 123376924.365 5  95959835.682 5  23039762.336    23039761.587    23039766.077
        32.500          33.100
 25  1  1  6  2 30.0000000  0 29G18R01G23G15G26G11G20E27E03G25G05G29
                                R16E15E26S35R23R17R02S31R15G13S33E07
                                E08E21E13R24R08
 118727996.457 7  92515341.26244  22593189.158    22593188.7874   22593190.3974
        42.400          27.4004
 103207577.770 7  80272601.348 6  19307110.454    19307110.404    19307116.787
        47.500          40.900
 124060094.477 6  96670198.58441  23607851.215    23607851.1354   23607845.7784
        36.200          11.9004
 111581628.769 7  86946709.69547  21233261.212    21233260.9084   21233262.1494
        46.500          42.9004
 130182104.141 5 101440592.69842  24772810.177    24772809.8564   24772803.7514
        34.400          14.2004
 127136418.345 4                  24193258.541
        29.600
 121068322.929 5  94338886.05541  23038521.984    23038521.6004   23038520.4234
        30.400           6.3004
 146093653.678 4                  27800694.684
        29.600
 133574881.079 7                  25418424.757
        42.200
 129536929.108 6 100937880.92042  24650059.765    24650059.4304   24650060.6644
        36.400          15.3004
 109268487.055 7  85144267.49845  20793095.013    20793094.6244   20793091.3394
        46.400          32.4004
 107075790.102 8  83435644.26748  20375846.177    20375845.5654   20375846.1254
        49.000          51.0004
 128060686.028 5                  23973244.033    23973247.526
        35.200
 130565777.892 7                  24845838.234
        42.800
 141430677.624 7                  26913366.791
        42.400
 200873870.647 5                  38225032.201
        31.700
 122802925.975 5                  22956713.306    22956715.570
        35.100
 112586377.212 7  87567098.795 6  21039432.849    21039431.905    21039437.036
        44.000          39.600
 108892838.686 7  84694458.189 7  20406471.783    20406469.508    20406475.091
        45.400          42.000
 198901754.743 6                  37849734.840
        41.600
 128152191.628 6  99673944.309 6  23981934.739    23981936.566    23981946.508
        36.700          38.300
 111239381.886 6  86680055.61043  21168154.296    21168153.9754   21168153.5494
        36.800          22.1004
 202041457.488 7                  38447225.127
        45.700


 129605276.827 7                  24663062.544
        46.300


 124739270.978 8                  23737078.482
        48.800
 104526793.311 7  81298634.404 6  19547036.038    19547036.026    19547040.438
        45.600          39.000
 123437312.845 5  96006804.448 5  23051041.352    23051041.228    23051042.167
        30.800          31.200
 25  1  1  6  2 45.0000000  0 26G18R01G23G15G26G11G20E27E03G05G29R16
                                E15E26S35R17R02S31R15G13S33E07E08E21
                                E13R24
 118691968.487 7  92487267.51044  22586332.825    22586332.4724   22586333.7274
        44.200          28.4004
 103220814.726 8  80282896.824 6  19309588.049    19309588.510    19309593.055
        50.000          41.700


 111538485.269 6  86913091.33446  21225051.260    21225050.9704   21225051.8664
        41.800          41.3004
 130185963.572 5 101443599.90442  24773543.920    24773543.6844   24773540.1384
        34.500          16.7004
 127175599.916 5                  24200715.563
        34.500
 121109899.861 5  94371283.55741  23046439.939    23046439.3184   23046431.0004
        32.400           6.9004


 133586937.804 6                  25420719.732
        41.400
 109295763.057 7  85165521.48445  20798286.673    20798286.2984   20798282.9514
        47.400          35.4004
 107075570.434 8  83435473.10048  20375803.663    20375803.0464   20375803.9934
        49.500          51.6004
 128065357.648 6                  23974095.600    23974100.533
        39.100
 130584590.414 7                  24849417.654
        43.100
 141400559.486 7                  26907634.872
        42.100
 200873878.183 6                  38225016.488
        37.800
 112542706.907 7  87533132.999 6  21031275.063    21031273.157    21031276.181
        44.000          40.600
 108846395.140 7  84658335.488 7  20397764.922    20397762.928    20397772.097
        45.500          43.500
 198901742.743 7                  37849734.433
        42.100
 128192676.849 5  99705432.909 6  23989512.632    23989510.269    23989520.792
        35.200          38.300
 111219474.349 7  86664543.24043  21164366.420    21164366.0094   21164366.1694
        42.300          23.1004
 202041431.086 7                  38447214.087
        42.100
 143400665.048 5                  27288238.306
        33.200
 129577376.740 7                  24657753.167
        45.900
 138663885.556 5                  26386859.165
        32.600
 124729011.819 8                  23735125.425
        49.300
 104529771.628 7  81300950.972 6  19547593.188    19547590.749    19547596.887
        42.700          39.200
 25  1  1  6  3  0.0000000  0 29G18R01G23G15G26G11G20E27E03G25G05G29
                                R16E15E26S35R23R17R02S31R15G13S33E07
                                E08E21E13R24R08
 118655964.087 7  92459212.10044  22579480.957    22579480.6134   22579481.5064
        45.000          29.0004
 103234242.936 8  80293340.967 7  19312099.425    19312100.006    19312105.526
        49.000          42.300
 123974863.035 6  96603799.27241  23591636.536    23591636.5714   23591635.9274
        37.100          11.5004
 111495448.298 7  86879555.96846  21216863.108    21216862.7644   21216861.7724
        42.700          40.5004
 130189946.444 4 101446703.31042  24774310.976    24774310.6464   24774300.4704
        27.500          14.0004
 127214812.784 5  99128490.59841  24208179.251    24208179.0954   24208189.9544
        35.800           9.5004
 121151494.014 4  94403694.54641  23054352.136    23054351.2964   23054345.2004
        29.200           7.9004
 146178696.869 5                  27816883.150
        33.100
 133599100.199 6                  25423032.851
        39.600


 109323116.141 7  85186835.56446  20803492.090    20803491.7064   20803490.1074
        46.200          37.3004
 107075499.561 8  83435417.87048  20375790.154    20375789.5424   20375790.1054
        49.900          51.3004
 128070203.605 6                  23975014.363    23975012.931
        41.600
 130603432.460 6                  24853002.345
        40.200
 141370441.266 6                  26901903.988
        41.200
 200873888.176 5                  38225020.476
        34.400
 122893787.503 5                  22973700.221    22973700.778
        32.700
 112499076.320 7  87499198.210 6  21023118.245    21023118.912    21023124.717
        44.800          41.100
 108800092.576 7  84622322.447 7  20389088.721    20389086.965    20389096.751
        45.000          45.700
 198901732.134 7                  37849742.245
        42.400
 128233247.473 5  99736987.881 5  23997102.128    23997101.712    23997114.108
        33.700          35.500
 111199716.988 6  86649147.92043  21160606.200    21160605.7804   21160606.7024
        38.700          23.4004
 202041406.526 7                  38447217.423
        46.000
 143353632.618 5                  27279287.311
        32.400
 129549563.333 7                  24652460.381
        45.100
 138691481.741 4                  26392116.849
        28.900
 124718779.663 7                  23733178.156
        46.500
 104532868.876 7  81303359.894 6  19548171.904    19548171.783    19548177.201
        46.000          41.500


 25  1  1  6  3 15.0000000  0 29G18R01G23G15G26G11G20E27E03G25G05G29
                                R16E15E26S35R23R17R02S31R15G13S33E07
                                E08E21E13R24R08
 118619982.755 7  92431174.65944  22572634.080    22572633.7364   22572634.9874
        43.000          29.1004
 103247861.586 7  80303933.301 7  19314647.761    19314647.198    19314653.072
        47.900          42.200
 123932355.416 6  96570676.43441  23583548.583    23583548.4314   23583548.1884
        40.100           7.9004
 111452517.854 7  86846103.66347  21208693.500    21208693.1474   21208693.0524
        45.100          43.1004


 127254056.351 5  99159069.92441  24215643.573    24215643.5564   24215656.4104
        32.000           7.4004
 121193049.405 5                  23062268.374
        32.700
 146221207.731 5                  27824972.771
        33.800
 133611367.550 6                  25425369.575
        40.700
 129674976.326 5 101045437.73342  24676322.847    24676321.9584   24676327.4264
        33.300          12.7004
 109350545.242 7  85208208.90546  20808711.867    20808711.4874   20808711.0704
        46.900          40.2004
 107075576.906 8  83435478.12748  20375805.291    20375804.6884   20375804.5354
        50.300          51.5004
 128075223.037 5                  23975941.930
        35.700
 130622303.460 5                  24856594.495
        34.200
 141340322.365 7                  26896173.329
        43.200
 200873899.845 6                  38225013.957
        39.600
 122939337.927 6                  22982220.588    22982220.430
        36.400
 112455485.104 6  87465294.011 6  21014968.879    21014966.343    21014978.222
        37.100          38.200
 108753930.960 7  84586418.987 7  20380440.382    20380439.049    20380444.104
        47.900          42.300
 198901724.120 7                  37849736.025
        43.900
 128273902.416 5                  24004709.161    24004707.629
        30.200
 111180093.539 6  86633847.36343  21156874.874    21156874.4904   21156870.6614
        39.800          19.2004
 202041383.443 7                  38447211.247
        46.800
 143306603.505 5                  27270339.743
        34.700
 129521836.252 7                  24647183.636
        47.100
 138719147.010 5                  26397376.340
        34.400
 124708573.951 7                  23731236.236
        44.900
 104536084.506 7  81305860.905 7  19548774.619    19548775.412    19548778.630
        47.800          43.400
                  96147991.130 4                                  23084947.508
                        26.800
 25  1  1  6  3 30.0000000  0 26G18R01G23G15G11G20E27E03G25G05G29E15
                                E26S35R23R17R02S31R15G13S33E07E08E21
                                E13R24
 118584024.679 7  92403155.44645  22565791.577    22565791.2294   22565793.0964
        46.100          30.7004
 103261670.235 7  80314673.379 7  19317230.085    19317228.890    19317236.901
        46.500          42.800
 123889896.774 6  96537591.89441  23575467.814    23575467.6044   23575467.3714
        37.300           6.9004
 111409694.453 7  86812734.86747  21200543.853    21200543.5274   21200544.8704
        47.900          45.1004
 127293330.723 5  99189673.22241  24223117.885    24223117.6044   24223127.7404
        32.900           7.3004
 121234677.039 5  94468539.72641  23070190.055    23070189.3004   23070183.6064
        34.000           8.5004


 133623739.755 7                  25427723.627
        42.000


 109378050.518 7  85229641.57846  20813945.985    20813945.6014   20813944.7164
        44.500          38.5004
 107075802.394 8  83435653.83448  20375848.144    20375847.5454   20375847.3954
        50.600          50.9004
 130641203.434 6                  24860190.995
        37.800
 141310202.902 6                  26890441.490
        41.400


 122984955.475 5                  22990740.863    22990741.590
        30.100
 112411933.990 7  87431420.869 6  21006834.621    21006835.771    21006835.415
        45.400          39.400
 108707910.111 7  84550624.974 7  20371812.650    20371813.052    20371819.963
        45.400          43.000
 198901716.864 7                  37849738.086
        45.600
                  99800300.529 5                                  24012342.890
                        32.400
 111160636.119 6  86618685.78043  21153173.165    21153173.0764   21153169.0614
        41.500          21.1004
 202041362.981 7                  38447206.767
        43.800
 143259577.915 5                  27261391.809
        34.100
 129494195.631 7                  24641922.658
        45.300
 138746884.965 5                  26402659.264
        30.500
 124698394.659 7                  23729299.448
        44.700
 104539418.455 8  81308453.916 7  19549396.762    19549397.745    19549402.537
        48.000          44.900
 25  1  1  6  3 45.0000000  0 26G18R01G23G15G26G11E27E03G25G05G29E15
                                E26S35R23R17R02S31R15G13S33E07E08E21
                                E13R24
 118548083.616 7  92375149.45244  22558952.313    22558951.9514   22558953.1284
        42.400          29.5004
 103275662.354 7  80325556.168 6  19319848.127    19319847.512    19319854.088
        47.100          39.300
 123847479.939 5  96504544.78641  23567400.437    23567400.1474   23567395.9724
        34.400          11.3004
 111366971.951 7  86779444.67047  21192414.039    21192413.7264   21192414.1284
        46.300          42.5004






 133636210.485 7                  25430095.810
        42.100


 109405625.349 7  85251128.48547  20819193.505    20819193.1574   20819192.5944
        47.100          42.5004
 107076169.866 8  83435940.17048  20375918.190    20375917.5824   20375917.1974
        48.900          50.7004
 130660126.180 6                  24863791.504
        40.200
 141280076.359 6                  26884707.714
        38.000
 200873829.889 6                  38225026.893
        36.800
 123030634.148 5                  22999280.617    22999280.976
        35.800
 112368416.563 7  87397574.076 6  20998701.093    20998698.831    20998705.218
        45.200          41.700
 108662024.182 7  84514936.021 7  20363215.750    20363215.029    20363220.876
        43.400          42.800
 198901704.468 6                  37849733.445
        41.900
 128355582.341 6  99832054.068 5  24019979.356    24019983.841    24019983.171
        38.000          33.700
 111141322.631 7  86603636.35744  21149497.102    21149496.8214   21149495.4764
        45.300          27.2004
 202041335.799 7                  38447188.773
        44.600


 129466635.337 7                  24636679.557
        46.600
 138774687.574 5                  26407950.008
        33.800
 124688235.637 8                  23727366.181
        49.500
 104542864.652 7  81311134.334 7  19550042.797    19550042.504    19550046.321
        47.200          42.700
 25  1  1  6  4  0.0000000  0 26G18R01G23G15G26G11G20E27E03G05G29R16
                                E15E26S35R23R17R02S31G13S33E07E08E21
                                E13R24
 118512165.933 7  92347161.63745  22552116.481    22552116.1244   22552118.2394
        46.400          30.2004
 103289843.987 8  80336586.362 6  19322501.730    19322501.684    19322507.061
        49.500          41.200
 123805113.344 6  96471531.1334   23559336.113    23559335.8504   23559335.3094
        39.700           3.6004
 111324356.911 8  86746238.23847  21184304.557    21184304.2364   21184303.9734
        49.400          42.5004
 130207050.947 4 101459980.18642  24777564.851    24777564.7534   24777565.5064
        28.400          14.9004


 121317988.136 5                  23086038.319
        33.400


 133648785.817 6                  25432488.995
        38.300
 109433275.717 7  85272674.24147  20824453.995    20824453.6514   20824454.9024
        47.900          42.8004
 107076685.591 8  83436342.03748  20376016.253    20376015.6504   20376015.1934
        49.800          49.9004


 130679077.954 6                  24867397.523
        41.500
 141249949.169 6                  26878975.514
        37.900


 123076379.224 4                  23007838.769    23007836.948
        26.700
 112324939.633 7  87363758.875 5  20990576.163    20990577.533    20990576.913
        45.100          31.900
 108616280.049 8  84479357.260 6  20354643.385    20354643.412    20354647.631
        48.600          41.800
 198901693.861 6                  37849728.088
        40.800
 111122159.622 7  86588704.16644  21145850.543    21145850.2844   21145850.8934
        47.000          28.2004
 202041310.655 6                  38447200.341
        36.700
 143165499.710 4                  27243493.902
        28.700
 129439161.842 8                  24631451.691
        50.500


 124678103.184 8                  23725438.458
        48.900
 104546429.683 8  81313907.094 7  19550709.347    19550709.487    19550714.315
        49.700          45.100
 25  1  1  6  4 15.0000000  0 27G18R01G23G15G26G11G20E27E03G25G05G29
                                R16E15E26S35R02S31R15G13S33E07E08E21
                                E13R24R08
 118476270.384 7  92319191.18244  22545287.032    22545286.7024   22545286.2984
        45.600          27.0004
 103304213.466 6  80347762.599 6  19325187.426    19325187.014    19325194.641
        40.800          41.100
 123762794.515 6  96438555.37442  23551284.143    23551283.9654   23551286.4464
        37.600          15.1004
 111281848.327 7  86713114.76447  21176215.536    21176215.2194   21176214.3704
        46.600          42.8004
 130211590.905 4 101463529.30942  24778438.124    24778438.3694   24778431.0744
        28.700          16.5004


 121359656.821 5  94565900.60841  23093967.955    23093967.9154   23093958.7274
        34.200           7.8004


 133661464.254 6                  25434901.900
        41.000


 109461000.181 7  85294277.70647  20829729.884    20829729.5364   20829731.1044
        45.100          42.8004
 107077348.274 8  83436858.43648  20376142.421    20376141.8314   20376141.5434
        50.500          51.6004
                                                  23980021.963

 130698057.471 6                  24871009.933
        40.500
 141219819.757 5                  26873239.397
        32.500


 108570676.564 7  84443887.993 7  20346097.201    20346097.202    20346100.433
        45.800          42.000
 198901683.551 7                  37849728.924
        42.700
                  99895735.541 5                                  24035303.308
                        31.800
 111103146.078 7  86573888.45344  21142232.686    21142232.4364   21142234.0084
        47.300          27.9004
 202041285.720 6                  38447189.171
        38.300


 129411773.934 8                  24626240.337
        49.300
 138830501.877 5                  26418573.174
        33.900
 124667995.969 7                  23723514.343
        47.400
 104550112.313 7  81316771.404 7  19551397.846    19551397.258    19551402.685
        46.400          46.500
                  96336709.541 5                                  23130253.938
                        33.000
 25  1  1  6  4 30.0000000  0 26G18R01G23G15G26G11G20E27E03G25G05G29
                                R16E15E26S35R02S31R15G13S33E07E08E21
                                E13R24
 118440397.746 7  92291238.45344  22538458.812    22538458.4914   22538459.9374
        45.800          25.4004
 103318771.253 6  80359085.349 6  19327910.478    19327910.617    19327916.535
        41.500          40.500


 111239446.920 8  86680074.74447  21168146.871    21168146.5634   21168145.3714
        48.400          43.0004




 121401340.687 5  94598381.5634   23101899.493    23101899.8994   23101892.7324
        34.400           2.4004


 133674246.508 6                  25437334.437
        39.900


 109488799.101 7  85315939.23947  20835020.151    20835019.8034   20835020.9804
        45.500          43.0004
 107078158.868 8  83437490.05248  20376296.210    20376295.6254   20376295.8234
        49.100          50.0004


 130717065.380 6                  24874627.934
        40.400


 200873833.126 6                  38225025.798
        40.500
 108525214.956 7  84408529.006 6  20337575.992    20337575.761    20337580.485
        42.200          41.100
 198901673.429 7                  37849728.535
        42.400
 128478478.838 5  99927671.082 5  24042991.884                    24042987.957
        32.900          33.100
 111084282.738 7  86559189.74344  21138642.787    21138642.5374   21138644.4934
        47.400          26.0004
 202041261.544 7                  38447180.970
        42.100


 129384472.518 8                  24621044.222
        48.800
 138858512.536 6                  26423897.564
        36.400
 124657914.691 7                  23721596.190
        46.400
 104553913.355 7  81319727.770 7  19552108.085    19552106.757    19552113.293
        43.600          45.300
 25  1  1  6  4 45.0000000  0 27G18R01G23G15G26G11G20E27E03G25G05G29
                                R16E15E26S35R23R17R02S31G13S33E07E08
                                E21E13R24
 118404546.282 7  92263302.26844  22531637.241    22531636.9464   22531637.5114
        42.200          27.3004
 103333515.420 7  80370553.018 6  19330670.838    19330670.659    19330676.179
        45.700          40.500
 123678315.079 6  96372734.32041  23535203.986    23535204.4154   23535205.5444
        41.000           9.7004
 111197151.521 7  86647117.38147  21160097.717    21160097.4004   21160096.7414
        46.900          42.7004




 121442998.118 4                  23109831.798
        28.700


 133687130.679 6                  25439785.062
        40.500
 129950650.180 5 101260229.66242  24728786.255    24728785.7414   24728785.3684
        33.400          13.8004
 109516670.403 7  85337657.11847  20840324.505    20840324.1754   20840324.5704
        46.500          44.5004
 107079115.558 8  83438235.49348  20376479.231    20376478.6504   20376477.7734
        48.400          50.5004
 128108922.842 6                  23982259.835    23982260.193
        36.700
 130736100.009 7                  24878250.531
        44.600
 141159560.000 5                  26861772.421
        34.800
 200873842.248 5                  38225024.013
        30.300
 123213999.384 6                  23033561.455
        37.200
 112194609.522 6  87262497.383 7  20966245.759    20966250.439    20966252.972
        37.600          46.200
 108479893.775 8  84373279.190 7  20329085.976    20329085.920    20329088.936
        48.700          42.500
 198901662.251 6                  37849730.409
        40.000
 111065567.847 7  86544606.70644  21135081.035    21135080.7854   21135081.2544
        45.400          24.7004
 202041236.535 7                  38447180.286
        42.900


 129357255.978 8                  24615865.184
        50.500
 138886590.365 6                  26429246.631
        37.400
 124647857.696 7                  23719681.697
        46.300
 104557831.308 7  81322775.030 7  19552838.577    19552839.442    19552846.067
        43.800          45.300
 25  1  1  6  5  0.0000000  0 28G18R01G23G15G26G11E27E03G25G05G29R16
                                E15E26S35R23R17R02S31R15G13S33E07E08
                                E21E13R24R08
 118368723.185 7  92235388.14444  22524819.915    22524819.6254   22524820.6564
        42.100          24.9004
 103348452.527 8  80382170.779 6  19333465.210    19333465.633    19333469.472
        50.200          38.400
 123636145.734 6  96339874.95042  23527179.455    23527179.5314   23527180.4394
        37.400          16.0004
 111154969.300 8  86614248.17547  21152071.136    21152070.8234   21152070.1754
        48.600          45.4004
 130226058.785 5                  24781196.384
        32.600




 133700123.547 7                  25442258.276
        42.800
 129996562.207 5 101296012.35241  24737521.776    24737521.2624   24737520.3514
        33.900          10.6004
 109544620.638 7  85359436.54647  20845643.051    20845642.7214   20845643.1724
        44.900          43.5004
 107080225.310 8  83439100.24648  20376690.164    20376689.5884   20376688.9824
        51.100          51.7004


 130755168.429 7                  24881878.439
        43.900
 141129429.971 6                  26856039.750
        37.500
 200873857.201 5                  38225030.305
        30.400
 123260010.456 5                  23042160.930    23042160.031
        35.300
 112151297.226 5  87228810.170 7  20958149.450    20958148.235    20958158.749
        33.300          46.200
 108434720.187 7  84338144.215 7  20320618.391    20320617.978    20320623.211
        44.700          44.000
 198901657.659 7                  37849730.807
        42.300
 128560842.309 4                  24058399.380
        29.900
 111047009.021 7  86530145.28043  21131549.620    21131549.3344   21131549.1154
        47.100          22.5004
 202041216.993 7                  38447177.236
        43.300
 142977463.936 6                  27207708.078
        36.400
 129330131.423 8                  24610702.914
        48.100


 124637831.977 7                  23717773.962
        45.900
 104561873.484 7  81325919.005 7  19553595.905    19553598.213    19553602.916
        43.300          45.700
 124044018.108 4  96478679.812 5  23164340.973                    23164342.790
        28.000          34.400
 25  1  1  6  5 15.0000000  0 27G18R01G23G15G26G11G20E27E03G25G05G29
                                R16E15E26S35R23R17R02S31R15G13S33E08
                                E21E13R24
 118332917.730 7  92207487.85244  22518006.516    22518006.2394   22518006.8964
        43.700          28.5004
 103363571.424 7  80393929.905 6  19336292.609    19336292.410    19336297.957
        47.500          38.600
 123594019.555 7  96307049.33743  23519164.134    23519164.2014   23519163.3834
        44.500          18.7004
 111112889.905 8  86581459.09447  21144063.677    21144063.3824   21144063.0554
        48.200          45.2004
 130231128.515 6                  24782162.156
        37.700


 121526454.199 5                  23125714.087
        31.400


 133713214.279 7                  25444749.770
        43.600
 130042455.285 4 101331773.14342  24746253.858    24746253.2594   24746256.1094
        28.700          13.2004
 109572638.818 7  85381268.92347  20850975.147    20850974.8034   20850974.8264
        45.200          44.2004
 107081477.370 8  83440075.86048  20376928.141    20376927.5694   20376927.5614
        51.500          52.4004
 128121535.602 6                  23984622.278    23984626.214
        37.000
 130774259.731 7                  24885511.338
        44.900
 141099292.845 6                  26850302.752
        36.600


 123306081.681 5                  23050782.616    23050779.992
        32.100
 112108020.086 5  87195150.594 7  20950066.747    20950078.512    20950070.174
        32.100          44.500
 108389683.733 6  84303115.894 7  20312177.150    20312177.066    20312183.963
        40.500          44.700
 198901647.859 7                  37849722.869
        43.400
 128602139.722 5                  24066139.764    24066137.684
        33.700
 111028595.404 7  86515797.03643  21128045.691    21128045.3924   21128044.8434
        46.300          22.1004
 202041191.985 5                  38447186.738
        34.900
 129303088.229 8                  24605556.850
        49.000
 138942957.056 6                  26439975.951
        36.400
 124627826.704 7                  23715870.247
        47.300
 104566028.937 8  81329150.970 7  19554375.603    19554376.906    19554379.006
        48.200          45.600
 25  1  1  6  5 30.0000000  0 28G18R01G23G15G26G11G20E27E03G25G05G29
                                R16E15E26S35R17R02S31R15G13S33E07E08
                                E21E13R24R08
 118297131.999 7  92179602.83644  22511197.378    22511197.1194   22511198.1264
        43.100          29.7004
 103378873.820 7  80405831.756 6  19339155.519    19339155.536    19339161.034
        46.800          36.900
 123551938.882 6  96274259.14243  23511156.624    23511156.6734   23511155.8434
        40.500          18.1004
 111070915.781 8  86548752.02147  21136076.566    21136076.2714   21136075.8694
        48.800          44.3004
 130236315.456 6                  24783149.290
        37.100


 121568192.300 4                  23133658.252
        29.400


 133726404.932 7                  25447259.248
        42.200


 109600727.039 7  85403155.83847  20856321.002    20856320.6584   20856320.1414
        45.100          45.7004
 107082873.935 8  83441164.09948  20377193.705    20377193.1384   20377193.3494
        51.900          51.0004
 128128149.701 6  99655198.372 5  23985856.136    23985854.341    23985850.558
        39.500          32.500
 130793376.188 6                  24889148.745
        41.700
 141069150.863 6                  26844568.788
        37.100


 112064781.265 7  87161520.606 6  20941985.953    20941986.888    20941988.602
        43.400          41.600
 108344787.027 7  84268196.212 7  20303764.674    20303764.790    20303769.603
        46.200          43.900
 198901635.173 7                  37849723.012
        43.000
 128643511.697 6 100056024.203 5  24073857.480    24073866.253    24073870.547
        36.500          33.800
 111010329.372 7  86501563.77743  21124570.228    21124569.8934   21124569.0824
        44.700          22.2004
 202041165.564 6                  38447166.339
        40.100


 129276128.684 8                  24600426.748
        49.300
 138971237.399 5                  26445349.738
        30.100
 124617844.136 8                  23713971.139
        48.200
 104570299.916 7  81332472.856 7  19555172.868    19555174.867    19555177.003
        46.600          43.500
 124165915.850 5                  23187114.054
        34.400
 25  1  1  6  5 45.0000000  0 28G18R01G23G15G26G11G20E03G25G05G29R16
                                E15E26S35R23R17R02S31R15G13S33E07E08
                                E21E13R24R08
 118261367.390 7  92151734.25544  22504390.192    22504389.9474   22504392.8764
        44.200          26.0004
 103394360.903 7  80417877.316 6  19342052.014    19342051.833    19342057.183
        43.800          36.100
 123509904.814 7  96241505.22742  23503156.170    23503156.1874   23503157.0494
        42.800          17.6004
 111029048.448 8  86516128.07147  21128109.191    21128108.8964   21128108.7934
        48.900          45.1004
 130241620.668 6 101486925.63941  24784158.862    24784159.2824   24784147.5074
        36.800           9.8004


 121609942.566 5  94760977.40041  23141606.212    23141606.7084   23141598.0624
        34.500           6.9004
 133739696.334 6                  25449789.240
        41.200


 109628886.252 7  85425098.05547  20861678.529    20861678.1904   20861678.7504
        46.900          45.1004
 107084416.256 8  83442365.90448  20377487.007    20377486.4404   20377487.1574
        49.300          51.8004
 128134876.631 5                  23987102.322    23987102.312
        35.100
 130812518.850 7                  24892791.425
        42.200
 141039005.143 5                  26838833.084
        33.800


 123398539.491 6                  23068045.432    23068039.431
        38.500
 112021582.066 7  87127921.217 6  20933913.547    20933911.978    20933915.360
        43.900          39.000
 108300031.232 7  84233386.284 7  20295381.378    20295381.620    20295381.582
        47.200          44.900
 198901620.775 7                  37849717.240
        42.900
 128684961.010 5 100088261.770 5  24081616.160    24081617.538    24081625.535
        33.200          34.600
 110992212.464 7  86487446.68243  21121123.022    21121122.6874   21121121.2604
        47.900          22.0004
 202041136.193 7                  38447163.960
        43.000
 142836497.078 5                  27180879.365
        33.100
 129249254.076 7                  24595311.782
        46.800
 138999582.453 6                  26450747.094
        40.100
 124607885.384 8                  23712076.049
        48.100
 104574687.986 8  81335885.807 7  19555993.614    19555993.689    19555998.740
        48.400          45.600


 25  1  1  6  6  0.0000000  0 29G18R01G23G15G26G11G20E27E03G25G05G29
                                R16E15E26S35R23R17R02S31R15G13S33E07
                                E08E21E13R24R08
 118225629.279 7  92123886.42444  22497590.511    22497590.2974   22497590.9434
        44.600          26.7004
 103410037.431 7  80430070.184 5  19344983.187    19344983.912    19344990.219
        44.700          35.600
 123467922.727 7  96208791.88242  23495168.977    23495168.9694   23495167.1274
        42.900          14.9004
 110987293.583 7  86483591.76347  21120163.632    21120163.3424   21120163.4044
        45.700          43.8004
 130247049.467 5 101491155.84243  24785191.982    24785192.2994   24785190.3564
        35.200          18.6004


 121651710.128 6  94793523.43241  23149552.718    23149553.0224   23149545.0204
        37.100           7.0004


 133753093.993 6                  25452337.495
        41.900


 109657121.539 7  85447099.61847  20867051.329    20867050.9674   20867051.5034
        45.900          45.1004
 107086109.718 8  83443685.47448  20377809.568    20377808.9924   20377809.7454
        48.700          51.0004
 128141777.878 5                  23988395.264    23988392.438
        30.300
 130831693.255 6                  24896439.923
        39.600
 141008861.093 6                  26833096.358
        38.800
 200873942.837 5                  38225049.833
        35.200
 123444804.009 6                  23076683.896    23076683.900
        37.200
 111978428.396 7  87094357.271 6  20925849.880    20925849.674    20925849.827
        46.700          38.900
 108255422.510 7  84198690.665 6  20287015.268    20287017.727    20287021.423
        44.300          41.700
 198901610.520 6                  37849717.486
        40.400
 128726490.284 5 100120562.244 5  24089390.751    24089388.141    24089396.638
        35.400          33.600
 110974250.146 7  86473450.10743  21117704.635    21117704.2604   21117704.3954
        46.600          23.2004
 202041110.715 7                  38447156.957
        44.400
 142789500.937 5                  27171938.390
        35.000
 129222469.968 7                  24590215.098
        45.700
 139027998.399 6                  26456150.443
        39.600
 124597955.899 8                  23710186.864
        48.000
 104579198.520 8  81339394.033 7  19556836.837    19556837.712    19556842.383
        48.600          46.400


 25  1  1  6  6 15.0000000  0 28G18R01G23G15G26G11G20E27E03G25G05G29
                                R16E15E26S35R23R17R02S31R15G13S33E07
                                E08E21E13R24
 118189915.551 7  92096057.56844  22490794.058    22490793.8664   22490793.4374
        43.800          25.7004
 103425901.189 7  80442408.594 6  19347953.158    19347953.110    19347958.241
        47.000          36.300
 123425990.580 6  96176117.59242  23487186.614    23487186.5924   23487187.0524
        39.600          14.8004
 110945649.374 7  86451141.74446  21112239.023    21112238.7104   21112237.8514
        42.000          41.4004
 130252599.474 6 101495480.46343  24786248.530    24786248.6504   24786253.1274
        36.600          22.0004
 127727254.052 5                  24305689.602
        35.100
 121693492.980 6  94826081.49741  23157507.833    23157508.1994   23157498.4944
        36.700          11.5004


 133766595.512 6                  25454906.415
        39.800


 109685430.113 7  85469158.26847  20872438.422    20872438.0694   20872438.1984
        45.000          44.1004
 107087952.072 8  83445121.07148  20378160.671    20378160.1084   20378160.2354
        49.700          52.0004
 128148851.133 5                  23989723.752    23989720.027
        32.100
 130850897.168 6                  24900094.515
        38.700
 140978716.664 6                  26827359.225
        37.600
 200873959.580 6                  38225042.504
        37.400
 123491134.739 4                  23085344.152    23085343.676
        27.600
 111935317.988 7  87060827.018 5  20917792.311    20917793.156    20917791.360
        46.800          32.300
 108210958.935 7  84164108.010 7  20278681.440    20278680.168    20278689.619
        42.100          43.400
 198901601.180 7                  37849712.723
        42.700
 128768097.436 5 100152923.366 5  24097175.914    24097173.853    24097183.280
        32.300          33.700
 110956440.399 7  86459572.35244  21114315.815    21114315.4624   21114316.3504
        45.700          24.3004
 202041086.693 7                  38447153.496
        44.600
 142742510.796 5                  27162990.111
        31.200
 129195774.338 7                  24585135.238
        46.400
 139056482.625 6                  26461571.615
        38.600
 124588053.607 7                  23708302.160
        46.800
 104583829.595 8  81342996.019 7  19557701.910    19557702.416    19557708.644
        48.600          46.600
 25  1  1  6  6 30.0000000  0 27G18R01G23G15G26G11G20E03G25G05G29R16
                                E15E26S35R23R17R02S31R15G13S33E07E08
                                E21E13R24
 118154224.963 7  92068246.73744  22484001.795    22484001.6264   22484000.7524
        45.000          26.9004
 103441950.444 8  80454891.289 6  19350956.181    19350956.448    19350961.552
        49.600          38.900
 123384107.105 6  96143481.03443  23479217.100    23479217.0564   23479217.5744
        36.400          18.0004
 110904114.497 7  86418776.89747  21104335.436    21104335.0654   21104334.2984
        44.200          42.0004
 130258269.158 5 101499898.47643  24787327.171    24787327.2204   24787336.4944
        31.500          18.8004
 127766875.915 5                  24313229.869
        35.000
 121735289.409 5  94858649.99641  23165463.139    23165463.4784   23165453.2294
        35.600          11.6004
 133780199.313 6                  25457495.351
        38.400


 109713810.586 7  85491272.92646  20877838.465    20877838.0634   20877838.8324
        42.100          41.7004
 107089941.994 8  83446671.64748  20378538.517    20378537.9634   20378539.2864
        50.200          52.1004
 128156094.244 6  99676966.991 5  23991078.117    23991076.145    23991082.683
        36.700          33.100
 130870129.188 6                  24903754.538
        40.400
 140948570.131 6                  26821621.682
        38.000
 200873969.567 6                  38225040.845
        38.400
                                                  23094013.942

 111892249.672 7  87027329.465 6  20909742.831    20909742.044    20909746.191
        45.500          39.500
 108166639.155 8  84129637.007 7  20270381.937    20270381.033    20270384.496
        48.800          43.600
 198901592.312 7                  37849713.743
        42.500
 128809780.631 5 100185343.739 5  24104977.291    24104976.029    24104986.190
        35.900          33.600
 110938781.933 7  86445812.48743  21110954.012    21110953.6464   21110955.5274
        45.000          23.4004
 202041063.483 7                  38447150.688
        44.100
 142695525.388 5                  27154049.000
        35.500
 129169165.882 7                  24580073.019
        47.300
 139085033.529 5                  26467004.181
        30.500
 124578177.047 8                  23706423.224
        48.100
 104588579.909 8  81346690.712 7  19558590.251    19558590.360    19558596.717
        49.600          46.800
 25  1  1  6  6 45.0000000  0 28G18R01G23G15G26G11G20E27E03G25G05G29
                                R16E15E26S35R23R17R02S31R15G13S33E07
                                E08E21E13R24
 118118559.159 7  92040455.19244  22477215.306    22477215.0924   22477214.0054
        45.000          26.6004
 103458186.348 8  80467519.213 6  19353993.050    19353992.787    19353999.260
        49.700          37.900
 123342273.780 5  96110883.60942  23471256.117    23471256.1044   23471259.5704
        31.200          17.4004
 110862691.172 6  86386498.97846  21096451.709    21096451.3294   21096452.1694
        39.300          39.8004
 130264059.813 6 101504410.62443  24788431.287    24788431.3544   24788440.3634
        36.700          19.9004
 127806528.497 6  99589533.94641  24320775.574    24320774.9664   24320778.0594
        38.100          10.0004
 121777100.540 6  94891230.04541  23173415.759    23173415.7944   23173409.8514
        36.000          10.7004
 146814618.987 5                  27937894.214
        34.700
 133793906.949 6                  25460103.743
        37.200
 130317505.069 5 101546096.28341  24798593.695    24798594.2364   24798593.9834
        32.800           9.7004
 109742264.280 7  85513444.63946  20883253.546    20883253.1224   20883253.5424
        43.000          41.7004
 107092081.278 8  83448338.60348  20378945.567    20378945.0264   20378946.6194
        51.300          53.0004
 128163509.108 5  99682734.365 5  23992463.542    23992461.602    23992471.958
        32.700          33.200
 130889390.998 6                  24907420.253
        38.800
 140918423.234 6                  26815885.637
        37.900
 200873982.017 5                  38225054.747
        34.500
 123583855.910 5                  23102705.816    23102707.612
        35.400
 111849225.543 7  86993866.344 6  20901701.203    20901700.788    20901704.354
        42.800          37.600
 108122465.220 7  84095279.619 7  20262101.567    20262101.310    20262105.900
        47.500          43.200
 198901585.041 7                  37849710.501
        42.000
 128851446.826 5 100217824.002 5  24112792.305                    24112800.252
        33.300          34.600
 110921276.625 7  86432172.01844  21107622.497    21107622.1224   21107623.9854
        44.500          24.4004
 202041040.717 7                  38447144.043
        43.300
 142648546.897 5                  27145107.859
        35.800
 129142646.407 7                  24575026.027
        47.000
 139113652.551 6                  26472451.595
        37.700
 124568327.879 7                  23704548.038
        46.400
 104593451.124 8  81350479.476 7  19559502.733    19559503.492    19559507.435
        51.700          44.900
 25  1  1  6  7  0.0000000  0 28G18R01G23G15G26G11G20E27E03G25G05G29
                                R16E15E26S35R23R17R02S31R15G13S33E07
                                E08E21E13R24
 118082915.151 7  92012680.66444  22470432.142    22470431.8974   22470431.5374
        44.900          29.3004
 103474605.547 8  80480289.720 6  19357064.755    19357063.956    19357070.088
        49.300          38.900
 123300487.661 6  96078322.94743  23463307.545    23463307.5324   23463310.1754
        36.700          18.0004
 110821376.226 7  86354305.43746  21088589.942    21088589.5044   21088590.4664
        45.000          41.1004
 130269968.131 6 101509014.53343  24789553.364    24789553.4404   24789568.5984
        38.400          20.3004
 127846208.443 6  99620453.33441  24328325.108    24328324.6884   24328327.9064
        37.800           9.2004
 121818923.396 6  94923819.18742  23181369.531    23181369.4784   23181368.4224
        38.800          12.1004
 146856872.572 5                  27945943.152
        33.300
 133807715.036 5                  25462730.708
        35.700


 109770787.408 7  85535670.46046  20888681.159    20888680.7124   20888681.1884
        42.900          41.1004
 107094366.706 8  83450119.43948  20379380.924    20379380.3884   20379381.3154
        52.300          53.3004
 128171092.497 5  99688632.453 5  23993883.056    23993879.902    23993889.520
        32.700          31.400
 130908679.422 6                  24911089.721
        38.800
 140888272.644 5                  26810148.892
        35.600
 200873992.335 5                  38225053.276
        35.100
 123630379.737 6                  23111400.948    23111402.190
        36.700
 111806242.548 7  86960435.074 6  20893669.800    20893668.873    20893673.507
        44.100          38.800
 108078434.239 8  84061033.298 7  20253851.081    20253850.997    20253853.780
        48.800          43.800
 198901575.859 6                  37849703.650
        40.900
 128893280.564 6 100250361.381 5  24120625.248    24120625.809    24120629.155
        39.700          34.200
 110903921.434 7  86418648.50743  21104319.242    21104318.8764   21104321.2944
        42.000          23.7004
 202041017.033 7                  38447135.726
        43.100
 142601572.023 6                  27136168.983
        37.500
 129116212.869 7                  24569996.340
        46.800
 139142336.138 6                  26477910.485
        41.300
 124558502.998 7                  23702678.703
        45.900
 104598440.207 8  81354359.825 7  19560435.229    19560436.027    19560440.738
        51.200          43.900
 25  1  1  6  7 15.0000000  0 28G18R01G23G15G26G11G20E27E03G25G05G29
                                E15E26S35R23R17R02S31R15G13S33E07E08
                                E21E13R24R08
 118047294.408 7  91984924.26145  22463654.533    22463654.3194   22463654.3694
        46.900          32.1004
 103491208.943 8  80493203.503 6  19360170.414    19360170.267    19360174.481
        50.600          37.800
 123258750.087 6  96045800.09743  23455363.816    23455363.7674   23455370.6934
        38.300          18.7004
 110780171.684 7  86322197.94147  21080747.732    21080747.2764   21080749.9194
        45.200          42.3004
 130275995.516 5 101513711.20843  24790700.451    24790700.6074   24790716.5804
        35.400          18.2004
 127885917.208 5  99651395.1454   24335878.519    24335878.1484   24335883.1864
        31.900           4.1004
 121860759.059 6  94956418.43942  23189331.443    23189331.3094   23189329.7624
        36.300          13.6004
 146899106.990 4                  27953974.287
        28.900
 133821624.946 6                  25465377.231
        38.000
 130409044.189 5                  24816014.056
        30.900
 109799381.570 7  85557951.63146  20894122.536    20894122.0634   20894122.0444
        43.200          40.5004
 107096799.775 8  83452015.32748  20379843.929    20379843.3934   20379844.1414
        51.800          53.2004
 130927995.929 6                  24914765.007
        40.500
 140858120.041 6                  26804412.015
        36.300
 200874002.463 5                  38225060.506
        32.800
 123676967.412 5                  23120109.649    23120111.820
        33.400
 111763302.575 7  86927037.333 6  20885647.314    20885647.122    20885650.303
        47.000          40.100
 108034547.962 8  84026899.572 7  20245624.803    20245625.125    20245629.853
        48.000          43.800
 198901566.909 7                  37849703.436
        42.200
 128935188.415 5 100282956.507 5  24128463.323    24128463.517    24128474.993
        35.400          32.100
 110886717.953 6  86405243.20443  21101045.773    21101045.4074   21101047.6284
        41.000          23.8004
 202040993.589 7                  38447129.349
        44.300
 142554602.394 6                  27127229.508
        36.000
 129089866.843 7                  24564982.590
        45.800
 139171085.542 6                  26483380.438
        41.200
 124548703.792 7                  23700813.532
        45.700
 104603548.773 8  81358333.156 7  19561390.668    19561391.053    19561396.172
        50.400          43.100
 124594069.196 4                  23267094.779    23267092.908
        28.200
 25  1  1  6  7 30.0000000  0 28G18R01G23G15G26G11G20E03G25G05G29R16
                                E15E26S35R23R17R02S31R15G13S33E07E08
                                E21E13R24R08
 118011693.862 7  91957183.60045  22456879.719    22456879.5144   22456880.3974
        46.900          33.5004
 103507993.145 8  80506257.892 6  19363309.960    19363310.732    19363314.745
        50.900          37.500
 123217058.051 6  96013312.70643  23447430.221    23447430.1774   23447439.1974
        39.800          18.8004
 110739074.686 7  86290174.26547  21072928.194    21072927.7744   21072929.7354
        43.900          43.0004
 130282138.604 4 101518498.14342  24791867.927    24791868.0034   24791884.5014
        29.500          14.8004
 127925651.694 6  99682356.9314   24343446.145    24343445.8374   24343443.4614
        38.600           4.1004
 121902604.427 5  94989025.18641  23197293.392    23197293.3034   23197292.6034
        31.900           8.1004
 133835633.445 5                  25468043.991
        35.100
 130454792.285 5 101653069.82641  24824721.098    24824720.8884   24824719.9434
        34.500          10.7004
 109828043.431 7  85580285.55046  20899576.870    20899576.4414   20899575.8634
        43.900          41.6004
 107099377.535 8  83454023.97148  20380334.761    20380334.2254   20380334.7674
        52.400          53.4004
 128186809.875 6                  23996832.845    23996833.932
        36.300
 130947337.433 6                  24918445.627
        41.900
 140827962.061 6                  26798672.862
        38.600
 200874009.346 6                  38225060.640
        37.800
 123723616.113 6                  23128831.209    23128831.444
        36.000
 111720402.560 7  86893670.640 6  20877628.385    20877628.729    20877633.162
        46.700          40.600
 107990803.561 8  83992876.175 7  20237429.601    20237429.240    20237432.242
        50.900          43.200
 198901554.605 7                  37849699.925
        43.200
 128977166.753 6                  24136323.832    24136324.218
        38.300
 110869663.089 7  86391953.72844  21097801.934    21097801.6174   21097802.0044
        43.300          25.7004
 202040966.079 7                  38447125.727
        44.900
 142507635.104 5                  27118289.310
        35.300
 129063605.396 7                  24559985.144
        43.200
 139199897.411 7                  26488862.619
        42.100
 124538927.265 7                  23698953.034
        45.800
 104608774.065 8  81362397.240 6  19562368.506    19562368.514    19562372.117
        50.500          40.700
 124655424.491 4                  23278545.805    23278551.253
        27.700
 25  1  1  6  7 45.0000000  0 26G18R01G23G15G26G11E03G25G05G29R16E15
                                E26S35R23R17R02S31R15G13S33E07E08E21
                                E13R24
 117976116.105 7  91929460.70545  22450108.795    22450108.5944   22450110.5444
        47.000          32.9004
 103524960.550 8  80519454.758 6  19366484.362    19366484.565    19366489.047
        50.000          37.300
 123175414.095 6  95980862.82443  23439506.290    23439506.2284   23439516.8464
        40.900          18.8004
 110698088.024 7  86258236.57647  21065129.419    21065129.0484   21065130.2554
        44.200          42.0004
 130288399.669 4 101523376.80941  24793067.460    24793067.5894   24793075.3164
        26.300          10.6004
 127965414.131 5  99713340.5464   24351006.219    24351005.8044   24351009.7374
        35.000           5.4004
 133849742.908 4                  25470727.864
        29.400
 130500521.972 6 101688703.45041  24833421.271    24833421.0394   24833424.4524
        36.600          10.1004
 109856775.001 7  85602673.81446  20905044.078    20905043.6634   20905043.2224
        45.700          41.8004
 107102102.173 8  83456147.06248  20380853.241    20380852.7094   20380853.5074
        51.500          53.2004
 128194897.244 6                  23998346.584    23998343.060
        36.300
 130966706.420 6                  24922132.198
        41.400
 140797801.253 6                  26792932.298
        40.100
 200874015.725 4                  38225062.680
        28.600
 123770327.674 5                  23137563.530    23137566.879
        30.800
 111677545.451 7  86860337.402 6  20869618.456    20869620.049    20869624.830
        45.600          41.100
 107947204.080 8  83958965.506 7  20229259.810    20229259.635    20229262.342
        50.000          44.800
 198901541.423 6                  37849695.642
        40.700
 129019217.519 6                  24144189.726    24144190.697
        36.900
 110852759.864 7  86378782.40944  21094584.964    21094584.6164   21094585.6064
        46.300          28.2004
 202040938.226 7                  38447125.276
        44.100
 142460672.834 6                  27109354.780
        36.900
 129037431.085 6                  24555004.176
        41.200
 139228773.952 6                  26494356.168
        40.200
 124529175.859 7                  23697097.173
        45.800
 104614118.316 8  81366553.849 6  19563367.226    19563367.086    19563371.757
        50.500          41.300
 25  1  1  6  8  0.0000000  0 27G18R01G23G15G26G11E27E03G25G05G29E15
                                E26S35R23R17R02S31R15G13S33E07E08E21
                                E13R24R08
 117940567.534 7  91901760.54645  22443344.858    22443344.6394   22443346.0794
        43.400          31.4004
 103542116.976 8  80532798.664 6  19369693.804    19369693.495    19369698.850
        48.800          37.600
 123133824.494 5  95948455.41541  23431589.615    23431589.5984   23431604.1314
        35.400           9.0004
 110657218.245 6  86226390.01946  21057352.525    21057352.1284   21057352.9234
        41.400          40.0004


 128005210.992 5  99744351.0884   24358580.118    24358579.7164   24358583.1864
        35.600           4.4004
 147025691.301 5                  27978057.323
        32.000
 133863959.506 4                  25473435.740
        29.600
 130546239.205 5 101724327.34141  24842120.536    24842120.0804   24842124.2944
        32.900           7.5004
 109885582.311 7  85625121.06446  20910525.548    20910525.1464   20910525.0294
        44.000          41.8004
 107104979.810 8  83458389.37848  20381400.800    20381400.2734   20381401.3084
        51.700          53.2004
 130986109.208 7                  24925825.420
        42.800
 140767643.925 6                  26787192.998
        39.700


 123817108.963 4                  23146338.570    23146337.824
        27.000
 111634737.784 7  86827042.557 6  20861619.232    20861619.001    20861623.479
        46.100          41.100
 107903755.969 8  83925172.556 7  20221117.019    20221117.463    20221121.373
        50.300          45.800
 198901533.810 6                  37849699.496
        41.000
 129061346.528 6 100381079.387 5  24152070.403    24152073.345    24152078.980
        37.200          34.700
 110836014.616 7  86365734.18344  21091397.961    21091397.5904   21091399.1594
        42.800          28.5004
 202040915.316 7                  38447124.936
        44.100
 142413722.161 6                  27100421.523
        38.200
 129011350.393 7                  24550040.673
        44.200
 139257721.099 7                  26499865.778
        42.000
 124519455.942 7                  23695248.115
        46.300
 104619588.232 8  81370808.233 7  19564390.526    19564390.394    19564394.802
        51.000          42.800
 124778269.060 5  97049869.751 5  23301492.394    23301497.291    23301483.308
        30.600          32.900
 25  1  1  6  8 15.0000000  0 28G18R01G23G15G26G11G20E27E03G25G05G29
                                R16E15E26S35R17R02S31R15G13S33E07E08
                                E21E13R24R08
 117905041.249 7  91874077.76445  22436584.646    22436584.4324   22436585.8754
        44.600          33.0004
 103559455.096 8  80546283.871 6  19372937.762    19372937.299    19372941.845
        48.100          36.200


 110616458.510 7  86194629.20446  21049595.972    21049595.5574   21049595.4764
        47.200          40.4004


 128045035.126 6  99775382.6754   24366158.715    24366158.2284   24366161.1374
        38.000           5.9004
 122028330.793 5                  23221205.567
        35.000
 147067847.333 5                  27986080.512
        33.100
 133878275.883 5                  25476160.256
        33.900
 130591936.731 5 101759935.83941  24850816.816    24850816.1504   24850820.5584
        31.900          10.3004
 109914458.100 7  85647621.66846  20916021.812    20916021.3974   20916020.3134
        42.900          41.9004
 107108003.911 8  83460745.82248  20381976.411    20381975.8934   20381976.3854
        52.500          52.5004
                                                  24001470.692

 131005538.835 7                  24929522.456
        44.400
 140737483.046 6                  26781453.848
        40.200


 111591973.072 8  86793781.087 7  20853627.547    20853629.357    20853632.430
        48.900          42.600
 107860452.500 8  83891492.096 7  20213001.895    20213003.950    20213005.079
        50.100          44.900
 198901524.788 7                  37849694.998
        42.100
 129103546.390 6 100413901.549 5  24159976.532    24159974.049    24159977.914
        36.800          33.600
 110819420.529 7  86352803.77144  21088241.532    21088241.1664   21088241.3084
        44.900          28.3004
 202040891.130 7                  38447116.686
        44.900
 142366776.236 4                  27091484.888
        29.400
 128985356.486 7                  24545094.199
        43.600
 139286731.718 6                  26505385.913
        40.900
 124509760.564 7                  23693403.009
        47.800
 104625176.927 8  81375154.979 7  19565435.168    19565434.965    19565440.343
        50.300          43.300
 124839756.592 4  97097693.309 5  23312972.585    23312972.628    23312965.505
        28.200          30.800
 25  1  1  6  8 30.0000000  0 29G18R01G23G15G26G11G20E27E03G25G05G29
                                R16E15E26S35R23R17R02S31R15G13S33E07
                                E08E21E13R24R08
 117869538.632 7  91846413.39545  22429828.059    22429827.8274   22429829.5404
        42.300          31.2004
 103576975.994 7  80559911.220 5  19376214.504    19376214.659    19376219.052
        46.600          35.500
 123050796.192 5  95883802.68541  23415788.974    23415789.0994   23415803.9074
        35.100           9.4004
 110575810.744 8  86162955.64847  21041860.795    21041860.4024   21041860.3304
        48.100          42.7004


 128084887.831 6  99806436.66541  24373741.934    24373741.4564   24373744.5674
        38.000           8.6004
 122070229.231 5                  23229169.245
        33.400
 147109982.954 5                  27994096.198
        33.700
 133892693.571 5                  25478902.082
        31.900
 130637615.364 5 101795529.45141  24859510.682    24859510.1954   24859513.2804
        31.200          10.6004
 109943403.690 7  85670176.64147  20921529.491    20921529.0674   20921529.4104
        46.300          43.0004
 107111175.728 8  83463217.37248  20382579.477    20382578.9594   20382579.2094
        51.400          51.4004
 128220179.439 5                  24003063.940    24003066.390
        33.300
 131024996.653 7                  24933224.768
        44.500
 140707319.884 7                  26775715.042
        42.100


 123910922.905 5                  23163838.825    23163837.738
        35.700
 111549252.662 7  86760554.066 7  20845645.131    20845647.059    20845649.667
        47.300          44.200
 107817295.428 7  83857925.502 7  20204912.882    20204913.179    20204918.038
        46.000          45.600
 198901514.874 7                  37849692.677
        42.600
 129145817.600 5 100446779.190 5  24167878.455    24167875.102    24167886.483
        30.500          32.200
 110802979.075 7  86339992.32644  21085112.421    21085112.0554   21085112.2414
        45.200          27.7004
 202040867.034 7                  38447110.940
        45.000


 128959450.792 6                  24540164.888
        40.600
 139315806.859 7                  26510920.152
        42.000
 124500091.028 8                  23691562.810
        49.100
 104630885.756 8  81379595.189 7  19566502.308    19566503.057    19566508.578
        51.200          43.900
 124901285.836 5                  23324462.096    23324463.549
        35.400
 25  1  1  6  8 45.0000000  0 29G18R01G23G15G26G11G20E27E03G25G05G29
                                R16E15E26S35R23R17R02S31R15G13S33E07
                                E08E21E13R24R08
 117834060.232 6  91818767.91545  22423077.509    22423077.2464   22423077.6674
        41.200          31.9004
 103594679.635 7  80573680.742 5  19379526.218    19379526.920    19379532.650
        46.200          35.800
 123009352.323 5  95851508.78841  23407914.172    23407914.0294   23407914.5344
        34.200           8.3004
 110535275.554 7  86131369.80647  21034146.338    21034145.9494   21034147.2994
        46.300          43.3004


 128124769.494 6  99837513.26741  24381332.014    24381331.5144   24381333.5184
        39.100           8.6004
 122112139.822 5                  23237146.039
        32.600
 147152098.398 4                  28002110.269
        28.200
 133907212.705 5                  25481666.829
        34.200


 109972419.118 7  85692786.07147  20927049.869    20927049.4544   20927051.5474
        46.300          43.2004
 107114495.635 8  83465804.31248  20383211.523    20383211.0004   20383210.5224
        52.000          51.5004
 128228946.316 4                  24004711.001    24004706.908
        29.300
 131044483.059 7                  24936932.664
        44.900
 140677154.846 7                  26769974.420
        42.700


 123957892.844 5                  23172618.380    23172622.026
        31.700
 111506577.267 7  86727362.084 7  20837670.151    20837671.558    20837675.986
        47.000          45.300
 107774285.287 7  83824473.212 7  20196851.450    20196850.477    20196857.138
        42.500          43.600
 198901505.609 6                  37849689.091
        41.300
 129188160.398 6 100479712.281 5  24175809.306    24175809.227    24175806.013
        38.300          30.300
 110786690.940 7  86327300.29444  21082013.338    21082012.9634   21082012.6734
        43.800          26.3004
 202040842.135 7                  38447112.089
        45.500


 128933633.892 7                  24535252.951
        42.000
 139344946.577 6                  26516463.893
        39.400
 124490447.749 8                  23689728.046
        50.000
 104636715.464 8  81384129.382 7  19567592.030    19567593.091    19567599.203
        51.700          44.400
 124962857.018 5                  23335954.900    23335955.015
        34.000
 25  1  1  6  9  0.0000000  0 27G18R01G23G15G26G11G20E27E03G25G05G29
                                R16E15E26S35R17R02S31G13S33E07E08E21
                                E13R24R08
 117798607.285 6  91791142.23045  22416330.924    22416330.6434   22416330.1324
        40.300          31.2004
 103612566.898 7  80587593.044 5  19382873.459    19382873.594    19382878.264
        44.100          32.800


 110494854.490 6  86099872.80346  21026455.632    21026455.2574   21026455.9574
        41.100          40.8004
 130321554.105 4 101549292.09842  24799361.418    24799361.5654   24799371.4014
        27.900          13.6004
 128164681.309 6  99868613.35641  24388926.751    24388926.3804   24388928.0554
        36.400           6.9004
 122154063.887 6                  23245125.577
        36.700
 147194194.528 4                  28010122.880
        29.900
 133921834.412 5                  25484448.977
        34.900


 110001505.474 7  85715450.77547  20932584.919    20932584.5394   20932586.1734
        46.200          43.4004
 107117964.938 8  83468507.66348  20383871.667    20383871.1534   20383870.4664
        51.200          51.5004
 128237745.896 5                  24006382.572    24006378.892
        35.200
 131063999.314 7                  24940646.142
        43.200
 140646989.200 6                  26764234.783
        41.200


 111463948.633 7  86694206.444 7  20829701.286    20829702.849    20829709.097
        43.900          44.400
 107731423.810 7  83791136.477 7  20188818.793    20188818.290    20188826.171
        44.000          46.500
 198901497.468 7                  37849699.389
        42.000
 110770557.490 7  86314728.76044  21078943.189    21078942.8414   21078942.8334
        45.200          26.6004
 202040818.427 7                  38447100.360
        42.000


 128907907.130 6                  24530356.437
        37.200
 139374151.909 6                  26522022.871
        39.200
 124480832.105 8                  23687898.396
        50.300
 104642667.418 8  81388758.677 7  19568706.023    19568706.745    19568712.377
        51.400          43.400
 125024470.951 5                  23347458.810    23347458.331
        33.000
 25  1  1  6  9 15.0000000  0 25G18R01G23G15G26G11G20E27E03G05G29R16
                                E15E26S35R17R02S31G13S33E07E08E21E13
                                R24
 117763177.459 7  91763534.58045  22409588.551    22409588.2834   22409587.3904
        44.700          32.7004
 103630635.090 7  80601646.032 5  19386252.439    19386253.067    19386258.824
        43.400          32.800


 110454545.212 7  86068462.93546  21018785.075    21018784.7044   21018785.1924
        43.000          40.4004


 128204620.633 6  99899734.91041  24396527.448    24396527.2164   24396527.7294
        36.600           6.1004
 122195998.527 6  95217574.44041  23253104.191    23253104.7854   23253104.8214
        38.300          10.0004


 133936555.836 6                  25487250.427
        36.600
 110030659.498 7  85738168.19547  20938133.125    20938132.7774   20938133.8114
        47.900          44.2004
 107121581.105 8  83471325.43748  20384559.565    20384559.0604   20384559.1594
        52.200          51.9004
 128246849.562 5                  24008088.488    24008088.134
        33.600
 131083542.916 7                  24944365.586
        42.200
 140616820.417 6                  26758493.721
        40.900
 200874039.742 5                  38225080.043
        30.500
 111421364.428 6  86661085.328 7  20821743.167    20821742.592    20821751.407
        41.700          43.800
 107688708.774 8  83757913.703 7  20180816.171    20180816.308    20180820.106
        48.800          43.100
 198901488.246 6                  37849691.899
        41.000
 110754576.349 7  86302275.92744  21075901.660    21075901.3394   21075901.5224
        42.300          26.7004
 202040794.988 7                  38447097.717
        45.100


 128882268.132 6                  24525476.283
        40.900
 139403420.084 5                  26527591.065
        32.800
 124471241.537 8                  23686073.474
        51.300
 104648738.907 8  81393480.854 6  19569841.610    19569842.067    19569845.567
        52.600          37.600
 25  1  1  6  9 30.0000000  0 25G18R01G23G15G26G11G20E03G25G05G29R16
                                E15E26S35R17R02S31G13S33E07E08E21E13
                                R24
 117727773.624 7  91735947.22145  22402851.180    22402850.9034   22402850.1394
        44.200          30.7004
 103648886.519 6                  19389667.201    19389667.115
        40.100


 110414351.243 7  86037142.87946  21011135.948    21011135.5464   21011136.1874
        46.400          41.5004
 130335637.997 5 101560260.90142  24802038.933    24802039.0004   24802049.8234
        33.600          16.3004
 128244590.336 5  99930880.14341  24404131.626    24404131.3184   24404133.5394
        35.900           7.0004
 122237946.630 6  95250261.29841  23261085.783    23261086.3374   23261088.8674
        40.800          11.0004
 133951379.947 6                  25490071.032
        37.600


 110059883.805 7  85760940.38847  20943693.534    20943693.1724   20943694.6804
        47.200          42.4004
 107125347.171 8  83474260.03948  20385276.251    20385275.7464   20385276.7254
        50.900          52.0004
 128256122.487 5                  24009820.298    24009818.147
        31.500
 131103116.643 7                  24948089.991
        44.100
 140586651.250 6                  26752753.804
        39.800
 200874065.155 6                  38225064.415
        37.800
 111378827.868 7  86628001.370 7  20813796.551    20813794.882    20813803.174
        42.900          44.100
 107646143.305 8  83724807.136 6  20172838.961    20172839.192    20172844.221
        49.000          40.600
 198901480.348 7                  37849693.057
        43.000
 110738750.438 6  86289944.06044  21072891.109    21072890.7434   21072890.2244
        40.700          26.8004
 202040770.890 7                  38447086.225
        44.100
 142132123.204 4                  27046843.728
        28.500
 128856719.786 5                  24520613.087
        34.200
 139432753.529 6                  26533174.368
        37.900
 124461678.929 8                  23684253.547
        51.600
 104654933.216 8  81398298.619 5  19570999.246    19570999.323    19571000.878
        51.500          34.100
 25  1  1  6  9 45.0000000  0 26G18R01G23G15G26G11G20E03G25G05G29R16
                                E15E26S35R17R02S31G13S33E07E08E21E13
                                R24R08
 117692394.235 7  91708378.89745  22396118.161    22396117.8894   22396117.8394
        44.200          32.0004
 103667319.495 7                  19393113.602    19393115.523
        42.500
 122844058.376 5  95722721.29741  23376452.132    23376452.3954   23376465.6624
        33.900           9.8004
 110374271.026 7  86005911.52447  21003508.874    21003508.4634   21003508.6544
        45.800          43.2004


 128284588.576 6  99962047.53041  24411745.114    24411744.9134   24411745.0904
        37.100          10.7004
 122279906.277 6  95282957.13241  23269070.886    23269071.3284   23269073.3294
        39.800          11.2004
 133966304.811 6                  25492911.679
        37.700


 110089177.028 7  85783766.26147  20949268.058    20949267.6924   20949268.7464
        45.800          42.2004
 107129261.629 8  83477310.24948  20386021.366    20386020.8614   20386021.9704
        50.800          52.0004
 128265563.862 5                  24011590.806    24011590.466
        31.900
 131122719.067 7                  24951820.252
        43.900
 140556480.148 5                  26747010.824
        33.100
 200874076.356 5                  38225064.522
        32.200
 111336337.364 7  86594953.199 7  20805856.744    20805858.239    20805862.230
        46.400          47.100
 107603725.887 8  83691815.874 6  20164890.758    20164890.879    20164891.534
        51.200          40.100
 198901472.680 7                  37849694.886
        43.800
 110723078.298 7  86277732.00044  21069907.856    21069907.4594   21069908.0094
        42.300          26.5004
 202040748.088 7                  38447086.874
        44.700


 128831260.799 6                  24515769.977
        38.000
 139462150.610 5                  26538768.666
        35.600
 124452142.720 8                  23682439.182
        52.300
 104661248.852 8  81403210.723 5  19572180.630    19572180.753    19572184.709
        52.200          34.700
 125209728.366 5                  23382031.088
        30.200
 25  1  1  6 10  0.0000000  0 28G18R01G23G15G26G11G20E03G25G05G29R16
                                R03E15E26S35R17R02S31R15G13S33E07E08
                                E21E13R24R08
 117657037.840 7  91680828.46145  22389390.609    22389390.3684   22389390.2694
        46.000          32.2004
 103685931.817 6                  19396596.978    19396596.181
        37.900
 122802861.475 6  95690619.74342  23368613.236    23368613.4504   23368621.1704
        40.100          14.8004
 110334303.234 7  85974767.78547  20995903.210    20995902.8214   20995903.1804
        47.600          45.2004


 128324614.055 4  99993236.17641  24419358.623    24419358.5124   24419361.8244
        27.900           8.2004
 122321875.990 6  95315660.76241  23277056.160    23277056.4284   23277059.4954
        39.400           9.5004
 133981328.876 6                  25495768.481
        36.400


 110118536.949 7  85806644.10546  20954856.135    20954855.7734   20954855.8644
        45.700          40.6004
 107133322.391 8  83480474.46948  20386794.233    20386793.7374   20386794.1794
        49.700          51.6004
                  99769658.764 5                  24013381.127    24013394.305
                        33.400
 130171744.418 5                  24317172.783
        32.400
 131142348.477 7                  24955556.091
        42.900
 140526305.448 5                  26741272.446
        32.800
 200874085.721 6                  38225071.225
        38.000
 111293892.018 8  86561940.154 7  20797925.293    20797926.278    20797930.014
        48.500          45.000
 107561455.390 8  83658938.857 6  20156967.005    20156968.152    20156969.697
        48.800          36.300
 198901463.056 6                  37849687.096
        41.200
 129400937.573 4                  24215643.072
        25.300
 110707558.691 6  86265638.81244  21066954.582    21066954.2024   21066953.7514
        39.900          26.0004
 202040723.739 7                  38447083.542
        46.200


 128805889.579 6                  24510942.754
        36.700
 139491609.389 6                  26544375.345
        38.800
 124442631.299 8                  23680629.145
        51.600
 104667684.116 8  81408215.927 6  19573384.104    19573384.107    19573386.605
        52.000          37.500
 125271500.730 5                  23393561.650
        31.400
 25  1  1  6 10 15.0000000  0 27G18R01G23G15G26G11G20E27E03G25G05G29
                                R16E15E26S35R17R02S31R15G13S33E07E08
                                E21E13R24
 117621706.424 7  91653297.51944  22382667.177    22382666.8964   22382667.2704
        42.400          29.8004
 103704725.156 7                  19400114.352    19400115.343
        44.000
 122761714.333 6  95658557.05542  23360782.844    23360782.6664   23360788.3464
        37.700          13.8004
 110294450.086 7  85943713.42447  20988319.446    20988319.0804   20988320.1314
        46.500          45.1004


 128364668.120 5 100024447.05141  24426988.731    24426988.5214   24426983.9824
        30.800           7.8004
 122363857.473 6  95348373.59042  23285045.632    23285045.7884   23285048.2684
        37.200          13.6004
 147404397.676 5                  28050119.349
        32.400
 133996453.802 6                  25498649.132
        36.800


 110147965.470 7  85829575.42546  20960456.336    20960455.9654   20960455.5654
        45.100          39.5004
 107137531.436 8  83483754.23148  20387594.597    20387594.1104   20387595.4274
        49.000          50.8004
 128284945.944 5  99777261.437 5  24015216.360    24015214.085    24015228.256
        32.800          34.600
 131162006.914 7                  24959296.930
        43.000


 200874095.589 5                  38225062.040
        34.500
 111251493.637 8  86528963.675 7  20790002.229    20790003.064    20790008.324
        49.100          47.000
 107519334.075 8  83626177.871 6  20149076.190    20149076.597    20149077.390
        51.200          39.000
 198901453.816 7                  37849685.652
        43.600
                 100678460.568 5                                  24223630.683
                        34.700
 110692193.529 6  86253665.96643  21064031.208    21064030.8874   21064030.1384
        37.100          23.9004
 202040698.663 7                  38447076.710
        45.600
 141991458.802 5                  27020067.260
        32.600
 128780608.224 6                  24506131.875
        37.900
 139521131.452 5                  26549991.901
        35.400
 124433146.681 8                  23678824.012
        49.600
 104674241.198 8  81413315.928 7  19574610.340    19574610.802    19574615.769
        53.300          43.200
 25  1  1  6 10 30.0000000  0 27G18R01G23G15G26G11G20E27E03G25G05G29
                                R16E15E26S35R17R02S31R15G13S33E07E08
                                E21E13R24
 117586400.136 7  91625786.13845  22375948.575    22375948.2804   22375949.1174
        43.500          30.3004
 103723699.108 7                  19403664.064    19403664.595
        45.100
 122720617.093 5  95626533.25042  23352960.964    23352960.3834   23352966.0914
        33.500          14.9004
 110254711.725 7  85912748.45847  20980757.773    20980757.4434   20980758.7114
        45.900          46.4004




 122405850.512 4  95381095.38141  23293035.749    23293035.6734   23293038.9864
        29.100          10.9004
 147446364.441 5                  28058109.285
        33.200
 134011679.473 5                  25501544.014
        35.600


 110177462.331 7  85852560.00846  20966067.904    20966067.5964   20966068.4174
        44.100          37.8004
 107141889.048 8  83487149.77348  20388423.847    20388423.3604   20388425.1454
        50.100          50.7004


 131181694.337 7                  24963043.644
        44.200


 200874105.162 6                  38225068.144
        38.200
 111209142.859 8  86496024.172 7  20782088.579    20782089.540    20782093.329
        50.100          46.300
 107477362.235 8  83593533.212 6  20141209.933    20141210.820    20141212.955
        51.100          39.300
 198901444.955 7                  37849686.430
        43.500
                 100711769.847 4                                  24231639.667
                        28.500
 110676983.080 5  86241813.62443  21061135.510    21061135.1484   21061135.9384
        33.700          22.0004
 202040674.290 7                  38447081.548
        45.100
 141944579.753 5                  27011141.927
        35.200
 128755416.933 6                  24501337.707
        38.200
 139550716.571 6                  26555621.664
        36.700
 124423688.835 8                  23677024.571
        49.600
 104680920.228 8  81418510.764 7  19575858.975    19575859.843    19575864.523
        53.500          45.800
 25  1  1  6 10 45.0000000  0 26G18R01G23G15G26G11G20E27E03G25G05G29
                                R16E15E26S35R17R02S31G13S33E07E08E21
                                E13R24
 117551118.627 7  91598294.09145  22369234.943    22369234.6394   22369236.1434
        45.300          32.5004
 103742853.179 7  80688914.932 5  19407246.174    19407246.960    19407252.963
        43.900          31.800
 122679569.332 5  95594548.00342  23345151.819    23345151.4894   23345153.8054
        33.300          13.4004
 110215088.148 7  85881872.85847  20973218.931    20973218.5924   20973218.7824
        46.600          46.8004
 130372868.509 4 101589288.50141  24809118.342    24809118.4984   24809137.3714
        27.000          10.5004


 122447854.194 5  95413825.54741  23301029.188    23301029.1124   23301032.1274
        30.100           9.3004
 147488308.718 5                  28066089.386
        33.600
 134027005.440 5                  25504462.898
        35.000


 110207027.079 7  85875597.48646  20971694.106    20971693.8474   20971694.0584
        44.000          36.6004
 107146394.726 8  83490660.69348  20389281.522    20389281.0174   20389282.5474
        50.100          51.2004
                  99792856.956 5                                  24018978.525
                        31.000
 131201410.377 7                  24966794.507
        43.000
 140435765.069 5                  26724037.941
        34.800
 200874114.928 6                  38225072.486
        39.700
 111166839.361 8  86463121.432 7  20774182.727    20774182.929    20774187.885
        49.900          44.900
 107435539.678 8  83561004.628 6  20133370.627    20133371.767    20133376.911
        49.300          39.200
 198901434.814 7                  37849690.392
        42.600
 110661926.850 7  86230087.54944  21058270.676    21058270.3994   21058269.4364
        42.000          24.6004
 202040649.695 7                  38447067.525
        42.400
 141897708.842 4                  27002226.938
        29.300
 128730315.405 6                  24496561.585
        40.900
 139580364.109 6                  26561262.670
        36.000
 124414257.502 8                  23675230.242
        50.800
 104687721.025 8  81423800.268 7  19577131.520    19577131.693    19577136.597
        53.200          46.600
 25  1  1  6 11  0.0000000  0 27G18R01G23G15G26G20E27E03G25G05G29R16
                                E15E26S35R23R17R02S31R15G13S33E07E08
                                E21E13R24
 117515860.365 7  91570820.13445  22362524.153    22362523.8944   22362526.5504
        44.200          31.7004
 103762185.010 6  80703950.919 5  19410861.848    19410862.723    19410869.584
        40.500          33.900
 122638569.463 5  95562600.16742  23337353.068    23337352.7914   23337351.0694
        34.500          13.3004
 110175578.166 7  85851085.82747  20965700.153    20965699.8184   20965700.6384
        47.400          46.4004
 130380663.041 4 101595362.2934   24810600.533    24810600.9484   24810617.0944
        27.400           4.1004
 122489867.135 5  95446563.0374   23309049.334    23309049.1964   23309026.8344
        32.400           5.3004
 147530228.841 4                  28074073.899
        29.700
 134042429.795 5                  25507398.122
        32.200
 131093284.233 5                  24946227.500
        34.200
 110236657.012 6  85898685.76945  20977332.863    20977332.6444   20977332.7614
        40.900          35.1004
 107151046.843 8  83494285.71748  20390166.512    20390166.0034   20390166.8384
        49.700          49.6004
                  99800818.175 5                                  24020904.225
                        34.600
 131221153.430 7                  24970552.575
        42.900
 140405581.127 5                  26718295.850
        35.900
 200874122.510 6                  38225078.290
        39.100
 124383473.384 5                  23252180.285
        31.500
 111124581.867 8  86430254.520 7  20766285.753    20766286.325    20766291.053
        49.900          44.300
 107393865.265 7  83528591.190 6  20125559.948    20125559.198    20125565.067
        45.800          39.800
 198901424.661 7                  37849686.511
        42.400
 129572481.135 5                  24247722.335
        34.700
 110647023.684 7  86218474.68844  21055434.914    21055434.4324   21055434.4364
        47.000          28.3004
 202040623.263 7                  38447064.256
        44.600


 128705302.090 7                  24491802.130
        43.900
 139610072.181 5                  26566916.026
        33.900
 124404851.013 8                  23673439.546
        50.800
 104694641.982 8  81429183.222 7  19578425.706    19578426.286    19578429.822
        52.700          46.600
 25  1  1  6 11 15.0000000  0 24G18R01G23G15G26G11E27E03G25G05G29R16
                                E15E26S35R17R02S31G13S33E08E21E13R24
 117480628.229 7  91543366.55045  22355821.189    22355820.9614   22355822.4834
        45.600          32.9004
 103781697.274 6  80719127.252 5  19414511.843    19414512.086    19414519.971
        37.800          33.300


 110136184.756 7  85820389.63047  20958203.725    20958203.3774   20958203.9504
        47.700          45.1004
 130388516.887 5                  24812110.415
        33.000




 134057955.303 5                  25510351.190
        31.500


 110266355.315 7  85921827.27546  20982984.914    20982984.7134   20982984.0024
        44.900          36.4004
 107155848.166 8  83498026.99048  20391080.847    20391080.3474   20391080.2074
        51.200          51.5004
 128325729.341 5  99808939.653 5  24022848.651    24022849.287    24022858.297
        34.600          34.500
 131240926.267 7                  24974315.087
        42.100
 140375396.249 5                  26712550.398
        35.000


 111082373.643 8  86397425.901 7  20758398.586    20758399.170    20758403.473
        50.900          43.400
 107352341.849 8  83496295.272 7  20117781.013    20117780.627    20117785.955
        48.200          43.700
 198901414.036 7                  37849679.682
        43.400
 110632276.462 7  86206983.33145  21052628.248    21052627.8684   21052629.1374
        44.000          31.5004
 202040597.038 7                  38447064.135
        42.300
 128680379.915 7                  24487058.632
        42.800
 139639843.231 5                  26572581.811
        31.100
 124395472.140 8                  23671655.291
        50.300
 104701685.924 8  81434661.886 7  19579742.389    19579742.079    19579747.484
        50.900          47.400
 25  1  1  6 11 30.0000000  0 29G18R01G23G15G26G11G20E27E03G25G05G29
                                R16E15E26S35R23R17R02S31R15G13S33E07
                                E08E21E13R24R08
 117445421.649 7  91515932.85945  22349122.114    22349121.8784   22349122.1554
        43.900          31.5004
 103801389.160 6  80734443.004 5  19418197.967    19418197.136    19418201.132
        38.200          34.800


 110096907.586 7  85789783.89747  20950728.825    20950728.4594   20950728.4664
        45.900          43.3004
 130396545.472 6 101607732.73842  24813638.080    24813638.6654   24813645.7694
        36.200          13.8004
 128565416.361 5                  24465177.683
        33.100
 122573881.699 5                  23325034.979
        31.300


 134073581.086 5                  25513323.636
        34.300


 110296120.806 7  85945021.15845  20988647.505    20988647.2864   20988648.0184
        42.000          35.4004
 107160798.160 8  83501884.12048  20392022.176    20392021.6584   20392021.9754
        49.500          50.4004
 128336337.606 6  99817190.487 5  24024831.301    24024831.495    24024842.683
        37.000          35.200
 131260728.361 6                  24978084.521
        41.100
 140345209.779 6                  26706808.467
        40.100


 124478709.122 5                  23269979.471    23269977.061
        32.500
 111040214.437 8  86364635.377 7  20750518.922    20750519.795    20750524.107
        50.600          42.100
 107310969.514 7  83464116.797 6  20110027.930    20110027.853    20110033.432
        47.400          40.500
 198901403.506 6                  37849677.858
        41.100
 129658532.773 5 100845513.311 5  24263825.594                    24263823.062
        31.100          34.500
 110617684.830 7  86195613.24345  21049852.248    21049851.9184   21049853.1854
        44.700          30.5004
 202040571.557 7                  38447056.650
        44.600
 141757090.280 5                  26975480.876
        31.200
 128655548.523 7                  24482334.145
        43.800
 139669676.411 6                  26578258.601
        36.900
 124386120.495 8                  23669875.351
        49.500
 104708852.619 8  81440235.925 7  19581082.000    19581082.005    19581086.819
        49.600          45.900


 25  1  1  6 11 45.0000000  0 25G18R01G23G15G26G11E27E03G05G29R16E15
                                E26S35R17R02S31R15G13S33E08E21E13R24
                                R08
 117410239.962 6  91488518.58144  22342426.483    22342426.2154   22342426.1284
        41.300          27.4004
 103821259.030 6  80749897.407 5  19421913.002    19421917.093    19421918.164
        37.300          34.400


 110057746.303 7  85759268.53346  20943276.317    20943275.9604   20943275.9164
        43.800          40.8004
 130404689.703 6 101614078.97342  24815194.924    24815195.2104   24815195.4234
        36.400          14.1004
 128605640.784 6 100212126.88541  24472832.047    24472831.8244   24472829.0964
        36.200           7.4004


 134089306.240 5                  25516319.145
        32.500
 110325951.923 7  85968266.12846  20994325.194    20994325.0254   20994324.6634
        43.000          36.3004
 107165895.824 8  83505856.35648  20392992.764    20392992.2374   20392991.8034
        48.300          48.9004
 128347111.268 4  99825570.249 5  24026901.222    24026886.894    24026858.902
        29.500          34.700
 131280558.799 7                  24981856.656
        42.000
 140315020.686 6                  26701064.105
        39.500
 200874134.791 6                  38225075.030
        36.800
 110998103.297 8  86331882.400 7  20742650.387    20742650.799    20742653.511
        49.200          42.000
 107269746.944 8  83432054.773 7  20102301.198    20102300.881    20102307.644
        48.500          43.700
 198901392.851 7                  37849668.181
        42.300
 129701686.541 6                  24271902.898    24271907.240
        37.900
 110603247.733 8  86184363.58045  21047105.944    21047105.6364   21047105.0784
        49.100          32.3004
 202040545.244 6                  38447045.712
        41.100
 128630807.020 7                  24477626.853
        46.600
 139699570.590 6                  26583948.381
        38.100
 124376794.991 8                  23668100.085
        49.100
 104716141.183 8  81445904.787 7  19582445.347    19582445.801    19582450.486
        50.700          46.100


 25  1  1  6 12  0.0000000  0 27G18R01G23G15G26G11E27E03G25G05G29R16
                                E15E26S35R17R02S31R15G13S33E07E08E21
                                E13R24R08
 117375083.679 6  91461124.10144  22335736.527    22335736.2374   22335735.3644
        40.100          25.9004
 103841307.277 5  80765490.528 6  19425659.689    19425661.209    19425669.216
        32.500          37.000
 122475094.034 5  95435146.46341  23306239.407    23306238.5094   23306237.8194
        34.300          10.7004
 110018701.793 7  85728844.19046  20935845.399    20935844.9934   20935846.1234
        45.600          40.6004
 130412950.058 5 101620515.70942  24816753.994    24816753.9774   24816767.8244
        30.200          13.6004
 128645893.553 6 100243492.6224   24480490.621    24480490.4964   24480491.0204
        36.400           5.4004


 134105131.076 5                  25519328.989
        34.500


 110355849.090 6  85991562.58645  21000013.337    21000013.2264   21000014.7444
        41.900          33.9004
 107171141.786 8  83509944.11148  20393991.324    20393990.7884   20393990.4914
        49.700          49.8004
                  99834079.107 4                  24028913.988    24028906.596
                        29.500
 131300418.118 7                  24985637.026
        42.300
 140284829.661 6                  26695319.098
        40.600
 200874142.298 5                  38225092.581
        34.500
 110956041.277 8  86299167.533 7  20734789.453    20734789.700    20734792.434
        49.100          42.200
 107228675.572 8  83400110.365 7  20094605.586    20094605.630    20094610.515
        50.400          43.400
 198901381.966 6                  37849675.461
        41.400
 129744904.084 6 100912686.053 4  24279981.044    24279982.776    24279985.357
        37.700          29.900
 110588966.059 8  86173235.03045  21044387.904    21044387.5874   21044386.0594
        48.500          30.6004
 202040518.672 7                  38447042.622
        43.600


 128606156.083 7                  24472936.140
        47.200
 139729526.028 6                  26589649.659
        38.600
 124367496.306 8                  23666330.694
        48.700
 104723552.180 8  81451668.884 7  19583831.535    19583831.964    19583836.232
        50.600          45.700
                  97818811.671 4                                  23486102.662
                        29.100
 25  1  1  6 12 15.0000000  0 25G18R01G23G15G26G11E27E03G05G29E15E26
                                S35R23R17R02S31R15G13S33E07E08E21E13
                                R24
 117339955.377 7  91433751.39844  22329051.622    22329051.3684   22329050.0924
        43.000          26.3004
 103861536.211 5  80781224.101 6  19429444.385    19429442.530    19429452.289
        33.400          36.600


 109979776.505 7  85698512.81047  20928438.569    20928438.1634   20928439.2024
        45.700          42.8004


 128686177.026 6 100274882.1574   24488156.969    24488156.8984   24488158.1714
        36.100           5.9004


 134121057.902 5                  25522363.473
        34.800
 110385815.542 6  86014913.10445  21005716.607    21005716.5004   21005717.8744
        40.000          34.9004
 107176538.551 8  83514149.39048  20395018.196    20395017.6514   20395017.8824
        48.800          50.2004
 131320308.778 6                  24989420.648
        41.800
 140254639.056 6                  26689574.302
        39.000


 124622081.976 5                  23296801.245
        30.300
 110914031.123 8  86266493.008 7  20726939.803    20726939.999    20726943.963
        49.000          44.800
 107187757.923 8  83368285.483 7  20086937.032    20086937.544    20086943.167
        49.000          42.400
 198901372.938 7                  37849670.261
        42.400
 129788187.881 4 100946351.255 5  24288080.905    24288077.075    24288084.615
        29.300          30.700
 110574842.457 7  86162229.63444  21041699.950    21041699.6334   21041698.1714
        46.200          29.7004
 202040493.918 7                  38447041.124
        44.900


 128581598.338 7                  24468262.527
        46.300
 139759544.911 6                  26595359.807
        37.700
 124358226.920 8                  23664566.986
        49.000
 104731088.390 8  81457530.389 7  19585240.570    19585241.218    19585246.229
        50.500          46.000
 25  1  1  6 12 30.0000000  0 28G18R01G23G15G26G11G20E27E03G25G05G29
                                R16E15E26S35R23R17R02S31R15G13S33E07
                                E08E21E13R24
 117304853.054 7  91406398.98344  22322370.744    22322370.4764   22322369.6264
        42.100          26.0004
 103881943.089 5  80797096.035 6  19433265.787    19433262.959    19433269.632
        34.200          36.800
 122393651.339 4  95371685.75743  23290738.997    23290739.3544   23290740.6564
        29.500          19.9004
 109940968.742 7  85668273.03847  20921054.584    20921054.1874   20921054.5684
        45.000          43.4004
 130429822.324 6                  24819968.239
        36.700
 128726489.117 5 100306294.0604   24495827.329    24495827.3214   24495830.9034
        35.200           3.2004
 122742018.745 5                  23357047.012
        30.600


 134137084.622 6                  25525413.477
        36.300


 110415848.519 6  86038315.43745  21011431.867    21011431.7424   21011432.8274
        41.700          35.0004
 107182083.912 8  83518470.44948  20396074.018    20396073.4734   20396073.1994
        49.100          50.4004
 128380502.819 5                  24033101.443
        34.200
 131340228.751 6                  24993211.393
        40.000
 140224446.825 7                  26683828.619
        42.000
 200874189.932 6                  38225084.783
        40.500
 124669992.586 6                  23305735.776    23305738.379
        36.400
 110872071.068 8  86233857.366 7  20719098.729    20719099.112    20719102.391
        48.600          43.600
 107146992.231 7  83336578.843 6  20079298.807    20079298.287    20079301.253
        47.000          39.000
 198901364.118 6                  37849674.357
        41.200
 129831454.935 6                  24296189.813    24296189.309
        38.300
 110560874.829 7  86151345.76644  21039041.790    21039041.4824   21039040.7394
        44.500          27.7004
 202040470.172 7                  38447045.413
        43.100


 128557131.819 7                  24463606.653
        45.300
 139789624.777 5                  26601082.903
        35.000
 124348984.737 8                  23662808.140
        48.400
 104738747.682 8  81463487.649 7  19586673.985    19586674.243    19586678.494
        50.600          45.700
 25  1  1  6 12 45.0000000  0 24G18R01G23G15G26G11E27E03G05G29E15E26
                                S35R23R17R02S31G13S33E07E08E21E13R24
 117269775.162 7  91379065.59144  22315697.827    22315697.5774   22315694.4914
        47.600          29.2004
 103902525.927 6  80813104.862 6  19437118.409    19437120.918    19437121.189
        40.000          36.600
 122353003.427 5  95340012.03342  23283003.633    23283004.0714   23283005.2854
        31.800          17.2004
 109902277.148 7  85638123.83647  20913692.793    20913692.3964   20913691.6844
        47.900          44.0004
 130438431.082 5 101640383.78041  24821606.819    24821607.4094   24821619.6074
        35.500           9.9004
 128766828.249 4 100337727.4024   24503503.758    24503503.9414   24503507.5924
        29.400           2.0004
 147823036.839 5                  28129788.267
        33.000
 134153209.270 6                  25528487.823
        37.000
 110445946.276 6  86061768.29545  21017159.105    21017159.0034   21017159.7104
        37.800          33.8004
 107187776.270 8  83522906.03048  20397157.149    20397156.5954   20397156.3694
        50.400          50.6004
 131360176.441 6                  24997007.373
        40.800
 140194251.256 7                  26678082.663
        42.700
 200874198.161 6                  38225089.903
        36.300
 124717963.633 6                  23314705.134    23314704.318
        36.800
 110830159.727 7  86201259.635 7  20711268.175    20711268.948    20711269.897
        47.600          44.000
 107106377.151 8  83304989.307 6  20071687.202    20071687.227    20071691.330
        48.300          40.300
 198901354.081 6                  37849665.664
        41.200
 110547061.813 6  86140582.41043  21036414.274    21036413.9394   21036412.7894
        38.800          23.7004
 202040444.170 7                  38447026.833
        44.700


 128532755.034 7                  24458967.598
        43.000
 139819763.960 5                  26606818.566
        35.000
 124339768.193 8                  23661054.991
        51.200
 104746528.481 8  81469539.374 7  19588128.383    19588128.393    19588133.940
        48.600          46.100
 25  1  1  6 13  0.0000000  0 25G18R01G23G15G26G11E27E03G05G29R16E15
                                E26S35R23R17R02S31G13S33E07E08E21E13
                                R24
 117234722.771 7  91351752.07345  22309026.833    22309026.5794   22309025.7594
        46.000          32.1004
 103923285.349 6  80829251.098 5  19440999.141    19440998.973    19441004.346
        38.000          35.700
 122312405.336 5  95308377.14142  23275275.057    23275275.4324   23275279.2074
        33.900          13.6004
 109863702.974 8  85608066.10847  20906352.316    20906351.9104   20906350.9834
        48.100          45.7004
 130447154.699 5 101647181.53642  24823265.854    24823266.3504   24823275.7794
        35.200          13.5004
 128807195.069 4                  24511184.403
        28.500
 147864769.784 5                  28137724.953
        32.400
 134169432.696 5                  25531572.040
        35.400
 110476108.643 5  86085271.45945  21022901.687    21022901.6034   21022899.5384
        35.300          35.9004
 107193616.562 8  83527456.89548  20398268.010    20398267.4694   20398267.5364
        49.700          49.8004
 128403537.007 6                  24037417.053    24037419.301
        37.800
 131380152.649 5                  25000806.753
        33.300
 140164053.364 7                  26672336.836
        42.100
 200874205.773 6                  38225091.074
        36.500
 124765995.500 5                  23323682.500    23323680.144
        34.100
 110788298.476 5  86168700.833 7  20703438.054    20703434.517    20703447.531
        34.800          43.500
 107065914.024 7  83273517.990 7  20064104.008    20064104.142    20064110.870
        46.500          42.700
 198901343.267 7                  37849664.609
        42.000
 110533404.415 6  86129940.33543  21033817.052    21033816.7084   21033813.2204
        41.200          21.7004
 202040417.493 7                  38447027.772
        43.900


 128508469.018 7                  24454346.735
        42.800
 139849962.986 6                  26612565.130
        36.200
 124330578.296 8                  23659306.528
        50.700
 104754432.013 7  81475686.656 7  19589604.516    19589605.879    19589611.923
        46.200          46.600
 25  1  1  6 13 15.0000000  0 27G18R01G23G15G26G11E27E03G25G05G29R16
                                E15E26S35R23R17R02S31R15G13S33E07E08
                                E21E13R24
 117199697.249 7  91324459.47745  22302361.627    22302361.3914   22302362.2374
        45.700          31.7004
 103944222.334 6  80845535.416 5  19444917.298    19444916.285    19444921.559
        36.800          35.800
 122271858.196 5  95276781.93742  23267558.573    23267558.7924   23267561.6474
        32.600          12.0004
 109825247.709 7  85578101.01447  20899034.524    20899034.1184   20899033.1514
        47.700          46.2004
 130455994.253 5 101654069.48743  24824949.125    24824949.4824   24824956.9804
        34.900          18.5004




 134185755.850 5                  25534680.588
        30.800


 110506337.303 6  86108826.28846  21028652.381    21028652.3374   21028652.2454
        40.500          37.4004
 107199605.948 8  83532123.92448  20399407.476    20399406.9404   20399406.6994
        49.700          48.5004
 128415305.281 5                  24039622.701    24039626.069
        33.900
 131400158.913 5                  25004615.751
        35.700
 140133854.291 6                  26666590.643
        40.600
 200874213.653 5                  38225108.375
        35.600
 124814089.743 4                  23332670.484    23332667.823
        28.800
 110746488.614 6  86136182.094 7  20695631.858    20695628.352    20695634.310
        41.300          43.400
 107025604.214 7  83242165.945 7  20056550.761    20056549.439    20056556.148
        45.300          43.600
 198901333.032 7                  37849659.435
        42.600
 129962012.810 5                  24320612.279
        32.700
 110519904.067 6  86119420.58543  21031244.107    21031243.7594   21031244.2734
        39.900          20.1004
 202040391.347 7                  38447024.168
        46.100


 128484275.193 6                  24449741.737
        40.500
 139880222.800 5                  26618322.548
        35.500
 124321416.283 8                  23657563.262
        50.300
 104762459.630 7  81481930.404 7  19591106.174    19591106.355    19591112.895
        45.500          46.700
 25  1  1  6 13 30.0000000  0 26G18R01G23G15G26G11E27E03G25G05G29R16
                                E15E26S35R17R02S31R15G13S33E07E08E21
                                E13R24
 117164702.411 7  91297190.78845  22295702.056    22295701.8374   22295703.3114
        46.300          30.7004
 103965340.228 6  80861960.434 5  19448867.693    19448868.747    19448871.929
        39.600          35.900
 122231365.973 5  95245229.54942  23259855.646    23259855.9274   23259854.8284
        35.200          16.1004
 109786915.474 7  85548231.79347  20891739.747    20891739.3634   20891738.8794
        46.500          45.7004
 130464953.342 5 101661050.70443  24826654.797    24826655.0424   24826662.3814
        34.500          18.3004




 134202182.535 5                  25537797.581
        31.500


 110536635.599 7  86132435.37346  21034417.476    21034417.4454   21034417.9514
        43.300          39.2004
 107205748.189 8  83536910.07748  20400576.852    20400576.3254   20400575.2024
        49.700          48.4004
 128427242.705 6                  24041851.452    24041853.366
        36.900
 131420198.816 5                  25008430.038
        34.300
 140103657.851 6                  26660844.303
        40.000


 110704734.504 7  86103706.653 7  20687827.722    20687826.824    20687832.554
        43.900          43.100
 106985451.708 7  83210936.326 7  20049026.341    20049025.657    20049030.497
        45.800          42.500
 198901326.907 6                  37849658.178
        41.700
 130005610.106 5                  24328762.448    24328759.879
        35.500
 110506564.615 6  86109026.19843  21028705.020    21028704.6634   21028706.1364
        41.400          18.4004
 202040370.269 7                  38447018.297
        44.900


 128460177.411 6                  24445155.934
        37.500
 139910546.935 5                  26624095.861
        34.800
 124312286.004 8                  23655825.384
        50.400
 104770615.185 7  81488273.610 7  19592632.344    19592631.701    19592638.863
        45.900          47.200
 25  1  1  6 13 45.0000000  0 25G18R01G23G15G26G11E27E03G25G05G29R16
                                E15E26S35R17R02S31G13S33E07E08E21E13
                                R24
 117129732.727 7  91269941.69244  22289047.586    22289047.3584   22289048.1374
        44.500          27.6004
 103986632.994 6  80878521.466 5  19452849.936    19452851.429    19452854.968
        40.100          34.400
 122190922.964 6  95213715.55943  23252159.337    23252159.6324   23252158.1644
        41.800          22.2004
 109748700.789 7  85518454.10247  20884466.626    20884466.2294   20884466.5994
        46.000          44.2004
 130474026.018 6 101668120.39842  24828380.876    24828381.0284   24828386.6114
        36.200          12.3004
 128928420.022 5                  24534263.146
        30.100


 134218706.962 4                  25540942.335
        28.900


 110566997.498 7  86156094.02146  21040194.798    21040194.7584   21040195.4754
        45.400          40.6004
 107212037.718 8  83541811.00148  20401773.744    20401773.2264   20401772.1394
        50.600          48.5004
 128439342.959 6                  24044116.909    24044117.268
        37.200
 131440266.796 6                  25012248.908
        39.500
 140073458.453 6                  26655095.890
        36.800


 110663030.892 8  86071270.521 6  20680034.844    20680034.101    20680038.914
        48.800          41.900
 106945451.295 7  83179824.886 6  20041527.516    20041527.618    20041534.113
        44.900          41.900
 198901320.086 6                  37849653.792
        41.700
 110493380.530 6  86098752.88642  21026196.724    21026196.3984   21026197.2244
        38.900          16.7004
 202040347.030 7                  38447014.138
        42.700


 128436170.183 5                  24440585.114
        34.200
 139940929.457 6                  26629879.338
        36.100
 124303181.825 8                  23654092.474
        48.200
 104778893.032 7  81494711.887 7  19594181.696    19594180.716    19594185.544
        47.400          46.100
 25  1  1  6 14  0.0000000  0 27G18R01G23G15G26G11G20E27E03G25G05G29
                                R16E15E26S35R17R02S31R15G13S33E07E08
                                E21E13R24
 117094789.117 6  91242712.94144  22282398.464    22282398.2234   22282396.5984
        40.800          24.2004
 104008101.232 6  80895219.034 5  19456866.128    19456866.580    19456871.966
        41.600          35.100
 122150530.068 6  95182240.56244  23244473.465    23244473.7734   23244472.4464
        41.900          24.1004
 109710604.838 7  85488768.94647  20877217.660    20877217.2854   20877217.5314
        47.200          46.6004
 130483212.982 5 101675279.17641  24830130.035    24830130.2314   24830134.0684
        34.800           9.5004
 128968903.450 5                  24541965.344
        30.500
 122994758.935 5                  23405120.657
        31.700






 110597423.509 7  86179802.63046  21045985.906    21045985.8754   21045984.9524
        47.500          41.0004
 107218475.353 8  83546827.32848  20402998.944    20402998.4264   20402997.5564
        50.600          49.3004


 131460363.690 6                  25016072.280
        40.800
 140043256.856 6                  26649349.335
        37.500
 200874239.640 5                  38225095.591
        34.300
 110621378.403 8  86038874.129 6  20672251.412    20672251.215    20672253.689
        50.300          40.200
 106905604.130 8  83148832.640 7  20034063.347    20034062.799    20034066.825
        48.800          43.900
 198901311.879 6                  37849652.696
        41.100
 130092982.616 6                  24345119.351    24345121.193
        37.300
 110480352.898 7  86088601.43743  21023719.142    21023718.8214   21023718.0594
        42.700          21.3004
 202040322.980 7                  38447009.443
        44.000


 128412254.395 5                  24436034.056
        32.900
 139971370.991 6                  26635669.968
        38.900
 124294104.631 7                  23652365.531
        44.900
 104787294.480 8  81501246.295 7  19595753.345    19595752.867    19595756.063
        48.700          45.200
 25  1  1  6 14 15.0000000  0 26G18R01G23G15G26G11G20E27E03G05G29R16
                                E15E26S35R17R02S31R15G13S33E07E08E21
                                E13R24
 117059868.379 6  91215502.01842  22275754.208    22275753.9544   22275746.7864
        40.900          17.6004
 104029741.126 7  80912050.007 5  19460913.893    19460914.087    19460918.529
        42.100          33.400
 122110184.032 7  95150802.06544  23236796.158    23236796.4214   23236796.6824
        43.000          26.0004
 109672624.660 7  85459173.98447  20869990.471    20869990.1094   20869990.8794
        47.400          46.7004
 130492510.761 6 101682524.33441  24831899.785    24831899.9994   24831902.3004
        36.600           7.6004
 129009411.332 4                  24549675.163
        28.700
 123036904.058 4                  23413139.965
        28.300




 110627910.303 7  86203558.56646  21051786.526    21051786.4774   21051785.8094
        46.000          38.5004
 107225057.809 8  83551956.51648  20404251.591    20404251.0734   20404250.9294
        50.800          50.4004


 131480486.246 6                  25019901.647
        41.600
 140013049.744 6                  26643600.110
        38.500
 200874246.289 6                  38225096.592
        37.000
 110579774.417 8  86006515.452 6  20664476.016    20664475.658    20664479.948
        50.700          39.200
 106865906.958 8  83117957.115 7  20026624.058    20026624.246    20026626.635
        48.700          42.400
 198901300.698 6                  37849654.029
        40.800
 130136754.262 5                  24353304.990    24353305.170
        34.200
 110467478.594 7  86078569.46943  21021269.247    21021268.9264   21021268.7184
        42.000          23.6004
 202040295.887 7                  38447003.554
        44.300


 128388427.028 5                  24431502.244
        33.400
 140001867.989 6                  26641474.036
        39.300
 124285051.189 7                  23650642.539
        44.400
 104795816.121 8  81507874.175 7  19597345.883    19597345.753    19597349.995
        49.700          45.000
 25  1  1  6 14 30.0000000  0 26G18R01G23G15G26G11G20E27E03G25G05G29
                                R16E15E26S35R17R02S31G13S33E07E08E21
                                E13R24
 117024973.233 6  91188311.03942  22269113.729    22269113.4614   22269104.9954
        40.400          17.1004
 104051554.824 7  80929016.215 5  19464995.758    19464995.140    19465000.996
        43.400          35.000
 122069887.509 6  95119402.17243  23229127.474    23229127.6754   23229129.2724
        41.900          23.8004
 109634763.179 7  85429671.55547  20862785.497    20862785.1404   20862786.2724
        47.000          46.3004
 130501921.660 6 101689857.54242  24833689.924    24833690.1474   24833692.2634
        36.400          17.7004
 129049946.250 5                  24557389.348
        30.300
 123079057.160 5                  23421163.626
        32.400


 134268714.817 5                  25550487.186
        33.100


 110658459.981 7  86227363.42145  21057599.682    21057599.6334   21057595.2784
        47.800          34.9004
 107231787.564 8  83557200.47648  20405532.008    20405531.4944   20405532.0224
        51.000          50.9004
 128476650.896 5  99926264.095 5  24051086.944    24051084.995    24051094.806
        34.200          30.500
 131500637.122 6                  25023736.244
        40.800
 139982839.642 6                  26637851.451
        40.300
 200874251.561 5                  38225101.681
        34.300
 110538221.921 8  85974196.895 6  20656711.318    20656711.244    20656713.763
        50.700          36.200
 106826362.790 8  83087200.522 6  20019214.285    20019214.691    20019214.706
        48.700          41.100
 198901287.554 6                  37849653.193
        41.900
 110454760.281 7  86068659.10344  21018848.453    21018848.1454   21018849.4104
        42.800          24.3004
 202040266.437 7                  38446998.268
        43.600


 128364690.698 6                  24426985.749
        39.400
 140032422.703 6                  26647287.102
        39.300
 124276024.082 7                  23648923.927
        46.200
 104804460.468 8  81514597.545 7  19598961.705    19598962.799    19598966.920
        49.700          45.900
 25  1  1  6 14 45.0000000  0 25G18R01G23G15G26G11G20E27E03G25G05G29
                                E15E26S35R17R02S31G13S33E07E08E21E13
                                R24
 116990108.698 6  91161143.82743  22262476.626    22262476.3404   22262471.0084
        40.900          19.1004
 104073547.116 7  80946121.273 5  19469108.058    19469107.168    19469117.629
        44.100          35.400
 122029645.405 7  95088044.67243  23221470.610    23221470.7704   23221470.5674
        42.100          22.7004
 109597025.304 7  85400265.40747  20855604.650    20855604.2934   20855604.6504
        45.100          45.5004
 130511450.315 5 101697282.48742  24835502.390    24835502.6624   24835506.0834
        35.400          17.2004
 129090512.956 5                  24565112.309
        30.200
 123121223.131 5                  23429187.095
        33.800


 134285632.279 5                  25553707.009
        35.400


 110689077.391 7  86251221.07145  21063425.238    21063425.1894   21063419.2894
        46.400          34.1004
 107238669.578 8  83562563.08848  20406841.660    20406841.1464   20406841.9624
        50.300          50.5004
 131520821.151 6                  25027577.860
        41.100
 139952631.476 6                  26632103.542
        39.200
 200874260.374 6                  38225107.177
        38.700
 110496725.762 8  85941922.163 6  20648955.194    20648954.535    20648958.168
        48.700          37.200
 106786976.765 7  83056566.954 6  20011829.392    20011831.210    20011834.624
        42.200          41.300
 198901278.183 6                  37849645.966
        40.700
 110442202.938 6  86058874.16443  21016458.569    21016458.2394   21016459.2344
        39.500          22.4004
 202040241.922 7                  38446996.399
        42.800


 128341050.399 7                  24422486.839
        42.300
 140063039.835 6                  26653112.948
        38.600
 124267028.229 7                  23647212.577
        47.000
 104813232.920 8  81521420.560 7  19600602.786    19600603.227    19600606.892
        50.200          45.100
 25  1  1  6 15  0.0000000  0 28G18R01G23G15G26G11G20E27E03G25G05G29
                                R16E15E26S35R23R17R02S31R15G13S33E07
                                E08E21E13R24
 116955275.629 6  91134001.19643  22255847.161    22255846.8624   22255844.6764
        41.500          20.5004
 104095718.210 7  80963365.348 5  19473257.292    19473256.982    19473261.214
        44.000          35.700
 121989458.568 7  95056730.26043  23213821.992    23213822.1214   23213821.6964
        45.300          21.5004
 109559412.331 7  85370956.56047  20848447.334    20848446.9864   20848447.0894
        46.300          45.1004
 130521097.500 5 101704799.77142  24837343.992    24837344.2464   24837341.4434
        34.500          15.9004
 129131112.260 5 100621672.2304   24572835.336    24572835.5374   24572840.3014
        31.000           4.3004
 123163402.554 5                  23437210.917
        30.900


 134302652.462 5                  25556946.500
        32.000


 110719762.968 7  86275131.82045  21069264.276    21069264.2364   21069260.8474
        45.900          33.6004
 107245704.698 8  83568044.99148  20408180.172    20408179.6674   20408180.4034
        50.200          49.5004
                  99946249.970 5                                  24055903.567
                        34.500
 131541039.145 6                  25031424.458
        41.300
 139922426.059 6                  26626355.933
        39.400
 200874273.492 6                  38225112.757
        38.400
 125152496.350 5                  23395938.448
        30.400
 110455287.653 8  85909692.555 6  20641212.183    20641211.581    20641214.373
        48.900          38.800
 106747750.369 7  83026057.513 7  20004481.661    20004480.959    20004485.781
        45.300          45.100
 198901273.202 7                  37849662.364
        42.600
 130268327.430 6                  24377940.048    24377940.912
        36.700
 110429807.493 7  86049215.43543  21014101.307    21014100.9724   21014100.3324
        42.700          22.6004
 202040220.535 7                  38446981.375
        43.600


 128317507.125 7                  24418005.782
        42.700
 140093719.886 6                  26658951.894
        38.800
 124258064.550 7                  23645505.916
        44.800
 104822134.275 8  81528343.830 7  19602268.593    19602268.629    19602272.089
        50.300          45.500
 25  1  1  6 15 15.0000000  0 27G18R01G23G15G26G11E27E03G25G05G29R16
                                E15E26S35R23R17R02S31R15G13S33E07E08
                                E21E13R24
 116920465.062 7  91106876.05943  22249222.984    22249222.6714   22249221.3224
        42.300          23.0004
 104118058.293 7  80980741.008 6  19477437.517    19477437.962    19477439.561
        44.300          36.500
 121949317.932 7  95025451.87543  23206183.023    23206183.1124   23206181.3654
        44.100          19.4004
 109521915.435 7  85341738.11047  20841312.643    20841312.2954   20841311.6324
        43.500          45.4004
 130530853.852 5 101712402.12742  24839193.431    24839193.5964   24839197.9894
        35.300          15.6004
 129171735.129 4 100653326.0974   24580565.813    24580565.9734   24580568.7684
        28.800           3.4004






 110750507.110 7  86299088.26145  21075115.213    21075115.1554   21075112.6944
        45.000          35.2004
 107252883.570 8  83573638.90548  20409546.316    20409545.7934   20409545.6664
        50.600          49.0004
 128515397.421 5  99956423.711 5  24058348.160                    24058348.726
        32.200          33.000
 131561282.108 6                  25035277.012
        39.100
 139892214.342 5                  26620605.987
        35.100
 200874281.824 6                  38225097.786
        38.100
 125201079.370 4                  23405022.459
        29.400
 110413898.442 8  85877500.970 7  20633476.616    20633477.239    20633482.061
        49.200          43.200
 106708673.943 7  82995664.756 7  19997158.910    19997158.583    19997161.947
        43.500          44.500
 198901263.451 7                  37849643.051
        42.500
 130312333.494 4                  24386174.809    24386174.153
        29.500
 110417564.987 7  86039675.86944  21011771.160    21011770.8254   21011771.0684
        47.400          27.9004
 202040194.871 6                  38446981.647
        41.600


 128294051.775 7                  24413541.960
        44.500
 140124453.361 7                  26664801.646
        42.100
 124249123.834 7                  23643805.519
        47.300
 104831155.225 8  81535360.155 7  19603954.832    19603955.200    19603959.487
        50.400          45.700
 25  1  1  6 15 30.0000000  0 25G18R01G23G15G26G11E27E03G25G05G29E15
                                E26S35R17R02S31G13S33E07E08E21E13R24
                                R08
 116885685.626 6  91079775.22444  22242605.533    22242605.2384   22242605.4094
        41.000          26.1004
 104140576.108 7  80998254.854 6  19481649.741    19481650.781    19481653.318
        47.400          37.700
 121909232.062 6  94994216.15943  23198555.116    23198555.1514   23198551.4854
        39.300          18.6004
 109484543.530 7  85312617.09147  20834200.474    20834200.1534   20834200.7464
        45.800          45.7004


 129212389.858 6 100685004.9534   24588303.205    24588303.4554   24588304.2724
        37.200           4.4004






 110781318.270 6  86323096.96445  21080979.262    21080979.1514   21080978.5514
        41.900          34.0004
 107260214.899 7  83579351.64647  20410941.732    20410941.2004   20410939.9404
        46.900          46.7004
 131581558.541 6                  25039135.360
        40.000
 139862004.796 5                  26614858.385
        35.600
 200874293.765 5                  38225130.443
        34.200
 110372566.824 7  85845354.155 7  20625754.637    20625753.312    20625757.847
        47.500          43.000
 106669757.037 7  82965396.042 7  19989865.825    19989866.730    19989869.201
        47.000          45.400
 198901257.695 7                  37849649.852
        42.000
 110405484.174 8  86030262.25344  21009471.182    21009470.8474   21009471.5234
        48.300          29.2004
 202040172.633 7                  38446980.825
        43.900
 141009114.240 5                  26833127.486
        30.400
 128270693.201 7                  24409096.723
        42.500
 140155248.718 6                  26670660.813
        40.900
 124240214.833 7                  23642110.702
        45.800
 104840304.717 8  81542476.469 7  19605664.773    19605664.684    19605670.567
        48.900          44.600
 126639529.903 4                  23649042.788
        29.500
 25  1  1  6 15 45.0000000  0 27G18R01G23G15G26G11G20E27E03G25G05G29
                                R16E15E26S35R17R02S31G13S33E07E08E21
                                E13R24R08
 116850928.814 7  91052692.04344  22235992.162    22235991.8454   22235992.9264
        42.400          26.9004
 104163262.442 7  81015899.764 6  19485892.638    19485892.714    19485898.458
        46.000          38.100
 121869192.392 7  94963016.44843  23190936.682    23190936.7044   23190930.9774
        43.600          19.4004
 109447288.389 7  85283587.11947  20827111.424    20827111.0984   20827111.4584
        45.600          45.1004
 130550765.485 4 101727862.71542  24842981.626    24842981.5104   24842982.3544
        28.200          14.7004
 129253067.894 6 100716702.1094   24596044.350    24596044.5734   24596044.9914
        37.300           5.0004
 123289961.048 5                  23461298.673
        30.200






 110812188.187 6  86347151.45745  21086855.381    21086855.2214   21086853.4624
        39.900          32.4004
 107267689.971 8  83585176.34447  20412363.784    20412363.2704   20412362.2604
        48.000          46.9004
                                                  24063332.077

 131601859.786 6                  25042998.974
        38.700
 139831788.707 5                  26609109.829
        34.200


 110331284.742 8  85813245.903 7  20618039.388    20618038.551    20618045.291
        48.500          45.800
 106630990.786 7  82935244.490 7  19982600.022    19982600.692    19982605.197
        47.000          46.400
 198901246.541 7                  37849641.696
        42.000
 110393556.442 8  86020967.95444  21007201.890    21007201.5694   21007202.0234
        48.200          28.5004
 202040145.399 7                  38446969.619
        43.100


 128247422.732 7                  24404668.451
        42.900
 140186096.962 6                  26676530.696
        40.800
 124231328.896 7                  23640419.275
        46.300
 104849574.240 8  81549686.113 7  19607398.194    19607398.269    19607403.209
        48.100          43.200
 126702112.759 4                  23660723.038
        27.600
 25  1  1  6 16  0.0000000  0 26G18R01G23G15G26G11G20E27E03G25G05G29
                                R16E15E26S35R17R02S31G13S33E07E08E21
                                E13R24
 116816199.258 6  91025630.11044  22229384.465    22229384.1084   22229384.6054
        41.500          26.2004
 104186121.371 6  81033678.989 6  19490165.087    19490166.722    19490173.239
        40.000          40.900
 121829203.487 7  94931856.34943  23183327.100    23183327.1174   23183321.8144
        43.900          18.4004
 109410154.683 7  85254651.75647  20820044.015    20820043.6674   20820044.9714
        42.700          42.7004


 129293773.585 6 100748420.80541  24603789.923    24603790.0254   24603791.0044
        37.300           6.0004
 123332169.488 5                  23469335.188
        34.100


 134371723.496 6                  25570083.819
        40.300


 110843120.589 7  86371254.66045  21092741.218    21092741.0844   21092739.0614
        44.800          35.2004
 107275313.323 8  83591116.60547  20413813.666    20413813.1484   20413812.8954
        49.300          47.0004
 128555607.177 4                  24065868.082
        26.500
 131622190.531 7                  25046867.080
        42.300
 139801570.763 5                  26603361.905
        34.100


 110290057.010 7  85781179.932 7  20610333.480    20610333.731    20610340.203
        47.000          44.100
 106592380.244 7  82905214.132 7  19975362.883    19975363.684    19975367.876
        46.300          44.000
 198901235.414 7                  37849639.411
        44.300
 110381786.497 7  86011796.70444  21004961.258    21004960.9234   21004961.9724
        47.800          25.7004
 202040118.265 7                  38446964.838
        44.200
 140915768.103 6                  26815376.377
        36.800
 128224245.129 7                  24400259.107
        47.300
 140217002.311 5                  26682410.186
        33.400
 124222470.587 7                  23638733.059
        46.300
 104858968.290 7  81556992.604 7  19609155.015    19609155.407    19609160.159
        47.700          43.000
 25  1  1  6 16 15.0000000  0 26G18R01G23G15G26G11G20E27E03G25G05G29
                                R16E15E26S35R17R02S31G13S33E07E08E21
                                E13R24
 116781500.003 7  90998591.67144  22222782.402    22222782.0764   22222782.1744
        42.500          28.0004
 104209155.792 6  81051594.618 6  19494473.089    19494473.288    19494483.508
        37.900          40.300
 121789268.402 7  94900738.10942  23175725.980    23175725.9404   23175722.8954
        42.700          14.2004
 109373145.575 7  85225813.49947  20813001.156    20813000.7764   20813001.9244
        45.400          43.6004
 130571059.471 5                  24846846.221
        31.400
 129334510.032 6 100780163.6574   24611543.022    24611543.0054   24611542.9594
        36.500           5.0004
 123374388.979 5                  23477368.668
        35.800


 134389230.458 5                  25573413.822
        33.700


 110874118.305 6  86395408.76245  21098638.255    21098638.0904   21098637.0064
        41.200          34.2004
 107283087.921 7  83597174.72447  20415293.795    20415293.2724   20415292.7204
        47.300          46.6004
                                                  24068436.649

 131642553.696 6                  25050743.835
        40.800
 139771353.906 6                  26597608.396
        37.700


 110248886.866 7  85749158.639 7  20602641.679    20602639.750    20602645.367
        47.000          44.000
 106553928.823 7  82875307.495 7  19968158.328    19968157.133    19968161.825
        43.800          44.600
 198901226.741 7                  37849651.918
        42.600
 110370177.445 8  86002750.61744  21002752.705    21002752.3754   21002751.3364
        50.200          28.2004
 202040093.083 7                  38446961.413
        44.900
 140869115.931 5                  26806501.694
        31.300
 128201163.549 7                  24395866.707
        46.400
 140247967.744 5                  26688305.331
        35.600
 124213642.930 7                  23637054.191
        46.700
 104868490.164 7  81564398.529 7  19610936.626    19610936.432    19610940.893
        47.900          42.300
 25  1  1  6 16 30.0000000  0 25G18R01G23G15G26G11G20E27E03G25G05G29
                                E15E26S35R17R02S31G13S33E07E08E21E13
                                R24
 116746827.975 7  90971574.47545  22216183.735    22216183.3874   22216184.0274
        44.800          30.1004
 104232361.498 6  81069643.659 6  19498817.334    19498818.176    19498824.336
        39.300          40.500
 121749383.824 6  94869659.21142  23168136.416    23168136.3814   23168132.4144
        38.200          17.8004
 109336258.121 7  85197070.11347  20805982.323    20805981.9574   20805982.3214
        47.500          45.4004




 123416616.036 5  96168775.94641  23485403.447    23485403.2374   23485398.5034
        32.500          11.0004


 134406833.973 4                  25576761.043
        29.700


 110905177.933 7  86419611.15246  21104550.019    21104549.8414   21104547.4544
        46.400          37.0004
 107291010.429 8  83603348.12347  20416801.675    20416801.1614   20416800.1404
        48.200          46.8004
 131662946.078 6                  25054622.154
        38.900
 139741134.751 5                  26591856.100
        34.600
 200874305.434 7                  38225106.068
        42.300
 110207771.289 7  85717179.847 7  20594957.136    20594956.710    20594962.239
        47.900          46.600
 106515633.218 8  82845522.098 7  19960982.343    19960982.083    19960987.769
        48.500          44.800
 198901216.820 7                  37849637.417
        43.600
 110358726.060 7  85993827.56444  21000573.089    21000572.7454   21000570.9464
        43.900          26.2004
 202040067.433 6                  38446952.752
        40.300
 140822502.702 4                  26797631.021
        29.700
 128178174.655 7                  24391493.037
        46.900
 140278990.341 5                  26694207.925
        35.000
 124204842.683 7                  23635379.360
        47.600
 104878136.524 7  81571901.242 6  19612738.597    19612739.448    19612744.343
        47.100          40.500
 25  1  1  6 16 45.0000000  0 27G18R01G23G15G26G11G20E27E03G25G05G29
                                R16E15E26S35R17R02S31R15G13S33E07E08
                                E21E13R24
 116712182.354 7  90944577.90145  22209590.448    22209590.0914   22209590.1684
        45.300          30.4004
 104255737.078 6  81087825.364 6  19503191.632    19503193.578    19503197.109
        38.100          39.500
 121709549.014 7  94838619.05943  23160557.647    23160557.5944   23160553.1884
        43.900          21.8004
 109299491.929 7  85168421.16547  20798985.598    20798985.2504   20798985.7264
        47.500          46.0004
 130591771.908 4 101759846.24942  24850791.480    24850791.7524   24850793.2914
        27.900          14.5004


 123458849.703 5  96201685.24341  23493440.853    23493440.6524   23493436.9514
        35.900          10.5004


 134424533.932 5                  25580130.851
        31.500


 110936298.346 7  86443860.81346  21110472.446    21110472.2634   21110469.5324
        44.400          36.6004
 107299079.959 7  83609636.07547  20418336.986    20418336.4724   20418336.0674
        47.400          47.2004
 128597262.206 5                  24073680.871    24073683.418
        31.900
 131683366.836 6                  25058507.863
        38.900
 139710912.771 6                  26586105.652
        39.400
 200874311.667 5                  38225107.145
        35.600
 110166710.001 7  85685243.243 7  20587284.983    20587284.010    20587288.756
        47.000          46.200
 106477492.961 8  82815857.457 7  19953834.844    19953834.467    19953839.205
        48.500          44.600
 198901205.865 7                  37849641.678
        43.300
 130577613.180 5                  24435820.611
        31.800
 110347431.753 8  85985026.79544  20998424.924    20998424.5624   20998422.9134
        48.000          29.8004
 202040041.063 6                  38446954.272
        41.000
 140775901.630 6                  26788766.734
        36.500
 128155277.922 7                  24387134.891
        46.900
 140310067.290 4                  26700118.965
        29.300
 124196069.099 7                  23633709.637
        45.900
 104887906.790 8  81579500.309 6  19614567.528    19614567.971    19614571.958
        48.300          41.300
 25  1  1  6 17  0.0000000  0 25G18R01G23G15G26G11G20E27E03G25G05G29
                                E15E26S35R17R02S31G13S33E07E08E21E13
                                R24
 116677564.069 7  90917602.64445  22203002.649    22203002.2964   22203002.9714
        46.600          30.5004
 104279284.200 7  81106139.872 6  19507594.927    19507595.877    19507601.818
        42.800          40.900
 121669764.762 7  94807618.39144  23152986.643    23152986.5814   23152982.5974
        45.900          24.8004
 109262847.927 7  85139867.45647  20792012.621    20792012.3044   20792012.8614
        47.300          46.4004
 130602344.634 5 101768040.36942  24852798.776    24852798.9864   24852795.1164
        30.600          15.6004


 123501090.871 5  96234600.52541  23501480.566    23501480.4644   23501476.3294
        33.000           7.5004


 134442330.147 5                  25583520.316
        35.600


 110967479.373 7  86468157.65846  21116405.579    21116405.3784   21116404.3054
        45.100          38.1004
 107307297.334 8  83616039.22847  20419900.795    20419900.2814   20419900.1604
        48.400          47.8004
 131703816.773 6                  25062399.668
        39.600
 139680688.302 6                  26580355.023
        38.300


 110125703.861 7  85653349.666 7  20579620.134    20579619.908    20579625.352
        47.500          45.400
 106439509.039 8  82786314.498 7  19946716.570    19946717.035    19946721.196
        51.500          45.000
 198901193.972 6                  37849637.596
        41.600
 110336295.440 7  85976349.14745  20996305.436    20996305.0704   20996305.3274
        47.000          31.8004
 202040012.524 6                  38446930.541
        40.300
 140729313.948 5                  26779896.645
        34.400
 128132474.136 7                  24382795.693
        47.200
 140341199.788 5                  26706044.296
        35.400
 124187322.977 7                  23632045.523
        45.300
 104897801.622 8  81587196.301 5  19616417.140    19616417.058    19616418.546
        48.700          34.400
 25  1  1  6 17 15.0000000  0 23G18R01G23G15G26G11G20E03G05G29E15E26
                                S35R17R02S31G13S33E07E08E21E13R24
 116642977.007 7  90890651.69045  22196420.573    22196420.2604   22196421.0244
        45.100          31.9004
 104303005.714 7  81124589.829 6  19512033.718    19512034.017    19512040.708
        44.800          39.400
 121630034.957 7  94776660.18844  23145426.345    23145426.2694   23145424.1914
        44.200          24.8004
 109226330.152 7  85111412.11847  20785063.400    20785063.0874   20785063.9244
        46.400          46.4004
 130613000.335 5 101776347.20143  24854825.048    24854825.1414   24854824.2894
        34.500          18.8004
 129497749.905 5                  24642602.439
        32.600
 123543376.991 5                  23509522.051
        35.900
 134460226.891 6                  25586923.993
        38.800
 110998725.340 7  86492505.20746  21122350.911    21122350.7064   21122351.3674
        45.800          38.5004
 107315666.202 8  83622560.40748  20421493.390    20421492.8814   20421492.7334
        49.300          48.3004
 131724299.754 6                  25066296.476
        36.500
 139650465.601 6                  26574604.801
        37.300
 200874367.316 6                  38225109.869
        41.400
 110084757.399 7  85621502.350 7  20571968.223    20571970.013    20571972.751
        46.700          44.900
 106401685.447 6  82756896.265 6  19939624.558    19939623.812    19939631.563
        41.100          41.700
 198901185.156 6                  37849629.430
        40.100
 110325321.009 8  85967797.64645  20994216.675    20994216.3004   20994217.3074
        48.000          31.6004
 202040000.300 7                  38446939.762
        43.000


 128109767.326 8                  24378475.309
        48.800
 140372391.856 6                  26711981.935
        36.300
 124178608.245 7                  23630386.649
        46.000
 104907825.373 7  81594992.596 6  19618292.397    19618291.576    19618295.415
        46.800          39.700
 25  1  1  6 17 30.0000000  0 22G18R01G23G15G26G11E03G05G29E15E26S35
                                R17R02S31G13S33E07E08E21E13R24
 116608421.290 7  90863725.17945  22189845.172    22189844.8864   22189844.5474
        45.500          30.2004
 104326900.853 7  81143174.973 6  19516504.213    19516504.544    19516511.517
        44.400          40.900
 121590359.535 7  94745744.26244  23137876.675    23137876.5824   23137876.5084
        45.200          25.9004
 109189938.991 8  85083055.50148  20778138.954    20778138.6504   20778139.0084
        49.000          48.1004


 129538614.126 5                  24650379.240
        35.000
 134478223.425 6                  25590348.439
        40.700
 111030036.092 7  86516903.16845  21128308.049    21128307.8534   21128308.7714
        44.000          34.3004
 107324186.703 7  83629199.75048  20423114.840    20423114.3264   20423114.4024
        47.100          49.3004
 131744815.629 7                  25070201.709
        43.500
 139620244.125 5                  26568853.662
        35.200
 200874378.862 6                  38225111.657
        38.000
 110043870.436 7  85589701.487 7  20564329.062    20564330.027    20564334.147
        47.300          45.800
 106364022.682 7  82727603.047 7  19932569.209    19932569.501    19932573.103
        44.800          43.100
 198901178.887 7                  37849638.186
        42.400
 110314508.359 7  85959372.25545  20992158.641    20992158.2884   20992159.6644
        44.600          30.5004
 202039976.428 7                  38446932.535
        44.500
 140636173.904 4                  26762174.110
        24.900
 128087157.421 7                  24374172.239
        46.700
 140403642.664 6                  26717927.562
        36.200
 124169924.880 7                  23628734.622
        44.800
 104917977.778 8  81602888.988 5  19620191.342    19620191.774    19620194.111
        49.600          35.200
 25  1  1  6 17 45.0000000  0 24G18R01G23G15G26G11E03G05G29R16E15E26
                                S35R17R02S31G13S33E07E08E21E13R24R08
 116573890.723 7  90836818.28945  22183274.374    22183274.0794   22183272.2144
        44.800          31.1004
 104350963.126 7  81161890.073 6  19521004.977    19521004.950    19521012.746
        45.200          40.900
 121550732.349 7  94714865.92744  23130335.898    23130335.7784   23130336.9194
        42.400          25.6004
 109153668.368 8  85054792.77648  20771236.163    20771235.8684   20771237.0674
        48.000          48.3004




 134496313.800 6                  25593792.086
        41.100
 111061404.704 7  86541346.29745  21134278.244    21134278.0484   21134278.4324
        45.500          32.9004
 107332852.487 7  83635952.31048  20424764.146    20424763.6234   20424763.6584
        46.800          49.5004
                                                  24084500.582

 131765358.289 7                  25074111.109
        45.500
 139590017.806 6                  26563102.776
        36.000
 200874386.946 6                  38225114.989
        37.300
 110003037.260 7  85557942.239 7  20556698.050    20556700.602    20556702.853
        45.000          45.000
 106326514.742 7  82698430.249 7  19925539.846    19925540.289    19925544.548
        45.200          43.700
 198901169.727 6                  37849628.746
        39.600
 110303851.589 6  85951068.24844  20990130.136    20990129.7884   20990131.9624
        41.600          28.8004
 202039951.258 7                  38446932.759
        42.100


 128064638.467 7                  24369886.518
        46.600
 140434946.171 6                  26723885.510
        37.800
 124161266.554 7                  23627087.204
        45.800
 104928252.571 8  81610880.360 5  19622111.713    19622112.349    19622112.191
        48.900          33.700
 127203503.183 4                  23754356.779
        27.700
 25  1  1  6 18  0.0000000  0 25G18R01G23G15G26G11E27E03G25G05G29E15
                                E26S35R17R02S31G13S33E07E08E21E13R24
                                R08
 116539390.475 7  90809934.99145  22176709.927    22176709.6374   22176707.4474
        45.500          33.1004
 104375197.226 7  81180738.822 6  19525538.988    19525538.746    19525545.760
        45.200          39.800
 121511158.389 7  94684029.05244  23122804.222    23122804.0974   23122806.3894
        43.400          25.4004
 109117523.517 8  85026628.04048  20764358.260    20764357.9654   20764358.7734
        49.000          48.8004






 134514502.657 6                  25597253.664
        40.400


 111092835.807 6  86565838.04745  21140259.156    21140258.9374   21140260.8684
        41.000          31.0004
 107341668.363 8  83642821.83048  20426441.851    20426441.3424   20426441.4914
        48.900          50.1004
 131785932.757 7                  25078026.493
        45.600
 139559791.914 5                  26557347.049
        33.800


 109962263.177 6  85526229.111 7  20549074.600    20549074.044    20549082.090
        40.100          44.400
 106289166.536 8  82669381.669 7  19918539.152    19918540.572    19918545.091
        48.300          42.700
 198901161.697 6                  37849626.345
        40.100
 110293355.734 7  85942889.67044  20988133.784    20988133.4454   20988134.3054
        42.800          29.2004
 202039926.890 7                  38446929.463
        42.200
 140543121.071 4                  26744466.176
        24.900
 128042215.366 7                  24365619.537
        47.100
 140466306.703 6                  26729853.037
        38.400
 124152638.336 7                  23625445.656
        47.100
 104938655.166 7  81618971.250 6  19624055.919    19624055.766    19624060.804
        46.200          39.400
 127266299.847 5                  23766079.380
        31.500
 25  1  1  6 18 15.0000000  0 25G18R01G23G15G26E27E03G25G05G29R16E15
                                E26S35R23R02S31G13S33E07E08E21E13R24
                                R08
 116504922.307 7  90783076.70045  22170150.683    22170150.4154   22170148.3684
        42.700          30.2004
 104399604.643 6  81199722.315 6  19530103.505    19530101.760    19530110.244
        40.800          36.300
 121471639.436 7  94653235.00444  23115283.988    23115283.9174   23115285.3754
        42.400          26.3004
 109081506.491 7  84998562.80447  20757504.209    20757503.9014   20757504.8354
        46.800          46.1004
 130656761.449 5 101810472.96043  24863157.889    24863158.2694   24863157.6634
        32.500          19.1004


 134532791.601 6                  25600734.151
        41.100


 111124331.097 6  86590379.87345  21146252.505    21146252.2554   21146254.6764
        41.000          32.1004
 107350636.128 8  83649809.70448  20428147.531    20428147.0174   20428147.8764
        48.900          49.4004
 128684928.820 6 100088330.036 5  24090092.715    24090092.194    24090100.341
        36.000          35.800
 131806540.767 7                  25081948.111
        43.800
 139529567.844 5                  26551595.152
        33.100


 125788750.220 4                  23514879.397
        26.100
 106251980.536 7  82640459.232 7  19911571.985    19911571.500    19911576.657
        45.100          45.200
 198901157.355 7                  37849634.287
        44.000
 110283022.675 6  85934837.87744  20986168.073    20986167.7254   20986168.0384
        38.500          28.1004
 202039905.878 6                  38446927.170
        41.400


 128019890.165 7                  24361370.851
        47.000
 140497725.912 5                  26735831.770
        35.900
 124144042.065 7                  23623809.474
        46.600
 104949187.339 7  81627162.862 7  19626026.610    19626027.389    19626032.847
        47.300          42.200
                                                  23777814.437

 25  1  1  6 18 30.0000000  0 25G18R01G23G15G26G20E27E03G25G05G29R16
                                E15E26S35R17R02S31G13S33E07E08E21E13
                                R24
 116470479.037 7  90756237.79345  22163596.251    22163595.9924   22163594.4594
        43.600          30.7004
 104424177.211 7  81218834.275 5  19534702.096    19534700.444    19534705.727
        46.400          35.500
 121432168.036 7  94622478.05344  23107771.884    23107771.8584   23107772.9464
        43.600          24.6004
 109045610.008 8  84970591.49147  20750673.174    20750672.8614   20750673.0994
        48.100          44.9004
 130667982.757 5 101819216.66042  24865291.124    24865291.5354   24865293.6634
        30.200          13.6004
 123754869.919 5                  23549757.813
        32.000


 134551172.940 6                  25604231.008
        39.800


 111155883.123 7  86614965.88844  21152255.727    21152255.4994   21152258.6964
        42.700          29.9004
 107359748.307 8  83656910.08147  20429880.791    20429880.2914   20429881.4754
        48.600          47.8004
 128700109.289 5 100100137.001 5  24092936.802    24092934.652    24092939.884
        32.100          32.600
 131827174.838 7                  25085874.602
        45.600
 139499348.268 4                  26545842.199
        28.800
 200874355.482 6                  38225120.784
        41.300
 109880860.680 7  85462940.172 7  20533873.040    20533871.874    20533876.441
        45.000          45.500
 106214948.939 7  82611656.929 7  19904632.270    19904631.676    19904638.421
        45.300          46.400
 198901148.438 7                  37849635.878
        44.500
 110272844.735 6  85926906.96344  20984230.238    20984229.9394   20984230.2034
        36.300          24.4004
 202039880.227 6                  38446914.618
        41.700
 140450106.199 4                  26726767.324
        27.500
 127997655.449 8                  24357140.497
        48.200
 140529196.110 6                  26741820.337
        39.800
 124135470.359 7                  23622177.801
        45.000
 104959841.727 7  81635449.617 6  19628018.093    19628018.580    19628023.185
        45.600          38.500
 25  1  1  6 18 45.0000000  0 24G18R01G23G15G26G11E27E03G05G29R16E15
                                E26S35R23R17R02S31S33E07E08E21E13R24
 116436064.151 6  90729421.02345  22157046.955    22157046.6874   22157045.0834
        41.200          30.3004
 104448918.079 7  81238077.226 6  19539329.025    19539328.689    19539336.709
        44.400          38.700
 121392747.833 6  94591761.04244  23100269.787    23100269.7384   23100271.0524
        41.200          24.0004
 109009837.806 8  84942716.99547  20743866.024    20743865.7204   20743865.4664
        48.200          44.9004
 130679314.528 5 101828046.51142  24867446.406    24867446.5174   24867450.0944
        33.200          16.7004




 134569650.179 6                  25607746.623
        39.000
 111187495.179 7  86639598.70045  21158271.819    21158271.5784   21158273.7354
        42.500          32.8004
 107369008.447 7  83664125.77048  20431643.745    20431643.2404   20431643.4824
        47.800          48.7004
 128715494.880 6 100112067.846 5  24095807.858    24095802.970    24095812.258
        36.900          31.500
 131847838.613 7                  25089806.546
        43.200
 139469115.699 5                  26540108.352
        31.900
 200874363.114 6                  38225132.110
        39.500
 125887567.899 6                  23533350.749
        36.400
 109840259.815 7  85431361.762 7  20526285.597    20526284.979    20526288.460
        46.600          46.400
 106178075.779 8  82582977.806 7  19897724.059    19897723.895    19897727.832
        49.800          45.800
 198901138.516 7                  37849625.482
        42.000
 202039854.375 7                  38446914.837
        43.800
 140403626.025 5                  26717924.839
        30.200
 127975514.862 8                  24352927.982
        50.000
 140560720.472 6                  26747819.104
        38.400
 124126926.786 8                  23620553.211
        48.500
 104970621.787 7  81643834.058 6  19630035.038    19630035.014    19630039.502
        47.300          39.700
 25  1  1  6 19  0.0000000  0 26G18R01G23G15G26G11E27E03G25G05G29R16
                                E15E26S35R23R17R02S31G13S33E07E08E21
                                E13R24
 116401678.774 7  90702627.21845  22150504.137    22150503.8744   22150502.9434
        45.600          31.1004
 104473828.000 8  81257451.575 5  19543990.576    19543990.481    19543992.889
        48.100          35.900
 121353379.626 6  94561084.53144  23092780.608    23092780.5774   23092779.1844
        40.000          24.0004
 108974191.363 8  84914940.48247  20737082.613    20737082.3144   20737082.0544
        49.900          45.8004
 130690757.766 6 101836963.23343  24869624.617    24869624.5414   24869631.4324
        37.000          19.3004




 134588224.013 6                  25611281.426
        36.500
 132534934.798 5                  25220557.549
        30.800
 111219167.272 6  86664278.16244  21164294.319    21164294.0334   21164299.3634
        38.100          29.5004
 107378417.419 7  83671457.43347  20433434.237    20433433.7284   20433433.3744
        47.200          46.8004
 128730993.557 5                  24098710.528
        30.200
 131868532.961 7                  25093744.859
        44.900
 139438891.012 5                  26534338.833
        31.800
 200874371.362 6                  38225119.201
        39.700
 125937044.955 6                  23542588.583    23542590.644
        38.200
 109799718.118 7  85399829.340 7  20518710.004    20518710.444    20518713.017
        46.700          47.600
 106141362.381 7  82554422.924 7  19890842.491    19890842.690    19890848.634
        46.400          45.900
 198901130.141 6                  37849623.778
        41.600
 110252975.183 5  85911410.96743  20980446.687    20980446.5224   20980445.0554
        35.300          19.2004
 202039828.732 7                  38446911.210
        42.600
 140357161.862 4                  26709079.656
        28.700
 127953469.410 8                  24348732.242
        48.600
 140592299.651 6                  26753828.717
        40.300
 124118412.290 7                  23618932.455
        45.200
 104981528.675 7  81652317.167 6  19632074.101    19632074.686    19632076.804
        47.600          40.900
 25  1  1  6 19 15.0000000  0 23G18R01G23G15G26G11E03G05G29E15E26S35
                                R23R17R02S31G13S33E07E08E21E13R24
 116367323.973 7  90675857.23745  22143964.625    22143964.3484   22143965.6864
        46.200          33.1004
 104498907.204 7  81276957.644 6  19548681.590    19548681.048    19548685.964
        46.700          37.300
 121314064.720 6  94530449.54043  23085299.475    23085299.4134   23085297.8564
        38.500          23.5004
 108938671.952 8  84887263.00947  20730323.052    20730322.7534   20730323.8104
        49.300          46.7004
 130702313.067 5 101845967.10542  24871824.093    24871824.1644   24871829.6374
        35.000          12.7004


 134606895.313 6                  25614835.945
        39.400
 111250900.365 7  86689005.24845  21170335.885    21170335.5594   21170337.5164
        44.000          32.7004
 107387976.336 7  83678905.92147  20435253.537    20435253.0104   20435252.3234
        47.800          47.2004
 131889259.019 7                  25097689.173
        46.300
 139408658.448 6                  26528585.459
        36.300


 125986581.541 5                  23551852.265    23551851.701
        30.700
 109759236.786 7  85368343.870 7  20511144.128    20511143.913    20511148.279
        47.400          47.400
 106104809.748 7  82525993.199 7  19883993.402    19883992.732    19883997.899
        45.200          44.700
 198901121.355 6                  37849619.146
        41.600
 110243277.704 6  85903854.52243  20978596.477    20978596.0804   20978601.0694
        40.300          20.5004
 202039803.460 6                  38446894.384
        41.000
 140310718.169 5                  26700243.336
        35.900
 127931520.346 8                  24344555.888
        49.900
 140623934.361 6                  26759849.395
        40.200
 124109927.941 7                  23617318.294
        47.900
 104992563.582 8  81660899.905 7  19634137.111    19634137.339    19634142.081
        48.300          42.000
 25  1  1  6 19 30.0000000  0 24G18R01G23G15G26G11E03G25G05G29R16E15
                                E26S35R17R02S31G13S33E07E08E21E13R24
 116332998.618 7  90649110.20145  22137432.738    22137432.4794   22137433.9064
        47.400          35.8004
 104524154.454 7  81296594.367 6  19553405.660    19553405.353    19553409.008
        46.600          36.700
 121274801.610 6  94499854.90044  23077828.960    23077828.9294   23077826.4674
        40.400          25.3004
 108903278.501 8  84859683.68647  20723588.096    20723587.8014   20723588.9604
        48.900          46.3004
 130713979.022 5 101855057.40242  24874042.232    24874042.2064   24874049.2844
        32.500          12.4004


 134625662.643 4                  25618404.299
        28.100
 132624089.387 4                  25237508.688
        28.100
 111282692.877 6  86713778.65845  21176386.715    21176386.4384   21176385.7744
        41.700          32.9004
 107397683.630 8  83686470.04147  20437100.543    20437100.0164   20437099.5814
        48.000          47.8004
                 100148600.395 5                                  24104607.738
                        31.600
 131910015.497 7                  25101637.507
        44.100
 139378424.510 5                  26522831.313
        35.900
 200874451.054 5                  38225135.549
        35.500
 109718815.091 7  85336904.767 8  20503590.459    20503588.414    20503594.470
        44.600          48.600
 106068417.195 7  82497687.873 7  19877172.110    19877172.094    19877176.868
        45.200          44.300
 198901113.442 6                  37849621.422
        39.800
 110233740.449 6  85896422.88344  20976787.531    20976787.3444   20976787.3664
        41.600          27.0004
 202039779.978 7                  38446899.280
        44.200
 140264287.592 5                  26691409.499
        35.900
 127909666.409 8                  24340397.249
        50.000
 140655623.244 6                  26765876.205
        36.000
 124101472.564 8                  23615708.835
        48.200
 105003725.351 8  81669581.273 7  19636227.693    19636226.950    19636230.177
        49.900          42.900
 25  1  1  6 19 45.0000000  0 23G18R01G23G15G26G11E27E03G05G29E15E26
                                S35R17R02S31G13S33E07E08E21E13R24
 116298697.829 8  90622382.33546  22130906.037    22130905.8014   22130906.3794
        49.400          36.4004
 104549564.062 7  81316357.416 6  19558157.680    19558157.959    19558165.106
        46.700          40.200
 121235585.561 6  94469296.90044  23070364.444    23070364.4004   23070365.0064
        40.300          24.4004
 108868006.338 8  84832198.89747  20716875.886    20716875.6004   20716877.2384
        48.200          46.4004








 111314540.393 7  86738594.92045  21182447.741    21182447.5004   21182445.8964
        42.400          34.9004
 107407534.153 8  83694145.78147  20438975.649    20438975.1314   20438974.4164
        49.000          47.0004
 131930797.399 7                  25105592.819
        43.300
 139348184.249 6                  26517076.787
        39.400


 109678448.069 8  85305508.115 8  20496047.986    20496045.949    20496050.869
        48.300          48.600
 106032179.725 8  82469503.126 7  19870384.388    19870384.838    19870385.680
        49.000          45.100
 198901100.803 7                  37849622.540
        42.900
 110224358.389 6  85889112.15044  20975000.808    20975000.5494   20975002.8624
        37.000          27.0004
 202039749.323 7                  38446896.333
        42.500
 140217868.589 5                  26682576.018
        31.000
 127887902.788 8                  24336255.720
        50.200
 140687360.858 5                  26771917.202
        34.600
 124093041.062 8                  23614104.449
        48.800
 105015008.715 8  81678357.217 7  19638335.348    19638335.964    19638341.230
        49.800          45.500
 25  1  1  6 20  0.0000000  0 23G18R01G23G15G26G11E03G05G29R16E15E26
                                S35R17R02S31G13S33E07E08E21E13R24
 116264436.633 7  90595685.31646  22124386.364    22124386.1234   22124386.2664
        46.700          37.7004
 104575150.801 6  81336258.275 5  19562943.685    19562942.899    19562950.503
        41.900          35.600
 121196431.350 6  94438787.18244  23062914.081    23062914.0414   23062913.8704
        40.100          24.5004
 108832870.481 8  84804820.34847  20710190.842    20710190.5744   20710190.5044
        48.200          45.5004
 130737765.806 5 101873539.20341  24878549.891    24878549.8744   24878558.8394
        35.300          11.9004




 111346457.172 7  86763465.16145  21188521.891    21188521.6864   21188520.7794
        44.400          35.3004
 107417542.867 8  83701944.76447  20440880.081    20440879.5634   20440879.3194
        49.500          46.9004
 128794576.899 6                  24110616.117    24110616.767
        37.800
 131951619.664 7                  25109555.524
        43.300
 139317952.571 6                  26511322.324
        37.000
 200874416.148 6                  38225128.582
        37.600
 109638151.618 7  85274166.488 8  20488514.647    20488515.052    20488521.100
        45.400          49.000
 105996112.639 7  82441450.990 7  19863620.383    19863622.121    19863628.992
        46.500          45.700
 198901097.575 6                  37849611.217
        39.800
 110215146.397 6  85881933.99544  20973250.523    20973250.3134   20973248.9934
        40.900          27.9004
 202039729.477 7                  38446891.566
        43.200
 140171515.893 5                  26673750.216
        30.600
 127866244.434 7                  24332133.797
        46.200
 140719161.911 6                  26777969.043
        38.200
 124084648.624 7                  23612506.890
        47.000
 105026429.223 8  81687239.836 7  19640470.573    19640471.039    19640475.706
        50.200          44.200
 25  1  1  6 20 15.0000000  0 23G18R01G23G15G26G11E03G05G29R16E15E26
                                S35R17R02S31G13S33E07E08E21E13R24
 116230199.520 8  90569007.05446  22117871.986    22117871.7544   22117871.5234
        52.600          38.2004
 104600898.456 6  81356284.193 5  19567761.259    19567761.121    19567765.846
        41.300          32.200
 121157323.678 5  94408313.61842  23055470.429    23055470.3404   23055471.0644
        33.700          15.0004
 108797855.681 7  84777536.10147  20703527.470    20703527.1934   20703526.9684
        47.100          44.2004
 130749761.491 5 101882886.18042  24880831.614    24880831.4454   24880836.6524
        33.000          13.9004


 134682514.675 4                  25629228.976
        27.700
 111378427.323 6  86788376.85144  21194599.959    21194599.7364   21194604.7704
        40.000          27.2004
 107427694.168 8  83709854.81247  20442811.929    20442811.4204   20442810.9084
        49.800          47.9004
 128810910.978 5                  24113668.878
        35.200
 131972466.708 6                  25113522.557
        41.200
 139287713.987 6                  26505570.581
        40.900
 200874424.219 7                  38225134.910
        43.300
 109597909.608 8  85242867.181 8  20480994.855    20480995.657    20481000.613
        48.800          48.500
 105960200.365 7  82413519.176 7  19856892.519    19856891.551    19856898.323
        47.000          44.500
 198901088.242 6                  37849611.343
        41.500
 110206088.854 7  85874876.16344  20971525.561    20971525.3334   20971524.4814
        44.200          27.1004
 202039703.581 6                  38446882.413
        41.000


 127844675.949 7                  24328029.671
        47.400
 140751010.492 6                  26784029.328
        38.500
 124076279.478 7                  23610914.370
        46.900
 105037971.048 8  81696216.838 7  19642630.123    19642630.041    19642635.611
        51.000          47.100
 25  1  1  6 20 30.0000000  0 23G18R01G23G15G26G11E03G05G29R16E15E26
                                S35R17R02S31G13S33E07E08E21E13R24
 116195992.557 8  90542352.33346  22111362.522    22111362.2814   22111361.2614
        51.500          39.6004
 104626812.654 7  81376439.654 6  19572608.904    19572609.733    19572614.967
        43.300          36.200


 108762968.301 7  84750351.13247  20696888.383    20696888.1204   20696887.8294
        47.700          43.6004
 130761867.048 5 101892319.10643  24883129.086    24883129.0554   24883139.5654
        30.600          18.5004


 134701663.267 5                  25632876.147
        31.200
 111410456.336 5  86813334.61444  21200699.215    21200699.0054   21200699.2024
        35.400          27.2004
 107437994.157 8  83717880.81247  20444771.808    20444771.3034   20444770.6284
        48.700          46.7004
 128827360.575 5                  24116746.470
        33.100
 131993344.571 6                  25117495.196
        39.400
 139257474.338 7                  26499816.949
        42.100
 200874432.349 6                  38225142.534
        38.200
 109557728.935 8  85211615.413 7  20473487.701    20473487.986    20473492.124
        50.500          47.400
 105924449.188 7  82385712.702 7  19850193.824    19850193.669    19850198.549
        44.900          45.000
 198901079.211 7                  37849612.796
        42.300
 110197191.900 7  85867943.50044  20969833.186    20969832.9324   20969830.7154
        45.000          25.4004
 202039677.528 7                  38446871.954
        42.400
 140078738.780 5                  26656098.901
        31.500
 127823203.272 7                  24323943.847
        47.400
 140782912.421 6                  26790101.864
        38.300
 124067939.708 8                  23609327.659
        48.500
 105049640.477 8  81705292.994 7  19644811.456    19644811.719    19644817.329
        50.000          47.100
 25  1  1  6 20 45.0000000  0 26G18R01G23G15G26G11G20E03G05G29R16R18
                                E15E26S35R23R17R02S31G13S33E07E08E21
                                E13R24
 116161817.723 8  90515722.61346  22104859.061    22104858.8254   22104857.3444
        52.400          38.2004
 104652894.659 6  81396725.702 5  19577487.652    19577487.822    19577492.009
        41.000          33.700
 121079266.812 5  94347509.07342  23040617.059    23040617.1354   23040618.0254
        32.300          12.2004
 108728210.315 7  84723266.98647  20690273.342    20690273.0654   20690273.2264
        46.000          42.6004
 130774084.298 5 101901839.10642  24885458.430    24885458.4974   24885464.5904
        30.400          16.9004


 124135696.010 6  96729101.97441  23622235.683    23622235.7634   23622234.6254
        36.300           8.0004


 111442545.917 6  86838339.46144  21206805.097    21206804.8834   21206804.9934
        39.000          24.5004
 107448444.368 8  83726023.83147  20446760.152    20446759.6474   20446759.5384
        49.400          46.3004
 128843970.120 5                  24119849.538    24119848.848
        34.800


 132014254.932 7                  25121474.704
        42.900
 139227235.479 6                  26494061.627
        40.100
 200874442.352 6                  38225138.912
        39.900
 126284970.367 5                  23607642.517
        32.500
 109517611.438 8  85180412.977 7  20465989.284    20465989.871    20465994.344
        51.600          45.400
 105888861.271 7  82358033.199 7  19843523.873    19843524.096    19843528.056
        47.700          44.200
 198901072.402 6                  37849612.125
        41.900
 110188457.483 7  85861137.47644  20968171.047    20968170.7974   20968168.1804
        44.000          27.3004
 202039654.091 6                  38446874.932
        41.300


 127801828.361 7                  24319876.358
        46.500
 140814868.934 6                  26796183.304
        38.900
 124059631.154 7                  23607746.748
        47.200
 105061438.954 8  81714469.578 8  19647018.249    19647018.317    19647023.476
        48.200          48.000
 25  1  1  6 21  0.0000000  0 26G18R01G23G15G26G11G20G25G05G29R16R18
                                E15E26S35R23R17R02S31G13S33E07E08E21
                                E13R24
 116127672.416 8  90489115.88546  22098361.210    22098360.9744   22098359.5724
        51.400          39.0004
 104679141.701 6  81417140.072 5  19582397.737    19582395.924    19582403.514
        40.000          33.900


 108693579.332 7  84696281.80747  20683684.146    20683683.8424   20683683.3654
        46.000          42.9004
 130786410.457 4 101911443.99142  24887802.909    24887803.0784   24887807.8814
        24.800          14.4004
 130113832.891 5                  24759837.138
        31.100
 124178056.116 5  96762109.6874   23630297.768    23630297.7424   23630293.2314
        33.200           4.1004


 111474693.091 6  86863389.16643  21212920.640    21212920.3904   21212918.3054
        39.200          21.5004
 107459042.158 7  83734281.82447  20448776.565    20448776.0654   20448776.3744
        47.900          46.1004
 128860735.538 6 100225013.693 4  24122987.778    24122987.963    24122991.276
        37.300          29.600


 132035195.389 6                  25125458.905
        41.400
 139196994.836 6                  26488307.183
        39.900
 200874451.377 4                  38225137.289
        28.900
 126334912.524 5                  23616977.950    23616977.204
        30.000
 109477554.905 8  85149257.791 7  20458504.721    20458505.372    20458508.446
        52.400          45.700
 105853434.219 7  82330478.783 7  19836884.971    19836885.150    19836888.143
        45.900          44.000
 198901064.382 6                  37849619.888
        40.700
 110179883.171 7  85854456.21044  20966539.803    20966539.5714   20966537.9244
        44.300          28.9004
 202039628.947 7                  38446870.125
        43.200


 127780548.809 7                  24315825.861
        46.900
 140846877.436 6                  26802272.551
        38.500
 124051351.323 7                  23606171.393
        47.700
 105073364.326 7  81723744.851 8  19649247.700    19649246.665    19649253.890
        46.000          48.100
 25  1  1  6 21 15.0000000  0 25G18R01G23G15G26G11G20G25G05G29R16R18
                                E15E26S35R17R02S31G13S33E07E08E21E13
                                R24
 116093556.030 8  90462531.68346  22091869.107    22091868.8714   22091868.3994
        52.900          39.9004
 104705552.367 7  81437681.668 5  19587340.101    19587339.567    19587343.593
        43.900          34.200
 121001417.993 5  94286847.67441  23025804.067    23025804.4874   23025801.0084
        32.600          11.9004
 108659074.758 7  84669395.10847  20677117.812    20677117.4994   20677118.1734
        45.500          44.2004
 130798730.768 4 101921099.38042  24890171.737    24890171.9114   24890172.7344
        27.000          14.0004
 130155124.820 5                  24767693.036
        33.400
 124220421.117 4  96795121.3164   23638357.721    23638357.3824   23638354.5294
        29.900           5.6004


 111506896.757 7  86888482.81243  21219051.928    21219051.7454   21219042.8454
        42.000          20.1004
 107469786.643 7  83742654.13147  20450821.131    20450820.6444   20450821.2434
        47.900          45.5004
 128877656.644 6                  24126156.850    24126156.434
        38.200


 132056164.990 6                  25129449.994
        40.000
 139166751.517 6                  26482552.276
        40.100
 200874501.148 6                  38225151.419
        39.300
 109437558.900 8  85118149.886 7  20451029.968    20451029.324    20451034.857
        51.400          45.900
 105818167.349 8  82303048.973 7  19830277.456    19830277.509    19830279.917
        48.600          44.000
 198901054.806 6                  37849604.474
        40.900
 110171468.239 7  85847899.12744  20964937.892    20964937.6474   20964936.6364
        43.600          27.5004
 202039601.825 6                  38446865.059
        40.100


 127759363.787 7                  24311794.843
        45.700
 140878936.712 6                  26808373.829
        41.700
 124043099.366 8                  23604600.567
        48.400
 105085415.720 8  81733118.100 7  19651503.053    19651502.755    19651506.403
        48.000          46.500
 25  1  1  6 21 30.0000000  0 24G18R01G23G15G26G11E03G25G05G29R16E15
                                E26S35R17R02S31G13S33E07E08E21E13R24
 116059467.745 8  90435969.37046  22085382.295    22085382.0594   22085382.8834
        50.900          40.1004
 104732125.187 7  81458349.474 5  19592310.409    19592310.195    19592314.289
        42.100          33.700
 120962553.916 5  94256506.69941  23018408.822    23018408.9244   23018405.1284
        30.300          10.9004
 108624695.965 8  84642606.44347  20670575.142    20670574.8524   20670576.3014
        48.000          43.7004
 130811270.910 5 101930870.87743  24892558.129    24892558.1914   24892556.9544
        33.400          18.4004


 134779257.452 5                  25647641.425
        32.800


 111539156.054 6  86913619.87243  21225190.504    21225190.3444   21225182.9644
        40.600          23.4004
 107480676.852 7  83751140.01247  20452893.216    20452892.7294   20452893.1964
        47.100          44.5004
 128894731.797 6                  24129355.705    24129355.777
        40.000
 132077162.895 6                  25133445.946
        40.800
 139136504.687 6                  26476796.771
        39.800
 200874505.960 5                  38225154.840
        35.000
 109397622.871 8  85087088.603 7  20443567.425    20443566.164    20443572.475
        49.000          47.000
 105783059.915 8  82275743.131 7  19823699.347    19823699.189    19823700.139
        50.800          43.000
 198901043.019 7                  37849612.300
        42.800
 110163212.051 6  85841465.75344  20963367.063    20963366.8354   20963366.9674
        41.600          28.6004
 202039573.818 7                  38446864.625
        45.300


 127738272.550 7                  24307782.004
        43.900
 140911045.592 7                  26814484.104
        42.200
 124034874.480 8                  23603035.864
        48.900
 105097592.339 7  81742588.772 7  19653779.930    19653778.865    19653784.095
        46.600          46.300
 25  1  1  6 21 45.0000000  0 26G18R01G23G15G26G11E03G25G05G29R16E15
                                E26S35R23R17R02S31R15G13S33E07E08E21
                                E13R24
 116025412.613 8  90409432.93246  22078901.557    22078901.3254   22078903.1264
        50.900          40.1004
 104758864.939 7  81479147.071 5  19597313.889    19597311.826    19597315.137
        42.300          34.900
 120923759.648 6  94226277.45042  23011026.251    23011025.8984   23011025.3774
        37.600          14.1004
 108590448.197 7  84615919.83547  20664058.041    20664057.7374   20664058.6034
        47.900          44.8004
 130823922.273 5 101940729.07642  24894968.424    24894968.4284   24894963.0454
        30.600          14.2004


 134798882.162 5                  25651375.051
        33.000


 111571475.531 7  86938803.88644  21231341.192    21231341.0454   21231336.2564
        42.100          28.1004
 107491717.656 7  83759743.24947  20454994.089    20454993.5934   20454994.0224
        45.900          44.3004
 128911965.802 6                  24132575.566
        38.400
 132098194.099 6                  25137447.800
        40.600
 139106259.119 6                  26471041.199
        40.800
 200874513.317 6                  38225151.683
        38.400
 126485116.018 5                  23645048.127    23645050.564
        32.300
 109357752.196 8  85056078.119 8  20436116.995    20436117.344    20436122.282
        51.700          48.300
 105748117.186 8  82248565.458 7  19817149.925    19817150.690    19817152.839
        49.100          44.100
 198901033.188 7                  37849603.799
        42.800
 131475022.604 4                  24603757.137
        29.700
 110155119.319 6  85835159.76344  20961827.976    20961827.7574   20961827.5174
        41.800          27.3004
 202039546.872 7                  38446852.945
        43.200


 127717280.105 7                  24303787.410
        45.600
 140943208.665 7                  26820604.781
        43.000
 124026681.581 8                  23601476.444
        49.700
 105109899.241 7  81752160.819 7  19656080.782    19656080.253    19656085.590
        47.600          45.000
 25  1  1  6 22  0.0000000  0 27G18R01G23G15G26G11E27E03G25G05G29R16
                                E15E26S35R23R17R02S31R15G13S33E07E08
                                E21E13R24
 115991389.932 8  90382921.75546  22072427.630    22072427.3944   22072429.0574
        49.400          40.2004
 104785770.515 6  81500073.605 5  19602345.467    19602344.186    19602350.233
        41.300          35.200
 120885019.408 5  94196090.27342  23003654.126    23003653.9574   23003654.8234
        35.700          15.2004
 108556330.898 8  84589334.94647  20657566.114    20657565.8194   20657565.6504
        48.600          45.1004
 130836683.922 4 101950673.06741  24897407.891    24897407.7224   24897391.8514
        24.900           9.0004




 134818602.960 5                  25655123.393
        30.200


 111603853.896 6  86964033.84145  21237502.631    21237502.4714   21237501.5104
        39.300          31.1004
 107502908.366 7  83768463.29447  20457124.695    20457124.1954   20457123.7404
        46.100          45.0004
 128929357.573 6                  24135836.876    24135837.019
        37.700
 132119257.764 6                  25141456.109
        41.300
 139076014.150 6                  26465284.551
        36.100
 200874521.920 6                  38225143.714
        37.700
 126535287.008 4                  23654435.594    23654434.636
        25.800
 109317946.222 8  85025117.887 7  20428677.818    20428679.337    20428684.507
        53.000          47.800
 105713338.490 7  82221515.361 7  19810630.195    19810630.711    19810635.945
        46.200          44.300
 198901024.963 7                  37849603.589
        42.400
 131520379.874 4                  24612240.680
        28.800
 110147189.340 6  85828980.56644  20960317.962    20960317.7844   20960318.8324
        39.300          27.0004
 202039521.739 7                  38446851.867
        43.800


 127696385.801 7                  24299810.920
        46.900
 140975424.930 6                  26826734.377
        40.100
 124018519.915 8                  23599923.618
        50.100
 105122335.751 8  81761833.680 7  19658405.237    19658405.733    19658410.830
        48.300          44.500
 25  1  1  6 22 15.0000000  0 25G18R01G23G15G11E27E03G25G05G29R16E15
                                E26R18S35R17R02S31G13S33E07E08E21E13
                                R24
 115957396.676 8  90356433.50146  22065958.499    22065958.2544   22065960.3104
        49.400          39.3004
 104812838.028 6  81521126.149 6  19607406.781    19607403.590    19607413.778
        36.400          38.400
 120846330.337 6  94165942.96542  22996292.232    22996292.0724   22996294.2694
        37.400          15.7004
 108522341.193 8  84562849.47347  20651097.985    20651097.6724   20651097.3374
        48.600          45.2004




 134838416.913 5                  25658904.703
        32.600


 111636288.119 6  86989307.31945  21243674.211    21243674.0684   21243676.5714
        36.400          31.1004
 107514245.609 7  83777297.52047  20459282.010    20459281.5234   20459281.1864
        47.300          46.8004
 128946903.489 6                  24139117.713    24139118.917
        36.300
 132140350.815 6                  25145470.013
        41.800
 139045766.589 6                  26459527.907
        37.000
 129159982.300 5                  24196019.673    24196021.530
        34.400
 200874529.453 6                  38225156.101
        38.500
 109278202.131 8  84994205.795 7  20421250.106    20421250.889    20421256.919
        52.300          47.500
 105678720.869 7  82194590.554 7  19804143.416    19804143.599    19804149.235
        46.300          45.300
 198901015.615 7                  37849603.625
        44.100
 110139419.092 6  85822925.85044  20958838.761    20958838.5834   20958839.7224
        37.300          24.7004
 202039494.997 7                  38446846.895
        44.900


 127675586.584 7                  24295853.305
        47.400
 141007690.960 6                  26832873.750
        39.500
 124010386.465 8                  23598376.120
        49.600
 105134898.888 8  81771605.009 7  19660755.455    19660755.857    19660759.800
        50.400          43.900
 25  1  1  6 22 30.0000000  0 26G18R01G23G15G26G11G20E27E03G25G05G29
                                R16E15E26S35R17R02S31G13S33E07E08E21
                                E13R24
 115923436.131 8  90329970.73146  22059495.668    22059495.4324   22059497.0764
        50.400          38.2004
 104840070.326 6  81542306.802 6  19612499.721    19612499.956    19612509.094
        40.800          39.600
 120807695.267 6  94135837.71642  22988940.141    22988939.8644   22988943.0424
        36.000          13.7004
 108488482.523 8  84536466.12647  20644654.948    20644654.6494   20644654.8154
        48.700          45.5004
 130862541.915 5 101970771.97642  24902309.893    24902309.8404   24902307.2244
        34.100          14.5004


 124432470.400 4                  23678703.629
        28.500






 111668780.991 6  87014626.44945  21249856.509    21249856.3404   21249860.0824
        40.500          31.5004
 107525732.501 8  83786248.33647  20461468.154    20461467.6814   20461466.3564
        49.300          47.9004
 128964606.351 6                  24142433.653    24142434.978
        37.400
 132161476.442 6                  25149489.692
        39.900
 139015519.722 5                  26453770.350
        32.900
 200874538.017 5                  38225163.014
        35.000
 109238523.657 8  84963344.771 7  20413835.833    20413836.742    20413841.989
        52.900          46.600
 105644267.904 7  82167793.813 7  19797687.698    19797687.815    19797692.020
        47.100          44.800
 198901007.012 7                  37849603.736
        42.200
 110131811.801 6  85816998.15343  20957390.396    20957390.1864   20957391.2304
        38.100          20.7004
 202039469.536 7                  38446847.217
        45.200


 127654885.692 7                  24291914.334
        47.700
 141040009.622 6                  26839023.955
        41.500
 124002284.428 8                  23596834.180
        48.700
 105147591.618 8  81781477.173 7  19663129.372    19663129.649    19663135.237
        51.400          45.200
 25  1  1  6 22 45.0000000  0 23G18R01G23G15G26G11E27E03G25G05G29E15
                                E26S35R17R02S31S33E07E08E21E13R24
 115889507.073 8  90303532.49346  22053038.857    22053038.6214   22053039.4224
        48.900          36.2004
 104867465.756 6  81563614.342 6  19617624.305    19617626.121    19617634.186
        40.500          40.500
 120769113.040 6  94105773.68241  22981597.883    22981597.5304   22981600.9064
        37.700          11.3004
 108454753.761 7  84510183.98147  20638236.577    20638236.2564   20638236.6284
        47.700          44.7004
 130875628.150 5 101980968.96642  24904798.932    24904798.8654   24904800.5394
        31.500          16.1004








 111701331.126 6  87039990.26744  21256048.169    21256048.0224   21256053.2934
        36.900          28.2004
 107537367.850 8  83795314.83248  20463682.247    20463681.7784   20463680.4004
        50.700          50.1004
 132182633.229 6                  25153516.606
        41.000
 138985271.930 6                  26448018.450
        40.700
 200874546.291 5                  38225148.964
        33.300
 109198909.562 8  84932533.866 7  20406433.757    20406433.533    20406437.796
        52.000          45.400
 105609978.518 8  82141124.287 7  19791262.124    19791262.643    19791266.048
        49.700          44.600
 198900998.933 7                  37849596.729
        42.700
 202039444.281 7                  38446835.215
        43.700


 127634281.893 7                  24287993.422
        46.700
 141072379.286 6                  26845183.821
        38.800
 123994212.468 7                  23595298.012
        47.400
 105160412.953 8  81791449.345 7  19665526.429    19665526.251    19665532.582
        51.100          45.600
 25  1  1  6 23  0.0000000  0 24G18R01G23G15G26G11G20E27E03G05G29R16
                                E15E26S35R17R02S31S33E07E08E21E13R24
 115855610.087 8  90277119.30946  22046589.781    22046589.5624   22046588.9774
        48.100          37.8004
 104895024.359 7  81585048.745 6  19622784.345    19622785.538    19622790.114
        46.700          41.500
 120730584.175 6  94075751.08541  22974267.036    22974266.8804   22974269.1894
        39.000           6.8004
 108421155.495 8  84484003.55747  20631843.440    20631843.1054   20631843.5904
        49.100          45.7004
 130888822.620 5 101991250.31643  24907309.115    24907308.9904   24907311.4044
        35.700          18.2004
 130444953.470 5                  24822849.045
        33.400
 124517166.157 5                  23694829.700
        32.300


 134898379.870 6                  25670307.529
        37.300
 111733938.495 5  87065398.54044  21262254.658    21262254.5204   21262257.6964
        32.400          25.3004
 107549151.716 8  83804497.05048  20465924.233    20465923.7684   20465923.2234
        49.500          50.1004
 129000477.422 5                  24149145.522    24149144.644
        34.800
 132203821.751 6                  25157547.614
        40.400
 138955023.814 6                  26442261.180
        40.100
 200874556.084 4                  38225152.653
        26.800
 109159360.683 8  84901773.545 7  20399043.115    20399042.992    20399047.407
        51.800          46.100
 105575853.152 7  82114582.350 7  19784867.425    19784866.877    19784872.200
        47.500          46.100
 198900991.610 7                  37849604.125
        44.900
 202039420.008 7                  38446833.753
        43.400


 127613775.675 7                  24284091.179
        46.600
 141104800.202 7                  26851353.248
        42.100
 123986171.033 8                  23593768.126
        48.800
 105173363.380 8  81801521.876 7  19667949.420    19667949.012    19667953.599
        52.400          45.500
 25  1  1  6 23 15.0000000  0 23G18R01G23G15G26G11E03G05G29E15E26R18
                                S35R17R02S31G13S33E07E08E21E13R24
 115821745.125 8  90250730.99745  22040145.189    22040144.9484   22040144.4344
        48.000          35.5004
 104922745.602 7  81606609.756 6  19627969.261    19627969.284    19627975.877
        43.800          40.600
 120692108.538 6  94045770.42642  22966946.016    22966945.9674   22966947.0374
        41.700          12.2004
 108387688.333 7  84457925.22947  20625474.404    20625474.0694   20625474.9224
        47.700          44.8004




 134918573.362 5                  25674152.043
        32.900
 111766604.121 6  87090837.59145  21268472.570    21268472.6724   21268472.4654
        39.900          30.3004
 107561084.001 8  83813794.92848  20468194.725    20468194.2604   20468194.4724
        51.000          49.8004
 132225041.977 7                  25161586.606
        42.500
 138924775.534 7                  26436506.525
        43.800
 128940763.401 6                  24154951.079
        37.200


 109119877.260 8  84871064.342 7  20391664.117    20391664.649    20391667.320
        51.800          44.900
 105541892.250 7  82088168.289 7  19778502.356    19778502.627    19778507.051
        44.500          44.300
 198900928.399 7                  37849594.990
        43.000
 110109961.485 6  85799986.00743  20953232.756    20953232.4934   20953233.1984
        36.700          20.9004
 202039395.078 6                  38446826.182
        40.800
 139569931.510 5                  26559287.240
        30.500
 127593367.264 6                  24280206.930
        41.700
 141137271.975 6                  26857531.975
        38.500
 123978160.276 7                  23592242.069
        46.400
 105186442.870 8  81811694.806 7  19670395.572    19670395.580    19670399.299
        52.500          45.500
 25  1  1  6 23 30.0000000  0 23G18R01G23G15G26G11E03G05G29E15E26R18
                                S35R17R02S31G13S33E07E08E21E13R24
 115787908.994 8  90224365.22446  22033706.734    22033706.4894   22033705.0794
        48.600          36.1004
 104950625.305 6  81628293.998 6  19633184.235    19633183.205    19633190.567
        41.800          39.500
 120653682.696 7  94015828.13142  22959633.067    22959632.9694   22959635.4334
        43.900          16.6004
 108354348.623 7  84431946.28647  20619129.822    20619129.4964   20619130.1144
        46.600          44.6004
 130915522.064 6 102012085.92243  24912392.295    24912391.9874   24912394.4544
        37.000          21.2004
 130527986.104 5                  24838650.253
        32.100
 134938856.393 5                  25678011.237
        34.100


 107573161.007 8  83823205.57048  20470492.452    20470491.9834   20470492.9354
        48.600          48.6004
 132246290.339 6                  25165629.517
        41.900
 138894523.187 7                  26430748.512
        42.400
 128885900.138 6                  24144674.989    24144673.374
        36.100
 200874546.797 5                  38225150.560
        35.200
 109080456.150 8  84840403.438 7  20384297.065    20384297.401    20384301.132
        51.100          44.400
 105508091.943 7  82061879.187 7  19772166.653    19772165.765    19772172.305
        42.600          44.400
 198900918.402 6                  37849601.612
        41.400
 110102998.929 7  85794560.60644  20951910.056    20951909.6944   20951908.2744
        42.700          24.9004
 202039367.856 6                  38446826.621
        38.800


 127573053.036 7                  24276340.824
        44.400
 141169790.686 6                  26863720.226
        40.900
 123970176.493 7                  23590724.055
        46.700
 105199647.865 8  81821965.320 7  19672864.774    19672865.302    19672868.381
        53.000          45.800
 25  1  1  6 23 45.0000000  0 22G18R01G23G15G26G11E03G05G29E15E26S35
                                R17R02S31G13S33E07E08E21E13R24
 115754104.372 8  90198023.98146  22027273.446    22027273.2014   22027272.7304
        48.600          36.8004
 104978665.795 7  81650103.283 5  19638430.937    19638431.428    19638434.971
        43.600          34.900
 120615309.474 6  93985927.01142  22952331.749    22952331.6474   22952333.3854
        41.800          16.6004
 108321139.363 7  84406068.84447  20612810.727    20612810.4064   20612810.5264
        46.800          45.6004
 130929035.812 5 102022616.14543  24914963.526    24914963.1514   24914967.6364
        35.700          20.5004
 130569550.961 5                  24846559.286
        33.400


 111832093.022 6  87141870.64045  21280934.349    21280934.2874   21280934.1664
        38.900          30.0004
 107585385.720 8  83832731.32148  20472819.288    20472818.8324   20472819.1674
        48.500          49.3004
 132267569.588 6                  25169678.779
        40.400
 138864269.761 6                  26424992.465
        41.700
 200874568.462 5                  38225161.104
        34.700
 109041100.439 8  84809793.541 7  20376942.176    20376942.547    20376947.088
        51.600          44.900
 105474455.571 6  82035717.596 7  19765862.033    19765860.464    19765869.383
        39.900          43.000
 198900908.089 5                  37849587.093
        35.700
 110096197.998 7  85789261.22044  20950614.278    20950613.8054   20950614.3704
        46.600          24.7004
 202039340.445 7                  38446820.141
        44.400


 127552835.875 7                  24272493.565
        42.700
 141202358.997 7                  26869919.479
        42.400
 123962222.679 7                  23589210.024
        47.000
 105212981.337 8  81832335.792 7  19675357.829    19675358.415    19675362.429
        52.800          43.700
 25  1  1  6 24  0.0000000  0 24G18R01G23G15G26G11E03G25G05G29R16E15
                                E26S35R17R02S31G13S33E07E08E21E13R24
 115720333.406 8  90171708.96145  22020846.864    22020846.6104   22020845.8774
        50.300          35.1004
 105006869.161 6  81672039.302 5  19643705.212    19643706.681    19643710.627
        40.700          34.200
 120576990.809 7  93956068.22343  22945040.588    22945040.5214   22945042.6334
        44.100          19.7004
 108288062.911 7  84380294.97447  20606516.302    20606515.9764   20606516.2264
        47.900          44.9004
 130942657.904 5 102033230.72643  24917555.718    24917555.5134   24917560.3764
        35.400          19.0004
 130611144.615 5                  24854471.221
        30.700




 111864923.066 7  87167452.51645  21287182.234    21287182.2084   21287179.1354
        42.500          30.1004
 107597759.985 8  83842373.62148  20475173.806    20475173.3504   20475173.4634
        49.700          49.1004
 129073971.550 6                  24162934.285    24162930.035
        37.000
 132288881.721 6                  25173732.739
        40.700
 138834017.079 7                  26419235.600
        43.200
 200874575.775 6                  38225160.358
        36.800
 109001812.354 8  84779236.076 8  20369601.108    20369601.538    20369606.808
        50.100          48.300
 105440985.626 7  82009685.318 7  19759590.876    19759590.691    19759597.145
        43.500          44.000
 198900899.125 6                  37849594.668
        40.300
 110089560.840 7  85784089.42144  20949351.622    20949351.1894   20949351.8164
        46.700          26.2004
 202039314.134 7                  38446810.094
        43.500
 139431636.399 5                  26532945.012
        32.600
 127532718.016 7                  24268665.447
        44.000
 141234978.509 7                  26876126.641
        42.200
 123954300.797 7                  23587701.711
        44.300
 105226445.239 8  81842807.692 7  19677874.930    19677875.313    19677880.762
        50.700          44.100
 25  1  1  6 24 15.0000000  0 26G18R01G23G15G26G11E27E03G25G05G29E15
                                E26R18S35R23R17R02S31G13S33E07E08E21
                                E13R24
 115686592.348 8  90145417.26445  22014426.469    22014426.1974   22014426.4344
        49.200          34.3004
 105035230.438 7  81694098.134 5  19649010.954    19649011.408    19649016.905
        43.300          32.300
 120538722.766 6  93926248.93843  22937758.939    22937758.8774   22937761.6604
        40.300          18.1004
 108255115.692 8  84354621.78647  20600246.689    20600246.3504   20600246.4974
        48.100          44.8004
 130956384.493 6 102043926.72642  24920166.886    24920166.8644   24920172.5914
        37.000          13.4004




 135000285.359 6                  25689700.947
        36.300


 111897806.854 7  87193076.15645  21293438.747    21293438.7344   21293436.2324
        42.400          30.6004
 107610279.792 8  83852129.31148  20477556.269    20477555.8004   20477555.2644
        50.400          48.7004
 132310222.947 6                  25177794.990
        38.800
 138803761.405 7                  26413477.555
        42.500
 128721135.995 5                  24113809.857
        32.400
 200874581.294 6                  38225164.628
        40.100
 126989265.337 5                  23739308.344    23739309.439
        32.300
 108962588.601 7  84748728.710 7  20362268.679    20362269.978    20362274.482
        47.900          46.500
 105407677.807 7  81983779.239 7  19753348.982    19753349.567    19753357.010
        45.000          44.100
 198900888.056 7                  37849587.947
        42.200
 110083083.550 7  85779042.20344  20948118.371    20948117.9514   20948120.2114
        45.300          24.9004
 202039286.246 7                  38446799.648
        42.500
 139385555.727 5                  26524188.134
        33.000
 127512695.533 7                  24264854.720
        44.200
 141267645.120 6                  26882341.819
        40.000
 123946406.973 7                  23586199.932
        46.100
 105240035.874 8  81853378.122 7  19680417.418    19680417.350    19680421.355
        50.600          44.200
 25  1  1  6 24 30.0000000  0 25G18R01G23G15G26G11E27E03G25G05G29R16
                                E15E26S35R17R02S31G13S33E07E08E21E13
                                R24
 115652888.406 8  90119154.47945  22008012.532    22008012.2334   22008013.5284
        48.400          34.7004
 105063756.704 7  81716281.150 5  19654347.483    19654347.990    19654355.902
        44.300          32.900
 120500512.565 7  93896474.71543  22930485.965    22930485.8814   22930489.8894
        43.700          21.6004
 108222304.836 7  84329054.91147  20594002.438    20594002.1084   20594003.1284
        47.000          46.6004
 130970222.135 5 102054709.63641  24922800.394    24922800.3594   24922807.0474
        30.600          10.4004








 111930750.666 7  87218746.70745  21299708.582    21299708.6584   21299707.0344
        43.500          31.6004
 107622952.158 8  83862003.85148  20479967.771    20479967.3024   20479966.5594
        49.700          48.6004


 132331600.330 6                  25181862.632
        40.200
 138773509.857 7                  26407720.520
        42.100
 200874591.753 6                  38225165.263
        37.300
 108923436.449 7  84718277.049 8  20354953.890    20354953.612    20354959.471
        47.500          48.200
 105374539.734 7  81958005.187 7  19747139.549    19747140.008    19747147.379
        47.400          44.000
 198900882.008 6                  37849594.489
        40.800
 110076773.286 7  85774124.96343  20946917.987    20946917.5544   20946916.9374
        46.300          22.6004
 202039261.838 6                  38446794.465
        38.600
 139339500.460 4                  26515411.251
        28.900
 127492775.602 7                  24261064.607
        44.900
 141300365.550 7                  26888569.931
        42.400
 123938548.352 7                  23584705.152
        45.400
 105253760.354 8  81864052.715 7  19682984.553    19682984.790    19682988.790
        49.800          43.700
 25  1  1  6 24 45.0000000  0 25G18R01G23G15G26E03G25G05G29R03E15E26
                                R18S35R23R17R02S31G13S33E07E08E21E13
                                R24
 115619215.048 7  90092915.53445  22001605.718    22001605.4324   22001606.2524
        47.500          35.2004
 105092440.815 7                  19659715.023    19659715.278
        44.200
 120462353.644 6  93866740.54644  22923226.193    22923226.1044   22923227.0084
        40.900          25.0004
 108189623.983 8  84303589.28547  20587784.021    20587783.6954   20587784.6444
        48.300          47.5004
 130984164.248 5 102065591.32441  24925456.459    24925456.2674   24925459.8694
        33.200          11.5004
 135041700.334 6                  25697578.709
        36.100


 111963747.906 7  87244458.70345  21305988.101    21305988.1454   21305987.6214
        42.400          32.5004
 107635770.373 8  83871992.09548  20482407.263    20482406.7984   20482405.9064
        50.900          49.0004
 126312846.979 5                  23596290.639
        31.000
 132353007.277 6                  25185935.835
        38.300
 138743255.631 7                  26401962.894
        42.300
 128611188.156 5                  24093212.280
        34.000
 200874599.692 6                  38225153.999
        39.600
 127090816.235 5                  23758289.405
        30.400
 108884349.770 7  84687876.334 7  20347649.440    20347648.407    20347655.787
        44.400          47.000
 105341565.081 8  81932358.200 7  19740960.005    19740960.418    19740966.099
        48.100          42.900
 198900873.693 6                  37849584.643
        39.600
 110070623.324 7  85769332.74043  20945748.675    20945748.2694   20945743.1864
        47.700          23.6004
 202039236.216 6                  38446790.119
        38.300


 127472951.772 7                  24257292.863
        45.200
 141333133.067 6                  26894804.685
        40.700
 123930718.378 8                  23583215.628
        48.100
 105267612.213 7  81874826.353 7  19685573.865    19685573.197    19685577.958
        46.500          43.800
 25  1  1  6 25  0.0000000  0 25G18R01G23G15G26E27E03G05G29R16E15E26
                                R18S35R23R17R02S31G13S33E07E08E21E13
                                R24
 115585572.204 8  90066700.37545  21995203.519    21995203.2424   21995203.4474
        48.300          33.4004
 105121282.091 7                  19665109.436    19665109.119
        45.000
 120424245.577 6  93837045.94544  22915974.869    22915974.7624   22915973.9564
        41.500          24.8004
 108157073.320 8  84278225.11047  20581590.445    20581590.1244   20581590.4764
        50.100          47.6004
 130998210.177 5 102076536.36142  24928124.372    24928124.1134   24928140.0574
        34.300          14.5004


 135062544.172 5                  25701545.957
        34.500
 111996797.953 7  87270211.98445  21312275.684    21312275.7154   21312277.3654
        42.400          33.4004
 107648734.035 8  83882093.64448  20484874.126    20484873.6534   20484872.7034
        49.600          49.0004
 129150059.255 6                  24177161.558    24177160.679
        38.300
 132374443.554 6                  25190016.397
        40.600
 138712998.584 6                  26396206.255
        40.500
 128556169.577 5                  24082903.141    24082901.584
        35.600
 200874605.927 6                  38225166.774
        37.700
 127141657.653 4                  23767798.305    23767799.430
        27.500
 108845328.403 7  84657526.323 7  20340358.604    20340358.817    20340364.694
        46.500          46.100
 105308753.506 8  81906838.061 6  19734812.776    19734812.223    19734817.300
        48.800          41.900
 198900863.195 6                  37849585.228
        41.200
 110064633.599 7  85764665.36244  20944608.139    20944607.6974   20944603.5574
        44.700          25.4004
 202039208.252 7                  38446790.298
        43.100


 127453223.825 7                  24253537.926
        44.900
 141365946.970 5                  26901047.945
        32.500
 123922916.884 8                  23581730.987
        48.900
 105281591.114 7  81885698.818 7  19688187.398    19688187.648    19688192.525
        47.000          43.300
 25  1  1  6 25 15.0000000  0 22G18R01G23G15G26E03G05G29R03E15E26S35
                                R17R02S31G13S33E07E08E21E13R24
 115551961.487 7  90040510.26445  21988808.180    21988807.9084   21988806.5454
        47.500          31.4004
 105150281.704 7                  19670534.379    19670534.020
        45.100
 120386190.032 6  93807392.27244  22908731.786    22908731.6884   22908731.5244
        41.600          24.7004
 108124654.470 8  84252963.66247  20575421.465    20575421.1524   20575420.8854
        50.600          47.6004
 131012361.120 5 102087563.21242  24930819.351    24930819.0034   24930834.0304
        33.000          14.7004
 135083480.080 6                  25705530.879
        36.300
 112029901.521 6  87296006.97045  21318575.416    21318575.4244   21318577.2504
        38.000          31.2004
 107661844.578 8  83892309.64848  20487368.469    20487367.9914   20487368.3514
        49.500          48.8004


 132395910.637 7                  25194101.760
        42.300
 138682740.224 6                  26390448.114
        40.600
 200874611.166 6                  38225172.069
        38.100
 108806374.074 7  84627228.575 7  20333077.416    20333077.406    20333084.110
        45.100          44.300
 105276106.759 8  81881446.104 6  19728694.008    19728694.578    19728698.520
        48.800          40.900
 198900851.791 7                  37849587.849
        42.900
 110058805.646 7  85760124.09544  20943499.591    20943499.1624   20943494.5504
        45.400          26.3004
 202039180.390 7                  38446781.976
        42.000
 139201458.763 5                  26489153.637
        30.100
 127433593.379 7                  24249802.561
        44.500


 123915145.333 8                  23580251.591
        48.200
 105295698.553 8  81896671.256 7  19690826.200    19690827.350    19690829.973
        48.200          42.800
 25  1  1  6 25 30.0000000  0 24G18R01G23G15G26E27E03G05G29E15E26R18
                                S35R23R17R02S31G13S33E07E08E21E13R24
 115518384.521 7  90014346.34545  21982417.811    21982417.5434   21982417.0304
        47.800          34.9004
 105179440.533 6  81806258.392 5  19675986.593    19675984.995    19675993.605
        41.300          33.900
 120348188.580 7  93777780.82144  22901501.887    22901501.7534   22901499.8774
        42.300          24.3004
 108092369.401 8  84227806.47347  20569277.246    20569276.9334   20569276.6564
        51.900          47.6004




 135104509.661 6                  25709534.550
        39.300
 112063060.450 6  87321845.19445  21324887.738    21324887.7694   21324885.4354
        40.800          31.5004
 107675103.495 8  83902641.25048  20489892.087    20489891.6224   20489891.6754
        48.000          48.6004
 132417410.180 7                  25198193.003
        42.700
 138652482.145 6                  26384689.871
        41.400
 128446055.542 6                  24062274.103    24062279.185
        37.800
 200874616.792 6                  38225156.356
        37.700
 127243514.913 5                  23786833.692
        31.200
 108767488.907 7  84596984.515 7  20325811.767    20325811.712    20325818.292
        47.000          45.900
 105243626.781 7  81856183.800 6  19722607.601    19722607.238    19722611.984
        47.500          41.000
 198900841.817 6                  37849576.697
        39.500
 110053141.088 7  85755710.17645  20942420.666    20942420.2424   20942417.7974
        46.000          30.0004
 202039151.723 6                  38446780.093
        41.400
 139155485.032 5                  26480397.082
        31.400
 127414062.000 7                  24246086.246
        46.600
 141431743.024 5                  26913566.034
        34.100
 123907405.438 7                  23578778.758
        47.700
 105309936.460 7  81907745.189 6  19693486.751    19693487.683    19693492.735
        47.400          41.900
 25  1  1  6 25 45.0000000  0 26G18R01G23G15G26E27E03G25G05G29R16E15
                                E26R18S35R23R17R02S31G13S33E07E08E21
                                E13R24
 115484840.372 7  89988208.05845  21976034.037    21976033.7784   21976033.3824
        47.300          33.2004
 105208757.044 7  81829060.128 6  19681472.824    19681472.293    19681479.423
        43.100          36.700
 120310239.986 5  93748210.51743  22894279.828    22894279.6764   22894278.4574
        31.700          22.0004
 108060217.082 8  84202752.72048  20563159.263    20563158.9554   20563158.0504
        51.400          48.4004
 131040953.159 5 102109893.74142  24936265.772    24936266.2994   24936279.2014
        32.300          15.6004


 135125631.373 5                  25713552.114
        35.400


 112096273.571 5  87347725.52444  21331206.907    21331206.8944   21331205.8734
        34.800          29.1004
 107688509.621 8  83913087.58748  20492442.812    20492442.3434   20492442.9994
        49.300          49.2004
                                                  24188131.559

 132438941.027 7                  25202290.716
        42.500
 138622223.163 7                  26378931.596
        43.400
 128390961.771 5                  24051950.466    24051951.042
        31.600
 200874622.915 6                  38225154.540
        39.100
 127294521.271 5                  23796364.865
        32.100
 108728672.128 6  84566793.760 6  20318554.414    20318555.405    20318561.099
        41.400          41.100
 105211312.591 8  81831050.513 7  19716553.326    19716553.063    19716556.889
        48.000          42.500
 198900831.335 7                  37849581.817
        43.100
 110047638.696 8  85751422.60545  20941373.415    20941373.0004   20941371.8534
        48.000          31.7004
 202039123.895 7                  38446778.197
        43.900
 139109457.042 5                  26471649.770
        31.300
 127394628.819 7                  24242388.430
        46.800
 141464700.892 5                  26919838.389
        32.200
 123899696.093 7                  23577311.960
        46.200
 105324303.554 7  81918919.579 7  19696174.524    19696175.929    19696180.940
        47.800          44.600
 25  1  1  6 26  0.0000000  0 25G18R01G23G15G26G11E03G05G29R16R03E15
                                E26R18S35R17R02S31G13S33E07E08E21E13
                                R24
 115451331.384 8  89962097.14645  21969656.681    21969656.4224   21969657.1574
        48.300          34.3004
 105238232.937 6  81851985.857 6  19686986.535    19686986.756    19686995.196
        38.300          38.400
 120272347.021 5  93718702.60942  22887068.618    22887068.5074   22887065.5924
        34.100          15.9004
 108028200.086 8  84177804.47247  20557066.367    20557066.0464   20557065.9794
        51.600          47.0004






 112129542.704 6  87373649.62444  21337537.395    21337537.3284   21337535.1954
        36.900          26.2004
 107702065.003 8  83923650.21948  20495022.531    20495022.0844   20495022.5984
        49.400          48.6004
 129228534.255 5                  24191845.062    24191854.551
        33.700
 125990558.931 5                  23536100.652
        31.500
 132460505.474 6                  25206392.499
        40.600
 138591965.603 6                  26373173.845
        41.800
 128335845.744 6                  24041629.501    24041631.472
        36.000
 200874574.279 5                  38225159.468
        33.000
 108689926.531 8  84536658.267 7  20311317.927    20311317.757    20311322.289
        49.600          42.000
 105179166.655 7  81806048.153 7  19710527.474    19710527.507    19710532.996
        46.800          42.800
 198900822.567 7                  37849582.407
        45.300
 110042300.920 7  85747263.36945  20940357.027    20940356.6214   20940357.7424
        45.500          33.2004
 202039097.761 6                  38446763.352
        40.300
 139063529.103 5                  26462911.344
        32.100
 127375296.056 7                  24238709.333
        43.800
 141497708.653 5                  26926118.105
        30.700
 123892019.527 7                  23575850.460
        45.400
 105338802.244 7  81930196.299 7  19698886.607    19698887.306    19698891.410
        47.700          44.400
 25  1  1  6 26 15.0000000  0 24G18R01G23G15G26G20E03G05G29R16E15E26
                                R18S35R17R02S31G13S33E07E08E21E13R24
 115417858.235 7  89936014.27745  21963287.281    21963287.0404   21963286.9504
        46.100          31.9004
 105267868.786 6  81875035.971 6  19692528.605    19692527.902    19692537.594
        37.100          37.800
 120234509.568 5  93689218.83842  22879865.039    22879864.7314   22879866.5704
        34.900          17.7004
 107996319.270 8  84152962.26548  20550999.970    20550999.6494   20550999.3554
        51.200          48.0004


 125068858.058 5                  23799814.032
        33.700




 107715770.323 7  83934329.71948  20497630.947    20497630.5004   20497630.5824
        46.600          48.8004


 132482104.145 7                  25210503.985
        43.200
 138561710.197 7                  26367417.741
        43.300
 128280708.097 5                  24031297.862    24031296.913
        31.500
 200874564.272 6                  38225170.714
        38.300
 108651252.936 7  84506578.801 7  20304091.529    20304090.408    20304095.503
        47.600          43.600
 105147189.918 8  81781177.183 7  19704537.504    19704537.031    19704539.721
        48.800          42.500
 198900816.912 6                  37849582.384
        40.600
 110037128.356 8  85743232.78545  20939373.754    20939373.3434   20939374.1384
        48.600          34.6004
 202039074.135 6                  38446761.246
        41.200


 127356064.510 7                  24235049.868
        47.500
 141530766.914 5                  26932407.505
        30.200
 123884376.597 7                  23574396.149
        47.200
 105353433.367 7  81941576.083 7  19701621.593    19701622.356    19701627.676
        47.300          43.400
 25  1  1  6 26 30.0000000  0 23G18R01G23G15G26G20E03G05G29E15E26R18
                                S35R17R02S31G13S33E07E08E21E13R24
 115384418.743 7  89909957.58045  21956923.869    21956923.6464   21956922.1644
        45.200          31.0004
 105297661.498 7  81898208.062 6  19698105.325    19698105.026    19698110.836
        45.300          38.400
 120196725.681 6  93659776.89842  22872677.020    22872676.9444   22872676.9974
        39.300          17.6004
 107964572.341 8  84128224.39148  20544958.281    20544957.9684   20544958.0554
        51.200          48.3004
 131084728.990 5 102143994.27642  24944594.971    24944594.8154   24944605.3044
        31.100          12.0004
 125111333.671 5                  23807896.623
        32.600


 112196247.498 5  87425627.29444  21350228.574    21350228.5124   21350231.7684
        34.800          28.5004
 107729623.019 7  83945124.04747  20500266.445    20500266.0074   20500266.7694
        47.400          47.5004
 132503734.627 7                  25214619.339
        45.300
 138531454.274 6                  26361659.234
        40.600
 128225545.900 5                  24020971.621    24020967.666
        35.900
 200874574.575 6                  38225174.099
        40.200
 108612649.055 8  84476553.583 7  20296878.452    20296877.462    20296880.602
        50.200          44.400
 105115379.855 7  81756436.021 7  19698574.313    19698574.570    19698579.866
        47.100          44.700
 198900810.588 7                  37849576.419
        42.800
 110032118.672 7  85739329.16445  20938419.605    20938419.1904   20938420.6714
        47.600          34.6004
 202039049.412 7                  38446761.961
        43.000
 138971758.645 5                  26445447.192
        33.700
 127336931.765 7                  24231409.110
        47.000
 141563871.239 6                  26938709.723
        37.900
 123876764.669 8                  23572948.073
        49.700
 105368194.276 7  81953056.723 7  19704383.131    19704384.706    19704389.918
        47.900          43.600
 25  1  1  6 26 45.0000000  0 24G18R01G23G15G26G11E03G05G29R16E15E26
                                R18S35R17R02S31G13S33E07E08E21E13R24
 115351012.883 7  89883927.03545  21950567.484    21950567.2924   21950566.1104
        45.100          32.2004
 105327610.675 7  81921501.845 6  19703708.235    19703709.020    19703713.824
        46.400          38.500
 120158995.296 5  93630376.63943  22865494.885    22865495.1044   22865497.1854
        31.900          18.8004
 107932959.510 8  84103591.03548  20538942.656    20538942.3524   20538942.2244
        50.900          48.2004






 112229680.316 5  87451678.84444  21356592.633    21356592.5264   21356594.7174
        32.900          27.1004
 107743623.035 7  83956033.14547  20502930.626    20502930.1884   20502930.5334
        46.400          47.0004
 129288990.362 5 100558124.285 5  24203173.800                    24203174.982
        30.000          32.900
 132525396.917 7                  25218741.703
        45.000
 138501197.899 6                  26355901.746
        39.300
 128170359.597 5                  24010628.875    24010629.771
        32.700
 200874584.675 6                  38225180.315
        38.800
 108574115.319 8  84446582.868 7  20289678.162    20289678.641    20289681.518
        53.200          47.100
 105083736.621 7  81731824.596 7  19692642.863    19692642.658    19692650.674
        45.000          45.000
 198900804.655 6                  37849571.460
        41.900
 110027271.970 7  85735552.52945  20937497.484    20937497.0554   20937497.9524
        45.900          33.9004
 202039026.601 7                  38446751.023
        42.800
 138925900.874 5                  26436718.949
        30.700
 127317897.919 7                  24227787.454
        46.000
 141597022.528 6                  26945018.640
        36.400
 123869183.849 8                  23571505.894
        50.500
 105383085.106 8  81964638.485 6  19707167.940    19707169.677    19707174.657
        48.600          41.400
 25  1  1  6 27  0.0000000  0 24G18R01G23G15G26G11E03G25G05G29R16E15
                                E26S35R17R02S31G13S33E07E08E21E13R24
 115317635.940 7  89857919.02645  21944215.788    21944215.5834   21944215.8474
        43.800          31.1004
 105357710.614 7  81944913.011 6  19709337.784    19709338.135    19709344.621
        42.700          38.900
 120121313.600 5  93601014.22343  22858326.305    22858326.5734   22858327.2254
        35.100          18.6004
 107901476.210 8  84079058.62947  20532951.549    20532951.2414   20532951.1224
        51.200          47.9004








 112263161.589 6  87477768.10144  21362963.770    21362963.5834   21362966.1224
        37.200          28.9004
 107757765.219 8  83967053.00747  20505622.093    20505621.6644   20505621.8864
        48.300          47.6004
 129309436.642 5 100574026.928 5  24207023.774                    24207000.688
        31.900          32.600
 132547086.153 7                  25222869.255
        44.700
 138470936.256 6                  26350142.302
        38.900
 200874589.991 6                  38225185.627
        41.200
 108535647.155 8  84416663.198 7  20282488.800    20282489.390    20282491.699
        52.400          46.900
 105052255.712 7  81707339.463 7  19686745.722    19686745.433    19686750.462
        47.000          43.800
 198900793.782 6                  37849568.451
        41.400
 110022583.249 7  85731899.01345  20936606.169    20936605.6964   20936605.2784
        45.400          32.8004
 202038997.541 7                  38446739.773
        42.000
 138880061.283 5                  26427995.883
        34.300
 127298958.148 7                  24224182.743
        45.000
 141630215.518 6                  26951336.092
        36.300
 123861629.399 8                  23570068.518
        50.400
 105398101.042 7  81976317.580 6  19709976.209    19709975.365    19709979.415
        44.600          39.100
 25  1  1  6 27 15.0000000  0 25G18R01G23G15G26G11G20E03G05G29R16R03
                                E15E26S35R17R02S31G13S33E07E08E21E13
                                R24
 115284294.616 7  89831938.77745  21937871.304    21937871.0814   21937872.0954
        43.900          31.3004
 105387967.904 6  81968446.423 6  19714997.408    19714997.220    19715006.102
        41.100          39.600
 120083686.978 5  93571694.78342  22851187.477    22851187.6964   22851167.6434
        32.000          14.9004
 107870129.128 8  84054632.34547  20526986.324    20526986.0204   20526985.8844
        50.900          47.9004




 125238793.482 5                  23832150.934
        32.200


 112296697.076 6  87503899.63944  21369346.859    21369346.4974   21369347.1814
        37.000          26.6004
 107772056.032 7  83978188.66747  20508340.965    20508340.5414   20508341.7514
        47.400          47.7004
                 100590047.313 5                                  24210859.604
                        34.000
 125669298.312 5                  23476075.004    23476078.031
        35.000
 132568808.820 7                  25227002.618
        43.800
 138440675.942 5                  26344383.767
        35.000
 200874596.523 6                  38225184.674
        41.900
 108497251.409 8  84386799.832 7  20275310.790    20275311.868    20275316.945
        49.400          47.200
 105020943.734 7  81682985.722 7  19680876.489    19680876.805    19680882.311
        47.000          43.900
 198900784.164 7                  37849573.924
        42.200
 110018059.252 7  85728373.85745  20935745.503    20935744.9984   20935744.1014
        47.500          33.4004
 202038970.529 7                  38446740.967
        42.800
 138834246.502 5                  26419279.347
        34.500
 127280119.052 7                  24220597.678
        45.300
 141663456.312 6                  26957660.458
        36.300
 123854107.779 8                  23568637.204
        51.600
 105413248.837 7  81988099.291 6  19712808.209    19712807.901    19712812.881
        45.400          41.800
 25  1  1  6 27 30.0000000  0 24G18R01G23G15G26G11G20E03G05G29R16E15
                                E26S35R17R02S31G13S33E07E08E21E13R24
 115250987.313 7  89805985.04945  21931533.248    21931532.9714   21931533.5924
        44.200          30.8004
 105418380.255 7  81992100.559 6  19720687.250    19720687.368    19720693.792
        43.800          36.900
 120046113.740 4  93542416.98242  22844012.050    22844012.0244   22844017.8004
        29.800          14.7004
 107838916.893 8  84030311.17747  20521046.932    20521046.6194   20521046.0404
        50.900          47.6004


 131196305.567 4                  24965825.234
        29.300
 125281281.540 5  97621781.1294   23840237.008    23840237.7904   23840236.0224
        32.400           1.6004


 112330285.381 6  87530072.33344  21375737.441    21375737.0264   21375738.3464
        37.100          29.0004
 107786493.764 7  83989438.82247  20511088.263    20511087.8344   20511089.4734
        46.700          47.7004
 129350910.448 6 100606183.465 4  24214740.961    24214739.184    24214740.503
        36.300          29.600
 132590563.303 7                  25231142.409
        44.400
 138410415.060 5                  26338625.174
        34.400
 200874602.898 5                  38225192.808
        35.300
 108458926.778 7  84356991.775 7  20268148.085    20268148.704    20268153.835
        46.900          45.800
 104989799.356 8  81658762.309 7  19675042.120    19675042.491    19675046.173
        50.000          44.500
 198900774.656 7                  37849561.341
        42.400
 110013698.332 8  85724975.75045  20934915.368    20934914.8414   20934914.0704
        49.200          34.1004
 202038942.844 7                  38446740.864
        44.200
 138788455.132 6                  26410565.199
        36.500
 127261379.056 7                  24217031.009
        44.800
 141696743.082 5                  26963990.068
        35.400
 123846617.441 8                  23567211.653
        50.100
 105428526.724 7  81999982.103 7  19715665.097    19715666.122    19715670.168
        47.100          42.700
 25  1  1  6 27 45.0000000  0 25G18R01G23G15G26G11G20E03G05G29R16E15
                                E26R18S35R17R02S31G13S33E07E08E21E13
                                R24
 115217712.746 7  89780056.81745  21925200.636    21925200.3374   21925200.9034
        45.500          30.8004
 105448945.769 7  82015873.771 6  19726405.029    19726404.754    19726410.989
        43.000          36.700


 107807838.290 8  84006094.12347  20515133.229    20515132.9124   20515131.6264
        51.000          47.4004
 131159636.368 5 102202381.38643  24958852.253    24958851.8384   24958864.2094
        33.000          19.9004


 125323771.925 4  97654890.7364   23848317.615    23848317.2894   23848320.8194
        29.000           1.1004


 112363924.533 6  87556284.66744  21382137.981    21382137.5704   21382139.7554
        39.000          29.8004
 107801076.879 8  84000802.27548  20513863.993    20513863.5694   20513864.9924
        48.900          49.3004
                 100622434.449 5                                  24218653.786
                        30.400
 132612348.269 7                  25235288.537
        45.100
 138380152.336 5                  26332867.270
        33.000
 127949427.255 5  99516198.292 6  23969238.385    23969238.188    23969238.271
        33.500          36.300
 200874607.932 5                  38225186.615
        34.000
 108420672.228 8  84327238.202 7  20261000.952    20261000.901    20261005.114
        49.300          44.700
 104958820.963 8  81634668.001 7  19669235.616    19669235.861    19669239.127
        48.700          42.800
 198900763.669 7                  37849563.908
        42.200
 110009499.106 8  85721703.63845  20934116.523    20934116.0004   20934114.7594
        50.500          34.4004
 202038914.419 7                  38446739.348
        44.500
 138742685.828 5                  26401854.262
        34.900
 127242736.890 7                  24213483.791
        43.900
 141730074.161 5                  26970332.981
        32.400
 123839157.020 8                  23565791.985
        48.900
 105443933.133 7  82011964.902 7  19718545.280    19718546.062    19718550.921
        46.500          43.000
 25  1  1  6 28  0.0000000  0 25G18R01G23G15G26G11E03G05G29R03E15E26
                                R18S35R23R17R02S31G13S33E07E08E21E13
                                R24
 115184474.347 7  89754156.74645  21918875.928    21918875.6514   21918875.2964
        46.800          30.9004
 105479667.307 7  82039768.263 5  19732153.086    19732152.832    19732155.727
        46.400          34.600
 119971126.977 4  93483958.71542  22829749.738    22829749.8984   22829742.6064
        27.200          16.9004
 107776896.791 8  83981983.90147  20509245.103    20509244.7824   20509244.0514
        52.200          47.9004
 131174937.813 5 102214304.70742  24961761.773    24961761.8354   24961773.3974
        32.500          16.4004




 112397617.203 5  87582538.75944  21388548.224    21388547.8714   21388551.0524
        32.700          27.6004
 107815808.587 8  84012281.52548  20516667.513    20516667.0934   20516668.4084
        48.100          49.0004
 125477011.980 5                  23440144.365
        34.200
 132634167.000 7                  25239440.983
        46.100
 138349891.049 6                  26327108.325
        36.400
 127894120.519 5  99473181.872 5  23958872.260    23958873.414    23958876.971
        34.300          35.400
 200874614.450 6                  38225184.066
        37.100
 127756093.475 5                  23882646.265    23882647.180
        34.500
 108382491.620 8  84297542.167 7  20253866.640    20253867.071    20253869.880
        51.600          44.500
 104928012.352 7  81610705.708 7  19663462.121    19663461.655    19663466.705
        46.800          44.100
 198900754.365 6                  37849561.663
        41.200
 110005464.845 8  85718560.05645  20933348.655    20933348.1324   20933346.3194
        51.600          33.0004
 202038887.181 7                  38446726.268
        42.700
 138696942.204 5                  26393149.079
        31.300
 127224195.939 7                  24209954.922
        43.900
 141763452.479 6                  26976685.374
        37.100
 123831729.878 8                  23564378.590
        49.300
 105459471.803 7  82024050.521 7  19721451.417    19721452.308    19721458.777
        47.600          44.700
 25  1  1  6 28 15.0000000  0 25G18R01G23G15G26G11E03G05G29R16E15E26
                                R18S35R23R17R02S31G13S33E07E08E21E13
                                R24
 115151270.476 7  89728283.61745  21912556.948    21912556.6804   21912557.6094
        43.400          31.6004
 105510542.775 7  82063782.519 5  19737928.670    19737928.787    19737931.092
        47.100          31.300
 119933714.897 5  93454806.48643  22822630.863    22822630.9524   22822627.0784
        32.700          21.3004
 107746090.805 8  83957979.24848  20503382.780    20503382.4634   20503382.4824
        52.300          48.2004
 131190341.973 4 102226286.77242  24964693.064    24964693.1714   24964699.9854
        25.800          12.9004




 112431362.371 6  87608833.76045  21394971.643    21394971.3444   21394973.0624
        37.100          31.8004
 107830687.025 8  84023875.09748  20519498.916    20519498.5144   20519499.0714
        48.200          49.1004


 132656017.663 7                  25243598.937
        44.700
 138319629.431 6                  26321350.038
        36.600
 127838791.357 6  99430175.105 5  23948508.672    23948508.291    23948515.734
        36.100          33.500


 127807640.544 5                  23892278.734    23892279.820
        34.200
 108344383.280 8  84267902.353 7  20246745.178    20246745.247    20246748.804
        51.300          45.700
 104897371.804 7  81586874.165 7  19657720.173    19657719.917    19657724.230
        46.600          44.100
 198900744.577 7                  37849564.239
        43.200
 110001593.673 8  85715543.57045  20932611.650    20932611.1274   20932607.4554
        51.200          30.8004
 202038858.956 7                  38446728.889
        43.500
 138651222.481 4                  26384447.770
        24.400
 127205754.411 7                  24206445.305
        44.300
 141796875.941 6                  26983046.189
        39.200
 123824334.307 8                  23562971.370
        48.900
 105475140.812 8  82036237.473 7  19724383.376    19724383.957    19724387.864
        48.500          43.700
 25  1  1  6 28 30.0000000  0 25G18R01G23G15G26G11E03G05G29R16E15E26
                                R18S35R23R17R02S31G13S33E07E08E21E13
                                R24
 115118098.207 7  89702435.12545  21906245.875    21906245.6214   21906245.7124
        44.300          30.3004
 105541568.381 7  82087913.467 5  19743732.568    19743732.555    19743735.996
        47.200          32.700


 107715417.492 8  83934077.98948  20497545.624    20497545.2984   20497546.3674
        50.900          48.1004




 135364043.173 4                  25758927.339
        28.800


 107845709.079 8  84035580.59448  20522356.867    20522356.4654   20522356.5314
        48.000          48.0004
                 100671894.575 5                                  24230555.175
                        31.100
 132677897.347 7                  25247762.795
        44.500
 138289364.612 6                  26315591.355
        41.200
 127783435.997 6  99387120.972 5  23938134.797    23938140.450    23938146.985
        38.100          31.300
 200874685.960 6                  38225176.706
        36.400
 127859237.474 5                  23901925.910    23901924.130
        30.700
 108306344.536 8  84238316.657 7  20239637.238    20239637.961    20239640.909
        53.500          45.800
 104866896.457 8  81563171.114 7  19652009.157    19652009.150    19652013.418
        49.200          44.700
 198900732.684 6                  37849561.681
        41.600
 109997882.724 8  85712651.90545  20931905.227    20931904.7004   20931901.0734
        49.500          30.8004
 202038829.114 6                  38446723.116
        41.800
 138605524.170 5                  26375753.059
        31.800
 127187409.458 7                  24202955.038
        46.200
 141830341.454 5                  26989413.941
        35.700
 123816967.351 8                  23561569.228
        48.400
 105490937.044 7  82048523.490 7  19727335.097    19727335.309    19727341.769
        46.700          43.500
 25  1  1  6 28 45.0000000  0 25G18R01G23G15G26G11E03G05G29R16E15E26
                                R18S35R23R17R02S31G13S33E07E08E21E13
                                R24
 115084965.323 7  89676617.30044  21899940.578    21899940.3424   21899940.5194
        44.500          28.7004
 105572751.635 8  82112167.037 5  19749566.337    19749566.824    19749569.482
        48.600          31.300
 119859052.491 6  93396660.32542  22808418.183    22808417.6834   22808419.7994
        38.900          17.2004
 107684885.031 8  83910286.47747  20491735.517    20491735.1964   20491736.1064
        51.000          46.7004








 107860882.302 8  84047403.87247  20525244.325    20525243.9364   20525243.2374
        48.200          47.4004


 132699813.675 7                  25251932.448
        43.400
 138259103.968 7                  26309832.495
        42.400
 127728063.083 4                  23927766.233    23927764.939
        28.900
 200874693.715 6                  38225187.362
        41.700
 127910891.923 4                  23911580.363    23911576.271
        27.100
 108268383.406 8  84208791.402 7  20232542.371    20232543.311    20232547.655
        51.800          47.200
 104836594.454 8  81539602.849 7  19646329.991    19646330.207    19646334.234
        48.400          44.400
 198900724.715 7                  37849558.238
        42.700
 109994339.664 8  85709891.07545  20931231.102    20931230.5884   20931228.3984
        48.900          31.4004
 202038802.529 7                  38446718.716
        42.500
 138559854.840 5                  26367068.921
        34.300
 127169168.715 7                  24199483.981
        47.600
 141863856.103 6                  26995792.331
        37.300
 123809636.549 8                  23560174.293
        48.000
 105506868.731 8  82060914.780 7  19730317.136    19730316.459    19730320.692
        48.400          43.100
 25  1  1  6 29  0.0000000  0 24G18R01G23G15G26G11E03G05G29R03E15E26
                                R18S35R17R02S31G13S33E07E08E21E13R24
 115051867.836 7  89650827.05644  21893642.312    21893642.0804   21893642.1984
        43.200          28.7004
 105604087.668 7  82136539.507 5  19755428.234    19755428.062    19755432.388
        46.700          33.100
 119821803.525 6  93367635.15643  22801331.314    22801330.8094   22801332.2774
        39.500          21.1004
 107654489.484 8  83886601.68047  20485951.485    20485951.1684   20485951.1864
        50.700          46.1004






 112532876.513 6  87687975.70945  21414296.122    21414296.3324   21414297.2064
        39.900          32.9004
 107876202.315 8  84059341.54447  20528159.403    20528159.0144   20528158.8874
        48.400          47.3004
                  97394242.038 5                                  23392368.429
                        35.600
 132721762.501 7                  25256109.428
        44.700
 138228843.552 7                  26304075.434
        42.500
 127672667.992 5                  23917388.722
        31.400
 200874701.611 6                  38225183.793
        38.800
 108230496.155 8  84179323.576 7  20225462.424    20225462.788    20225466.814
        51.800          47.000
 104806461.206 8  81516165.813 7  19640684.654    19640684.721    19640688.801
        50.500          46.300
 198900716.450 6                  37849549.585
        40.900
 109990960.437 8  85707257.91445  20930588.763    20930588.2544   20930587.4224
        49.200          32.4004
 202038776.946 7                  38446709.679
        43.800
 138514210.752 5                  26358383.330
        34.500
 127151028.220 8                  24196032.855
        48.000
 141897415.654 6                  27002179.287
        36.900
 123802337.817 7                  23558785.398
        47.600
 105522931.400 8  82073407.961 7  19733320.211    19733320.151    19733324.903
        48.100          42.500
 25  1  1  6 29 15.0000000  0 25G18R01G23G15G26G11E03G05G29R03E15E26
                                R18S35R23R17R02S31G13S33E07E08E21E13
                                R24
 115018805.452 7  89625064.15244  21887350.106    21887349.8704   21887348.7294
        42.600          24.2004
 105635575.895 7  82161030.343 5  19761318.348    19761318.838    19761322.735
        45.900          34.900
 119784608.420 6  93338652.00343  22794256.672    22794256.1994   22794253.9624
        40.600          23.5004
 107624230.617 8  83863023.39647  20480193.079    20480192.7714   20480192.5094
        49.600          45.9004






 112566829.935 6  87714432.88945  21420758.610    21420758.5754   21420757.1494
        36.600          33.2004
 107891668.685 8  84071393.25948  20531103.365    20531102.9764   20531102.4224
        48.400          48.6004
 125157302.357 6  97344588.218 6  23380436.208    23380439.357    23380441.686
        39.300          36.200
 132743743.518 7                  25260292.300
        43.500
 138198583.040 7                  26298316.732
        44.400
                                                  23907008.334

 200874709.456 6                  38225184.178
        41.300
 128014303.649 5                  23930923.040
        35.700
 108192682.816 8  84149913.195 7  20218395.987    20218396.515    20218400.666
        52.500          46.900
 104776497.125 8  81492860.353 7  19635068.377    19635068.806    19635072.904
        49.200          44.100
 198900708.975 7                  37849561.435
        43.200
 109987744.706 8  85704752.14845  20929975.883    20929975.3744   20929976.0444
        50.300          34.0004
 202038751.206 7                  38446705.815
        42.200
 138468591.407 5                  26349689.779
        30.600
 127132987.684 7                  24192599.564
        44.000
 141931019.332 6                  27008572.381
        37.200
 123795070.989 8                  23557402.096
        48.200
 105539124.712 8  82086002.740 6  19736347.996    19736348.669    19736352.661
        49.200          41.500
 25  1  1  6 29 30.0000000  0 26G18R01G23G15G26G11G20E03G05G29R16R03
                                E15E26S35R23R17R02S31G13S33E07E08E21
                                E13R24
 114985780.234 7  89599330.30144  21881065.435    21881065.2394   21881061.9324
        42.300          24.0004
 105667217.755 7  82185640.725 6  19767237.554    19767237.210    19767241.594
        45.400          36.500
 119747469.053 7  93309712.20443  22787187.560    22787187.1224   22787186.0804
        44.200          22.8004
 107594110.689 8  83839553.33647  20474461.856    20474461.5484   20474460.7614
        50.100          46.2004




 125621295.518 4                  23904939.340
        29.500
 135453500.175 6                  25775943.531
        36.100
 112600835.867 6  87740931.09845  21427226.855    21427226.7714   21427227.6714
        38.800          31.2004
 107907283.332 8  84083560.51247  20534075.122    20534074.7424   20534074.2534
        48.000          47.6004
 129522088.469 5                  24246809.529    24246809.505
        34.700
 125093506.904 5  97294969.544 6  23368523.574    23368528.354    23368523.519
        34.200          36.500
 132765758.621 7                  25264481.520
        42.700
 138168324.285 7                  26292557.937
        43.200
 200874718.863 6                  38225183.047
        36.200
 128066117.946 5                  23940613.277    23940611.285
        31.800
 108154945.536 8  84120562.020 8  20211343.308    20211343.094    20211348.520
        52.100          48.800
 104746704.111 8  81469687.980 7  19629484.878    19629485.386    19629489.359
        49.100          44.000
 198900702.790 7                  37849556.328
        42.800
 109984694.072 8  85702375.01945  20929395.360    20929394.8554   20929396.2454
        48.800          34.7004
 202038726.402 7                  38446697.418
        44.800
 138423031.262 4                  26341016.089
        28.200
 127115048.974 7                  24189185.977
        46.500
 141964668.857 6                  27014976.813
        39.000
 123787838.008 7                  23556025.839
        46.300
 105555450.627 7  82098700.626 7  19739401.943    19739401.513    19739406.381
        45.500          44.100
 25  1  1  6 29 45.0000000  0 24G18R01G23G15G26E03G05G29R16R03E15E26
                                R18S35R17R02S31G13S33E07E08E21E13R24
 114952788.142 7  89573622.15144  21874786.994    21874786.7844   21874783.5284
        42.800          25.5004
 105699008.460 7  82210366.793 6  19773184.478    19773183.538    19773189.899
        45.900          38.000
 119710381.216 7  93280812.63343  22780129.282    22780128.7954   22780127.7224
        42.400          21.3004
 107564125.307 8  83816188.13847  20468755.258    20468754.9414   20468754.4254
        50.400          46.5004
 131284975.095 5                  24982699.679
        30.800
 135476083.376 5                  25780237.057
        32.800
 112634890.441 6  87767467.12445  21433710.531    21433710.2994   21433708.1574
        39.700          33.5004
 107923041.815 7  84095839.82347  20537072.978    20537072.5984   20537073.0984
        46.800          47.1004
 129544164.113 5                  24250943.172
        32.900
 125029753.074 5  97245383.251 5  23356609.806    23356609.445    23356612.047
        34.100          32.900
 132787803.666 7                  25268676.804
        42.600
 138138063.012 7                  26286800.643
        42.300
 127506383.573 4                  23886242.615
        28.500
 200874725.759 5                  38225188.109
        30.500
 108117280.470 8  84091266.994 8  20204304.870    20204304.465    20204310.320
        50.900          48.000
 104717077.790 7  81446645.222 7  19623932.031    19623932.418    19623937.978
        47.900          44.300
 198900694.071 6                  37849542.225
        38.900
 109981804.454 8  85700123.36645  20928845.724    20928845.2244   20928846.4774
        49.800          34.5004
 202038699.952 7                  38446699.971
        45.100
 138377461.957 5                  26332346.568
        32.400
 127097208.120 7                  24185789.906
        44.700
 141998359.665 6                  27021387.988
        36.600
 123780634.719 7                  23554655.394
        46.100
 105571905.169 7  82111498.535 7  19742479.279    19742477.922    19742483.926
        42.600          43.700
 25  1  1  6 30  0.0000000  0 23G18R01G23G15G26E03G05G29R03E15E26R18
                                S35R17R02S31G13S33E07E08E21E13R24
 114919830.062 6  89547940.53544  21868515.170    21868514.9784   21868513.7634
        39.100          25.0004
 105730948.241 7  82235208.852 6  19779158.485    19779159.106    19779166.271
        46.400          38.800
 119673345.656 6  93251953.84043  22773082.527    22773082.0544   22773079.2294
        38.500          19.7004
 107534275.573 8  83792928.63547  20463075.001    20463074.6884   20463074.1104
        49.900          46.7004
 131301092.952 4 102312566.0774   24985760.599    24985760.3454   24985769.0464
        29.300           5.9004
 135498754.653 5                  25784552.713
        34.300
 112668994.106 7  87794041.45046  21440199.612    21440199.3714   21440197.7074
        44.700          37.1004
 107938944.829 7  84108231.78447  20540100.217    20540099.8114   20540099.4564
        44.600          45.8004
 124966041.604 4  97195829.841 5  23344706.794    23344714.719    23344709.616
        29.400          35.500
 132809879.287 6                  25272876.622
        40.900
 138107800.035 6                  26281041.360
        38.900
 127450899.368 4  99128454.950 5  23875840.371                    23875839.294
        27.300          32.000


 108079688.615 8  84062028.867 8  20197280.866    20197279.886    20197284.775
        50.900          48.000
 104687619.261 7  81423732.964 7  19618412.102    19618412.066    19618416.799
        47.500          43.900
 198900683.987 6                  37849543.311
        39.500
 109979076.889 8  85697997.96545  20928326.749    20928326.2714   20928326.7984
        49.500          34.3004
 202038671.727 7                  38446690.625
        43.300
 138331916.667 5                  26323679.403
        34.300
 127079465.780 7                  24182413.826
        44.900
 142032092.231 6                  27027806.724
        38.000
 123773461.868 7                  23553289.613
        45.200
 105588488.979 7  82124397.011 7  19745581.249    19745581.050    19745585.712
        44.500          45.000
 25  1  1  6 30 15.0000000  0 23G18R01G23G15E03G05G29R16R03E15E26R18
                                S35R17R02S31G13S33E07E08E21E13R24
 114886904.428 6  89522284.20544  21862251.670    21862251.4294   21862251.4664
        40.800          29.1004
 105763035.129 7  82260165.322 6  19785162.740    19785163.270    19785169.206
        47.600          39.000
 119636360.768 6  93223134.48343  22766044.571    22766044.1654   22766040.7794
        39.200          18.5004
 107504560.305 8  83769773.89047  20457420.714    20457420.3974   20457419.8104
        48.900          47.5004
 135521512.317 5                  25788882.688
        34.200
 112703144.853 7  87820652.40946  21446697.614    21446697.4044   21446696.1644
        44.800          38.4004
 107954990.604 7  84120734.96947  20543153.539    20543153.0924   20543152.6854
        44.500          44.8004
                 100791270.682 5                                  24259290.443
                        33.700
                  97146308.455 5                                  23332814.505
                        31.600
 132831983.980 6                  25277084.269
        40.200
 138077533.801 6                  26275281.364
        38.300
 127395390.802 5  99085281.690 5  23865431.898                    23865442.726
        30.000          31.500
 200874749.541 5                  38225204.971
        35.200
 108042168.794 8  84032846.725 7  20190268.839    20190268.753    20190272.448
        51.600          47.100
 104658327.197 8  81400950.201 7  19612923.416    19612923.878    19612928.508
        48.400          45.300
 198900670.442 6                  37849543.209
        41.800
 109976509.859 8  85695997.68345  20927837.721    20927837.2614   20927837.6794
        50.400          34.1004
 202038639.905 7                  38446682.907
        43.700
 138286393.986 6                  26315016.721
        36.300
 127061820.521 7                  24179055.617
        43.700
 142065864.668 5                  27034233.936
        31.900
 123766317.886 7                  23551930.363
        44.200
 105605200.330 7  82137394.771 7  19748703.733    19748703.584    19748710.468
        42.000          45.100
 25  1  1  6 30 30.0000000  0 24G18R01G23G15G26E03G25G05G29R16E15E26
                                R18S35R17R02S31G13S33E07E08E21E13R24
 114854022.805 6  89496662.16345  21855994.340    21855994.0594   21855995.8144
        41.900          31.0004
 105795280.288 7  82285244.897 6  19791193.625    19791194.013    19791202.444
        46.900          40.000
 119599438.180 6  93194363.63043  22759017.607    22759017.2364   22759016.1644
        36.100          19.9004
 107474990.897 8  83746732.80548  20451793.937    20451793.6334   20451793.5884
        50.700          50.1004


 135544367.644 4                  25793228.946
        27.700


 112737354.113 7  87847308.95446  21453207.435    21453207.2664   21453205.2944
        43.600          38.4004
 107971190.527 7  84133358.27647  20546236.345    20546235.8634   20546235.2914
        42.000          44.9004
 129611274.239 6 100808782.335 5  24263502.475                    24263506.414
        36.000          32.800
 132854129.308 7                  25281298.796
        43.500
 138047275.752 7                  26269522.861
        42.700
 127339869.451 5  99042098.345 5  23855038.199    23855034.987    23855044.769
        35.600          31.100
 200874759.151 6                  38225193.202
        39.100
 108004732.835 8  84003729.883 7  20183272.774    20183272.600    20183276.492
        51.100          45.700
 104629213.299 7  81378306.057 7  19607467.466    19607467.331    19607472.185
        47.500          45.000
 198900664.716 6                  37849548.100
        41.000
 109974114.818 8  85694131.42145  20927382.027    20927381.5714   20927381.6274
        48.800          33.3004
 202038615.727 7                  38446677.555
        42.300
 138240905.485 5                  26306359.143
        32.800
 127044283.892 7                  24175718.470
        44.300
 142099688.174 5                  27040671.011
        32.400
 123759214.310 7                  23550578.527
        45.200
 105622051.142 7  82150500.912 7  19751857.729    19751858.765    19751861.697
        44.600          44.700
 25  1  1  6 30 45.0000000  0 25G18R01G23G15G26G20E03G05G29R16R03E15
                                E26R18S35R17R02S31G13S33E07E08E21E13
                                R24
 114821174.041 5  89471065.75445  21849742.321    21849742.1074   21849745.0984
        35.300          30.1004
 105827671.646 8  82310438.175 6  19797254.982    19797254.667    19797258.832
        48.500          37.200
 119562566.357 5  93165632.30443  22752001.020    22752000.6234   22752000.6934
        34.200          19.0004
 107445556.441 8  83723796.85548  20446192.931    20446192.6184   20446192.9754
        51.300          51.1004
 131350025.375 5 102350701.73542  24995077.108    24995077.0684   24995083.9274
        35.200          13.0004
 125834014.226 5                  23945402.115
        31.200
 135567309.236 5                  25797598.230
        33.900
 112771610.030 6  87874001.84945  21459727.442    21459727.2904   21459724.0304
        36.000          34.4004
 107987533.158 7  84146092.79347  20549346.156    20549345.6784   20549345.0414
        45.600          45.2004
 129633930.880 5 100826404.192 5  24267739.585    24267737.875    24267750.592
        33.300          34.800
                                                  23309063.653

 132876303.859 7                  25285518.089
        43.600
 138017014.655 7                  26263764.231
        45.600
 127284323.790 4                  23844625.863
        29.200
 200874765.837 6                  38225195.733
        41.000
 107967369.929 8  83974669.845 7  20176290.508    20176290.979    20176294.107
        52.200          45.100
 104600266.168 7  81355791.644 7  19602041.449    19602040.463    19602047.163
        47.300          45.100
 198900656.570 7                  37849542.770
        42.600
 109971880.295 8  85692390.26945  20926956.992    20926956.5454   20926955.7904
        48.800          32.2004
 202038588.812 7                  38446672.309
        43.200
 138195440.205 5                  26297708.112
        32.700
 127026844.612 7                  24172401.686
        47.700
 142133551.117 5                  27047113.300
        30.900
 123752139.928 7                  23549232.157
        46.200
 105639029.812 7  82163706.530 7  19755030.252    19755031.171    19755036.196
        43.300          43.100
 25  1  1  6 31  0.0000000  0 23G18R01G23G15G26E03G05G29R16R03E15E26
                                S35R17R02S31G13S33E07E08E21E13R24
 114788363.777 6  89445499.33944  21843499.929    21843499.7824   21843500.1784
        40.800          29.9004
 105860214.197 7  82335749.024 6  19803341.540    19803341.426    19803348.735
        45.100          39.800
 119525750.859 6  93136944.89443  22744996.214    22744995.8174   22744995.2794
        38.100          18.5004
 107416262.371 8  83700970.33548  20440618.812    20440618.5084   20440617.9394
        50.100          50.0004
 131366549.834 5 102363578.15642  24998224.759    24998224.6164   24998230.6754
        32.700          13.6004
 135590341.821 6                  25801978.244
        36.000
 112805917.437 6  87900734.90845  21466255.524    21466255.3234   21466252.8994
        37.600          33.1004
 108004023.653 7  84158942.52647  20552483.217    20552482.7444   20552483.2804
        44.100          44.1004
                 100844140.290 5                                  24272019.396
                        32.300
 124711686.467 5                  23297191.525    23297195.716
        32.300
 132898512.971 7                  25289744.312
        42.000
 137986755.589 7                  26258005.917
        43.400
 200874774.456 6                  38225189.423
        37.600
 107930085.453 8  83945670.852 7  20169322.441    20169322.264    20169327.033
        50.300          46.700
 104571491.359 7  81333411.344 7  19596650.246    19596648.263    19596655.710
        44.700          44.500
 198900649.478 7                  37849544.702
        42.900
 109969811.565 8  85690778.29745  20926563.492    20926563.0504   20926561.9564
        49.900          32.7004
 202038563.761 7                  38446668.348
        43.800
 138150003.318 5                  26289062.511
        34.800
 127009508.048 7                  24169101.973
        47.200
 142167458.605 6                  27053566.071
        37.700
 123745100.012 7                  23547892.970
        46.500
 105656141.820 7  82177015.886 7  19758231.876    19758232.182    19758235.812
        46.100          44.400
 25  1  1  6 31 15.0000000  0 24G18R01G23G15G26E03G05G29R16R03E15E26
                                R18S35R17R02S31G13S33E07E08E21E13R24
 114755588.910 7  89419960.46745  21837261.531    21837261.4474   21837262.8544
        46.000          34.2004
 105892904.552 8  82361174.815 6  19809457.936    19809457.698    19809462.413
        48.000          39.000


 107387106.072 8  83678251.15848  20435070.083    20435069.7884   20435069.4514
        51.400          49.7004
 131383173.385 5 102376530.88342  25001384.827    25001385.2514   25001393.2444
        34.800          14.4004
 135613462.616 6                  25806378.530
        36.200
 112840273.462 6  87927505.79845  21472793.483    21472793.2384   21472791.1184
        36.400          31.8004
 108020658.952 7  84171905.03547  20555648.999    20555648.5124   20555648.8404
        45.600          44.9004
 129679675.312 5                  24276308.853
        31.600
 124648261.636 4  96948584.318 5  23285340.362                    23285330.413
        28.700          33.500
 132920753.672 7                  25293977.798
        46.300
 137956495.764 7                  26252249.445
        43.800
 127173116.955 5                  23823808.530    23823809.445
        34.300
 200874782.410 5                  38225200.361
        35.500
 107892876.930 8  83916730.830 7  20162368.904    20162369.267    20162373.852
        51.600          45.000
 104542886.133 7  81311162.871 7  19591290.110    19591289.019    19591293.788
        46.800          44.200
 198900641.571 7                  37849544.411
        43.000
 109967905.544 8  85689293.08945  20926200.243    20926199.8014   20926199.5364
        48.300          33.4004
 202038537.824 7                  38446665.070
        46.300
 138104592.191 5                  26280421.868
        34.100
 126992271.365 7                  24165822.220
        47.400
 142201407.309 5                  27060024.076
        31.500
 123738091.698 7                  23546559.836
        46.900
 105673384.265 7  82190426.664 7  19761455.670    19761457.255    19761459.722
        47.300          44.200
 25  1  1  6 31 30.0000000  0 26G18R01G23G15G26G16G20E03G05G29R16R03
                                E15E26R18S35R17R02S31G13S33E07E08E21
                                E13R24
 114722851.277 7  89394450.62845  21831031.541    21831031.4484   21831031.4384
        46.200          33.6004
 105925743.903 8  82386716.534 6  19815600.932    19815601.551    19815606.821
        49.500          37.400
 119452268.903 6  93079685.59342  22731015.883    22731015.5484   22731011.3134
        36.000          17.5004
 107358089.289 8  83655640.67748  20429548.189    20429547.8994   20429547.5124
        51.100          50.2004
 131399897.388 5 102389562.60541  25004562.817    25004562.8174   25004578.0364
        30.200          10.8004
 131153370.076 3                  24957660.200
        22.700
 125961576.092 5                  23969682.481
        30.800
 135636672.982 6                  25810795.187
        37.500
 112874679.620 5  87954315.79745  21479338.428    21479338.1694   21479337.7384
        34.800          30.2004
 108037440.489 7  84184981.50847  20558841.730    20558841.2744   20558842.7274
        42.400          43.3004
 129702766.050 5                  24280624.754    24280627.886
        33.400
 124584826.164 6  96899245.693 6  23273489.157    23273490.277    23273482.057
        36.500          37.400
 132943027.678 7                  25298214.299
        43.200
 137926236.862 6                  26246490.203
        41.400
 127117512.032 5                  23813404.584    23813401.041
        31.600
 200874796.322 5                  38225189.902
        32.000
 107855746.262 8  83887851.425 7  20155430.104    20155430.990    20155435.468
        53.200          46.400
 104514452.079 7  81289047.618 7  19585960.079    19585959.699    19585965.595
        47.200          44.500
 198900634.951 7                  37849540.812
        42.200
 109966164.011 8  85687936.05045  20925869.012    20925868.5654   20925867.6744
        48.300          32.9004
 202038511.746 7                  38446662.288
        44.600
 138059208.790 5                  26271782.067
        33.900
 126975136.209 7                  24162560.899
        47.800


 123731116.698 7                  23545232.473
        46.300
 105690758.749 7  82203940.208 7  19764704.100    19764705.147    19764709.760
        45.100          46.500
 25  1  1  6 31 45.0000000  0 25G18R01G23G15G26G16G20E03G05G29R03E15
                                E26R18S35R17R02S31G13S33E07E08E21E13
                                R24
 114690149.711 7  89368968.93045  21824808.568    21824808.5064   21824807.2794
        44.800          33.8004
 105958730.212 7  82412372.596 6  19821771.644    19821771.733    19821777.991
        47.000          38.800
 119415614.925 6  93051124.10143  22724041.469    22724041.4524   22724036.1324
        41.600          19.4004
 107329210.995 8  83633138.15748  20424052.695    20424052.4094   20424051.9154
        48.800          48.6004
 131416704.145 4                  25007766.715
        24.800
 131144304.217 4                  24955930.063
        27.700
 126004115.179 5                  23977776.180
        31.500
 135659971.242 5                  25815229.977
        35.300
 112909134.252 6  87981163.55345  21485895.121    21485894.8894   21485893.6694
        38.700          33.3004
 108054366.734 7  84198170.77347  20562063.870    20562063.4644   20562063.9064
        42.400          43.7004
                  96849942.918 5                                  23261639.497
                        34.500
 132965333.614 7                  25302460.216
        42.100
 137895977.421 6                  26240731.605
        41.100
 127061886.526 6                  23802963.018
        36.400
 200874804.089 6                  38225197.879
        37.900
 107818692.533 8  83859031.885 7  20148506.207    20148506.428    20148511.267
        52.300          45.900
 104486188.036 7  81267064.542 7  19580663.702    19580663.196    19580667.138
        47.400          43.700
 198900626.770 7                  37849539.130
        42.300
 109964585.690 7  85686706.19945  20925569.147    20925568.6874   20925567.6334
        47.300          34.2004
 202038485.904 7                  38446654.611
        44.600
 138013851.829 5                  26263151.651
        35.400
 126958101.360 7                  24159318.198
        44.400


 123724173.646 7                  23543910.436
        45.000
 105708263.944 7  82217555.334 7  19767977.805    19767977.833    19767983.479
        44.000          47.100
 25  1  1  6 32  0.0000000  0 23G18R01G23G15G26E03G05G29R03E15E26R18
                                S35R17R02S31G13S33E07E08E21E13R24
 114657482.520 7  89343513.95545  21818593.040    21818592.9964   21818590.8974
        44.000          32.3004
 105991861.309 7  82438141.261 6  19827968.270    19827968.454    19827972.248
        43.900          37.300
 119379012.834 7  93022602.86843  22717074.737    22717074.7064   22717071.9554
        44.300          19.4004
 107300469.578 7  83610742.25947  20418583.441    20418583.1554   20418582.5884
        47.600          46.4004


 135683355.705 5                  25819679.502
        35.100
 112943635.536 6  88008047.66745  21492461.924    21492461.6964   21492459.5944
        38.400          32.2004
 108071436.087 7  84211471.58647  20565312.049    20565311.6344   20565312.4454
        43.200          42.4004
                  96800674.727 5                                  23249806.886
                        30.900
 132987669.814 5                  25306710.508
        34.600
 137865715.837 6                  26234973.311
        41.300
 127006239.151 6                  23792548.466    23792548.077
        41.200
 200874808.435 5                  38225202.963
        34.500
 107781714.302 8  83830271.048 7  20141596.295    20141596.385    20141601.318
        52.000          47.300
 104458092.705 7  81245212.692 7  19575399.280    19575399.023    19575403.144
        45.800          42.900
 198900615.966 7                  37849538.965
        43.900
 109963168.899 7  85685602.21045  20925299.669    20925299.1874   20925299.1434
        45.500          34.5004
 202038456.922 7                  38446652.209
        44.000
 137968519.701 6                  26254526.763
        40.000
 126941165.125 7                  24156095.702
        43.100
 142303485.806 5                  27079454.786
        35.500
 123717260.938 8                  23542595.868
        48.300
 105725898.081 7  82231270.778 7  19771277.227    19771277.596    19771281.811
        46.400          47.300
 25  1  1  6 32 15.0000000  0 23G18R01G23G15G26G20E03G05G29R03E15E26
                                S35R17R02S31G13S33E07E08E21E13R24
 114624852.062 7  89318087.69245  21812383.522    21812383.4604   21812381.9334
        43.500          31.4004
 106025139.151 6  82464024.002 6  19834194.096    19834193.203    19834197.753
        40.500          36.100
 119342464.454 6  92994123.71043  22710118.734    22710118.7124   22710116.8784
        39.000          19.2004
 107271867.318 7  83588454.83747  20413140.647    20413140.3664   20413140.2524
        47.300          47.7004


 126089134.566 5                  23993964.769
        31.000
 135706828.127 5                  25824145.283
        35.000
 112978184.978 6  88034969.31045  21499035.882    21499035.6544   21499033.9574
        39.900          30.7004
 108088650.389 7  84224885.29147  20568586.890    20568586.4704   20568587.8244
        46.300          43.5004
                  96751443.080 5                                  23237983.965
                        35.100
 133010038.332 6                  25310967.927
        36.000
 137835454.145 7                  26229214.849
        42.200
 200874813.050 6                  38225191.695
        36.600
 107744814.089 9  83801570.927 7  20134700.753    20134700.973    20134705.763
        54.100          45.100
 104430167.857 7  81223493.438 7  19570165.732    19570165.714    19570170.232
        47.100          43.200
 198900605.710 7                  37849541.223
        43.600
 109961915.723 7  85684625.72545  20925061.202    20925060.7334   20925060.7304
        45.200          35.2004
 202038426.978 6                  38446647.747
        36.900
 137923214.987 5                  26245903.914
        34.400
 126924329.597 7                  24152892.355
        46.000
 142337597.608 5                  27085944.847
        33.300
 123710380.656 7                  23541286.893
        47.500
 105743663.530 7  82245088.347 7  19774598.072    19774599.072    19774603.126
        47.900          47.000
 25  1  1  6 32 30.0000000  0 23G18R01G23G15G26G11E03G05G29R03E15E26
                                S35R17R02S31G13S33E07E08E21E13R24
 114592262.644 7  89292693.35445  21806181.945    21806181.8834   21806181.5904
        42.200          31.7004
 106058567.331 7  82490023.724 6  19840449.484    19840449.441    19840453.266
        45.100          38.200
 119305974.483 6  92965690.03242  22703176.429    22703176.4824   22703174.7384
        37.400          17.7004
 107243408.728 7  83566279.35147  20407724.421    20407724.1404   20407725.0824
        46.200          46.4004




 135730392.373 4                  25828627.320
        28.300
 113012786.479 6  88061931.53644  21505619.278    21505619.0954   21505617.8764
        38.800          27.2004
 108106013.777 6  84238415.16646  20571890.858    20571890.4474   20571890.9454
        38.500          40.1004
 124331515.407 5  96702251.587 5  23226176.583                    23226164.716
        31.300          34.800
 133032443.343 5                  25315232.787
        35.600
 137805196.582 7                  26223457.347
        43.300
 200874821.199 6                  38225196.636
        37.200
 107707996.498 9  83772934.919 7  20127820.740    20127821.028    20127824.768
        54.500          46.300
 104402418.134 8  81201910.360 7  19564965.767    19564966.116    19564970.079
        50.800          45.400
 198900598.384 7                  37849538.603
        44.200
 109960830.327 8  85683779.97846  20924854.295    20924853.8394   20924854.1554
        49.000          36.0004
 202038402.024 7                  38446637.301
        45.300
 137877941.818 5                  26237289.410
        34.900
 126907599.171 8                  24149709.338
        48.100
 142371754.091 6                  27092446.761
        38.400
 123703537.112 7                  23539984.129
        43.400
 105761564.443 7  82259011.232 7  19777944.925    19777945.979    19777950.199
        47.200          46.500
 25  1  1  6 32 45.0000000  0 24G18R01G23G15G26G11G20E03G05G29R03E15
                                E26S35R17R02S31G13S33E07E08E21E13R24
 114559710.566 7  89267328.09045  21799987.409    21799987.3564   21799988.4014
        44.600          34.0004
 106092141.478 7  82516136.933 6  19846728.777    19846728.467    19846734.255
        46.000          38.200
 119269538.703 6  92937298.52943  22696243.593    22696243.6514   22696241.7914
        40.700          18.4004
 107215090.201 7  83544212.98247  20402335.215    20402334.8984   20402336.5314
        45.200          45.7004
 131484990.299 5 102455887.52441  25020761.655    25020761.4274   25020775.9574
        35.900          11.2004


 126174226.828 4                  24010155.890
        29.300
 135754044.699 5                  25833135.199
        33.100
 113047436.538 6  88088931.53945  21512212.769    21512212.6134   21512211.5474
        39.700          30.2004
 108123522.271 6  84252058.11146  20575222.329    20575221.9404   20575222.5324
        39.900          37.7004
 124268392.323 4  96653112.668 6  23214382.009                    23214361.667
        29.800          37.600
 133054881.184 4                  25319499.416
        29.300
 137774939.398 7                  26217698.603
        42.700


 107671258.174 9  83744360.682 7  20120954.556    20120955.764    20120960.483
        54.000          47.200
 104374839.730 8  81180460.526 7  19559797.121    19559797.908    19559802.637
        50.400          46.100
 198900590.938 6                  37849528.063
        40.100
 109959908.948 8  85683062.02945  20924678.176    20924677.7204   20924678.6124
        48.100          35.1004
 202038375.596 7                  38446632.078
        45.700
 137832696.758 6                  26228680.125
        38.500
 126890970.100 7                  24146544.073
        46.200
 142405951.262 6                  27098954.581
        39.300
 123696726.617 6                  23538688.018
        41.500
 105779597.128 7  82273036.584 7  19781317.251    19781317.712    19781322.303
        47.300          46.300
 25  1  1  6 33  0.0000000  0 24G18R01G23G15G26G20E03G05G29R03E15E26
                                R18S35R17R02S31G13S33E07E08E21E13R24
 114527193.998 7  89241990.48345  21793800.217    21793800.1464   21793801.1964
        43.400          33.9004
 106125859.162 7  82542361.811 6  19853038.077    19853037.327    19853042.632
        47.000          39.000
 119233155.385 6  92908947.85943  22689318.915    22689318.9554   22689319.1034
        40.500          21.0004
 107186909.780 7  83522254.24147  20396972.948    20396972.5954   20396974.7964
        44.800          45.1004
 131502306.041 5 102469380.18542  25024056.421    25024056.0244   25024075.1514
        31.800          12.5004
 126216773.848 5                  24018254.648
        34.600
 135777782.940 5                  25837648.840
        31.400
 113082132.927 7  88115967.77044  21518815.486    21518815.3084   21518814.4214
        42.700          25.6004
 108141173.763 6  84265812.47546  20578583.877    20578583.5064   20578581.7624
        40.600          38.1004
                  96603994.908 5                                  23202563.536
                        35.600


 137744680.556 7                  26211941.298
        44.800
                  98609360.816 5                                  23750815.548
                        31.400


 107634597.257 8  83715846.652 7  20114101.546    20114102.542    20114109.233
        51.200          47.100
 104347430.730 8  81159142.477 7  19554660.471    19554660.367    19554665.440
        49.500          45.900
 198900582.029 7                  37849529.637
        42.600
 109959149.184 7  85682470.03345  20924534.239    20924533.7794   20924534.1474
        46.900          34.8004
 202038347.581 7                  38446627.361
        42.000
 137787477.790 6                  26220073.781
        38.300
 126874440.397 7                  24143399.546
        47.500
 142440186.592 6                  27105468.193
        38.800
 123689947.188 6                  23537396.488
        40.600
 105797759.410 8  82287162.788 7  19784714.143    19784714.477    19784719.569
        48.500          47.200
 25  1  1  6 33 15.0000000  0 24G18R01G23G15G26G20E03G05G29R03E15E26
                                R18S35R17R02S31G13S33E07E08E21E13R24
 114494714.448 7  89216681.73845  21787618.414    21787618.3164   21787620.7124
        44.300          33.4004
 106159721.214 8  82568698.944 6  19859372.213    19859372.445    19859376.959
        48.500          40.200
 119196825.714 7  92880639.03343  22682406.234    22682406.2514   22682407.0654
        43.800          22.3004
 107158869.281 7  83500404.51647  20391636.975    20391636.6134   20391638.8184
        47.200          46.2004
 131519719.198 5 102482949.05242  25027368.889    25027368.4204   25027390.4884
        35.300          13.1004
 126259321.812 5                  24026350.394
        35.000
 135801607.951 5                  25842183.268
        31.600
 113116876.763 6  88143040.85343  21525425.890    21525425.6004   21525424.9324
        38.500          21.7004
 108158969.383 7  84279679.21246  20581968.954    20581968.5654   20581968.2784
        44.100          40.1004
                  96554914.553 5                                  23190774.493
                        35.300


 137714421.504 7                  26206182.921
        45.100
                  98566005.329 5                                  23740373.701
                        32.400
 200874831.057 5                  38225225.460
        34.400
 107598015.479 8  83687394.112 7  20107266.434    20107266.070    20107273.280
        49.600          47.100
 104320192.801 8  81137957.461 7  19549557.042    19549557.182    19549560.873
        51.400          45.100
 198900571.915 7                  37849529.338
        43.300
 109958552.851 7  85682005.36445  20924421.537    20924421.0684   20924420.8724
        47.000          34.9004
 202038319.128 7                  38446624.566
        44.700
 137742286.696 6                  26211475.729
        39.000
 126858011.567 8                  24140273.453
        48.700
 142474461.378 6                  27111991.795
        40.400
 123683200.244 6                  23536113.071
        36.500
 105816052.855 8  82301391.039 7  19788134.547    19788134.781    19788140.503
        49.300          46.700
 25  1  1  6 33 30.0000000  0 23G18R01G23G15G26G11E03G05G29R03E15E26
                                S35R17R02S31G13S33E07E08E21E13R24
 114462278.381 7  89191406.84245  21781445.957    21781445.8374   21781448.0714
        46.300          32.4004
 106193733.626 7  82595153.087 6  19865733.248    19865734.669    19865739.389
        46.900          39.900
 119160556.194 7  92852377.10844  22675503.752    22675503.7564   22675506.2654
        46.500          26.3004
 107130975.057 8  83478668.79047  20386329.528    20386329.1664   20386329.6964
        48.300          47.7004
 131537235.686 5 102496598.15641  25030700.289    25030699.7084   25030725.2554
        32.600           9.7004


 135825526.309 6                  25846738.452
        36.500


 108176915.450 7  84293663.16046  20585384.166    20585383.7774   20585382.6174
        45.000          41.4004
                  96505877.220 5                                  23178994.844
                        32.800


 137684168.526 7                  26200426.245
        44.700
 200874840.632 5                  38225213.588
        34.800
 107561519.757 8  83659008.568 7  20100446.985    20100446.989    20100451.766
        49.100          45.300
 104293132.397 8  81116910.486 7  19544486.399    19544486.541    19544490.334
        52.300          46.400
 198900566.985 6                  37849519.071
        41.000
 109958126.235 8  85681672.97646  20924340.388    20924339.9284   20924339.6144
        49.700          36.3004
 202038295.672 7                  38446616.960
        42.900
 137697129.773 6                  26202881.477
        38.900
 126841689.975 8                  24137167.165
        48.600
 142508781.579 6                  27118521.570
        39.500
 123676492.065 6                  23534837.839
        41.600
 105834483.795 8  82315726.233 7  19791582.535    19791582.049    19791586.890
        51.300          46.100
 25  1  1  6 33 45.0000000  0 24G18R01G23G15G26E03G05G29R16R03E15E26
                                R18S35R17R02S31G13S33E07E08E21E13R24
 114429874.987 7  89166157.47345  21775279.293    21775279.1414   21775280.8044
        45.900          31.4004
 106227885.119 7  82621715.321 6  19872121.281    19872123.232    19872127.603
        47.500          39.900
 119124335.846 8  92824153.44944  22668610.757    22668610.7974   22668614.7704
        48.300          28.1004
 107103216.517 8  83457038.80048  20381047.315    20381046.9494   20381046.6174
        49.200          48.7004
 131554844.462 4                  25034057.450
        25.000
 135849526.544 5                  25851295.921
        35.800


 108195000.823 7  84307755.63546  20588825.016    20588824.6234   20588823.6874
        44.300          39.8004
 129917007.064 4 101046553.058 5  24320739.490    24320734.715    24320738.354
        28.900          32.100
                  96456874.072 5                                  23167225.976
                        32.100
 133144962.296 5                  25336641.476
        34.500
 137653910.792 7                  26194668.563
        44.600
 126616184.886 5  98479257.700 6  23719479.644    23719474.220    23719481.480
        34.100          36.400
 200874846.295 6                  38225219.191
        36.000
 107525099.120 8  83630681.436 7  20093640.394    20093640.607    20093646.721
        48.700          45.900
 104266238.607 8  81095993.045 7  19539445.407    19539445.287    19539450.700
        51.200          46.200
 198900557.606 7                  37849520.779
        42.300
 109957858.399 8  85681464.28146  20924289.466    20924288.9974   20924288.0034
        49.800          36.4004
 202038267.345 7                  38446606.644
        44.000
 137651996.489 6                  26194294.524
        36.900
 126825464.777 8                  24134079.375
        48.700
 142543136.033 5                  27125057.178
        34.200
 123669811.932 7                  23533566.518
        43.600
 105853041.313 8  82330159.864 7  19795053.241    19795053.571    19795056.677
        52.200          44.400
 25  1  1  6 34  0.0000000  0 24G18R01G23G15G26E03G05G29R16R03E15E26
                                R18S35R17R02S31G13S33E07E08E21E13R24
 114397513.809 7  89140940.98345  21769121.758    21769121.6114   21769121.6674
        46.200          30.8004
 106262184.527 7  82648392.581 6  19878539.338    19878539.241    19878544.386
        46.700          40.200
 119088174.072 7  92795975.46044  22661729.906    22661729.9374   22661733.3104
        47.200          27.3004
 107075603.121 8  83435521.89548  20375792.670    20375792.3134   20375792.1974
        50.600          49.8004


 135873618.076 6                  25855883.953
        37.500


 108213234.917 7  84321963.99646  20592296.217    20592295.8284   20592293.8994
        43.100          39.8004


 123953360.805 4                  23155457.258    23155458.289
        29.600
 133167566.445 5                  25340941.686
        35.300
 137623657.718 7                  26188911.559
        44.300
 126560392.395 5  98435863.633 5  23709025.518    23709022.214    23709027.748
        32.300          35.200
 200874855.120 5                  38225225.250
        34.200
 107488763.763 8  83602420.552 7  20086851.262    20086852.197    20086856.545
        49.600          45.700
 104239521.166 8  81075212.793 7  19534438.406    19534438.782    19534444.083
        51.600          46.000
 198900551.679 7                  37849528.255
        42.100
 109957758.738 8  85681386.64145  20924269.808    20924269.3394   20924268.6144
        48.400          35.9004
 202038242.564 7                  38446604.712
        43.600
 137606896.405 5                  26185712.202
        32.800
 126809345.425 8                  24131011.532
        49.600
 142577533.782 5                  27131605.077
        34.000
 123663169.257 7                  23532302.400
        42.500
 105871734.872 8  82344699.358 7  19798549.392    19798548.967    19798553.651
        51.300          44.400
