     2.11           OBSERVATION DATA    M (MIXED)           RINEX VERSION / TYPE
teqc  2019Feb25                         20260317 16:18:01UTCPGM / RUN BY / DATE
Linux 2.4.21-27.ELsmp|Opteron|gcc -static|Linux 64|=+       COMMENT
BIT 2 OF LLI FLAGS DATA COLLECTED UNDER A/S CONDITION       COMMENT
-Unknown-                                                   MARKER NAME
-Unknown-           -Unknown-                               OBSERVER / AGENCY
-Unknown-           -Unknown-           -Unknown-           REC # / TYPE / VERS
-Unknown-           -Unknown-                               ANT # / TYPE
        0.0000        0.0000        0.0000                  APPROX POSITION XYZ
        0.0000        0.0000        0.0000                  ANTENNA: DELTA H/E/N
     1     1                                                WAVELENGTH FACT L1/2
     7    L1    L2    C1    P1    P2    S1    S2            # / TYPES OF OBSERV
 SNR is mapped to RINEX snr flag value [0-9]                COMMENT
  L1 & L2: min(max(int(snr_dBHz/6), 0), 9)                  COMMENT
  2025     1     1     4     0    0.0000000     GPS         TIME OF FIRST OBS
    18                                                      LEAP SECONDS
                                                            END OF HEADER
 25  1  1  4  0  0.0000000  0 27R01G06G12G11G20E27E03G25G05E34G29E05
                                E15R22S35R23S31R15S33R07E08E21E13R14
                                E30R24R08
 118603032.388 6  92246846.262 5  22187149.268    22187149.747    22187155.566
        36.400          30.300
 124341765.881 6  96889621.87144  23661452.050    23661451.8274   23661458.8834
        38.800          26.2004
 114541627.096 7  89253270.87947  21796521.769    21796521.3404   21796523.6524
        45.600          42.5004
 111819587.245 7  87132171.30545  21278554.639    21278554.3444   21278556.1624
        46.500          30.5004
 106392861.810 7  82903510.49645  20245888.973    20245887.7534   20245887.2374
        46.700          33.4004
 128287607.633 6                  24412294.045
        41.600
 139818692.623 5                  26606612.687
        34.500
 113046634.918 6  88088307.82744  21512064.554    21512063.8974   21512067.2384
        37.300          28.4004
 108886807.506 8  84846852.72247  20720467.772    20720467.4374   20720466.1024
        48.400          45.0004
 138028862.206 6                  26266011.722
        37.500
 120827317.325 7  94151117.10745  22992678.204    22992677.7044   22992673.4114
        46.300          33.1004
 134819883.466 5                  25655367.416
        30.900
 124146177.432 8                  23624228.834
        51.900
 123389175.666 5                  23114895.977
        31.700


 108740750.132 7                  20327927.534    20327927.562
        46.800
 198906398.583 7                  37850630.582
        42.700
 125770117.429 7  97821126.524 5  23536150.202    23536155.095    23536152.243
        42.200          30.500
 202051673.740 7                  38449148.976
        43.800
 118874264.408 6  92457806.318 6  22206709.722    22206707.577    22206713.506
        37.300          37.200




 132418717.383 6                  25198429.775
        36.200
 114791697.905 6  89282343.445 5  21534611.697    21534611.320    21534610.511
        40.700          32.700
 141055740.325 5                  26842017.289
        33.200
 112954338.814 7  87853353.527 7  21123021.070    21123023.846    21123029.926
        47.200          46.500
 109189793.027 7  84925392.181 5  20390416.640    20390416.845    20390418.670
        46.400          35.800
 25  1  1  4  0 15.0000000  0 26R01G06G12G11G20E27E03G25G05E34G29E05
                                E15S35R23S31R15S33R07E08E21E13R14E30
                                R24R08
 118539364.833 6                  22175238.141    22175238.087
        41.700
 124380876.994 6  96920098.02044  23668894.076    23668893.7504   23668902.5654
        39.600          25.2004
 114580983.224 7  89283938.01246  21804011.589    21804011.1604   21804013.1144
        45.800          41.2004
 111841596.128 7  87149321.07644  21282743.706    21282743.4024   21282744.5164
        45.300          28.6004
 106402263.367 7  82910836.37345  20247678.471    20247677.2554   20247676.1854
        46.900          34.0004
 128308420.976 7                  24416255.992
        45.000
 139785823.073 5                  26600359.006
        35.600
 113054086.972 6  88094114.57744  21513485.441    21513484.7804   21513485.4274
        38.300          26.9004
 108856688.830 8  84823383.61747  20714736.605    20714736.2884   20714735.6104
        49.100          44.9004
 138058337.285 6                  26271621.289
        36.600
 120782049.188 7  94115843.28945  22984063.949    22984063.4354   22984058.3964
        46.600          31.7004
 134816906.115 4                  25654800.276
        29.700
 124153475.179 8                  23625617.433
        50.000


 108754228.590 7                  20330446.585    20330446.610
        45.600
 198906392.439 6                  37850628.266
        41.200
 125733624.493 7                  23529312.103    23529314.420
        42.800
 202051654.709 7                  38449157.999
        42.800
 118912155.338 5  92487320.603 4  22213789.411    22213788.995    22213796.127
        33.400          29.800


 136424625.110 5                  25960730.370
        30.000
 132397140.175 6                  25194324.087
        38.000
                  89292195.981 5                                  21536994.038
                        30.500
 141101804.056 6                  26850782.631
        37.100
 112924537.286 8  87830174.466 7  21117450.656    21117451.096    21117456.532
        49.200          44.900
 109174361.318 7                  20387535.259    20387534.947
        45.900
 25  1  1  4  0 30.0000000  0 25R01G06G12G11G20E27E03G25G05E34G29R13
                                E05E15S35R23S31R15S33R07E21E13E30R24
                                R08
 118475750.122 7  92147822.074 5  22163340.011    22163340.494    22163344.932
        42.900          34.000
 124419993.045 6  96950578.06943  23676335.804    23676335.5004   23676345.3264
        37.500          23.3004
 114620442.313 7  89314685.31646  21811519.808    21811519.3704   21811522.0154
        46.500          41.1004
 111863652.200 7  87166507.61444  21286940.835    21286940.4964   21286942.6194
        46.300          28.4004
 106411783.755 7  82918254.87345  20249490.192    20249488.9764   20249487.8094
        46.100          34.0004
 128329329.043 6                  24420233.776
        40.100
 139753003.161 6                  26594114.456
        37.100
 113061687.127 6  88100036.59943  21514926.270    21514925.4214   21514931.4654
        36.400          23.1004
 108826693.427 7  84800010.58847  20709027.588    20709027.2674   20709028.1834
        47.000          44.3004
 138087812.008 5                  26277229.788
        32.600
 120736807.062 7  94080589.76245  22975455.218    22975454.7004   22975451.7254
        45.900          34.8004
 121513343.238 5                  22755538.674    22755539.161
        30.400
 134814029.870 5                  25654255.083
        31.600
 124160801.688 8                  23627011.707
        49.600
 200865027.958 6                  38223347.151
        36.100
 108767759.330 7                  20332977.493    20332977.106
        47.500
 198906384.949 6                  37850626.866
        41.100
 125697280.375 6  97764503.152 5  23522514.200    23522514.186    23522520.703
        39.100          31.900
 202051634.060 7                  38449149.995
        46.100
 118950258.522 6  92516956.471 6  22220909.701    22220915.635    22220920.848
        39.200          36.000
 136404220.547 5                  25956839.479
        34.900
 132375591.972 6                  25190223.599
        38.100
 141147885.552 5                  26859551.861
        35.300
 112894765.013 8  87807018.243 7  21111884.493    21111883.215    21111889.563
        49.300          46.900
 109159126.498 7  84901518.283 6  20384688.417    20384688.227    20384694.403
        44.300          37.600
 25  1  1  4  0 45.0000000  0 27R01G06G12G11G20E27E03G25G05E34G29R13
                                E05E15R22S35R23S31R15S33R07E21E13R14
                                E30R24R08
 118412192.015 7  92098388.054 5  22151449.674    22151450.302    22151454.199
        42.300          33.500
 124459117.146 5  96981064.38843  23683782.421    23683782.1714   23683790.3364
        33.200          21.4004
 114660006.978 7  89345514.87946  21819048.801    21819048.3414   21819049.0844
        45.200          39.0004
 111885758.197 7  87183733.05043  21291146.262    21291145.9184   21291147.8764
        43.500          23.7004
 106421425.597 7  82925767.99945  20251324.871    20251323.6644   20251321.9984
        46.700          32.5004
 128350334.432 6                  24424230.414
        40.900
 139720235.975 6                  26587877.448
        37.800
 113069440.047 6  88106077.81044  21516403.291    21516402.4334   21516406.2644
        39.600          28.5004
 108796824.709 7  84776736.28547  20703344.359    20703344.0384   20703344.2234
        46.800          43.8004
 138117289.015 6                  26282840.617
        40.400
 120691593.958 7  94045358.78246  22966852.734    22966852.2254   22966849.0214
        46.600          36.6004
 121572154.265 5                  22766548.271    22766553.322
        33.000
 134811257.707 5                  25653725.793
        33.100
 124168159.753 8                  23628412.253
        48.600




 108781345.528 7                  20335515.179    20335513.969
        43.200
 198906380.157 7                  37850623.387
        42.200
                                                  23515738.149

 202051615.647 7                  38449146.901
        46.600
 118988520.973 4  92546716.076 5  22228074.685    22228070.558    22228065.312
        29.800          34.600
 136383912.872 5                  25952965.775
        33.700
 132354075.409 7                  25186129.594
        42.800
 114830258.551 6  89312323.254 5  21541840.918    21541842.618    21541844.434
        41.700          32.000
 141193987.878 5                  26868324.449
        34.200
 112865025.058 8  87783887.190 7  21106322.042    21106322.063    21106325.845
        50.800          43.000
 109144091.578 7  84889824.474 6  20381881.084    20381882.995    20381888.460
        47.300          37.800
 25  1  1  4  1  0.0000000  0 26R01G06G12G11G20E27E03G25G05E34G29E05
                                E15R22S35R23S31R15S33R07E21E13R14E30
                                R24R08
 118348687.798 7  92048996.015 5  22139569.973    22139570.967    22139574.158
        45.300          35.700
 124498246.220 5  97011554.54743  23691230.347    23691230.2134   23691235.4764
        34.300          22.1004
 114699673.839 7  89376424.11746  21826597.186    21826596.7044   21826596.1904
        42.600          38.9004
 111907911.102 6  87200995.05043  21295361.741    21295361.4734   21295361.5174
        41.200          21.9004
 106431185.890 7  82933373.41145  20253182.032    20253180.8344   20253179.5414
        47.600          34.0004
 128371434.238 7                  24428247.311
        45.000
 139687518.727 6                  26581651.019
        40.400
 113077341.794 6  88112234.99945  21517908.780    21517907.8914   21517909.4904
        40.100          31.7004
 108767079.638 8  84753558.30747  20697684.103    20697683.7774   20697683.8064
        48.500          43.7004
 138146765.568 6                  26288448.075
        38.800
 120646406.994 7  94010148.12746  22958252.539    22958252.0034   22958251.8804
        43.400          36.1004
 134808586.724 5                  25653217.552
        34.300
 124175546.405 8                  23629818.060
        49.300




 108794984.445 7                  20338066.464    20338066.957
        45.700
 198906374.081 7                  37850621.992
        43.100
 125625046.074 6                  23508995.075    23508995.161
        40.800
 202051596.494 7                  38449146.275
        44.800
                  92576596.995 6                                  22235244.766
                        36.900
 136363698.365 5                  25949119.207
        34.800
 132332587.645 6                  25182040.104
        40.700
 114843483.506 7  89322609.265 5  21544323.508    21544324.333    21544324.914
        42.200          33.700
 141240107.570 4                  26877100.754
        29.300
 112835314.528 8  87760779.063 7  21100765.780    21100764.816    21100771.857
        48.400          45.000
 109129253.710 7  84878283.820 5  20379109.287    20379109.686    20379114.712
        44.600          33.300
 25  1  1  4  1 15.0000000  0 28R01G06G09G12G11G20E27E03G25G05E34G29
                                E05E15R22S35R23S31R15S33R07E08E21E13
                                R14E30R24R08
 118285243.051 6  91999650.102 5  22127696.309    22127697.490    22127706.476
        41.900          35.400
 124537384.961 6  97042052.22243  23698677.514    23698677.4384   23698682.3194
        40.500          22.3004


 114739447.407 7  89407416.47946  21834166.655    21834166.1864   21834164.7694
        44.100          38.3004
 111930115.657 5  87218297.25243  21299583.014    21299582.7914   21299586.1004
        33.500          19.7004
 106441069.205 7  82941074.69645  20255062.587    20255061.3854   20255060.7354
        46.400          33.0004
 128392633.004 7                  24432280.875
        43.800
 139654856.585 6                  26575434.592
        40.200
 113085396.975 7  88118511.75545  21519442.027    21519441.1474   21519442.0534
        42.800          33.8004
 108737463.251 8  84730480.60847  20692048.204    20692047.8784   20692047.9794
        48.200          43.7004
 138176246.374 6                  26294056.937
        38.300
 120601251.298 7  93974961.85045  22949658.823    22949658.2564   22949659.3804
        43.100          35.0004
 134806021.907 5                  25652729.314
        34.800
 124182966.368 8                  23631229.651
        48.900




 108808680.433 7                  20340625.144    20340625.629
        45.600
 198906372.088 7                  37850625.520
        42.200
 125589158.428 6  97680440.732 5  23502276.724    23502277.107    23502293.730
        41.200          34.800
 202051580.271 7                  38449136.969
        44.000
 119065471.535 5  92606602.512 6  22242442.250    22242438.109    22242450.446
        31.900          36.900


 136343582.109 6                  25945293.037
        38.600
 132311133.437 7                  25177958.664
        45.300
 114856897.442 6  89333117.473 5  21546843.075    21546843.935    21546841.052
        40.500          33.900
 141286249.265 5                  26885880.118
        31.700
 112805638.189 8  87737697.510 6  21095216.255    21095216.520    21095218.478
        50.400          40.600
 109114618.095 7  84866900.655 6  20376375.805    20376375.986    20376383.763
        43.800          40.300
 25  1  1  4  1 30.0000000  0 27R01G06G09G12G11G20E27E03G25G05E34G29
                                R13E05E15S35R23S31R15S33R07E21E13R14
                                E30R24R08
 118221850.236 6  91950344.618 5  22115839.648    22115837.746    22115847.357
        40.000          33.700
 124576525.393 6  97072551.24743  23706124.221    23706124.1324   23706129.0154
        39.800          22.0004


 114779319.351 6  89438485.49646  21841753.991    21841753.5404   21841752.7824
        41.600          39.7004


 106451067.236 7  82948865.36745  20256964.520    20256963.3224   20256964.2824
        43.600          33.7004
 128413922.703 7                  24436331.541
        47.500
 139622241.835 6                  26569227.392
        36.900
 113093597.479 7  88124901.77145  21521000.328    21520999.4304   21521002.5114
        44.800          34.6004
 108707967.278 8  84707496.71547  20686435.335    20686435.0184   20686435.1984
        48.200          43.3004
 138205723.349 5                  26299663.149
        31.400
 120556119.279 6  93939794.05645  22941071.184    22941070.5764   22941071.0834
        40.500          34.4004
 121748746.197 5                  22799633.702
        35.700
 134803555.109 6                  25652260.440
        36.100
 124190411.555 8                  23632646.222
        49.300


 108822425.628 7                  20343198.333    20343198.471
        46.500
 198906366.107 7                  37850627.631
        44.700
 125553418.010 6                  23495588.505    23495587.328
        39.900
 202051561.618 7                  38449131.635
        45.800
 119104201.934 6  92636726.141 6  22249675.439    22249674.326    22249683.693
        37.100          36.200
 136323555.969 6                  25941484.720
        40.300
 132289704.731 6                  25173877.374
        39.900
 114870491.445 5  89343691.324 5  21549393.507    21549390.194    21549393.964
        35.400          30.600
 141332404.839 5                  26894667.977
        33.900
 112775988.180 7  87714636.378 7  21089670.526    21089670.273    21089674.148
        47.700          42.200
 109100176.995 7  84855668.715 7  20373679.318    20373680.040    20373685.939
        45.100          42.800
 25  1  1  4  1 45.0000000  0 28R01G06G12G11G20E27E03G25G05E34G29R13
                                E05E15R22S35R23S31R15S33R07E08E21E13
                                R14E30R24R08
 118158512.477 7  91901081.968 5  22103990.596    22103989.846    22103999.065
        42.300          35.900
 124615670.232 6  97103053.74444  23713575.088    23713575.0084   23713577.3524
        41.700          26.8004
 114819291.864 7  89469632.88346  21849360.764    21849360.3224   21849360.6794
        42.600          40.5004
 111974644.735 6  87252970.40544  21308064.680    21308064.6674   21308064.0694
        38.800          24.7004
 106461182.867 7  82956747.68145  20258890.251    20258889.0494   20258889.8344
        42.400          33.6004
 128435305.778 8                  24440401.300
        48.000
 139589677.301 5                  26563032.972
        35.000
 113101945.796 7  88131406.95546  21522591.000    21522590.0794   21522592.4954
        42.100          36.2004
 108678595.215 8  84684609.41947  20680846.073    20680845.7744   20680846.6814
        48.100          43.1004
 138235199.153 4                  26305273.613
        27.600
 120511013.649 7  93904646.80446  22932488.573    22932487.9614   22932487.4644
        43.500          36.8004
 121807711.529 5                  22810673.319    22810674.116
        33.100
 134801189.166 6                  25651810.235
        37.800
 124197884.551 7                  23634068.126
        47.400
 123657578.923 5  96178082.829 5  23165229.880                    23165222.067
        32.400          35.700


 108836223.028 7                  20345771.718    20345772.824
        43.500
 198906358.329 7                  37850623.441
        43.500
 125517828.054 6  97624921.252 5  23488930.519    23488927.342    23488936.318
        37.900          34.400
 202051540.002 7                  38449132.663
        47.300
 119143129.109 5  92666969.319 5  22256937.976    22256937.131    22256946.239
        35.400          35.100


 136303622.985 5                  25937687.887
        35.200
 132268304.147 6                  25169807.808
        39.400
 114884166.537 6                  21551972.648
        41.300
 141378576.610 4                  26903451.696
        26.900
 112746367.327 8  87691598.006 6  21084131.044    21084130.952    21084135.838
        49.700          41.800
 109085932.938 7  84844590.034 7  20371020.620    20371020.226    20371026.598
        43.400          45.300
 25  1  1  4  2  0.0000000  0 28R01G06G12G11G20E27E03G25G05E34G29R13
                                E05E15R22S35R23S31R15S33R07E08E21E13
                                R14E30R24R08
 118095236.048 7  91851867.025 6  22092152.316    22092152.048    22092164.410
        42.400          37.700
 124654824.766 6  97133563.75844  23721026.065    23721025.9944   23721029.0034
        41.300          27.9004
 114859369.962 7  89500862.56346  21856986.261    21856985.8014   21856988.1184
        45.500          40.5004
 111996990.374 7  87270382.62844  21312317.127    21312317.1494   21312315.9604
        43.900          26.2004
 106471421.314 7  82964725.67345  20260839.411    20260838.2044   20260838.2414
        42.500          33.6004
 128456787.671 7                  24444488.601
        46.500
 139557168.755 5                  26556845.438
        35.800
 113110447.386 6  88138031.57946  21524209.698    21524208.7554   21524212.3364
        41.100          36.5004
 108649352.477 7  84661822.87246  20675280.076    20675279.7554   20675281.6844
        43.400          37.9004


 120465940.447 6  93869524.82746  22923910.288    22923909.6714   22923910.0024
        40.900          37.0004
 121866718.806 4                  22821721.778    22821721.849
        29.300
 134798929.587 6                  25651380.328
        36.600
 124205390.884 7                  23635496.715
        47.800
 123696035.667 6  96207993.747 5  23172432.009    23172433.740    23172434.458
        38.400          32.800
 200865230.652 6                  38223380.035
        36.600
 108850078.237 7                  20348364.287    20348364.451
        43.900
 198906354.678 7                  37850614.913
        42.800
 125482393.962 6  97597361.402 5  23482297.640    23482296.458    23482303.171
        36.300          31.500
 202051523.163 7                  38449131.586
        46.300
 119182172.742 7  92697336.489 5  22264236.902    22264236.460    22264240.412
        44.100          35.700


 136283788.703 6                  25933914.536
        39.900
 132246937.215 6                  25165741.443
        38.400
 114898133.051 7  89365217.509 5  21554591.649    21554593.065    21554601.177
        42.200          30.400
 141424770.196 5                  26912242.568
        32.600
 112716780.933 8  87668586.389 6  21078599.108    21078598.791    21078602.787
        49.000          41.200
 109071892.020 7  84833669.385 7  20368396.915    20368398.495    20368404.349
        44.100          47.400
 25  1  1  4  2 15.0000000  0 27R01G06G12G11G20E27E03G25G05E34G29E05
                                E15R22S35R23S31R15S33R07E08E21E13R14
                                E30R24R08
 118032015.365 6  91802695.388 6  22080326.339    22080325.412    22080336.284
        40.800          37.900
 124693983.004 6  97164076.67944  23728478.090    23728477.9974   23728480.6264
        39.100          28.3004
 114899547.639 7  89532169.84546  21864630.995    21864630.5044   21864633.7934
        43.500          40.4004
 112019381.390 7  87287830.19245  21316578.425    21316578.2244   21316577.2694
        47.100          30.0004
 106481776.267 7  82972794.45545  20262808.670    20262807.4364   20262808.4024
        42.500          32.0004
 128478362.195 7                  24448594.836
        46.900
 139524710.424 6                  26550668.657
        37.300
 113119095.963 6  88144770.72945  21525855.427    21525854.4624   21525859.4364
        40.700          35.9004
 108620233.112 7  84639132.45645  20669740.235    20669739.9144   20669738.8084
        42.100          34.3004


 120420893.484 7  93834423.31946  22915338.588    22915338.0124   22915337.8574
        42.200          37.4004
 134796770.442 6                  25650969.447
        38.200
 124212924.343 7                  23636930.282
        46.500
                  96237919.675 5                  23179617.492    23179633.766
                        32.000
 200865255.828 6                  38223378.304
        36.900
 108863984.851 7                  20350965.891    20350965.818
        44.700
 198906349.507 6                  37850615.955
        41.900
 125447110.044 6  97569918.306 5  23475699.810    23475696.182    23475700.780
        37.400          32.500
 202051504.523 7                  38449123.148
        45.400
 119221368.870 7  92727822.333 6  22271558.962    22271559.748    22271563.338
        43.800          38.400


 136264047.191 6                  25930156.132
        40.000
 132225597.711 7                  25161681.110
        43.800
 114912281.870 7  89376246.121 4  21557248.410    21557248.207    21557257.379
        42.200          29.700
 141470978.825 5                  26921041.607
        35.000
 112687223.138 8  87645596.958 7  21073073.382    21073073.233    21073076.836
        50.000          44.000
 109058048.128 7  84822901.929 7  20365813.187    20365813.272    20365818.830
        44.700          47.200
 25  1  1  4  2 30.0000000  0 27R01G06G12G11G20E27E03G25G05E34G29E05
                                E15R22S35R23S31R15S33R07E08E21E13R14
                                E30R24R08
 117968855.259 7  91753570.886 6  22068512.167    22068512.315    22068519.919
        43.000          37.200
 124733149.104 6  97194595.71344  23735932.259    23735932.1704   23735933.7264
        39.900          27.5004
 114939828.730 7  89563557.70746  21872297.509    21872296.9954   21872299.3484
        42.900          39.1004
 112041821.913 8  87305316.33545  21320848.599    21320848.3854   21320846.8464
        49.000          30.5004
 106492251.711 7  82980957.12345  20264801.604    20264800.3394   20264801.4094
        43.400          32.2004
 128500033.430 7                  24452718.568
        46.900
 139492306.764 5                  26544502.006
        33.500
 113127895.801 7  88151627.75846  21527529.097    21527528.1054   21527532.9724
        45.500          37.1004
 108591241.508 7  84616541.62945  20664223.509    20664223.1074   20664220.0034
        42.300          32.7004
 138323594.851 6                  26322104.713
        36.000
 120375877.451 7  93799345.92246  22906772.099    22906771.5184   22906770.3314
        44.300          36.6004
 134794715.990 6                  25650578.736
        38.300
 124220489.134 7                  23638370.019
        46.200
 123772916.229 5                  23186843.236
        34.900
 200865283.217 5                  38223397.492
        32.800
 108877947.534 7                  20353576.290    20353574.911
        42.900
 198906346.122 7                  37850615.978
        44.300
 125411981.019 5  97542595.658 5  23469129.438                    23469129.606
        35.400          34.700
 202051487.712 7                  38449123.818
        46.900
 119260721.287 7  92758429.837 6  22278909.394    22278908.954    22278915.736
        42.600          40.000


 136244402.917 6                  25926419.039
        37.900
 132204289.866 7                  25157625.180
        42.700
 114926616.780 6  89387395.404 5  21559937.404    21559936.753    21559946.412
        41.600          33.600
 141517206.866 5                  26929837.769
        31.200
 112657698.417 8  87622633.280 7  21067550.447    21067550.815    21067555.858
        50.500          44.800
 109044405.755 7  84812291.251 8  20363264.407    20363264.170    20363271.137
        43.500          48.000
 25  1  1  4  2 45.0000000  0 28R01G06G12G11G20E27E03G25G05E34G29R13
                                E05E15R22S35R23S31R15S33R07E08E21E13
                                R14E30R24R08
 117905751.802 6  91704490.511 6  22056705.391    22056705.729    22056713.565
        38.400          36.000
 124772318.706 6  97225117.47044  23743385.663    23743385.5654   23743386.2934
        39.900          26.2004
 114980208.512 7  89595022.46046  21879980.906    21879980.3704   21879983.0844
        43.200          37.7004
 112064307.600 7  87322837.62444  21325126.620    21325126.4064   21325125.6164
        46.200          28.8004
 106502843.164 7  82989210.18645  20266816.855    20266815.5814   20266816.3854
        44.500          33.0004
 128521796.932 7                  24456860.016
        46.800
 139459953.797 5                  26538346.871
        35.000
 113136842.380 7  88158599.12246  21529230.027    21529229.0084   21529233.8034
        46.600          38.1004
 108562373.474 7  84594047.07346  20658729.330    20658728.8924   20658725.7304
        46.200          36.0004
 138353074.017 6                  26327715.166
        37.500
 120330888.169 7  93764289.36445  22898209.911    22898209.3034   22898208.0054
        42.300          35.5004
 122043975.583 6                  22854919.471    22854919.752
        37.900
 134792762.013 6                  25650207.184
        37.400
 124228080.900 7                  23639814.624
        46.500
 123811434.917 6                  23194063.234    23194060.609
        38.100
 200865308.806 5                  38223399.661
        35.200
 108891961.629 6                  20356194.877    20356192.380
        39.800
 198906340.720 7                  37850616.702
        44.200
 125377002.895 6  97515390.562 5  23462595.376    23462593.564    23462583.575
        36.400          33.400
 202051469.351 7                  38449117.603
        46.100
 119300225.636 6  92789155.469 7  22286289.723    22286289.094    22286298.081
        40.000          42.700


 136224851.683 5                  25922698.457
        35.500
 132183009.401 7                  25153577.022
        43.700
 114941133.536 5  89398686.238 6  21562659.711    21562655.656    21562671.696
        34.200          36.600
 141563449.735 5                  26938643.003
        33.400
 112628202.263 8  87599691.816 7  21062034.901    21062036.312    21062041.252
        51.300          45.500
 109030960.973 7  84801834.181 7  20360754.752    20360755.661    20360760.307
        46.500          47.500
 25  1  1  4  3  0.0000000  0 27R01G06G12G11G20E27E03G25G05E34G29R13
                                E05E15R22S35R23S31S33R07E08E21E13R14
                                E30R24R08
 117842709.968 6  91655457.942 5  22044914.139    22044911.941    22044918.923
        37.700          34.800
 124811496.058 6  97255645.29544  23750839.497    23750839.4134   23750838.6054
        40.600          24.6004
 115020690.804 6  89626567.09945  21887685.189    21887684.6664   21887685.6644
        40.500          35.4004
 112086842.601 7  87340397.37544  21329414.272    21329414.0534   21329413.7994
        44.800          25.4004
 106513554.883 6  82997556.98545  20268855.282    20268854.0304   20268854.2424
        41.600          32.7004
 128543656.895 7                  24461019.941
        47.200
 139427656.086 6                  26532201.384
        37.000
 113145939.911 7  88165688.14546  21530961.440    21530960.4214   21530964.6474
        44.300          39.0004
 108533633.348 8  84571652.18446  20653260.717    20653260.3154   20653257.4904
        48.200          39.1004
 138382555.664 5                  26333326.674
        34.700
 120285930.263 6  93729257.21745  22889655.084    22889654.3874   22889653.1204
        40.300          34.1004
 122103129.361 5                  22865994.276    22865995.934
        35.700
 134790912.825 6                  25649854.401
        36.900
 124235703.926 7                  23641265.182
        46.200
 123849977.212 6  96327794.852 5  23201277.634    23201280.307    23201279.518
        37.500          31.000
 200865336.438 5                  38223389.072
        34.300
 108906031.917 7                  20358826.473    20358827.167
        44.200
 198906337.923 7                  37850616.478
        43.300
 202051452.990 7                  38449117.764
        46.500
 119339885.911 7  92820002.295 6  22293698.927    22293703.442    22293706.035
        45.500          41.700


 136205397.977 5                  25918996.978
        35.800
 132161760.607 7                  25149534.235
        43.700
 114955835.792 6  89410121.375 6  21565416.943    21565413.592    21565426.940
        38.900          36.800
 141609711.413 5                  26947441.587
        33.300
 112598739.170 8  87576776.075 7  21056525.499    21056526.325    21056530.035
        51.000          44.300
 109017718.267 7  84791534.342 7  20358281.657    20358282.223    20358286.709
        47.200          46.400
 25  1  1  4  3 15.0000000  0 29R01G06G19G12G11G20E27E03G25G05E34G29
                                R13E05E15R22S35R23S31R15S33R07E08E21
                                E13R14E30R24R08
 117779726.032 6  91606470.445 5  22033130.280    22033130.275    22033137.910
        38.600          35.600
 124850676.840 6  97286175.78343  23758294.807    23758294.6824   23758294.8434
        39.000          22.3004
 127788203.206 5                  24317281.319
        31.300
 115061270.865 7  89658187.90245  21895407.270    21895406.8014   21895406.4624
        43.000          34.6004
 112109422.508 7  87357992.13043  21333712.016    21333711.8064   21333710.9264
        44.000          23.8004
 106524382.314 6  83005993.97745  20270915.089    20270913.8464   20270915.0024
        41.900          32.4004
 128565608.850 7                  24465196.978
        46.500
 139395409.477 6                  26526063.381
        36.700
 113155183.948 7  88172891.29046  21532721.076    21532720.0614   21532724.6954
        44.800          39.2004
 108505017.002 8  84549353.74146  20647814.645    20647814.2484   20647814.2784
        48.200          40.4004
 138412035.340 5                  26338931.352
        34.000
 120240999.670 7  93694246.38746  22881104.886    22881104.1584   22881103.1054
        44.400          36.3004
 122162316.054 5                  22877073.492
        30.900
 134789164.181 6                  25649522.519
        38.900
 124243353.736 7                  23642720.830
        46.300
 123888538.865 6                  23208502.698    23208503.413
        37.000


 108920153.677 7                  20361464.823    20361465.908
        43.300
 198906332.995 7                  37850617.489
        44.100
                  97461340.237 5                                  23449578.138
                        35.600
 202051434.346 7                  38449109.142
        45.300
 119379696.976 7  92850966.435 7  22301138.159    22301140.135    22301144.333
        45.000          43.100


 136186037.388 6                  25915311.566
        38.000
 132140539.001 7                  25145495.536
        45.800
 114970719.360 7  89421697.349 5  21568219.135    21568219.790    21568214.809
        42.400          35.500
 141655987.442 4                  26956248.915
        29.700
 112569304.797 8  87553882.691 7  21051019.635    21051019.969    21051025.986
        50.200          43.700
 109004673.234 8  84781388.216 7  20355846.671    20355846.960    20355849.786
        50.200          44.300
 25  1  1  4  3 30.0000000  0 27R01G06G19G12G11G20E27E03G25G05E34G29
                                E05E15R22S35R23S31S33R07E08E21E13R14
                                E30R24R08
 117716802.802 6  91557530.129 6  22021359.202    22021357.249    22021367.312
        40.100          36.200
 124889863.170 6  97316710.58143  23765756.403    23765756.2964   23765752.4954
        38.500          23.7004
 127838566.911 5                  24326863.941
        31.800
 115101950.584 6  89689886.36245  21903148.378    21903147.8824   21903146.9614
        40.000          33.1004
 112132049.392 6  87375623.50842  21338015.696    21338015.3754   21338016.1684
        40.200          17.1004
 106535327.572 7  83014522.73545  20272998.566    20272997.3234   20272998.0504
        43.700          34.7004
 128587654.845 7                  24469391.777
        46.900
 139363216.549 5                  26519935.919
        33.100
 113164576.554 6  88180210.16946  21534508.409    21534507.4124   21534512.5894
        41.100          39.3004
 108476527.037 7  84527153.76146  20642393.613    20642393.2164   20642394.4974
        46.500          41.4004
 138441515.572 5                  26344557.947
        32.300
 120196098.909 7  93659258.77645  22872560.634    22872559.9194   22872558.8454
        43.700          35.4004
 134787518.344 6                  25649207.866
        37.500
 124251032.552 7                  23644182.387
        46.300
 123927121.957 5                  23215727.827    23215727.172
        35.700
 200865355.355 6                  38223412.651
        38.700
 108934329.499 7                  20364117.287    20364116.708
        43.700
 198906328.428 7                  37850614.117
        44.900
 202051416.792 7                  38449109.769
        47.000
 119419660.743 7  92882049.426 6  22308601.565    22308602.665    22308609.077
        42.200          40.800


 136166772.698 6                  25911645.354
        38.300
 132119346.799 6                  25141462.812
        41.100
 114985785.908 6  89433415.724 6  21571033.141    21571036.250    21571044.827
        37.800          39.400
 141702313.655 5                  26965056.437
        33.900
 112539901.675 8  87531013.629 6  21045521.034    21045520.955    21045525.519
        49.100          41.100
 108991828.389 8  84771397.787 7  20353448.592    20353449.039    20353452.245
        51.900          45.400
 25  1  1  4  3 45.0000000  0 28R01G06G19G12G11G20E27E03G25G05E34G29
                                E05E15R22S35R23S31R15S33R07E08E21E13
                                R14E30R24R08
 117653939.597 6  91508636.518 6  22009602.702    22009601.639    22009609.471
        40.600          36.200
 124929054.058 5  97347248.94843  23773205.482    23773205.3484   23773210.8484
        33.400          20.5004
 127888968.412 5                  24336457.636
        35.500
 115142728.917 6  89721661.67345  21910907.981    21910907.5164   21910906.8764
        37.100          32.4004
 112154722.212 6  87393290.67442  21342330.580    21342330.1384   21342330.1884
        38.400          13.3004
 106546389.487 7  83023142.39946  20275103.741    20275102.5394   20275103.2404
        44.000          36.2004
 128609793.797 7                  24473604.333
        46.200
 139331076.405 5                  26513821.334
        33.500
 113174116.604 6  88187643.96146  21536323.859    21536322.8624   21536327.1474
        41.500          36.5004
 108448162.509 7  84505051.52746  20636996.352    20636995.9504   20636998.5184
        46.300          41.8004


 120151226.993 7  93624293.63146  22864021.646    22864020.8824   22864021.4714
        46.300          39.0004
 134785974.331 6                  25648914.242
        36.700
 124258739.255 7                  23645648.952
        46.000
 123965725.472 5                  23222967.159    23222967.797
        33.900
 200865380.425 5                  38223422.600
        34.000
 108948558.313 6                  20366773.638    20366774.748
        40.400
 198906322.950 7                  37850611.837
        43.100
 125238638.587 6  97407767.290 6  23436688.113    23436689.159    23436690.162
        37.300          37.000
 202051397.458 7                  38449103.159
        46.200
 119459775.712 6  92913250.023 6  22316097.267    22316095.566    22316102.997
        40.400          40.500


 136147602.659 6                  25907997.802
        38.700
 132098182.991 7                  25137435.277
        42.100
 115001034.194 7  89445275.609 6  21573900.811    21573898.688    21573903.822
        42.100          38.600
 141748621.137 4                  26973864.094
        26.100
 112510528.723 8  87508168.053 7  21040029.337    21040029.253    21040034.067
        50.100          42.400
 108979183.000 8  84761562.479 7  20351086.587    20351087.025    20351090.956
        52.300          45.400
 25  1  1  4  4  0.0000000  0 28R01G06G19G12G11G20E27E03G25G05E34G29
                                E05E15R22S35R23S31R15S33R07E08E21E13
                                R14E30R24R08
 117591135.872 6  91459789.210 5  21997852.210    21997851.919    21997860.493
        40.200          35.100
 124968248.196 5  97377789.86342  23780669.405    23780668.9904   23780669.8194
        30.300          15.8004
 127939406.479 6                  24346055.789
        37.200
 115183603.989 6  89753512.37444  21918687.126    21918686.7064   21918685.0454
        37.500          28.9004
 112177439.644 7  87410992.50441  21346654.491    21346654.0584   21346652.6424
        43.600          11.4004
 106557566.666 7  83031851.89246  20277231.196    20277230.0164   20277230.5974
        45.200          37.6004
 128632024.281 7                  24477834.375
        43.100
 139298988.212 5                  26507715.435
        32.900
 113183802.717 6  88195191.53445  21538165.830    21538164.8064   21538169.8224
        39.600          34.8004
 108419922.233 7  84483046.11247  20631622.633    20631622.2404   20631625.3144
        46.900          42.2004
 138500461.972 6                  26355763.013
        37.400
 120106383.052 7  93589350.30446  22855488.713    22855487.9584   22855488.9054
        46.600          40.6004
 134784531.037 6                  25648640.279
        36.700
 124266472.628 7                  23647120.159
        46.100
 124004348.610 6  96447850.509 5  23230203.884    23230204.993    23230200.292
        36.100          34.400
 200865403.366 5                  38223426.567
        35.700
 108962839.055 6                  20369442.885    20369440.854
        36.400
 198906314.902 7                  37850608.850
        45.500
 125204428.475 5  97381159.356 6  23430283.469    23430280.881    23430289.808
        35.900          39.100
 202051376.108 7                  38449101.031
        46.100
 119500040.561 6  92944567.190 6  22323618.967    22323616.585    22323623.793
        38.800          37.300


 136128526.369 6                  25904368.284
        40.900
 132077046.323 6                  25133411.064
        39.600
 115016462.857 7  89457275.641 6  21576797.177    21576796.729    21576796.751
        45.300          38.600
 141794942.052 4                  26982675.969
        29.600
 112481184.586 8  87485344.818 7  21034541.240    21034542.393    21034547.328
        50.200          43.600
 108966735.815 8  84751881.329 7  20348761.078    20348761.992    20348765.793
        51.000          44.600
 25  1  1  4  4 15.0000000  0 28R01G06G19G12G11G20E27E03G25G05E34G29
                                E05E15R22S35R23S31R15S33R07E08E21E13
                                R14E30R24R08
 117528396.976 6                  21986114.268    21986114.330
        38.800
 125007450.377 5  97408336.95142  23788132.110    23788131.6054   23788130.0234
        30.800          16.6004
 127989885.649 6                  24355662.594
        38.600
 115224579.896 6  89785441.63245  21926485.679    21926485.1974   21926483.1614
        38.100          31.7004
 112200206.403 6  87428732.82042  21350987.673    21350987.2224   21350984.6834
        41.900          14.1004
 106568863.570 7  83040654.70346  20279380.943    20279379.7674   20279380.8084
        46.300          39.3004
 128654350.935 7                  24482083.572
        44.700


 113193639.418 6  88202856.56845  21540037.136    21540036.0684   21540042.0684
        40.200          33.8004
 108391810.989 7  84461141.26446  20626272.385    20626272.0194   20626274.9644
        47.500          41.2004
 138529942.117 5                  26361372.477
        35.000
 120061572.100 8  93554432.70746  22846961.888    22846961.1604   22846961.9234
        48.300          41.9004
 134783193.135 6                  25648385.863
        38.800
 124274237.221 7                  23648597.409
        44.300
 124042995.745 5  96477909.308 4  23237442.607    23237442.632    23237434.460
        31.500          28.800
 200865429.031 6                  38223416.013
        37.700
 108977176.463 7                  20372126.173    20372125.894
        42.700
 198906310.315 7                  37850608.971
        42.800
 125170375.979 4  97354674.198 6  23423910.988    23423907.505    23423915.295
        29.700          36.700
 202051358.105 7                  38449100.347
        45.900
 119540459.393 7  92976004.051 5  22331171.121    22331171.673    22331173.698
        44.200          34.800


 136109548.645 5                  25900756.317
        35.300
 132055941.469 6                  25129395.488
        41.100
 115032076.759 8  89469419.736 6  21579724.824    21579726.612    21579725.463
        48.600          37.900


 112451874.490 8  87462548.070 7  21029060.104    21029061.011    21029067.203
        49.200          44.100
 108954492.123 8  84742358.468 7  20346474.732    20346475.231    20346479.738
        49.200          43.800
 25  1  1  4  4 30.0000000  0 28R01G06G19G12G11G20E27E03G25G05E34G29
                                E05E15R22S35R23S31R15S33R07E08E21E13
                                R14E30R24R08
 117465718.818 6                  21974388.250    21974388.577
        36.900
 125046655.627 6  97438886.49843  23795590.289    23795589.7934   23795590.5544
        36.600          19.6004
 128040401.237 6                  24365274.843
        39.100
 115265652.162 6  89817445.98545  21934300.673    21934300.1324   21934300.4074
        41.600          34.3004
 112223017.651 7  87446507.64241  21355327.482    21355327.1024   21355325.4354
        43.400          10.1004
 106580275.362 8  83049547.04646  20281552.633    20281551.4624   20281553.0024
        48.100          40.6004
 128676769.001 7                  24486349.683
        44.200


 113203622.111 7  88210635.29845  21541938.290    21541937.2314   21541941.8954
        42.100          34.3004
 108363824.593 7  84439333.73046  20620946.649    20620946.2744   20620947.9694
        46.900          40.1004
 138559420.380 6                  26366985.112
        41.300
 120016789.737 7  93519537.38547  22838440.159    22838439.4624   22838441.1664
        47.400          43.3004
 134781956.125 6                  25648150.286
        37.600
 124282028.442 7                  23650079.720
        46.300
 124081747.334 5                  23244680.558
        34.000
 200865452.580 5                  38223426.195
        34.300
 108991565.969 7                  20374815.525    20374816.701
        45.100
 198906303.360 7                  37850605.916
        43.000
 125136476.913 5  97328308.285 5  23417561.964    23417559.719    23417570.913
        30.500          34.800
 202051337.504 7                  38449088.779
        43.900
 119581027.147 7  93007556.649 5  22338747.321    22338746.986    22338747.464
        42.100          34.200


 136090665.107 6                  25897161.653
        38.200
 132034863.664 6                  25125386.557
        37.500
 115047870.258 7  89481703.627 6  21582684.582    21582686.535    21582688.476
        47.500          39.200


 112422593.480 7  87439773.977 7  21023585.358    21023584.606    21023590.427
        47.700          44.100
 108942447.201 8  84732990.232 7  20344226.592    20344227.587    20344230.772
        50.500          43.700
 25  1  1  4  4 45.0000000  0 28R01G06G19G12G11G20E27E03G25G05E34G29
                                E05E15R22S35R23S31R15S33R07E08E21E13
                                R14E30R24R08
 117403106.441 6                  21962676.805    21962675.980
        41.900
 125085868.829 6  97469442.21143  23803051.519    23803051.0284   23803051.4974
        39.300          20.6004
 128090957.336 6  99811220.0944   24374894.699    24374894.4894   24374921.2554
        37.100           3.6004
 115306825.065 6  89849528.77045  21942134.846    21942134.2884   21942135.7674
        41.900          35.8004
 112245877.940 7  87464320.79543  21359678.313    21359677.9424   21359677.2984
        46.000          19.3004
 106591806.559 7  83058532.39746  20283747.072    20283745.8924   20283747.3834
        47.700          41.4004
 128699282.823 7                  24490634.249
        45.700
 139203052.022 4                  26489459.989
        29.700
 113213755.106 6  88218531.17345  21543865.673    21543864.5914   21543869.7234
        41.900          34.5004
 108335967.653 7  84417627.05946  20615646.969    20615646.5724   20615646.3604
        42.900          40.2004
 138588901.349 6                  26372594.252
        40.800
 119972040.952 8  93484668.20447  22829924.836    22829924.1664   22829925.6714
        48.600          43.8004
 134780824.704 6                  25647934.235
        37.000
 124289850.782 7                  23651568.139
        46.500
 124120438.361 4  96538071.109 5  23251924.034    23251923.740    23251928.277
        28.800          33.200
 200865479.145 6                  38223420.731
        41.200
 109006012.119 7                  20377514.287    20377513.828
        42.500
 198906299.201 7                  37850613.688
        43.300
 125102736.714 6  97302065.854 6  23411254.563    23411254.892    23411254.428
        37.000          36.700
 202051320.247 7                  38449090.344
        43.200
 119621747.940 7  93039228.453 5  22346356.149    22346355.403    22346362.011
        43.100          35.000


 136071880.370 6                  25893588.918
        41.400
 132013817.571 6                  25121380.196
        39.500
 115063848.160 7  89494130.751 6  21585682.825    21585682.992    21585689.141
        47.300          40.900


 112393346.461 7  87417026.305 6  21018116.421    21018114.676    21018120.076
        46.800          41.300
 108930605.951 8  84723780.432 7  20342013.968    20342014.501    20342018.835
        49.200          43.000
 25  1  1  4  5  0.0000000  0 28G06G09G19G12G11G20E27E03G25G05E34G29
                                R13E05E15R22S35R23S31R15S33R07E21E13
                                R14E30R24R08
 125125085.617 6  97500000.73643  23810514.603    23810514.1164   23810513.1064
        39.000          22.4004


 128141549.852 5  99850643.1084   24384523.467    24384523.1104   24384546.5534
        34.900           3.8004
 115348093.890 6  89881686.28245  21949987.751    21949987.1974   21949989.3004
        36.700          34.7004
 112268783.133 7  87482169.02343  21364036.316    21364036.0034   21364038.2084
        43.600          19.3004
 106603452.692 8  83067607.30846  20285963.088    20285961.9124   20285962.9074
        48.600          40.6004
 128721888.236 7                  24494935.226
        44.700
 139171183.804 5                  26483394.967
        32.300


 108308235.642 7  84396017.72846  20610369.231    20610368.8424   20610368.5894
        43.500          40.2004
 138618380.764 6                  26378205.162
        41.600
 119927321.431 8  93449821.85547  22821415.007    22821414.3504   22821414.8904
        51.000          44.0004
 122577586.958 5                  22954839.621
        33.700
 134779794.596 5                  25647737.771
        32.500
 124297700.037 7                  23653061.634
        45.600


 200865415.886 7                  38223423.454
        42.700
 109020510.835 6                  20380224.601    20380223.886
        40.900
 198906293.472 6                  37850598.923
        41.400
 125069150.649 6  97275943.546 6  23404969.428    23404967.728    23404973.829
        38.800          36.600
 202051301.081 7                  38449089.964
        42.900
 119662617.376 6  93070986.778 5  22353986.880    22353987.148    22353992.576
        41.400          31.200
 136053190.304 6                  25890031.082
        37.700
 131992798.983 6                  25117380.474
        38.000
 115080005.510 8  89506697.654 7  21588713.640    21588713.572    21588721.692
        49.300          42.800


 112364129.263 8  87394301.877 7  21012653.292    21012652.991    21012655.606
        49.000          42.200
 108918964.238 8  84714725.742 7  20339841.617    20339841.838    20339844.423
        48.900          43.800
 25  1  1  4  5 15.0000000  0 29R01G06G09G19G12G11G20E27E03G25G05E34
                                G29R13E05E15R22S35R23S31R15S33R07E21
                                E13R14E30R24R08
 117278070.188 6  91216298.860 5  21939285.485    21939283.698    21939292.294
        39.100          31.200
 125164307.346 6  97530563.03544  23817980.146    23817979.6954   23817977.8674
        39.300          25.4004


 128192180.184 5                  24394155.640
        34.600
 115389459.479 7  89913919.19846  21957860.488    21957859.9434   21957861.0204
        45.100          39.3004
 112291734.259 5  87500053.07241  21368402.402    21368402.0634   21368405.8164
        34.700          11.1004
 106615214.970 8  83076772.71846  20288201.694    20288200.5104   20288200.8154
        48.600          41.1004
 128744586.355 7                  24499255.446
        45.400
 139139370.744 5                  26477341.161
        34.400
 113234460.578 6  88234660.20745  21547805.853    21547805.3974   21547808.4804
        41.200          33.7004
 108280630.642 7  84374507.33946  20605115.700    20605115.3034   20605115.4254
        44.500          40.0004
 138647860.068 6                  26383814.380
        40.900
 119882632.926 7  93414999.67946  22812910.388    22812909.7544   22812908.8984
        47.800          38.5004
 122637033.170 5                  22965966.348    22965967.835
        32.800
 134778867.198 5                  25647561.391
        34.100
 124305577.456 7                  23654560.613
        45.400
 124197881.012 6                  23266432.332    23266430.990
        38.600
 200865441.960 6                  38223433.422
        39.600
 109035063.464 7                  20382947.891    20382948.361
        44.800
 198906288.088 7                  37850607.714
        42.100
 125035721.127 5  97249942.774 7  23398714.716    23398712.349    23398718.794
        35.700          42.400
 202051281.646 7                  38449083.431
        44.500
 119703636.165 6  93102890.288 5  22361651.683    22361651.585    22361655.743
        37.200          30.700
 136034596.613 6                  25886493.981
        39.800
 131971809.116 6                  25113385.073
        41.300
 115096343.755 7  89519405.133 6  21591777.134    21591776.906    21591783.632
        46.600          40.400
 142026818.686 5                  27026815.209
        33.800
 112334943.307 8  87371601.695 7  21007195.408    21007196.033    21007200.061
        51.400          44.400
 108907523.589 8  84705827.458 7  20337704.735    20337704.993    20337707.260
        49.200          43.300
 25  1  1  4  5 30.0000000  0 29R01G06G19G12G11G20E27E03G25G05E34G29
                                R13E05E15R22S35R23S31R15S33R07E08E21
                                E13R14E30R24R08
 117215650.132 6  91167749.992 5  21927607.092    21927606.100    21927615.032
        39.400          31.600
 125203535.303 5  97561130.22444  23825443.281    23825442.8704   23825445.2134
        34.400          25.3004
 128242849.220 4                  24403799.365
        29.300
 115430922.975 7  89946228.37146  21965750.832    21965750.2964   21965750.2234
        44.100          39.6004
 112314732.522 6  87517973.96241  21372780.319    21372779.9304   21372782.2334
        40.100           9.7004
 106627094.644 8  83086029.62346  20290462.134    20290460.9454   20290461.0874
        48.900          41.1004
 128767378.358 7                  24503593.408
        46.100
 139107614.345 5                  26471299.453
        32.700
 113245035.304 7  88242900.23546  21549819.233    21549818.4424   21549822.2944
        42.900          36.5004
 108253153.947 7  84353096.95346  20599886.632    20599886.2084   20599887.0924
        44.600          40.2004
 138677340.425 6                  26389424.484
        36.000
 119837976.999 7  93380202.90246  22804412.004    22804411.3744   22804408.7874
        47.400          37.1004
 122696510.600 5                  22977106.420    22977103.896
        35.600
 134778043.955 6                  25647404.759
        36.300
 124313484.340 7                  23656065.825
        45.700
 124236635.815 6  96628442.630 5  23273690.533    23273692.006    23273697.419
        37.200          31.900


 109049671.568 6                  20385674.762    20385676.891
        41.200
 198906283.061 6                  37850603.193
        40.000
                  97224064.796 6                  23392483.388    23392490.293
                        39.100
 202051264.182 7                  38449081.883
        46.300
 119744805.202 6  93134910.653 5  22369342.698    22369342.271    22369343.379
        39.100          33.400


 136016100.579 6                  25882973.697
        38.000
 131950849.226 6                  25109397.033
        40.000
 115112864.019 7  89532254.197 6  21594875.086    21594874.399    21594882.927
        42.100          40.400
 142073232.007 4                  27035632.281
        29.200
 112305789.908 8  87348926.842 7  21001741.146    21001742.747    21001747.552
        49.800          43.700
 108896285.632 8  84697086.859 7  20335604.871    20335604.828    20335609.166
        48.400          44.100
 25  1  1  4  5 45.0000000  0 28R01G06G09G19G12G11G20E27E03G25G05E34
                                G29E05E15R22S35R23S31S33R07E08E21E13
                                R14E30R24R08
 117153294.909 6  91119251.539 5  21915942.234    21915942.593    21915951.677
        39.000          31.300
 125242767.617 5  97591700.80543  23832906.858    23832906.5374   23832911.5524
        33.500          22.4004


 128293555.157 5                  24413450.232
        34.000
 115472482.100 7  89978612.08446  21973658.769    21973658.1484   21973658.3194
        45.800          39.2004
 112337776.298 6  87535930.15942  21377165.223    21377164.8754   21377167.4694
        40.400          12.2004
 106639089.711 8  83095376.43646  20292744.901    20292743.7174   20292743.2424
        49.600          40.5004
 128790262.378 7                  24507947.298
        44.600
 139075912.799 4                  26465265.344
        28.000
 113255756.540 7  88251254.47246  21551859.454    21551858.7934   21551863.9074
        45.700          40.3004
 108225804.042 7  84331785.34446  20594682.688    20594682.2464   20594682.6964
        45.100          41.6004


 119793352.243 7  93345430.38546  22795920.572    22795919.9784   22795915.1544
        47.500          36.0004
 134777323.149 6                  25647268.173
        37.200
 124321418.754 7                  23657576.461
        45.200
 124275411.455 6  96658601.518 5  23280956.649    23280957.091    23280959.947
        37.800          33.100


 109064333.282 6                  20388416.789    20388418.282
        36.800
 198906277.857 6                  37850592.882
        39.400
 202051245.187 7                  38449075.355
        44.900
 119786122.542 5                  22377060.878    22377060.470
        34.700


 135997700.689 6                  25879471.699
        40.800
 131929917.638 7                  25105414.451
        42.500
 115129564.177 6  89545243.166 6  21598009.482    21598006.784    21598015.236
        37.700          40.200
 142119658.864 5                  27044467.621
        30.900
 112276667.587 7  87326276.136 7  20996294.116    20996295.295    20996299.900
        46.200          42.900
 108885248.565 8  84688502.465 7  20333543.208    20333543.750    20333547.833
        49.000          44.200
 25  1  1  4  6  0.0000000  0 27R01G06G12G11G20E27E03G25G05E34G29E05
                                E15R22S35R23S31R15S33R07E08E21E13R14
                                E30R24R08
 117091008.033 5  91070806.305 5  21904286.680    21904287.684    21904297.729
        33.300          30.600


 115514139.640 7  90011072.48046  21981585.220    21981584.5994   21981585.5444
        45.500          40.0004
 112360868.470 6  87553923.92841  21381558.863    21381558.4794   21381561.9474
        41.900          11.9004
 106651203.023 8  83104815.35046  20295049.476    20295048.2874   20295047.9794
        49.000          38.3004
 128813241.311 7                  24512320.301
        44.900
 139044269.950 4                  26459244.258
        27.400
 113266627.193 7  88259725.07846  21553927.234    21553926.5954   21553932.5294
        46.200          40.0004
 108198584.249 8  84310575.13747  20589502.324    20589501.8684   20589503.1624
        48.100          43.6004


 119748761.820 7  93310684.59145  22787436.244    22787435.6944   22787429.6114
        46.800          35.8004
 134776707.775 5                  25647152.818
        34.200
 124329383.767 7                  23659092.556
        46.600
 124314211.375 6  96688779.142 5  23288222.461    23288223.183    23288228.278
        37.100          32.000
 200865589.391 6                  38223444.605
        39.100
 109079051.553 5                  20391176.003    20391167.015
        33.600
 198906275.348 6                  37850593.615
        41.700
                  97172677.017 6                                  23380124.092
                        37.300
 202051228.795 7                  38449071.272
        44.100
 119827590.364 6  93199291.175 6  22384808.820    22384810.423    22384812.287
        38.700          36.800
 147983928.989 5                  28160402.557
        32.500
 135979400.091 6                  25875989.074
        40.300
 131909017.320 7                  25101437.651
        45.100
 115146447.150 7  89558374.315 6  21601179.751    21601179.365    21601182.330
        44.400          41.100


 112247579.312 7  87303651.938 6  20990857.159    20990857.136    20990859.580
        45.200          41.000
 108874415.887 8  84680077.065 7  20331519.659    20331520.041    20331524.907
        49.000          44.200
 25  1  1  4  6 15.0000000  0 28R01G06G12G11G20E27E03G25G05E34G29R13
                                E05E15R22S35R23S31R15S33R07E08E21E13
                                R14E30R24R08
 117028786.606 6  91022411.843 5  21892649.233    21892649.656    21892657.331
        36.900          33.300


 115555891.559 7  90043606.42246  21989531.209    21989530.5754   21989530.4594
        47.600          40.5004
 112384005.280 7  87571952.67342  21385962.295    21385961.9064   21385965.1444
        42.200          12.5004
 106663430.727 8  83114343.44446  20297376.744    20297375.5604   20297374.8194
        49.500          40.2004
 128836311.318 7                  24516710.214
        44.500
 139012681.956 5                  26453233.683
        33.800
 113277643.457 7  88268309.21846  21556024.876    21556024.2504   21556027.6724
        46.900          41.2004
 108171490.681 7  84289463.27647  20584346.360    20584345.8954   20584346.7374
        47.300          42.7004


 119704202.345 7  93275962.97946  22778956.936    22778956.3954   22778952.1214
        45.900          39.6004
 122875087.055 5                  23010551.161    23010550.216
        30.700
 134776194.385 5                  25647054.934
        35.200
 124337375.731 7                  23660613.009
        45.600
 124353031.449 5  96718972.713 5  23295493.095    23295494.810    23295500.840
        35.500          33.700


 109093823.342 6                  20393938.917    20393937.896
        38.700
 198906271.330 7                  37850600.577
        42.100
 124903451.269 6  97147167.139 5  23373986.964    23373988.542    23373984.170
        38.900          32.900
 202051211.388 7                  38449069.457
        45.500
 119869204.765 6  93231658.024 6  22392585.136    22392585.761    22392590.397
        40.800          37.000
 147941855.957 5                  28152396.837
        34.300
 135961195.221 5                  25872526.881
        31.600
 131888144.498 7                  25097465.529
        45.800
 115163508.368 8  89571644.176 7  21604380.226    21604380.774    21604385.026
        49.000          42.900
 142212557.545 5                  27062143.167
        33.300
 112218521.515 7  87281051.448 7  20985417.620    20985419.361    20985427.136
        46.400          42.000
 108863783.825 8  84671807.705 7  20329534.972    20329535.540    20329538.921
        49.900          44.000
 25  1  1  4  6 30.0000000  0 28R01G06G12G11G20E27E03G25G05E34G29R13
                                E05E15R22S35R23S31R15S33R07E08E21E13
                                R14E30R24R08
 116966631.835 6  90974069.379 5  21881020.336    21881020.656    21881029.221
        36.000          30.300


 115597738.262 7  90076214.26146  21997492.508    21997491.8784   21997493.9414
        44.600          39.4004
 112407187.452 7  87590016.52441  21390374.525    21390374.1284   21390377.3214
        43.400           9.4004
 106675773.554 8  83123961.21946  20299724.900    20299723.7074   20299723.4724
        49.000          40.0004
 128859473.120 7                  24521117.967
        44.700
 138981150.070 5                  26447233.421
        30.100
 113288806.079 7  88277007.38446  21558149.267    21558148.6504   21558150.1144
        46.700          40.3004
 108144524.821 7  84268450.94547  20579215.391    20579214.9184   20579214.7014
        47.600          43.1004


 119659674.974 7  93241266.31546  22770484.509    22770483.9824   22770481.6964
        45.200          41.3004
 122934679.636 5                  23021712.140    23021712.566
        32.900
 134775783.691 5                  25646976.205
        33.500
 124345395.328 8                  23662139.353
        48.100
 124391873.145 6  96749182.874 5  23302773.093    23302774.536    23302777.574
        36.400          32.300


 109108648.821 4                  20396702.135    20396699.087
        27.200
 198906266.773 7                  37850601.414
        43.100
 124870810.644 6  97121780.012 6  23367886.405    23367885.377    23367879.127
        40.300          36.300
 202051193.910 7                  38449066.926
        46.900
 119910966.632 7  93264139.381 6  22400399.862    22400400.449    22400393.673
        42.400          37.700
 147899756.449 5                  28144382.977
        32.800
 135943087.202 5                  25869077.754
        31.500
 131867300.099 7                  25093498.786
        45.000
 115180748.787 7  89585053.449 6  21607611.780    21607611.736    21607617.844
        45.000          41.900
 142259026.192 5                  27070984.680
        30.900
 112189495.241 7  87258475.431 7  20979996.107    20979993.986    20979998.953
        44.000          42.800
 108853353.521 8  84663695.240 7  20327587.702    20327588.649    20327591.619
        50.000          45.400
 25  1  1  4  6 45.0000000  0 28R01G06G13G12G11G20E27E03G25G05E34G29
                                R13E05E15R22S35S31R15S33R07E08E21E13
                                R14E30R24R08
 116904539.954 4  90925775.729 5  21869410.191    21869402.017    21869414.343
        28.300          33.600
 125399748.443 5  97714106.86643  23862779.301    23862779.0424   23862783.4354
        31.600          23.9004
 130548616.078 5                  24842574.013
        32.100
 115639675.028 7  90108892.27846  22005473.360    22005472.7174   22005474.4014
        42.100          38.4004
 112430410.456 7  87608112.41742  21394793.765    21394793.5154   21394797.2254
        44.200          13.5004
 106688226.759 8  83133665.01446  20302095.016    20302093.8274   20302093.7624
        49.000          41.0004
 128882722.160 7                  24525542.487
        45.600
 138949669.987 6                  26441244.679
        36.200
 113300110.379 7  88285815.95146  21560299.876    21560299.2734   21560299.0014
        45.000          36.8004
 108117682.057 7  84247534.52347  20574106.978    20574106.5004   20574106.4934
        46.900          44.0004


 119615175.454 7  93206591.31546  22762015.161    22762014.6204   22762014.9744
        42.600          39.5004
 122994294.515 5                  23032878.441    23032875.297
        32.900
 134775471.402 5                  25646916.394
        32.300
 124353438.119 7                  23663669.333
        47.100
 124430731.562 5                  23310050.688    23310051.028
        32.600


 198906258.297 7                  37850601.159
        43.400
 124838323.408 5  97096512.249 5  23361809.348    23361807.954    23361798.784
        34.300          34.600
 202051171.246 7                  38449063.921
        46.500
 119952870.363 6  93296731.218 6  22408215.868    22408216.273    22408215.592
        38.900          36.400
 147857626.095 5                  28136366.727
        32.100
 135925071.603 5                  25865650.028
        35.400
 131846479.575 7                  25089537.198
        43.600
 115198163.719 7  89598598.468 7  21610877.224    21610878.050    21610886.328
        44.600          44.100
 142305503.207 5                  27079829.430
        33.000
 112160495.824 7  87235920.359 7  20974573.340    20974572.792    20974576.963
        47.900          45.000
 108843120.547 8  84655736.263 7  20325676.783    20325677.675    20325680.930
        50.700          46.300
 25  1  1  4  7  0.0000000  0 27R01G06G13G12G11G20E27E03G25G05E34G29
                                R13E05E15R22S35R23S31S33E08E21E13R14
                                E30R24R08
 116842519.527 6  90877537.611 5  21857808.869    21857806.183    21857812.941
        36.400          34.400
 125439004.517 5  97744696.02744  23870251.224    23870250.9654   23870253.8044
        34.900          24.9004
 130499409.063 5                  24833205.347
        31.800
 115681709.700 7  90141646.58846  22013473.143    22013472.5584   22013473.1504
        45.500          39.9004
 112453682.427 7  87626246.58041  21399221.069    21399220.7074   21399226.4484
        45.700          11.7004
 106700798.379 8  83143461.06446  20304487.114    20304485.9124   20304486.2374
        49.300          40.0004
 128906066.402 7                  24529984.395
        45.800
 138918250.102 5                  26435263.578
        32.900
 113311564.352 7  88294741.14345  21562479.076    21562478.4334   21562478.3724
        44.400          34.1004
 108090970.679 8  84226720.49847  20569024.035    20569023.5534   20569023.8824
        48.400          45.4004
 138854230.963 5                  26423083.992
        34.200
 119570712.166 7  93171944.61446  22753554.877    22753554.3594   22753554.3604
        44.900          40.7004
 123053939.576 4                  23044042.102    23044040.375
        26.300
 134775265.697 5                  25646879.072
        32.700
 124361512.150 7                  23665206.099
        45.300
 124469615.089 5                  23317336.636    23317335.301
        34.600


 109138478.939 5                  20402281.345
        31.100
 198906252.677 7                  37850602.165
        42.700
 202051152.285 7                  38449060.947
        46.500
 147815473.309 5                  28128346.375
        30.200
 135907156.690 6                  25862242.326
        39.600
 131825691.030 7                  25085581.972
        44.400
 115215761.315 6  89612285.551 7  21614182.123    21614181.882    21614186.779
        39.900          42.300


 112131531.818 7  87213392.794 7  20969154.373    20969154.214    20969160.701
        45.700          45.300
 108833093.500 8  84647937.476 8  20323804.633    20323804.695    20323809.369
        48.200          48.300
 25  1  1  4  7 15.0000000  0 26R01G06G12G11G20E27E03G25G05E34G29E05
                                E15R22S35R23S31S33R07E08E21E13R14E30
                                R24R08
 116780568.454 6  90829353.429 5  21846219.695    21846219.238    21846224.231
        41.800          33.900
 125478265.767 4  97775289.25343  23877720.739    23877720.4354   23877724.6204
        28.400          22.3004
 115723839.069 7  90174474.65746  22021489.937    22021489.3474   22021489.5174
        44.600          39.7004
 112477000.393 7  87644416.13742  21403658.757    21403658.3914   21403664.3544
        45.800          12.5004
 106713485.419 8  83153347.04346  20306901.233    20306900.0354   20306900.8774
        50.200          41.2004
 128929502.916 7                  24534444.525
        46.000
 138886887.758 5                  26429305.069
        32.400
 113323165.137 7  88303780.69945  21564686.389    21564685.7054   21564687.8684
        42.400          35.3004
 108064387.806 7  84206006.59647  20563965.578    20563965.1224   20563965.8464
        46.800          46.5004
 138883710.175 5                  26428691.169
        30.600
 119526282.570 6  93137324.10646  22745098.198    22745097.6934   22745099.3854
        39.700          38.4004
 134775163.769 5                  25646858.114
        31.700
 124369614.549 7                  23666747.983
        44.400
 124508520.904 6                  23324627.342    23324625.365
        36.300


 109153467.171 6                  20405072.997    20405076.458
        37.200
 198906247.619 6                  37850604.043
        40.300
 202051133.933 7                  38449052.559
        44.100
 120037124.683 6                  22423956.208    22423957.180
        37.600
 147773295.583 5                  28120320.843
        31.500
 135889339.775 6                  25858851.865
        37.000
 131804931.589 7                  25081630.798
        43.900
 115233538.200 7  89626111.981 7  21617515.213    21617514.001    21617520.543
        44.200          42.400
 142398478.318 5                  27097526.115
        30.700
 112102600.299 7  87190890.577 7  20963746.093    20963746.319    20963751.098
        45.400          44.500
 108823269.431 7  84640296.591 8  20321968.734    20321969.662    20321974.639
        47.400          48.300
 25  1  1  4  7 30.0000000  0 27R01G06G12G11G20E27E03G25G05E34G29R13
                                E05E15R22S35R23S31R15S33E08E21E13R14
                                E30R24R08
 116718686.490 6  90781223.093 5  21834642.122    21834642.543    21834648.211
        40.600          33.000


 115766062.043 7  90207375.70446  22029524.178    22029523.6064   22029524.1604
        46.200          40.3004
 112500363.703 7  87662621.35841  21408104.231    21408103.9144   21408111.8484
        45.100          10.0004
 106726287.163 8  83163322.46346  20309337.541    20309336.3524   20309337.1784
        49.000          40.8004
 128953031.017 7                  24538921.236
        42.900
 138855583.168 4                  26423344.323
        29.600
 113334911.925 7  88312934.03245  21566922.062    21566921.4104   21566925.2084
        42.600          34.7004
 108037933.283 7  84185392.72247  20558931.887    20558931.4274   20558932.4454
        47.300          46.2004
 138913189.233 6                  26434303.161
        36.400
 119481886.438 7  93102729.74346  22736649.617    22736649.1174   22736651.4214
        42.400          36.9004
 123173290.159 5                  23066402.060
        32.800
 134775165.062 5                  25646859.187
        30.800
 124377744.762 7                  23668294.688
        45.300




 109168509.861 6                  20407887.242    20407885.911
        36.300
 198906242.884 7                  37850601.360
        42.000
 124741814.696 5  97021460.283 5  23343736.413    23343731.805    23343748.570
        35.000          32.300
 202051115.510 7                  38449055.197
        44.400
 147731092.459 4                  28112287.394
        29.700
 135871620.553 6                  25855480.661
        40.500
 131784200.726 7                  25077685.612
        44.800
 115251493.276 7  89640077.032 7  21620883.356    21620882.523    21620888.668
        45.700          42.300
 142444997.779 5                  27106377.862
        32.600
 112073700.799 7  87168413.163 7  20958341.774    20958343.123    20958346.462
        46.500          44.400
 108813648.001 7  84632813.251 7  20320173.149    20320172.709    20320178.451
        46.900          47.700
 25  1  1  4  7 45.0000000  0 26G06G12G11G20E27E03G25G05E34G29R13E05
                                E15R22S35R23S31R15S33E08E21E13R14E30
                                R24R08
 125556803.970 5  97836488.03143  23892663.319    23892663.4754   23892668.6134
        34.100          20.4004
 115808378.879 7  90240349.84046  22037576.687    22037576.1204   22037576.4564
        45.100          37.0004
 112523772.719 7  87680862.58742  21412559.730    21412559.5254   21412567.0194
        46.600          12.3004
 106739203.813 7  83173387.35646  20311795.541    20311794.3614   20311795.1134
        46.700          38.1004
 128976650.905 7                  24543414.784
        43.800


 113346805.047 7  88322201.42746  21569184.595    21569183.9564   21569189.6784
        42.600          36.0004
 108011607.434 7  84164879.07947  20553922.194    20553921.7524   20553923.1234
        46.400          46.7004
 138942668.413 6                  26439910.929
        36.900
 119437524.298 6  93068161.87546  22728208.095    22728207.6264   22728209.4324
        38.500          37.2004
 123233013.206 6                  23077595.578
        36.300
 134775269.978 5                  25646879.962
        32.000
 124385902.946 7                  23669846.500
        46.300
 124586300.062 6                  23339213.882    23339214.320
        37.500


 109183607.645 6                  20410712.769    20410713.524
        41.900
 198906238.244 7                  37850590.646
        44.200
 124709969.294 7  96996691.643 6  23337776.779    23337777.593    23337786.466
        43.200          36.400
 202051096.782 6                  38449053.091
        40.800
 147688864.520 5                  28104252.504
        32.200
 135853999.366 4                  25852124.653
        26.500
 131763498.749 7                  25073745.238
        42.600
 115269627.003 7  89654181.047 6  21624285.702    21624286.202    21624288.219
        45.400          39.500


 112044834.028 7  87145961.121 7  20952943.605    20952944.873    20952948.136
        47.100          42.100
 108804229.665 7  84625487.930 7  20318414.548    20318414.575    20318419.293
        47.800          47.100
 25  1  1  4  8  0.0000000  0 27R01G06G13G12G11G20E27E03G25G05E34G29
                                E05E15R22S35R23S31S33R07E08E21E13R14
                                E30R24R08
 116595134.293 6                  21811528.140    21811526.969
        39.000


 130302288.773 5                  24795702.279
        31.000
 115850789.528 7  90273397.11746  22045648.347    22045647.7574   22045646.9034
        44.300          38.2004
 112547227.766 7  87699139.08042  21417021.616    21417021.6384   21417030.8574
        45.900          12.5004
 106752235.465 7  83183541.89445  20314275.166    20314273.9954   20314274.5924
        46.700          35.5004
 129000362.898 7                  24547928.647
        45.000


 113358844.672 7  88331583.00245  21571476.811    21571476.1324   21571480.3394
        42.400          34.4004
 107985410.840 7  84144466.15447  20548937.128    20548936.7084   20548938.0154
        45.100          45.2004
 138972148.283 5                  26445520.327
        32.900
 119393197.026 7  93033621.13946  22719771.856    22719771.4144   22719774.1324
        42.900          38.3004
 134775479.307 5                  25646917.482
        34.900
 124394089.708 7                  23671404.144
        44.600
 124625272.600 6                  23346518.870    23346519.489
        38.500
 200865712.686 6                  38223477.006
        40.300
 109198760.934 7                  20413543.481    20413544.034
        44.600
 198906234.303 7                  37850598.158
        44.100
 202051079.524 6                  38449044.076
        39.300
 120164712.098 5                  22447779.544
        31.300
 147646612.577 4                  28096212.914
        28.300
 135836477.012 6                  25848793.728
        41.900
 131742825.940 7                  25069811.747
        44.500
 115287939.455 7  89668423.992 6  21627720.201    21627720.743    21627724.741
        46.100          41.600
 142538074.550 4                  27124090.368
        25.700
 112016000.134 7  87123534.877 7  20947550.566    20947551.327    20947556.173
        46.100          45.100
 108795015.128 7  84618321.110 7  20316692.428    20316692.383    20316697.432
        46.600          46.700
 25  1  1  4  8 15.0000000  0 26R01G06G12G11G20E27E03G25G05E34G29E05
                                E15R22S35R23S31S33R07E08E21E13R14E30
                                R24R08
 116533466.025 6  90637154.847 5  21799991.592    21799992.373    21799996.771
        40.700          34.200


 115893293.995 7  90306517.46346  22053736.894    22053736.2864   22053735.9524
        43.700          39.2004
 112570729.266 7  87717451.86343  21421494.157    21421494.1794   21421502.4084
        45.200          18.1004
 106765382.674 8  83193786.50046  20316777.148    20316775.9774   20316775.7724
        48.300          37.2004
 129024167.305 7                  24552457.404
        44.500


 113371031.142 6  88341079.00245  21573796.766    21573796.0964   21573800.4224
        41.800          32.4004
 107959344.340 7  84124154.59747  20543977.195    20543976.7754   20543977.2964
        44.700          43.6004
 139001629.364 5                  26451131.844
        32.500
 119348905.224 7  92999108.09646  22711345.350    22711344.8594   22711345.1194
        45.000          39.5004
 134775793.239 5                  25646979.519
        33.500
 124402305.409 7                  23672967.613
        42.700
 124664268.253 5  96961135.650 5  23353822.737    23353819.167    23353828.426
        31.900          31.700
 200865740.777 6                  38223493.587
        38.200
 109213970.305 7                  20416390.057    20416388.429
        45.900
 198906231.813 6                  37850598.413
        41.900
 202051064.112 7                  38449042.806
        45.600
 120207495.220 6  93494678.678 6  22455755.287    22455754.052    22455763.048
        38.900          37.600
 147604337.423 4                  28088169.364
        26.700
 135819053.940 7                  25845477.223
        44.400
 131722182.975 7                  25065884.258
        43.900
 115306430.815 7  89682806.149 7  21631189.762    21631189.623    21631194.452
        47.200          43.000
 142584633.001 6                  27132952.101
        37.600
 111987200.022 6  87101134.777 7  20942162.410    20942159.785    20942170.689
        40.900          43.800
 108786005.071 8  84611313.286 7  20315011.550    20315013.347    20315015.632
        48.100          46.400
 25  1  1  4  8 30.0000000  0 28R01G06G12G11G20E27E03G25G05E34G29R13
                                E05E15R22S35R23S31R15S33R07E08E21E13
                                R14E30R24R08
 116471864.877 6  90589242.816 6  21788468.188    21788469.463    21788474.455
        41.300          36.500


 115935886.405 7  90339706.36446  22061842.568    22061841.9744   22061841.5294
        46.900          40.1004
 112594271.347 7  87735796.27642  21425974.054    21425974.0674   21425980.2684
        42.700          16.9004
 106778639.306 8  83204116.33046  20319299.757    20319298.5864   20319298.6264
        48.800          36.4004
 129048058.248 7                  24557004.168
        45.900
 138730957.272 5                  26399624.739
        34.800
 113383358.653 6  88350684.84944  21576142.442    21576141.7324   21576144.3714
        41.800          27.8004
 107933402.071 7  84103939.82247  20539039.196    20539038.7544   20539039.9494
        44.700          42.3004


 119304643.292 7  92964618.26846  22702921.646    22702921.1464   22702921.6774
        46.200          39.6004
 123412428.707 5                  23111180.957    23111179.565
        32.700


 124410544.196 7                  23674535.110
        42.600


 200865764.396 6                  38223492.809
        38.400
 109229230.021 7                  20419240.438    20419240.819
        46.000
 198906225.097 6                  37850600.497
        41.800
 124615395.927 6                  23320075.768    23320075.916
        41.600
 202051043.639 7                  38449039.569
        45.300
 120250417.986 6  93528062.968 6  22463775.830    22463774.372    22463780.547
        37.400          39.100


 135801724.563 7                  25842180.045
        44.800
 131701563.889 7                  25061960.748
        42.100
 115325094.773 7  89697322.594 6  21634690.748    21634690.724    21634694.861
        47.500          41.800
 142631198.500 5                  27141811.910
        34.900
 111958428.045 7  87078756.490 6  20936786.431    20936784.027    20936787.598
        45.400          41.000
 108777193.769 8  84604460.040 7  20313366.859    20313368.219    20313369.968
        48.700          46.000
 25  1  1  4  8 45.0000000  0 27R01G06G12G11G20E27E03G25G05E34G29R13
                                E05E15S35R23S31R15S33R07E08E21E13R14
                                E30R24R08
 116410337.909 7  90541388.520 6  21776957.057    21776958.621    21776964.584
        42.500          38.300
 125713932.684 4  97958897.62443  23922567.505    23922567.0324   23922564.5714
        29.300          22.6004
 115978573.033 7  90372968.64046  22069964.243    22069963.6494   22069964.6294
        45.600          37.7004
 112617860.545 6  87754177.46142  21430464.507    21430464.4584   21430465.5214
        39.400          13.6004
 106792011.981 7  83214536.61345  20321844.349    20321843.1734   20321843.5424
        46.900          35.3004
 129072042.240 7                  24561567.819
        43.000
 138699943.666 5                  26393720.207
        33.500
 113395833.608 7  88360405.51344  21578515.078    21578514.3324   21578514.7604
        44.000          29.4004
 107907590.838 6  84083827.20047  20534128.079    20534127.6414   20534127.7514
        41.600          42.0004


 119260418.133 7  92930157.10046  22694506.401    22694505.8744   22694505.7444
        45.300          39.7004
 123472246.969 5                  23122374.412    23122374.576
        32.100


 124418812.715 7                  23676109.049
        42.500


 109244546.899 7                  20422103.035    20422104.075
        45.500
 198906220.648 6                  37850596.150
        39.400
 124584192.960 6  96898919.969 5  23314238.255    23314239.008    23314257.755
        36.800          31.200
 202051025.440 7                  38449036.063
        44.700
                  93561560.704 6                                  22471826.132
                        38.600


 135784495.692 7                  25838901.118
        45.900
 131680975.403 6                  25058043.065
        39.700
 115343938.013 8  89711978.414 7  21638225.957    21638226.177    21638232.339
        48.700          42.600
 142677777.633 6                  27150677.350
        36.800
 111929690.453 7  87056405.101 6  20931411.202    20931410.040    20931413.857
        47.000          41.900
 108768588.068 8  84597766.749 7  20311758.104    20311759.915    20311762.201
        48.500          45.900
 25  1  1  4  9  0.0000000  0 27R01G06G12G11G20E27E03G25G05E34G29R13
                                E05E15R22S35R23S31R15S33E08E21E13R14
                                E30R24R08
 116348881.550 6  90493589.100 6  21765462.139    21765461.350    21765468.123
        40.900          38.400
 125753224.413 5  97989514.60843  23930044.181    23930044.1014   23930046.6154
        31.300          22.2004
 116021348.879 7  90406300.44045  22078103.611    22078103.0304   22078102.8484
        45.300          34.5004
 112641492.716 7  87772592.12243  21434961.005    21434960.9124   21434961.8584
        43.300          22.1004
 106805496.262 8  83225043.84546  20324410.782    20324409.6154   20324409.4764
        48.200          36.4004
 129096114.851 7                  24566147.722
        43.000
 138668986.978 5                  26387827.633
        34.100
 113408451.660 7  88370237.78145  21580916.548    21580915.7844   21580915.6234
        44.400          31.4004
 107881906.592 7  84063813.49747  20529240.703    20529240.2884   20529240.3484
        44.600          44.1004
 139090110.155 5                  26467961.865
        34.700
 119216225.830 7  92895721.57646  22686097.431    22686096.9134   22686095.4004
        46.300          40.8004
 123532085.203 5                  23133579.469    23133577.176
        31.100


 124427106.663 7                  23677686.933
        43.400
                  97052227.872 5                                  23375762.329
                        31.500
 200865921.014 6                  38223505.218
        37.700
 109259916.519 6                  20424975.643    20424975.773
        41.500
 198906214.083 6                  37850585.070
        40.800
 124553149.384 6  96874747.739 5  23308428.510    23308428.412    23308442.047
        38.000          32.200
 202051004.947 7                  38449035.128
        43.900


 135767363.159 7                  25835640.814
        45.200
 131660413.146 6                  25054130.120
        37.700
 115362955.824 8  89726770.032 6  21641795.413    21641795.493    21641798.208
        50.600          40.600
 142724365.753 4                  27159536.258
        27.300
 111900983.622 8  87034077.613 6  20926042.076    20926042.394    20926046.425
        50.600          41.500
 108760183.667 8  84591230.016 7  20310188.803    20310189.620    20310193.582
        48.100          46.400
 25  1  1  4  9 15.0000000  0 28R01G06G12G11G20E27E03G25G05E34G29R13
                                E05E15R22S35R23S31R15S33R07E08E21E13
                                R14E30R24R08
 116287499.008 6  90445847.203 6  21753977.509    21753976.985    21753986.114
        41.300          39.700
 125792521.167 5  98020135.47943  23937523.362    23937523.7774   23937525.4714
        33.300          19.0004
 116064216.621 7  90439703.83345  22086261.192    22086260.6384   22086259.4904
        43.500          33.3004
 112665170.285 7  87791042.11844  21439466.567    21439466.4964   21439468.2034
        43.400          24.8004
 106819094.538 7  83235639.91745  20326998.586    20326997.4154   20326996.6674
        47.500          35.5004
 129120278.686 7                  24570747.177
        44.100
 138638090.170 5                  26381947.755
        33.100
 113421215.243 7  88380183.40845  21583346.213    21583345.4354   21583347.7974
        43.400          35.3004
 107856352.240 7  84043901.00247  20524377.362    20524376.9514   20524377.7004
        46.900          44.8004
 139119586.626 5                  26473574.771
        33.000
 119172069.326 7  92861313.92846  22677694.909    22677694.3774   22677693.2884
        46.100          41.4004
 123591945.973 5                  23144792.906    23144792.010
        30.000


 124435428.580 7                  23679271.626
        44.000
 124820469.711 5  97082623.181 5  23383084.449    23383083.951    23383085.447
        30.400          33.500
 200865945.050 5                  38223514.827
        34.900
 109275341.939 6                  20427856.353    20427860.506
        40.900
 198906208.210 7                  37850588.951
        42.000
                                                  23302678.424

 202050986.527 7                  38449026.815
        45.600
 120380121.615 6  93628886.919 6  22488011.345    22488005.326    22487997.187
        39.700          38.000


 135750329.866 7                  25832399.050
        46.400
 131639879.880 6                  25050222.517
        40.300
 115382150.593 7  89741699.265 5  21645394.402    21645393.942    21645396.290
        47.000          35.500
 142770965.839 5                  27168404.971
        30.200
 111872310.051 8  87011775.929 7  20920680.787    20920682.032    20920684.749
        51.900          42.500
 108751983.698 8  84584852.273 7  20308658.882    20308658.555    20308660.907
        48.300          45.500
 25  1  1  4  9 30.0000000  0 27R01G06G12G11G20E27E03G25G05E34G29R13
                                E05E15S35R23S31R15S33R07E08E21E13R14
                                E30R24R08
 116226191.157 6  90398163.371 6  21742508.579    21742508.923    21742517.426
        39.700          39.600
 125831823.183 3  98050760.43342  23944999.751    23945000.0864   23945002.9314
        22.700          12.0004
 116107176.242 7  90473178.86845  22094437.781    22094437.2314   22094435.0074
        46.000          34.4004
 112688893.614 6  87809527.84244  21443980.636    21443980.6014   21443982.9364
        40.800          24.3004
 106832807.030 7  83246324.99845  20329607.791    20329606.6334   20329605.8364
        47.200          34.5004
 129144533.855 7                  24575363.733
        46.700
 138607253.792 5                  26376080.608
        35.300
 113434124.611 7  88390242.66145  21585802.867    21585802.0804   21585804.8374
        45.300          34.3004
 107830928.010 7  84024089.92247  20519538.671    20519538.2514   20519539.2704
        47.800          44.7004
 139149064.272 4                  26479177.375
        29.100
 119127949.401 7  92826934.79147  22669298.947    22669298.3894   22669298.6044
        46.400          42.5004
 123651829.174 5                  23155992.952    23155993.187
        31.500


 124443778.893 7                  23680860.438
        44.500
 200865970.821 4                  38223524.508
        28.300
 109290823.315 6                  20430752.852    20430753.239
        36.500
 198906203.421 6                  37850581.859
        41.700
 124491549.235 5                  23296903.733    23296901.030
        35.800
 202050967.870 7                  38449026.918
        45.900
 120423617.504 5  93662717.171 6  22496124.770    22496127.970    22496123.382
        34.600          40.100


 135733396.290 7                  25829176.230
        44.800
 131619375.777 7                  25046320.378
        42.300
 115401522.325 7  89756766.148 4  21649028.306    21649027.346    21649029.211
        44.700          27.500


 111843670.197 8  86989500.542 6  20915323.337    20915324.415    20915328.653
        49.800          41.500
 108743988.555 8  84578633.861 7  20307165.028    20307165.431    20307168.119
        48.400          45.800
 25  1  1  4  9 45.0000000  0 28R01G06G12G11G20E27E03G25G05E34G29R13
                                E05E15R22S35R23S31R15S33R07E08E21E13
                                R14E30R24R08
 116164960.556 6  90350539.538 6  21731054.658    21731056.186    21731062.001
        37.700          38.700
 125871132.785 4  98081407.2824   23952482.393    23952482.4244   23952481.5234
        24.800           5.7004
 116150229.207 7  90506726.65245  22102629.368    22102628.8234   22102630.3014
        46.500          35.7004
 112712664.334 7  87828050.49444  21448504.425    21448504.3724   21448506.5684
        43.300          25.7004
 106846635.387 7  83257100.35045  20332239.360    20332238.2024   20332236.9794
        47.900          34.3004
 129168882.070 7                  24579995.551
        45.300
 138576479.863 6                  26370224.714
        37.500
 113447181.375 7  88400416.73645  21588286.958    21588286.1494   21588286.8974
        46.700          32.8004
 107805635.972 7  84004381.84347  20514726.463    20514726.0614   20514725.8774
        47.600          46.3004
 139178544.165 5                  26484788.628
        35.500
 119083868.041 7  92792585.70047  22660909.521    22660908.9714   22660911.0164
        46.300          42.1004
 123711735.846 4                  23167217.470    23167216.356
        27.100


 124452159.200 7                  23682454.878
        43.200




 109306362.719 4                  20433662.112    20433657.392
        29.700
 198906201.669 7                  37850583.308
        42.700
 124460996.359 5                  23291185.814    23291184.132
        35.800
 202050953.002 7                  38449023.408
        45.200
 120467258.046 5  93696659.880 6  22504281.156    22504277.194    22504274.895
        35.300          39.900
 147350172.388 5                  28039801.637
        30.300
 135716564.271 7                  25825973.712
        42.700
 131598902.730 7                  25042423.932
        43.500
 115421072.529 6  89771971.827 5  21652693.259    21652691.026    21652695.145
        39.300          31.400


 111815065.987 7  86967252.785 6  20909971.608    20909973.269    20909977.270
        47.600          39.200
 108736199.954 7  84572576.066 7  20305711.383    20305710.195    20305714.613
        47.100          46.800
 25  1  1  4 10  0.0000000  0 28R01G06G12G11G20E27E03G25G05E34G29R13
                                E05E15R22S35R23S31R15S33R07E08E21E13
                                R14E30R24R08
 116103798.872 5  90302969.358 6  21719610.520    21719608.210    21719620.214
        31.100          37.500


 116193366.359 7  90540340.04045  22110837.090    22110836.5234   22110841.4174
        45.400          35.8004
 112736473.710 7  87846603.29344  21453034.226    21453034.1644   21453037.8114
        42.100          26.9004
 106860570.682 7  83267959.01045  20334890.260    20334889.1164   20334889.5424
        47.200          34.6004
 129193314.478 7                  24584645.595
        45.800
 138545759.940 6                  26364378.237
        37.800
 113460376.712 7  88410698.77045  21590797.929    21590797.0934   21590796.6174
        46.300          35.9004
 107780467.424 7  83984769.99047  20509937.487    20509937.0984   20509935.9604
        47.600          46.1004
 139208017.956 6                  26490397.204
        36.400
 119039816.731 7  92758260.03246  22652526.939    22652526.4214   22652528.6644
        47.100          41.8004
 123771656.910 4                  23178432.784    23178433.444
        27.000


 124460560.861 7                  23684053.252
        42.100
 124937874.388 5                  23405079.686
        34.200


 109321951.338 5                  20436581.108    20436580.188
        34.500
 198906194.082 6                  37850583.107
        41.600
 124430600.166 6  96779406.539 5  23285497.408    23285497.333    23285500.808
        37.000          32.000
 202050931.927 7                  38449015.806
        45.800
 120511033.950 5  93730707.848 6  22512445.870    22512443.696    22512451.820
        35.200          38.700
 147307725.419 4                  28031725.455
        29.900
 135699825.290 6                  25822788.748
        40.900
 131578451.874 7                  25038532.562
        43.200
 115440792.142 7  89787309.390 6  21656395.295    21656396.191    21656400.618
        43.800          37.900


 111786488.850 7  86945026.129 6  20904628.828    20904627.789    20904635.644
        45.800          40.100
 108728609.273 7  84566672.242 7  20304292.573    20304291.649    20304296.975
        45.300          47.600
 25  1  1  4 10 15.0000000  0 26R01G06G19G12G11G20E27E03G25G05E34G29
                                E05E15S35R23S31S33R07E08E21E13R14E30
                                R24R08
 116042713.325 5  90255458.397 6  21708182.877    21708181.614    21708193.528
        35.700          38.300


 129212544.344 5                  24588322.621
        32.700
 116236593.942 7  90574023.84245  22119063.602    22119063.0264   22119065.6834
        45.300          35.1004
 112760328.407 7  87865191.40844  21457574.179    21457574.1174   21457576.5434
        42.000          25.6004
 106874619.587 7  83278906.21445  20337563.640    20337562.5054   20337563.4564
        46.700          34.2004
 129217837.616 7                  24589312.390
        45.100
 138515101.065 6                  26358543.307
        36.600
 113473717.095 8  88421093.87346  21593336.495    21593335.6284   21593337.1164
        48.000          39.4004
 107755429.255 8  83965259.73647  20505173.284    20505172.9004   20505171.0714
        48.400          46.3004
 139237492.347 6                  26496007.481
        39.400
 118995802.472 7  92723963.21146  22644151.023    22644150.5184   22644152.1304
        46.300          40.0004


 124468990.524 6                  23685658.207
        41.900


 109337596.180 6                  20439502.982    20439501.186
        37.000
 198906187.216 7                  37850581.636
        42.500
 202050911.165 7                  38449015.458
        44.400
 120554951.595 6  93764865.954 6  22520653.482    22520653.684    22520654.672
        39.600          36.900
 147265256.550 4                  28023642.002
        29.800
 135683186.186 6                  25819622.783
        41.600
 131558030.004 7                  25034645.184
        42.100
 115460687.652 7  89802783.711 6  21660131.525    21660132.790    21660132.969
        47.800          40.900
 142957553.341 5                  27203899.286
        34.600
 111757945.424 7  86922825.676 6  20899291.802    20899291.140    20899298.758
        44.800          40.100
 108721223.595 7  84560927.871 7  20302911.765    20302911.728    20302918.186
        43.500          47.600
 25  1  1  4 10 30.0000000  0 27R01G06G19G12G11G20E27E03G25G05E34G29
                                R13E15S35R23S31R15S33R07E08E21E13R14
                                E30R24R08
 115981704.954 6  90208007.440 6  21696771.444    21696771.527    21696778.871
        38.500          36.600


 129263934.731 5                  24598103.331
        34.200
 116279912.115 7  90607778.20845  22127306.469    22127305.8704   22127304.4604
        45.300          33.4004
 112784228.615 6  87883814.94443  21462123.117    21462123.0104   21462122.8514
        37.600          23.0004
 106888781.877 7  83289941.76645  20340259.617    20340258.4954   20340258.8074
        45.700          33.2004
 129242451.668 7                  24593996.526
        46.400
 138484503.805 4                  26352722.608
        29.600
 113487202.702 8  88431602.13046  21595902.196    21595901.3334   21595905.0124
        48.500          40.3004
 107730522.016 7  83945851.52447  20500433.711    20500433.3144   20500430.9184
        47.200          44.4004
 139266967.593 6                  26501614.900
        37.700
 118951825.576 7  92689695.51946  22635783.634    22635783.1294   22635782.8004
        45.800          38.4004
 123891500.254 5                  23200900.154
        31.400
 124477448.441 7                  23687267.848
        42.800


 109353297.373 6                  20442440.817    20442439.583
        40.800
 198906181.705 6                  37850579.489
        41.600
 124370299.902 5                  23274215.673    23274210.904
        32.500
 202050892.353 7                  38449008.343
        45.500
 120599010.660 6  93799134.105 6  22528883.485    22528884.636    22528888.378
        40.500          38.400
 147222766.220 5                  28015557.274
        30.800
 135666647.405 6                  25816474.777
        40.500
 131537637.319 6                  25030764.863
        40.300
 115480759.162 7  89818394.845 6  21663892.928    21663893.277    21663897.803
        45.200          40.600
 143004205.206 5                  27212776.668
        35.400
 111729436.280 7  86900651.858 6  20893961.227    20893961.672    20893966.120
        47.500          38.700
 108714043.403 7  84555343.256 7  20301573.031    20301573.676    20301575.952
        45.400          45.800
 25  1  1  4 10 45.0000000  0 29R01G06G19G12G11G20E27E03G25G05E34G29
                                R13E05E15R22S35R23S31R15S33R07E08E21
                                E13R14E30R24R08
 115920771.409 5  90160614.668 5  21685372.119    21685371.751    21685380.607
        34.300          35.900


 129315357.945 5                  24607886.776
        31.000
 116323317.401 7  90641600.47445  22135566.124    22135565.5254   22135561.1814
        46.000          33.3004
 112808171.304 6  87902471.60343  21466679.851    21466679.7264   21466678.0884
        40.600          22.9004
 106903054.516 7  83301063.31245  20342975.267    20342974.1364   20342974.7454
        46.700          32.6004
 129267153.530 7                  24598697.285
        46.400
 138453965.287 5                  26346911.811
        33.600
 113500830.415 7  88442221.14246  21598494.875    21598494.0174   21598499.2024
        46.700          41.2004
 107705742.833 8  83926543.09647  20495717.766    20495717.3604   20495715.4944
        48.300          44.5004
 139296440.731 6                  26507222.316
        36.700
 118907883.430 7  92655454.88446  22627421.158    22627420.6314   22627418.8494
        47.300          38.6004
 123951478.962 4                  23212128.309
        27.700


 124485931.575 7                  23688882.441
        43.900
 125055392.165 5                  23427091.000    23427093.960
        33.200


 109369052.060 6                  20445381.829    20445382.005
        36.600
 198906174.778 6                  37850577.540
        39.600
 124340393.820 6  96709245.938 5  23268616.754    23268616.962    23268631.076
        36.700          33.200
 202050871.796 7                  38449005.611
        44.900
 120643207.868 6  93833509.784 6  22537146.210    22537145.726    22537144.679
        39.800          38.300
 147180251.788 4                  28007467.399
        29.600
 135650206.102 6                  25813346.351
        39.400
 131517270.871 6                  25026889.364
        38.900
 115501003.339 7  89834140.291 6  21667692.007    21667692.820    21667697.622
        47.700          41.700
 143050864.963 5                  27221654.622
        34.700
 111700958.498 7  86878502.465 5  20888635.430    20888636.108    20888638.329
        47.600          35.000
 108707065.562 7  84549916.064 7  20300270.199    20300272.554    20300273.275
        45.300          45.000
 25  1  1  4 11  0.0000000  0 26G06G19G12G11G20E27E03G25G05E34G29E05
                                E15S35R23S31R15S33R07E08E21E13R14E30
                                R24R08
 126067777.598 5                  23989898.027    23989897.9254
        30.700
 129366817.991 5                  24617681.334
        33.100
 116366813.332 7  90675493.37745  22143843.585    22143843.0094   22143838.9914
        45.700          35.0004
 112832160.414 6  87921164.36243  21471242.184    21471241.9834   21471242.9674
        40.900          21.1004
 106917441.426 7  83312273.86145  20345713.087    20345711.9654   20345711.6024
        47.200          32.6004
 129291946.960 7                  24603415.612
        47.400
 138423489.780 5                  26341111.770
        32.200
 113514603.940 8  88452953.75546  21601116.847    21601116.0114   21601120.4494
        48.400          41.1004
 107681095.870 7  83907337.66347  20491027.316    20491026.9014   20491025.7504
        47.800          44.8004
 139325915.740 6                  26512833.896
        37.500
 118863980.392 8  92621244.77146  22619066.915    22619066.3794   22619063.7884
        49.000          41.3004


 124494443.867 7                  23690502.171
        44.500


 109384864.521 6                  20448336.910    20448338.342
        38.300
 198906170.184 6                  37850570.881
        40.400
 124310653.787 4  96686114.777 5  23263068.715    23263071.573    23263061.987
        27.000          35.400
 202050853.378 7                  38449000.648
        44.500
 120687546.789 6  93867995.670 6  22545416.523    22545417.128    22545426.790
        37.300          36.200
 147137717.422 4                  27999394.120
        24.900
 135633866.340 6                  25810237.331
        41.300
 131496934.519 6                  25023020.333
        37.700
 115521423.557 7  89850022.606 6  21671523.352    21671524.294    21671526.409
        47.900          40.500
 143097536.464 5                  27230534.707
        33.500
 111672516.266 8  86856380.788 6  20883316.748    20883317.865    20883323.175
        50.800          37.700
 108700294.390 6  84544649.602 7  20299002.974    20299003.978    20299009.022
        41.900          43.300
 25  1  1  4 11 15.0000000  0 27R01G06G19G12G11G20E27E03G25G05E34G29
                                E05E15S35R23S31R15S33R07E08E21E13R14
                                E30R24R08
                  90066014.766 6                                  21662628.759
                        38.700
 126107111.814 5  98265270.59942  23997376.242    23997376.2954   23997379.9454
        35.400          14.8004
 129418314.962 5                  24627481.083
        34.400
 116410400.001 7  90709456.98946  22152137.247    22152136.6974   22152136.1274
        44.200          36.8004
 112856196.221 6  87939893.53943  21475816.426    21475816.2524   21475817.2184
        38.800          19.6004
 106931942.827 7  83323573.62045  20348472.441    20348471.3334   20348469.9314
        46.600          31.7004
 129316832.300 7                  24608151.397
        46.700
 138393078.092 6                  26335324.091
        36.800
 113528523.664 7  88463800.27946  21603764.839    21603764.0124   21603767.8694
        47.300          38.2004
 107656581.535 8  83888235.59347  20486362.279    20486361.8504   20486361.3164
        48.300          45.1004
 139355393.002 6                  26518442.760
        37.200
 118820117.196 8  92587065.70647  22610719.895    22610719.3774   22610717.8084
        49.800          42.9004


 124502985.701 7                  23692127.710
        44.700


 109400735.208 6                  20451302.555    20451303.386
        41.300
 198906167.427 7                  37850579.172
        42.600
 124281080.329 5  96663113.268 5  23257550.993    23257554.003    23257524.182
        33.800          35.600
 202050838.351 7                  38448998.447
        44.300
 120732027.575 6  93902591.968 5  22553732.267    22553735.128    22553735.606
        40.600          31.100


 135617628.750 6                  25807146.094
        41.500
 131476628.782 5                  25019155.281
        35.600
 115542020.317 8  89866042.277 7  21675386.724    21675387.328    21675391.662
        49.400          43.200
 143144219.717 5                  27239418.947
        35.700
 111644109.980 8  86834287.033 5  20878004.158    20878004.884    20878008.451
        49.100          35.200
 108693730.499 6  84539544.426 6  20297777.931    20297777.121    20297782.478
        40.000          41.800
 25  1  1  4 11 30.0000000  0 27R01G06G19G12G11G20E27E03G25G05E34G29
                                E05E15S35R23S31R15S33R07E08E21E13R14
                                E30R24R08
 115738417.975 5  90018804.498 6  21651267.441    21651264.177    21651273.646
        35.300          38.600
 126146447.136 5  98295921.40242  24004861.993    24004861.5464   24004863.0494
        33.300          15.9004
 129469842.848 4                  24637283.255
        29.600
 116454071.472 7  90743486.71046  22160448.972    22160448.4544   22160449.9644
        45.600          39.4004
 112880273.094 5  87958654.71642  21480398.024    21480397.8374   21480398.2124
        32.600          15.7004
 106946552.753 8  83334957.96245  20351252.854    20351251.7504   20351249.5994
        48.000          32.1004
 129341803.687 8                  24612903.392
        48.000
 138362724.668 6                  26329547.703
        36.900
 113542583.670 7  88474756.09946  21606440.578    21606439.7604   21606442.8694
        47.800          39.4004
 107632194.300 8  83869232.57847  20481722.116    20481721.6694   20481720.9834
        48.500          45.9004
 139384866.939 6                  26524053.227
        39.900
 118776288.305 8  92552913.35947  22602379.775    22602379.2704   22602379.3194
        49.300          44.9004


 124511551.345 7                  23693757.398
        44.300


 109416658.088 5                  20454277.383    20454275.150
        35.300
 198906162.746 7                  37850580.598
        42.700
 124251668.597 4  96640237.420 5  23252031.449    23252033.677    23252020.152
        29.600          34.200
 202050818.304 7                  38448996.234
        45.500
 120776643.764 6                  22562060.158    22562062.966
        39.000


 135601487.720 7                  25804074.791
        43.800
 131456347.759 5                  25015295.436
        35.900
 115562787.411 8  89882194.429 7  21679282.154    21679282.228    21679287.491
        50.400          43.500
 143190908.899 5                  27248302.566
        32.600
 111615734.017 8  86812216.903 6  20872696.375    20872697.269    20872704.355
        48.300          37.500
 108687368.101 7  84534595.926 6  20296592.251    20296591.265    20296594.699
        42.000          41.200
 25  1  1  4 11 45.0000000  0 28R01G06G12G11G20E27E03G25G05E34G29R13
                                E05E15R22S35R23S31R15S33R07E08E21E13
                                R14E30R24R08
 115677799.179 6  89971656.591 6  21639925.323    21639925.949    21639932.905
        36.900          37.900
 126185788.284 6  98326576.82842  24012347.539    24012347.0744   24012349.0194
        36.600          17.6004
 116497832.155 7  90777585.97846  22168775.890    22168775.3544   22168778.4154
        46.000          38.3004
 112904395.603 5  87977451.44942  21484990.304    21484990.1444   21484987.9304
        35.500          16.1004
 106961275.835 8  83346430.48245  20354054.227    20354053.1324   20354051.0664
        48.100          31.9004
 129366865.809 7                  24617671.893
        47.600
 138332434.617 6                  26323784.444
        38.400
 113556788.578 7  88485824.83946  21609143.857    21609143.0444   21609145.9214
        46.500          41.2004
 107607938.951 8  83850332.31847  20477106.394    20477105.9474   20477105.8584
        49.200          46.1004
 139414342.262 6                  26529661.192
        39.000
 118732498.887 7  92518791.73647  22594047.378    22594046.8914   22594047.0144
        47.900          44.4004
 124191534.861 5                  23257084.861
        31.900


 124520145.569 7                  23695392.433
        44.400
 125212539.647 5                  23456528.080
        30.500


 109432638.387 5                  20457265.279    20457262.270
        34.600
 198906159.824 7                  37850579.954
        43.300
                  96617491.194 5                  23246534.941    23246549.421
                        35.900
 202050802.139 7                  38448994.226
        45.400
 120821400.114 6                  22570433.249    22570427.432
        39.600


 135585448.218 7                  25801022.406
        43.600
 131436096.377 6                  25011441.468
        39.000
 115583729.101 8  89898482.421 7  21683211.511    21683211.792    21683216.661
        51.400          44.000
 143237608.730 5                  27257189.764
        31.800
 111587393.498 8  86790174.249 6  20867396.792    20867397.287    20867403.287
        48.500          37.800
 108681212.116 7  84529807.919 6  20295442.519    20295442.643    20295443.851
        43.900          39.100
 25  1  1  4 12  0.0000000  0 27R01G06G12G11G20E27E03G25G05E34G29R13
                                E05E15R22S35S31R15S33R07E08E21E13R14
                                E30R24R08
 115617253.196 5  89924565.328 6  21628599.200    21628598.408    21628608.006
        35.700          36.600
 126225127.080 5  98357230.44143  24019834.177    24019833.7884   24019835.5264
        35.300          20.4004
 116541673.497 7  90811748.10446  22177118.799    22177118.3084   22177120.6254
        44.500          36.7004
 112928555.516 6  87996277.32942  21489586.340    21489586.1484   21489585.3934
        39.300          17.7004
 106976103.724 7  83357984.64045  20356875.572    20356874.4774   20356872.2624
        46.100          31.9004
 129392010.244 7                  24622456.234
        47.300
 138302199.934 6                  26318029.843
        38.600
 113571130.026 7  88496999.97146  21611872.764    21611871.9954   21611874.9744
        46.100          40.0004
 107583807.714 8  83831528.78947  20472513.882    20472513.4444   20472514.5704
        48.500          46.5004
 139443810.882 5                  26535268.251
        34.600
 118688741.157 8  92484694.82447  22585720.646    22585720.1684   22585720.7104
        49.000          45.0004
 124251595.601 6                  23268333.611    23268333.779
        36.300


 124528760.093 7                  23697031.322
        44.700
 125251858.371 4                  23463886.834
        28.600


 198906149.618 6                  37850572.724
        39.700
 124193336.875 6  96594868.280 5  23241094.067    23241091.917    23241106.236
        37.000          34.000
 202050779.064 7                  38448989.857
        42.700
 120866287.315 7                  22578811.792    22578813.803
        42.700
 146967339.121 5                  27966954.667
        31.600
 135569502.145 7                  25797988.330
        43.400
 131415866.381 6                  25007593.808
        38.800
 115604837.322 8  89914899.987 7  21687169.524    21687168.963    21687176.735
        48.500          44.200


 111559079.946 8  86768152.663 6  20862102.519    20862103.132    20862108.993
        49.200          38.700
 108675254.329 7  84525174.185 6  20294327.456    20294329.102    20294330.815
        42.300          36.400
 25  1  1  4 12 15.0000000  0 28R01G06G12G11G20E27E03G25G05E34G29R13
                                E05E15R22S35R23S31R15S33R07E08E21E13
                                R14E30R24R08
 115556793.526 6  89877541.134 5  21617291.029    21617292.107    21617297.028
        41.600          33.900
 126264476.063 6  98387891.99243  24027322.347    24027321.9904   24027326.2944
        36.400          21.1004
 116585607.722 7  90845982.54745  22185479.417    22185478.9304   22185481.0394
        44.600          35.4004
 112952765.382 7  88015142.21843  21494192.966    21494192.7474   21494193.1984
        42.800          19.3004
 106991048.772 7  83369630.14145  20359719.969    20359718.8654   20359717.6584
        46.700          33.9004
 129417249.481 7                  24627258.276
        44.800
 138272033.513 6                  26312289.872
        39.800
 113585620.376 7  88508291.18146  21614629.810    21614629.0594   21614632.9284
        46.300          40.2004
 107559813.055 8  83812831.65847  20467947.833    20467947.3914   20467948.8384
        48.200          45.9004
 139473285.252 4                  26540878.241
        28.200
 118645027.572 7  92450632.29947  22577402.078    22577401.5914   22577401.8864
        46.800          44.5004
 124311677.770 5                  23279589.740    23279588.119
        32.000


 124537407.414 7                  23698676.603
        43.700
 125291205.743 5                  23471258.546    23471256.460
        33.700


 109464691.770 6                  20463271.531    20463271.657
        38.500
 198906146.539 7                  37850583.769
        42.100
 124164421.886 6  96572378.668 6  23235685.399    23235690.724    23235690.909
        40.000          36.200
 202050762.513 7                  38448984.049
        44.700
 120911317.917 6                  22587223.928    22587227.572
        39.000
 146924698.771 5                  27958840.928
        31.200
 135553662.236 6                  25794973.416
        40.900
 131395670.229 6                  25003750.028
        38.800
 115626124.247 7  89931456.501 7  21691162.407    21691161.308    21691169.438
        44.500          43.200


 111530806.415 7  86746162.210 6  20856813.692    20856815.448    20856823.133
        47.700          40.800
 108669507.716 7  84520704.641 6  20293255.463    20293257.089    20293258.230
        44.500          38.100
 25  1  1  4 12 30.0000000  0 27R01G06G12G11G20E27E03G25G05E34G29R13
                                E05E15R22S35R23S31R15S33E08E21E13R14
                                E30R24R08
 115496411.257 6  89830577.209 5  21605993.171    21605994.656    21606000.346
        39.000          34.500
 126303826.298 6  98418554.55443  24034810.467    24034810.1324   24034816.7364
        38.000          21.4004
 116629625.546 7  90880282.05746  22193855.224    22193854.7424   22193854.6394
        45.000          36.1004
 112977016.296 6  88034038.97642  21498808.173    21498807.9814   21498808.3564
        38.600          14.9004
 107006101.916 8  83381359.82645  20362584.634    20362583.5264   20362584.5184
        48.200          35.7004
 129442574.361 7                  24632076.993
        44.200
 138241926.741 5                  26306559.024
        33.800
 113600250.613 7  88519691.37446  21617414.138    21617413.4014   21617417.2024
        47.000          41.9004
 107535946.286 7  83794234.16547  20463406.336    20463405.8764   20463406.5464
        47.600          44.9004


 118601349.650 7  92416597.52947  22569090.217    22569089.7124   22569089.6454
        47.100          42.4004
 124371771.822 5                  23290842.119    23290840.045
        32.600
 134796921.021 5                  25651001.851
        30.300
 124546078.739 7                  23700326.592
        43.600
 125330572.656 6                  23478636.666    23478636.440
        36.500


 109480835.899 6                  20466287.340    20466287.770
        37.800
 198906141.005 6                  37850561.652
        41.900
 124135669.623 5  96550015.857 6  23230301.317    23230302.880    23230310.827
        35.800          37.200
 202050742.448 7                  38448982.824
        44.600
 146882034.972 5                  27950722.084
        34.400
 135537919.577 7                  25791977.438
        43.900
 131375499.109 6                  24999911.988
        38.400
 115647580.475 6  89948144.646 7  21695188.260    21695186.672    21695195.709
        41.500          44.700


 111502563.847 7  86724195.705 6  20851535.828    20851536.134    20851540.125
        45.900          39.000
 108663963.249 7  84516392.293 5  20292221.568    20292220.746    20292221.895
        42.100          33.200
 25  1  1  4 12 45.0000000  0 30R01G06G12G11G20E27E03G25G05E34G29R13
                                E05E15R22S35R23S31R15G13S33R07E08G09
                                E21E13R14E30R24R08
 115436110.544 5  89783676.633 5  21594717.456    21594707.842    21594717.753
        34.600          32.600
 126343180.948 5  98449220.50642  24042297.649    24042297.3414   24042305.5374
        34.500          17.1004
 116673729.829 7  90914649.00146  22202247.617    22202247.1394   22202246.5834
        45.800          37.9004
 113001311.280 6  88052970.13841  21503429.851    21503429.7404   21503430.8154
        38.500          10.6004
 107021266.150 8  83393176.11646  20365469.950    20365468.8334   20365471.3264
        48.600          36.2004
 129467988.027 7                  24636913.275
        42.200
 138211882.836 5                  26300841.299
        33.700
 113615023.729 7  88531202.90946  21620224.838    21620224.1104   21620228.2614
        44.400          40.4004
 107512210.560 8  83775738.79247  20458889.949    20458889.4844   20458889.0624
        48.100          45.1004


 118557710.894 8  92382593.33246  22560785.899    22560785.3854   22560784.3804
        48.300          41.9004
 124431880.629 4                  23302093.798    23302092.517
        29.100
 134799096.151 4                  25651415.568
        28.900
 124554777.027 7                  23701981.905
        45.200
 125369962.290 5                  23486018.242    23486022.129
        33.000


 109497036.377 5                  20469314.308    20469314.992
        35.700
 198906134.971 7                  37850571.954
        42.600
 124107083.830 6  96527782.330 6  23224964.271    23224960.359    23224961.546
        37.100          36.700
 129360710.534 6                  24616514.948
        36.300
 202050723.602 7                  38448978.343
        46.000
 121001784.678 5                  22604129.886    22604115.268
        33.700
 146839351.178 5                  27942598.582
        34.000
 131105476.509 5                  24948534.793
        31.100
 135522277.663 7                  25789001.381
        43.200
 131355356.058 6                  24996077.982
        37.000
 115669208.443 5  89964966.539 7  21699241.588    21699239.800    21699253.023
        34.000          42.200


 111474355.705 7  86702256.019 6  20846259.485    20846259.342    20846266.084
        43.900          40.500
 108658624.347 7  84512239.809 5  20291222.681    20291222.988    20291222.810
        43.900          31.900
 25  1  1  4 13  0.0000000  0 26R01G06G12G11G20E27E03G25G05E34G29E05
                                E15S35R23S31R15S33R07E08E21E13R14E30
                                R24R08
                  89736839.414 5                  21583445.958    21583451.473
                        33.200
 126382539.290 5  98479889.31041  24049786.186    24049785.8424   24049795.7914
        35.000           7.9004
 116717919.375 7  90949082.45645  22210657.584    22210657.1154   22210654.7094
        47.500          34.4004
 113025649.418 5  88071934.83342  21508060.948    21508060.7834   21508062.2274
        35.600          14.3004
 107036540.531 8  83405078.26445  20368377.087    20368375.9794   20368377.3674
        48.900          35.3004
 129493489.563 7                  24641766.946
        43.800
 138181901.525 6                  26295138.783
        38.700
 113629938.793 6  88542825.01246  21623066.105    21623065.3504   21623065.0944
        41.900          36.3004
 107488605.220 7  83757345.04447  20454396.972    20454396.5124   20454397.6044
        47.700          46.3004
 139561689.910 5                  26557703.550
        31.300
 118514110.884 8  92348619.32347  22552488.875    22552488.3484   22552488.0854
        49.800          43.7004


 124563501.555 7                  23703641.979
        45.200


 109513292.414 6                  20472352.031    20472352.507
        37.800
 198906129.673 6                  37850578.809
        41.100
 124078664.171 5  96505678.221 6  23219638.188                    23219641.348
        34.600          37.300
 202050704.698 6                  38448981.379
        39.900
 121047221.545 6  94147777.026 5  22612609.216    22612609.504    22612618.710
        39.800          31.200
 146796646.773 5                  27934471.873
        33.000
 135506735.744 6                  25786042.290
        40.100
 131335240.380 6                  24992251.380
        40.700
 115691007.791 7  89981921.534 6  21703337.828    21703335.784    21703337.827
        43.800          37.600


 111446181.240 7  86680342.497 6  20840988.911    20840988.363    20840996.469
        43.600          40.000
 108653490.223 7  84508246.556 6  20290266.061    20290264.827    20290270.631
        44.600          37.200
 25  1  1  4 13 15.0000000  0 27R01G06G12G11G20E27E03G25G05E34G29R13
                                E05E15S35R23S31R15S33R07E08E21E13R14
                                E30R24R08
 115315750.494 5  89690063.462 5  21572197.614    21572194.501    21572202.579
        34.600          35.400
 126421898.375 4  98510558.8064   24057276.574    24057276.4364   24057285.8614
        29.100           2.8004
 116762190.903 7  90983579.73246  22219081.122    22219080.6084   22219080.5604
        44.700          37.6004
 113050027.961 6  88090931.05142  21512701.901    21512701.7584   21512701.1464
        39.600          16.6004
 107051921.927 8  83417063.76745  20371303.945    20371302.8414   20371302.9354
        48.500          34.3004
 129519075.839 7                  24646635.522
        42.000
 138151980.112 6                  26289443.868
        37.400
 113644992.639 6  88554555.26446  21625928.587    21625927.7694   21625929.4684
        41.700          36.7004
 107465127.747 8  83739050.91147  20449929.866    20449929.4284   20449930.7394
        48.500          46.3004
 139591157.004 4                  26563309.229
        28.200
 118470546.964 7  92314673.43147  22544199.929    22544199.4424   22544198.7434
        47.400          42.7004
 124552164.341 5                  23324616.962    23324618.535
        30.600


 124572249.418 7                  23705306.849
        44.900
 200866270.628 5                  38223604.533
        32.500
 109529601.076 7                  20475404.494    20475405.999
        43.900
 198906121.117 7                  37850577.902
        43.400
 124050517.840 6                  23214362.605    23214347.335
        38.800
 202050682.060 7                  38448972.145
        45.800
 121092790.587 6  94183219.608 6  22621121.737    22621120.723    22621130.824
        38.700          36.800
 146753919.276 5                  27926342.976
        32.600
 135491291.173 6                  25783104.322
        41.500
 131315149.091 6                  24988428.553
        39.000
 115712975.034 5  89999007.290 6  21707451.595    21707451.868    21707461.822
        32.800          38.200


 111418037.585 8  86658452.937 7  20835730.598    20835731.841    20835734.795
        48.400          42.600
 108648558.189 7  84504410.472 6  20289344.659    20289341.978    20289349.088
        42.300          41.600
 25  1  1  4 13 30.0000000  0 27R01G06G12G11G20E27E03G25G05E34G29E05
                                E15R22S35R23S31R15S33R07E08E21E13R14
                                E30R24R08
 115255699.963 6  89643357.548 6  21560966.420    21560965.551    21560973.293
        40.100          38.600


 116806554.663 7  91018148.87246  22227523.903    22227523.4034   22227525.2244
        45.000          40.5004
 113074457.313 6  88109966.86343  21517351.101    21517350.9764   21517350.7394
        38.600          18.9004
 107067420.817 7  83429140.85245  20374253.360    20374252.2564   20374251.8144
        47.700          33.3004
 129544757.377 7                  24651523.003
        45.200
 138122129.481 6                  26283764.245
        38.100
 113660195.908 6  88566401.99246  21628822.796    21628821.9474   21628823.0144
        40.900          37.7004
 107441788.804 7  83720864.73547  20445488.141    20445487.7214   20445489.1664
        47.400          45.1004
 139620631.176 5                  26568917.099
        33.300
 118427029.897 8  92280764.05847  22535917.970    22535917.4834   22535917.7234
        48.100          42.9004


 124581031.136 7                  23706978.578
        43.600
 125488175.319 6                  23508174.641
        36.800


 109545973.160 7                  20478463.992    20478465.041
        43.200
 198906119.477 6                  37850571.436
        41.600
 124022435.895 6                  23209096.543    23209099.103
        39.700
 202050667.494 7                  38448961.221
        45.900
 121138502.258 6  94218773.247 5  22629658.012    22629659.474    22629670.045
        40.800          32.100


 135475954.540 6                  25780185.417
        41.600
 131295092.805 6                  24984611.453
        41.800
 115735120.508 6  90016231.449 6  21711611.913    21711611.514    21711613.656
        36.500          37.600


 111389935.696 7  86636595.911 6  20830469.628    20830471.134    20830478.014
        45.500          39.800
 108643839.118 7  84500740.046 7  20288462.569    20288463.237    20288469.225
        46.500          44.300
 25  1  1  4 13 45.0000000  0 27G18R01G06G12G11G20E27E03G25G05E34G29
                                E05E15R22S35R23S31S33R07E08E21E13R14
                                E30R24R08
 135587292.772 5                  25801401.192
        33.100
 115195728.755 6  89596713.230 6  21549744.802    21549745.360    21549754.444
        41.100          39.200
 126500579.240 6  98571913.15242  24072262.457    24072262.2034   24072268.4084
        36.700          12.4004
 116850999.102 7  91052780.89346  22235982.221    22235981.7034   22235983.7184
        46.400          40.4004
 113098926.116 6  88129033.46143  21522009.779    21522009.5924   21522008.1314
        39.100          19.3004
 107083025.798 8  83441300.58145  20377223.144    20377222.0364   20377221.8214
        48.100          33.7004
 129570522.853 7                  24656425.671
        44.400
 138092338.598 6                  26278096.682
        38.500
 113675536.936 6  88578356.05946  21631740.066    21631739.2174   21631743.0694
        40.500          38.1004
 107418577.111 8  83702777.73247  20441071.474    20441071.0504   20441070.7154
        48.500          44.2004
 139650101.284 4                  26574524.792
        24.600
 118383548.828 6  92246882.71646  22527643.312    22527642.8214   22527643.3344
        41.600          40.0004


 124589835.458 7                  23708653.706
        44.200
 125527655.238 5                  23515566.747
        31.900
 200866371.843 6                  38223609.205
        38.100
 109562397.668 7                  20481534.632    20481534.067
        43.000
 198906114.777 7                  37850565.989
        42.600
 202050648.935 7                  38448960.184
        44.900
 121184344.401 7  94254428.342 5  22638223.450    22638225.569    22638231.078
        44.100          35.300


 135460714.835 7                  25777287.149
        42.200
 131275060.247 6                  24980798.091
        39.500
 115757432.504 6  90033585.170 6  21715799.957    21715798.294    21715799.448
        39.000          37.200
 143611417.473 5                  27328344.357
        32.900
 111361864.270 7  86614762.513 6  20825225.697    20825225.916    20825224.367
        45.200          36.500
 108639321.523 7  84497226.347 7  20287619.755    20287621.324    20287625.300
        47.400          45.100
 25  1  1  4 14  0.0000000  0 26G18R01G06G12G11G20E27E03G25G05E34G29
                                E05E15S35R23S31S33R07E08E21E13R14E30
                                R24R08
 135546749.290 5                  25793686.547
        34.500
 115135842.170 7  89550134.806 6  21538541.623    21538542.112    21538550.539
        43.300          38.200
 126539954.376 5  98602595.15341  24079751.312    24079750.8214   24079766.0764
        34.100           7.4004
 116895528.449 7  91087479.05646  22244454.375    22244453.8034   22244455.1004
        44.900          37.3004
 113123439.063 7  88148134.48443  21526673.343    21526673.1564   21526671.6174
        43.200          22.3004
 107098741.241 8  83453546.38245  20380213.813    20380212.7004   20380212.3434
        48.800          33.5004
 129596376.620 7                  24661346.059
        43.100
 138062612.330 6                  26272440.122
        39.000
 113691020.279 6  88590421.04946  21634687.711    21634686.8444   21634689.9044
        41.200          38.3004
 107395497.420 7  83684793.57947  20436679.981    20436679.5484   20436677.8474
        46.300          44.3004


 118340108.514 6  92213033.14046  22519376.230    22519375.7394   22519376.6414
        39.400          36.8004


 124598666.973 7                  23710334.517
        44.400
 200866398.039 5                  38223613.735
        34.600
 109578879.140 7                  20484615.295    20484615.762
        43.900
 198906111.247 6                  37850567.411
        40.900
 202050631.844 7                  38448956.879
        45.200
 121230321.703 6  94290188.536 5  22646814.409    22646814.908    22646818.789
        41.900          32.800


 135445576.805 6                  25774405.947
        40.500
 131255056.024 6                  24976991.209
        38.800
 115779915.234 7  90051071.743 6  21720015.335    21720016.242    21720018.639
        44.200          39.900
 143658185.237 5                  27337239.708
        32.700
 111333828.188 7  86592956.693 6  20819981.471    20819981.302    20819982.968
        44.900          37.200
 108635010.072 7  84493873.102 7  20286811.678    20286812.882    20286818.597
        44.700          44.900
 25  1  1  4 14 15.0000000  0 28G18R01G06G12G11G20E27E03G25G05E34G29
                                E05E15R22S35R23S31R15S33R07E08E21E13
                                R14E30R24R08
 135506207.937 5                  25785972.192
        31.800
 115076034.890 6  89503618.082 5  21527352.554    21527350.231    21527362.830
        39.600          35.600
 126579328.544 5  98633276.64841  24087245.664    24087245.1684   24087260.6194
        34.500           7.9004
 116940136.465 7  91122238.52646  22252942.986    22252942.4054   22252942.0884
        44.800          36.6004
 113147990.383 7  88167265.39244  21531344.159    21531343.9854   21531342.8534
        43.800          24.0004
 107114561.322 8  83465873.73945  20383223.914    20383222.8014   20383222.8864
        48.400          31.9004
 129622312.904 7                  24666281.678
        43.200
 138032945.399 5                  26266793.181
        32.900
 113706640.150 7  88602592.39946  21637658.756    21637657.8534   21637662.4374
        43.300          39.9004
 107372544.226 7  83666907.99947  20432312.794    20432312.3794   20432310.0874
        47.300          44.4004


 118296703.551 6  92179211.09146  22511117.148    22511116.6304   22511116.6734
        41.100          36.6004


 124607519.910 7                  23712019.467
        46.500
 125606679.312 5                  23530378.106    23530374.942
        32.600
 200866419.164 5                  38223639.841
        31.100
 109595411.655 7                  20487706.034    20487707.290
        43.500
 198906102.494 6                  37850567.943
        41.600
 123939178.861 6                  23193511.662    23193514.390
        40.300
 202050609.980 7                  38448956.928
        44.700
 121276427.452 6  94326048.535 5  22655426.547    22655425.353    22655432.717
        40.300          34.400


 135430534.826 7                  25771544.472
        42.000
 131235074.427 6                  24973187.546
        38.500
 115802562.908 7  90068686.529 6  21724263.859    21724263.876    21724267.181
        45.300          41.800
 143704954.897 4                  27346134.280
        27.500
 111305821.458 7  86571173.768 6  20814741.831    20814739.885    20814748.313
        42.700          39.400
 108630899.412 7  84490675.975 7  20286043.987    20286045.270    20286051.938
        45.300          44.600
 25  1  1  4 14 30.0000000  0 28G18R01G06G12G11G20E27E03G25G05E34G29
                                E05E15R22S35R23S31R15S33R07E08E21E13
                                R14E30R24R08
 135465675.662 4                  25778275.549
        27.200
 115016314.494 6  89457169.035 5  21516180.804    21516178.861    21516184.136
        39.900          33.100
 126618708.343 5  98663962.22641  24094736.954    24094736.2704   24094753.2694
        30.900           9.5004
 116984829.762 7  91157064.41645  22261446.865    22261446.3074   22261446.3054
        45.600          35.7004
 113172586.589 7  88186431.28244  21536024.545    21536024.3534   21536024.4454
        44.900          25.3004
 107130492.530 7  83478287.68345  20386255.891    20386254.7874   20386254.3914
        47.600          30.4004
 129648338.201 7                  24671234.031
        45.200


 113722402.911 7  88614875.08946  21640659.776    21640658.8644   21640662.0694
        44.100          40.7004
 107349724.223 8  83649126.20547  20427970.370    20427969.9504   20427968.3434
        49.500          44.7004


 118253341.181 7  92145422.25846  22502864.690    22502864.1494   22502865.1924
        42.100          38.8004


 124616400.965 7                  23713709.752
        46.500
 125646224.472 5                  23537780.705    23537780.785
        35.000


 109612002.478 7                  20490808.992    20490810.417
        44.700
 198906095.870 7                  37850569.634
        42.100
 123911761.011 7  96375783.021 4  23188387.702    23188384.535    23188389.299
        42.600          28.400
 202050590.061 7                  38448952.336
        46.200
 121322668.159 5                  22664061.821    22664063.383
        35.700


 135415595.822 6                  25768701.582
        40.100
 131215121.939 7                  24969390.981
        42.700
 115825381.681 7  90086434.433 7  21728547.097    21728547.266    21728550.951
        47.300          43.600
 143751732.523 4                  27355044.745
        26.300
 111277851.249 7  86549419.062 6  20809510.824    20809509.026    20809516.715
        42.700          37.100
 108626996.209 8  84487640.163 7  20285316.639    20285317.478    20285321.954
        48.500          43.900
 25  1  1  4 14 45.0000000  0 28G18R01G06G12G11G20E27E03G25G05E34G29
                                E05E15R22S35R23S31R15S33R07E08E21E13
                                R14E30R24R08


 114956683.431 6  89410789.446 5  21505026.266    21505024.806    21505032.061
        41.000          32.900


 117029609.861 6  91191957.97445  22269969.653    22269969.0994   22269968.2164
        41.500          35.0004
 113197229.586 7  88205633.64644  21540714.246    21540714.0544   21540714.4174
        43.100          24.1004
 107146536.522 8  83490789.47444  20389308.441    20389307.3284   20389307.9324
        48.300          29.6004
 129674454.257 7                  24676203.554
        46.900


 113738310.309 7  88627270.48247  21643686.584    21643685.6724   21643689.0804
        46.300          42.6004
 107327039.518 8  83631449.82247  20423653.112    20423652.7014   20423651.9754
        48.100          44.3004


 118210023.327 8  92111668.05647  22494622.214    22494621.6964   22494622.1364
        48.400          43.1004


 124625312.006 7                  23715405.040
        45.900
 125685796.351 5                  23545197.309    23545197.199
        30.900
 200866476.973 5                  38223633.916
        31.200
 109628653.493 7                  20493921.139    20493921.039
        42.300
 198906093.785 7                  37850570.904
        42.100
 123884514.944 6  96354591.700 5  23183288.249    23183289.108    23183291.980
        40.400          33.500
 202050573.785 7                  38448946.505
        46.000
 121369045.337 6                  22672726.685    22672727.339
        38.900
 146497163.224 6                  27877484.256
        36.200
 135400761.789 6                  25765878.299
        37.300
 131195200.816 6                  24965600.756
        36.300
 115848373.286 7  90104316.797 7  21732854.692    21732855.272    21732862.440
        43.900          42.300
 143798520.269 5                  27363951.654
        32.400
 111249919.598 7  86527694.514 6  20804289.691    20804289.962    20804294.764
        45.000          40.400
 108623302.598 8  84484767.343 7  20284627.479    20284627.940    20284630.861
        49.100          43.000
 25  1  1  4 15  0.0000000  0 27G18R01G12G11G20E27E03G25G05E34G29E05
                                E15R22S35R23S31R15S33R07E08E21E13R14
                                E30R24R08


 114897134.405 7  89364473.564 5  21493887.159    21493886.924    21493892.319
        42.100          34.100
 117074468.934 6  91226913.11245  22278507.519    22278506.9384   22278506.1714
        40.500          33.5004
 113221911.877 7  88224866.67243  21545410.482    21545410.3444   21545410.4444
        44.600          23.1004
 107162685.650 7  83503373.20544  20392381.867    20392380.7634   20392381.3554
        46.700          29.0004
 129700653.495 7                  24681189.075
        47.400


 113754354.769 7  88639772.65647  21646739.305    21646738.4204   21646742.3004
        45.500          42.0004
 107304482.591 7  83613873.02046  20419360.795    20419360.3624   20419359.0654
        47.100          41.4004


 118166742.929 7  92077943.09947  22486385.892    22486385.3964   22486386.5794
        47.500          45.7004


 124634245.485 7                  23717105.288
        45.200




 109645357.221 6                  20497043.245    20497044.306
        38.600
 198906087.199 7                  37850562.944
        42.500
 123857433.850 5  96333528.533 5  23178227.965    23178225.693    23178230.237
        33.300          34.000
 202050553.571 7                  38448944.792
        46.500
 121415550.894 6                  22681418.617    22681418.671
        40.200
 146454303.955 5                  27869328.706
        33.600
 135386025.199 6                  25763073.432
        41.600
 131175303.232 6                  24961814.667
        39.200
 115871529.811 7  90122327.280 6  21737202.261    21737202.552    21737205.155
        47.000          37.400
 143845310.399 5                  27372852.560
        35.200
 111222019.086 7  86505994.178 6  20799074.693    20799073.636    20799077.936
        45.300          39.200
 108619810.995 8  84482051.615 7  20283976.500    20283977.619    20283978.048
        51.300          42.100
 25  1  1  4 15 15.0000000  0 30G18R01G06G12G11G20E27E03G25G05E34G29
                                R13E05E15R22S35R23S31R15S33R07E08G09
                                E21E13R14E30R24R08


 114837670.250 6  89318223.715 6  21482762.213    21482761.612    21482770.508
        40.600          36.200
 126736944.781 5                  24117228.360
        35.200
 117119408.563 6  91261931.01645  22287059.806    22287059.1584   22287058.3684
        41.000          33.4004
 113246635.396 7  88244131.77643  21550115.525    21550115.4234   21550113.4554
        43.700          23.0004
 107178941.760 7  83516040.28044  20395474.326    20395473.2134   20395474.4884
        45.500          27.7004
 129726937.808 7                  24686191.119
        47.800


 113770538.109 7  88652383.04647  21649819.115    21649818.2214   21649821.7054
        46.400          42.2004
 107282055.735 7  83596397.56846  20415093.576    20415093.1434   20415090.2894
        46.300          39.8004


 118123502.117 8  92044248.99747  22478158.605    22478158.1584   22478158.9234
        48.700          46.0004
 125033650.587 5                  23414788.468    23414788.280
        33.900


 124643203.460 7                  23718810.493
        46.300




 109662115.555 6                  20500176.566    20500177.071
        40.900
 198906079.097 7                  37850559.702
        42.300
                  96312595.516 5                  23173188.688    23173192.324
                        35.000
 202050533.176 7                  38448938.233
        44.900
 121462186.311 6                  22690127.632    22690130.434
        40.100
 146411424.901 5                  27861169.282
        35.200


 135371388.481 7                  25760288.378
        44.200
 131155431.311 7                  24958034.877
        43.800
 115894852.925 7  90140467.505 6  21741575.947    21741576.926    21741582.145
        45.100          39.400
 143892104.687 5                  27381754.138
        32.900
 111194151.754 7  86484319.549 5  20793863.463    20793863.847    20793862.902
        46.100          34.400
 108616523.501 8  84479494.696 7  20283361.333    20283361.657    20283365.713
        50.200          43.800
 25  1  1  4 15 30.0000000  0 27G18R01G06G12G11G20E27E03G25G05E34G29
                                R13E05E15S35R23S31R15S33E08E21E13R14
                                E30R24R08
 135303585.462 6                  25747418.983
        36.400
 114778296.023 6  89272043.779 6  21471657.526    21471655.497    21471663.561
        37.900          37.300
 126776340.776 5  98786758.08442  24124724.990    24124725.3794   24124732.4044
        34.200          13.1004
 117164432.547 6  91297014.61945  22295626.350    22295625.6444   22295626.0864
        39.900          32.0004
 113271404.598 7  88263432.51243  21554829.563    21554829.4564   21554827.3594
        44.800          23.7004
 107195309.136 6  83528794.10744  20398589.920    20398588.7944   20398588.4274
        40.900          26.8004
 129753311.429 7                  24691209.695
        47.100
 137885569.209 5                  26238748.757
        31.300
 113786864.571 7  88665104.93546  21652926.404    21652925.5284   21652927.9944
        47.100          41.8004
 107259763.554 8  83579027.07146  20410850.680    20410850.2514   20410846.7594
        50.300          38.1004


 118080305.787 8  92010589.52947  22469938.490    22469938.0484   22469939.1384
        48.200          45.4004
 125093881.182 5                  23426066.601    23426067.541
        31.500


 124652190.316 7                  23720519.642
        47.200
 200866642.957 5                  38223645.962
        32.700
 109678933.398 6                  20503321.769    20503321.418
        37.500
 198906075.548 7                  37850569.146
        45.100
 123803777.953 6  96291796.394 5  23168182.662    23168178.069    23168181.464
        36.500          34.100
 202050514.512 7                  38448934.754
        46.500
 146368530.909 5                  27853004.441
        31.300
 135356856.030 6                  25757522.341
        41.700
 131135589.448 7                  24954257.454
        44.700
 115918347.041 7  90158740.694 6  21745985.999    21745986.044    21745989.000
        47.600          37.200
 143938907.283 5                  27390658.677
        31.000
 111166322.257 7  86462674.436 6  20788657.126    20788656.048    20788660.701
        42.800          36.300
 108613444.731 8  84477100.080 7  20282787.151    20282787.130    20282791.280
        50.800          45.400
 25  1  1  4 15 45.0000000  0 27G18R01G06G12G11G20E27E03G25G05E34G29
                                R13E15S35R23S31R15S33R07E08E21E13R14
                                E30R24R08
 135263086.630 5                  25739710.881
        31.000
 114719006.469 7  89225929.697 6  21460566.062    21460565.909    21460573.280
        42.900          38.400
 126815737.632 6  98817456.95242  24132222.581    24132222.9614   24132225.4934
        37.400          14.5004
 117209535.223 7  91332159.57245  22304209.323    22304208.6264   22304208.6684
        42.100          34.7004
 113296213.512 7  88282764.15244  21559550.013    21559549.8974   21559549.5934
        44.300          25.6004
 107211781.717 6  83541629.84044  20401724.450    20401723.3064   20401723.9964
        41.500          24.9004
 129779768.477 7                  24696244.225
        47.000
 137856291.590 6                  26233179.708
        37.700
 113803328.145 7  88677933.64946  21656059.087    21656058.2204   21656059.9994
        47.600          41.7004
 107237600.357 8  83561757.03446  20406632.351    20406631.9184   20406629.8494
        48.400          40.2004
 139885795.073 5                  26619382.338
        34.700
 118037148.387 7  91976960.37947  22461725.870    22461725.4144   22461726.3454
        45.500          44.5004
 125154116.776 4                  23437347.362    23437346.825
        27.900
 124661200.220 7                  23722234.305
        45.900
 200866665.004 5                  38223648.037
        34.100
 109695804.838 6                  20506477.703    20506478.781
        41.300
 198906067.561 7                  37850557.806
        43.100
 123777202.288 6  96271126.411 5  23163212.153    23163213.325    23163211.189
        40.500          35.700
 202050493.601 7                  38448930.631
        46.300
 121555853.955 6                  22707623.902    22707624.665
        39.200
 146325616.275 5                  27844843.041
        30.900
 135342422.230 7                  25754778.362
        43.700
 131115771.887 7                  24950487.019
        43.500
 115942005.303 7  90177141.640 6  21750424.362    21750425.283    21750427.989
        46.900          41.700
 143985712.244 5                  27399567.488
        34.100
 111138524.714 7  86441054.088 6  20783457.600    20783459.669    20783462.297
        42.500          38.500
 108610568.808 8  84474863.254 7  20282250.002    20282250.003    20282254.015
        50.100          45.000
 25  1  1  4 16  0.0000000  0 26G18R01G06G12G11G20E27E03G25G05E34G29
                                E15S35R23S31R15S33R07E08E21E13R14E30
                                R24R08


 114659805.726 6  89179884.662 6  21449488.769    21449492.195    21449496.892
        41.400          37.600
 126855138.696 6  98848159.11243  24139719.387    24139719.8164   24139722.1774
        36.000          18.3004
 117254719.598 7  91367368.14445  22312807.672    22312807.0064   22312805.5504
        42.200          33.8004
 113321065.694 7  88302129.53444  21564279.344    21564279.2064   21564280.8794
        45.100          28.3004
 107228362.960 6  83554550.31444  20404879.272    20404878.1554   20404880.1214
        41.400          27.3004
 129806312.261 7                  24701295.378
        46.600
 137827080.374 6                  26227618.646
        36.500
 113819932.190 7  88690871.83146  21659218.598    21659217.6864   21659219.3744
        44.700          40.9004
 107215569.820 7  83544590.41146  20402440.123    20402439.6854   20402439.1654
        47.100          40.8004
 139915258.410 5                  26624990.823
        35.700
 117994033.863 7  91943364.64647  22453521.084    22453520.6024   22453521.3124
        44.900          42.4004
 124670236.664 7                  23723953.838
        44.800


 109712733.463 6                  20509635.942    20509635.385
        36.800
 198906060.558 7                  37850558.356
        43.500
 123750797.024 5  96250588.883 6  23158271.901    23158272.401    23158266.840
        32.100          37.500
 202050473.586 7                  38448929.665
        46.600
 121602882.620 6  94579955.967 5  22716412.253    22716411.179    22716416.241
        38.900          34.400


 135328090.740 7                  25752049.997
        42.700
 131095982.048 7                  24946721.992
        43.600
 115965831.251 7  90195672.975 7  21754890.937    21754889.617    21754898.851
        42.600          42.100
 144032522.822 5                  27408474.205
        34.800
 111110763.188 7  86419461.830 6  20778267.518    20778267.436    20778271.816
        45.200          40.700
 108607899.572 8  84472787.201 7  20281751.768    20281750.997    20281755.178
        48.100          45.100
 25  1  1  4 16 15.0000000  0 27G18R01G06G12G11G20E27E03G25G05E34G29
                                E05E15S35R23S31R15S33R07E08E21E13R14
                                E30R24R08
 135182145.187 5                  25724307.159
        33.200
                  89133909.153 5                  21438446.044    21438434.120
                        34.200
 126894544.000 5  98878864.58342  24147219.066    24147219.5314   24147221.2944
        30.300          16.6004
 117299985.345 7  91402640.13945  22321420.744    22321420.0924   22321419.0764
        43.000          34.0004
 113345961.122 7  88321528.57644  21569017.951    21569017.8174   21569019.0234
        45.500          29.9004
 107245052.688 7  83567555.29544  20408054.957    20408053.8494   20408056.4004
        43.800          28.4004
 129832942.701 7                  24706363.029
        47.100
 137797935.798 5                  26222073.842
        34.500
 113836676.608 7  88703919.40946  21662405.658    21662404.7424   21662405.7724
        45.000          41.0004
 107193671.969 7  83527527.18346  20398273.899    20398273.4614   20398273.3134
        47.900          41.9004
 139944721.938 5                  26630597.928
        35.700
 117950962.398 7  91909802.46346  22445324.321    22445323.8654   22445324.4564
        44.600          41.0004


 124679299.693 7                  23725677.510
        43.100


 109729719.578 6                  20512815.260    20512813.582
        41.700
 198906055.299 6                  37850555.615
        41.800
 123724471.447 5  96230183.991 6  23153352.074                    23153355.545
        34.700          36.700
 202050454.480 7                  38448927.139
        45.300
 121650041.636 6  94616635.234 6  22725220.044    22725220.942    22725229.737
        40.200          37.000


 135313861.741 6                  25749341.688
        41.400
 131076220.052 7                  24942962.316
        43.500
 115989824.779 7  90214334.589 7  21759392.971    21759392.993    21759400.313
        45.200          42.100
 144079339.048 5                  27417383.830
        35.500
 111083037.506 7  86397897.403 6  20773083.520    20773084.418    20773085.382
        47.900          40.200
 108605436.973 7  84470871.831 7  20281290.789    20281291.484    20281295.245
        47.500          44.300
 25  1  1  4 16 30.0000000  0 26G18R01G06G12G11G20E27E03G25G05E34G29
                                E15S35R23S31R15S33R07E08E21E13R14E30
                                R24R08
 135141672.815 5                  25716597.032
        30.200
 114541676.416 5  89088006.267 5  21427383.741    21427383.849    21427395.415
        34.900          35.000


 117345335.361 7  91437977.80445  22330049.262    22330048.6324   22330049.3794
        44.000          34.9004
 113370903.125 7  88340963.90845  21573764.116    21573763.9424   21573764.7794
        46.600          31.2004
 107261853.994 7  83580647.24944  20411251.205    20411250.1194   20411253.3554
        44.200          28.1004
 129859663.016 7                  24711447.926
        46.900
 137768861.423 5                  26216545.136
        34.800
 113853564.499 7  88717078.78147  21665619.142    21665618.2394   21665620.1314
        44.300          42.0004
 107171910.252 7  83510570.02947  20394132.402    20394131.9784   20394133.1044
        46.700          42.4004
 139974189.048 5                  26636200.376
        34.200
 117907937.438 7  91876276.53146  22437135.638    22437135.2184   22437136.5044
        46.900          40.6004
 124688392.567 6                  23727407.599
        40.700
 200866635.798 6                  38223648.949
        38.700
 109746766.509 7                  20516002.320    20516003.995
        44.800
 198906053.109 7                  37850557.762
        42.000
 123698410.775 5  96209914.815 6  23148474.303    23148471.647    23148479.370
        31.800          37.500
 202050439.667 7                  38448924.102
        44.300
 121697333.902 6  94653418.152 5  22734055.019    22734055.978    22734060.329
        41.500          35.000


 135299738.712 6                  25746654.283
        39.000
 131056489.211 7                  24939206.876
        43.500
 116013989.044 7  90233128.980 6  21763925.625    21763926.127    21763934.185
        42.900          39.500
 144126164.006 5                  27426294.966
        35.500
 111055351.456 7  86376363.852 6  20767906.427    20767907.603    20767906.099
        47.100          38.100
 108603184.631 7  84469119.990 7  20280869.806    20280871.366    20280874.479
        46.700          44.500
 25  1  1  4 16 45.0000000  0 27G18R01G06G12G11G20E27E03G25G05E34G29
                                E15S35R23S31R15G13S33R07E08E21E13R14
                                E30R24R08
 135101207.575 5                  25708898.994
        30.500
 114482748.157 7  89042173.240 5  21416369.152    21416367.967    21416371.953
        42.400          35.600


 117390765.231 6  91473377.66945  22338694.748    22338694.1274   22338696.0444
        41.900          34.6004
 113395887.481 7  88360432.22345  21578518.396    21578518.1914   21578518.6414
        44.300          31.3004
 107278762.641 6  83593822.82844  20414468.625    20414467.5574   20414470.8714
        40.700          26.9004
 129886468.924 7                  24716548.766
        47.400
 137739853.393 5                  26211018.839
        34.000
 113870591.594 7  88730346.66946  21668857.935    21668857.0464   21668860.8284
        44.500          40.4004
 107150280.554 8  83493715.71646  20390016.695    20390016.2984   20390017.1684
        48.200          41.6004
 140003655.741 5                  26641807.554
        34.800
 117864955.224 8  91842783.91146  22428956.094    22428955.6884   22428956.7714
        48.300          41.3004
 124697511.213 7                  23729143.173
        42.000
 200866664.153 6                  38223658.527
        36.100
 109763870.240 7                  20519201.215    20519200.588
        42.700
 198906051.309 7                  37850565.784
        43.500
                  96189777.997 6                                  23143632.221
                        38.300
 128562028.532 5                  24464546.006
        30.700
 202050425.033 7                  38448915.669
        45.600
 121744755.303 6  94690301.626 5  22742913.144    22742912.666    22742918.264
        38.700          32.700


 135285717.576 7                  25743989.098
        42.400
 131036785.347 7                  24935457.269
        42.600
 116038319.287 7  90252052.420 5  21768494.895    21768495.723    21768495.839
        44.800          35.200
 144172993.350 5                  27435209.750
        34.100
 111027700.735 7  86354857.788 6  20762735.791    20762736.583    20762736.545
        44.000          38.800
 108601138.237 7  84467528.349 7  20280486.646    20280488.148    20280490.836
        45.400          43.600
 25  1  1  4 17  0.0000000  0 28G18R01G06G12G11G20E27E03G25G05E34G29
                                E15S35R23S31R15G13S33R07E08G09E21E13
                                R14E30R24R08
 135060741.786 4                  25701194.594
        24.400
 114423902.682 7  88996404.543 6  21405360.284    21405360.419    21405365.229
        43.100          36.900


 117436267.022 6  91508833.58745  22347355.780    22347355.1634   22347356.1914
        38.700          35.0004
 113420906.577 6  88379927.62844  21583279.817    21583279.6074   21583279.6224
        41.800          29.6004
 107295770.958 6  83607076.06044  20417706.962    20417705.8454   20417706.9844
        37.100          25.7004
 129913352.673 7                  24721663.595
        47.100
 137710904.520 6                  26205514.750
        39.700
 113887750.080 7  88743716.94246  21672122.792    21672121.8804   21672125.4614
        42.700          39.5004
 107128775.713 7  83476958.70646  20385923.425    20385923.0324   20385924.1804
        46.500          40.1004
 140033114.364 5                  26647413.461
        31.300
 117822008.887 8  91809319.26447  22420784.650    22420784.2884   22420783.9824
        48.900          42.2004
 124706647.951 6                  23730881.988
        41.700
 200866685.253 6                  38223673.190
        36.200
 109781022.983 7                  20522406.385    20522406.916
        42.300
 198906042.520 7                  37850556.957
        43.300
 123647074.603 5  96169767.882 6  23138839.242    23138836.033    23138818.613
        34.700          38.300
 128511977.882 4                  24455034.670
        26.500
 202050402.528 7                  38448915.096
        45.600
 121792297.697 6  94727279.058 5  22751796.639    22751794.534    22751801.684
        37.600          33.300




 135271791.022 7                  25741337.670
        42.800
 131017100.876 7                  24931710.802
        43.200
 116062807.579 7  90271098.789 6  21773085.914    21773085.705    21773089.654
        43.700          37.600
 144219819.402 5                  27444119.007
        35.100
 111000077.922 5  86333373.353 6  20757575.708    20757578.141    20757571.151
        35.500          38.100
 108599290.224 7  84466090.988 7  20280144.430    20280144.236    20280146.003
        44.600          43.800
 25  1  1  4 17 15.0000000  0 28G18R01G06G12G11G20E27E03G25G05E34G29
                                E05E15S35R23S31R15S33R07E08G09E21E13
                                R14E30R24R08


 114365149.875 7  88950707.959 6  21394367.838    21394368.219    21394374.222
        43.200          37.000


 117481849.513 6  91544352.39145  22356030.598    22356030.0134   22356030.9514
        39.200          35.7004
 113445969.715 6  88399457.33144  21588050.403    21588050.2204   21588049.0464
        39.500          28.5004
 107312888.043 6  83620414.05744  20420966.583    20420965.4484   20420963.6534
        41.500          26.6004
 129940323.504 7                  24726795.464
        46.700
 137682024.319 6                  26200019.186
        40.700
 113905049.192 7  88757196.76546  21675415.435    21675414.5594   21675416.5264
        45.600          39.5004
 107107405.115 7  83460306.29046  20381857.441    20381857.0524   20381856.3994
        47.900          39.0004
 140062574.485 4                  26653015.202
        24.800
 117779107.699 7  91775889.77146  22412621.014    22412620.6484   22412619.5014
        47.400          41.7004


 124715812.174 6                  23732625.567
        40.600
 200866707.845 5                  38223679.920
        32.000
 109798234.535 6                  20525621.891    20525623.788
        38.000
 198906035.526 7                  37850553.585
        42.100
                  96149892.068 6                  23134061.400    23134035.328
                        36.400
 202050382.233 7                  38448912.548
        45.800
 121839969.658 6  94764357.307 5  22760701.682    22760701.568    22760707.121
        37.300          32.100




 135257968.492 7                  25738707.391
        43.600
 130997445.177 7                  24927970.289
        44.000
 116087462.892 7  90290275.117 7  21777712.042    21777711.965    21777718.118
        45.100          42.900
 144266651.123 5                  27453030.342
        34.500
 110972492.438 5  86311917.982 5  20752402.209    20752402.457    20752409.597
        35.600          35.300
 108597650.157 7  84464815.373 7  20279838.491    20279838.909    20279839.853
        45.000          44.400
 25  1  1  4 17 30.0000000  0 28G18R01G06G12G11G20E27E03G25G05E34G29
                                E05E15R22S35R23S31R15S33E08G09E21E13
                                R14E30R24R08


 114306485.177 7  88905079.891 5  21383393.029    21383392.662    21383398.271
        42.600          35.900
 127091556.269 5  99032404.45442  24184720.600    24184721.0564   24184725.6384
        31.000          16.9004
 117527507.494 7  91579930.04446  22364718.976    22364718.4094   22364718.9964
        44.800          37.2004
 113471071.747 6  88419017.38044  21592826.986    21592826.7234   21592826.1834
        40.700          25.7004
 107330108.543 7  83633832.61444  20424241.061    20424239.9034   20424239.5014
        44.100          28.0004
 129967376.182 7                  24731943.692
        44.800
 137653207.917 6                  26194534.226
        39.200
 113922483.626 7  88770782.01346  21678732.436    21678731.5734   21678734.1974
        44.800          40.2004
 107086163.432 7  83443754.28146  20377814.785    20377814.3924   20377812.5094
        46.900          37.5004
 140092030.654 4                  26658625.362
        28.900
 117736246.732 7  91742491.64847  22404465.393    22404465.0364   22404463.2754
        47.100          42.1004


 124724998.758 7                  23734374.476
        43.200
                  98095373.077 5                                  23627020.261
                        31.100
 200866727.400 6                  38223665.678
        36.700
 109815499.716 5                  20528849.061    20528846.839
        35.100
 198906024.813 6                  37850551.729
        41.300
                  96130146.680 5                                  23129284.586
                        34.400
 202050359.082 7                  38448907.414
        44.900




 135244244.968 7                  25736095.075
        44.200
 130977813.062 7                  24924234.310
        43.900
 116112279.695 7  90309577.082 7  21782366.775    21782366.938    21782374.732
        42.300          43.200
 144313483.245 5                  27461941.942
        33.700
 110944939.605 6  86290487.911 5  20747258.234    20747255.740    20747257.979
        40.700          35.700
 108596212.851 7  84463697.527 7  20279567.956    20279568.295    20279572.723
        42.900          45.700
 25  1  1  4 17 45.0000000  0 28G18R01G06G12G11G20E27E03G25G05E34G29
                                E05E15R22S35R23S31R15S33R07E08E21E13
                                R14E30R24R08
 134939357.294 5                  25678104.685
        35.100
 114247916.833 6  88859526.809 5  21372430.997    21372432.004    21372441.624
        40.200          34.900
 127130981.782 5  99063125.59642  24192221.303    24192222.0224   24192230.4474
        35.900          16.6004
 117573248.205 7  91615572.17946  22373421.190    22373420.6494   22373422.8444
        44.800          38.4004
 113496220.035 6  88438613.42044  21597611.193    21597610.9124   21597612.3224
        37.200          25.1004
 107347439.643 7  83647337.38644  20427538.699    20427537.5554   20427537.2874
        43.000          27.2004
 129994517.903 7                  24737109.024
        43.000
 137624463.085 6                  26189064.742
        37.800
 113940060.604 7  88784478.33246  21682077.505    21682076.6834   21682080.2284
        44.900          40.0004
 107065058.486 7  83427308.84846  20373798.926    20373798.5334   20373795.7224
        46.100          37.8004
 140121490.729 5                  26664234.590
        33.100
 117693433.838 7  91709130.95647  22396318.598    22396318.2454   22396316.7394
        47.600          42.9004


 124734215.075 6                  23736127.557
        41.700
                  98126360.319 5                                  23634501.822
                        30.200


 109832826.415 5                  20532085.993    20532088.515
        33.300
 198906019.427 7                  37850553.786
        42.500
 123570661.470 6  96110538.014 6  23124566.467    23124567.077    23124569.618
        41.700          37.900
 202050339.454 7                  38448906.140
        47.700
 121935520.085 6                  22778582.006    22778584.231
        36.200


 135230628.051 7                  25733502.984
        43.000
 130958211.980 7                  24920504.182
        43.700
 116137265.035 5  90329010.302 7  21787057.986    21787050.381    21787060.536
        30.900          44.100
 144360323.276 6                  27470852.253
        37.100
 110917426.737 7  86269089.019 5  20742115.341    20742111.201    20742112.318
        44.100          35.700
 108594986.037 7  84462743.348 7  20279339.412    20279340.516    20279343.440
        45.800          45.700
 25  1  1  4 18  0.0000000  0 26G18R01G06G12G11G20E27E03G25G05E34G29
                                E05E15S35S31R15S33R07E08E21E13R14E30
                                R24R08
 134898925.391 5                  25670410.492
        33.400
 114189444.002 6  88814047.988 5  21361498.817    21361496.517    21361502.873
        38.600          35.500
 127170413.584 5  99093851.84041  24199722.902    24199723.3674   24199734.3844
        32.500           8.8004
 117619069.899 7  91651277.37646  22382140.072    22382139.5674   22382142.3784
        45.500          37.4004


 107364880.067 7  83660927.32044  20430857.663    20430856.5324   20430856.5954
        43.100          28.1004
 130021747.422 7                  24742291.564
        42.300
 137595788.774 6                  26183607.334
        37.900
 113957778.652 7  88798284.56446  21685449.843    21685449.0434   21685453.0034
        45.200          39.3004
 107044089.095 8  83410969.06646  20369808.697    20369808.3084   20369806.6014
        48.700          39.6004
 140150953.267 5                  26669840.188
        34.500
 117650668.028 8  91675806.97947  22388180.522    22388180.1604   22388180.0454
        48.300          44.2004


 124743459.881 7                  23737888.366
        42.600


 198906016.700 7                  37850553.071
        43.800
 123545624.859 6  96091065.079 6  23119882.069    23119883.348    23119887.109
        41.800          40.100
 202050323.530 7                  38448905.693
        44.500
 121983576.885 5                  22787561.684    22787563.580
        35.700
 145938663.162 5                  27771204.739
        31.700
 135217116.573 6                  25730930.913
        41.200
 130938640.671 6                  24916779.854
        41.700
                  90348573.503 6                                  21791778.376
                        41.000
 144407169.548 6                  27479765.992
        38.000
 110889953.081 7  86247720.693 6  20736973.880    20736974.018    20736976.708
        45.400          37.000
 108593968.576 7  84461951.999 7  20279150.187    20279151.169    20279153.455
        43.500          46.000
 25  1  1  4 18 15.0000000  0 27G18R01G06G12G11G20E27E03G25G05E34G29
                                E05E15S35R23S31R15S33R07E08E21E13R14
                                E30R24R08
 134858498.106 5 105084536.37941  25662717.790    25662717.9954   25662718.0214
        34.800           8.2004
 114131061.969 7  88768639.682 5  21350579.258    21350576.819    21350579.383
        42.100          33.300


 117664966.670 7  91687041.08646  22390875.365    22390874.8694   22390876.2354
        44.900          38.1004
 113546653.247 5  88477933.51742  21607205.067    21607205.2684   21607210.5264
        30.800          16.9004
 107382424.269 7  83674598.14544  20434196.564    20434195.4384   20434196.5894
        43.500          28.6004
 130049059.068 7                  24747488.877
        42.300
 137567180.043 4                  26178160.972
        29.400
 113975632.247 7  88812196.45746  21688846.469    21688845.7004   21688850.1614
        44.400          38.7004
 107023249.972 8  83394730.80846  20365843.129    20365842.7494   20365842.0164
        48.400          41.0004
 140180412.885 6                  26675448.232
        36.200
 117607944.311 7  91642515.78347  22380050.163    22380049.8014   22380050.4784
        47.000          43.9004


 124752727.827 7                  23739651.757
        43.700
 200866814.551 6                  38223679.835
        38.600
 109867654.934 6                  20538601.142    20538605.686
        38.500
 198906011.177 7                  37850553.393
        42.800
 123520757.707 6  96071723.983 6  23115224.474    23115225.160    23115228.631
        40.600          37.200
 202050305.844 7                  38448899.866
        44.600
 122031757.385 5                  22796574.393    22796574.695
        34.500
 145895586.100 5                  27763003.781
        30.400
 135203705.330 7                  25728380.392
        43.900
 130919093.777 7                  24913061.071
        42.100
 116187698.722 5  90368262.068 7  21796517.794    21796516.998    21796528.026
        35.100          42.600
 144454016.412 5                  27488682.437
        33.200
 110862512.831 7  86226378.250 6  20731842.110    20731842.925    20731846.367
        47.800          37.800
 108593154.795 7  84461319.104 7  20278997.472    20278997.515    20279000.244
        45.700          43.500
 25  1  1  4 18 30.0000000  0 28G18R01G06G12G11G20E27E03G25G05E34G29
                                R13E05E15S35R23S31R15S33R07E08E21E13
                                R14E30R24R08
 134818076.494 6 105053038.98941  25655023.787    25655023.6494   25655026.7414
        36.500           8.4004
 114072772.239 7  88723303.274 5  21339673.975    21339673.022    21339678.368
        43.000          34.900


 117710939.277 7  91722863.90446  22399622.852    22399622.3654   22399624.7144
        43.900          38.5004
 113571926.647 5  88497627.02942  21612014.174    21612014.2764   21612017.8694
        33.700          16.4004
 107400072.943 7  83688350.35644  20437555.097    20437553.9624   20437556.4454
        44.100          29.7004
 130076453.704 7                  24752702.474
        45.800
 137538637.939 5                  26172755.511
        33.700
 113993622.144 7  88826214.53846  21692270.048    21692269.2704   21692273.0234
        46.700          41.0004
 107002542.245 8  83378594.92047  20361902.938    20361902.5544   20361901.7654
        49.500          42.8004
 140209870.698 5                  26681051.050
        31.700
 117565264.044 7  91609258.44547  22371928.503    22371928.1414   22371928.9524
        46.700          43.5004
 125817155.381 5                  23561499.443
        32.800


 124762019.740 7                  23741419.623
        42.700
 200866837.759 5                  38223709.723
        34.200
 109885152.328 6                  20541871.039    20541869.081
        37.800
 198906005.058 7                  37850550.983
        44.000
 123496061.211 6  96052515.624 6  23110600.551    23110600.429    23110610.134
        37.000          40.700
 202050286.097 7                  38448892.202
        46.100
                  94951196.195 5                                  22805592.397
                        35.300


 135190395.334 7                  25725847.098
        44.400
 130899572.222 7                  24909346.370
        45.200
 116213174.713 6  90388076.742 6  21801297.793    21801297.561    21801306.062
        40.000          41.400
 144500864.730 5                  27497594.534
        34.100
 110835107.367 7  86205062.963 6  20726718.094    20726717.699    20726721.458
        46.400          38.000
 108592545.931 7  84460845.495 7  20278883.423    20278884.835    20278887.000
        45.300          43.400
 25  1  1  4 18 45.0000000  0 28G18R01G06G12G11G20E27E03G25G05E34G29
                                R13E05E15S35R23S31R15S33R07E08E21E13
                                R14E30R24R08
 134777658.857 5 105021544.59541  25647331.623    25647331.7034   25647335.9614
        34.000           6.4004
 114014573.335 7  88678037.549 5  21328786.063    21328786.343    21328790.217
        44.900          33.800
 127288720.282 4                  24222238.902
        28.300
 117756985.650 7  91758744.17846  22408385.353    22408384.8534   22408387.6724
        45.900          39.8004


 107417824.125 7  83702182.47344  20440933.680    20440932.5584   20440935.0604
        44.500          29.0004
 130103929.438 7                  24757930.222
        46.000
 137510160.723 5                  26167311.353
        35.900
 114011746.368 7  88840337.29846  21695719.696    21695718.8564   21695721.7894
        45.200          40.9004
 106981963.994 8  83362559.94247  20357986.907    20357986.5274   20357986.8294
        49.300          44.0004
 140239325.015 4                  26686655.171
        24.500
 117522625.634 7  91576033.70247  22363813.979    22363813.6084   22363814.9164
        47.200          43.4004
 125877441.228 4                  23572790.512
        29.300


 124771333.936 7                  23743191.768
        44.500
 200866858.162 5                  38223688.832
        34.700
 109902703.674 5                  20545149.781    20545150.237
        35.800
 198905995.669 7                  37850551.711
        44.200
                  96033438.889 7                                  23106020.559
                        42.700
 202050264.359 7                  38448889.259
        46.500
                  94988861.226 5                                  22814638.015
                        31.500


 135177185.034 7                  25723333.839
        45.700
 130880074.201 7                  24905635.743
        44.600
 116238810.429 7  90408015.637 6  21806106.752    21806107.690    21806115.301
        43.500          40.300
 144547712.568 5                  27506508.368
        35.900
 110807735.086 7  86183773.394 6  20721598.767    20721598.442    20721602.702
        45.400          39.900
 108592140.037 7  84460529.820 7  20278807.263    20278808.630    20278811.121
        44.400          42.300
 25  1  1  4 19  0.0000000  0 28G18R01G06G12G11G20E27E03G25G05E34G29
                                E05E15R22S35R23S31R15S33R07E08E21E13
                                R14E30R24R08
 134737252.529 5 104990059.1204   25639643.696    25639643.8524   25639646.8774
        34.500           3.8004
 113956473.630 7  88632848.980 5  21317918.341    21317919.889    21317921.353
        42.900          35.500


 117803112.784 7  91794687.43146  22417163.748    22417163.2524   22417165.5884
        45.100          39.2004


 107435685.174 7  83716100.21144  20444332.503    20444331.3684   20444333.0374
        43.300          27.0004
 130131493.626 7                  24763174.901
        45.100
 137481756.636 5                  26161909.292
        33.600
 114030012.263 7  88854570.46847  21699196.027    21699195.1514   21699198.0864
        45.900          42.1004
 106961523.089 8  83346631.95747  20354096.650    20354096.2754   20354097.5634
        48.300          44.1004
 140268782.994 4                  26692259.926
        27.000
 117480036.917 7  91542847.67247  22355709.829    22355709.4324   22355710.5694
        47.100          42.5004


 124780677.851 7                  23744969.814
        45.700
 126361994.570 5                  23671857.858    23671856.637
        33.800
 200866883.873 6                  38223691.161
        37.800
 109920316.858 6                  20548442.608    20548443.908
        36.200
 198905990.567 7                  37850545.702
        42.000
 123447285.301 6  96014499.727 6  23101471.616    23101472.457    23101461.561
        36.600          40.700
 202050246.655 7                  38448884.403
        42.900
                  95026626.545 5                  22823706.565    22823709.296
                        31.900


 135164082.092 7                  25720839.145
        44.300
 130860607.286 7                  24901931.455
        45.400
 116264613.159 7  90428084.456 6  21810948.756    21810949.938    21810954.759
        42.800          40.800
 144594567.242 5                  27515422.426
        31.000
 110780403.688 7  86162515.611 7  20716487.046    20716487.637    20716493.265
        43.900          42.000
 108591945.026 7  84460378.108 7  20278772.508    20278771.560    20278774.776
        44.400          42.100
 25  1  1  4 19 15.0000000  0 27G18R01G06G12G11G20E27E03G25G05E34G29
                                E05E15R22S35R23S31S33R07E08E21E13R14
                                E30R24R08
 134696853.675 4                  25631956.581
        26.800
 113898469.745 6  88587734.936 6  21307065.492    21307068.012    21307071.980
        37.800          36.200


 117849316.235 7  91830690.08546  22425955.680    22425955.1534   22425957.6754
        46.200          38.5004
 113648007.047 5  88556874.54942  21626493.917    21626493.7744   21626492.7664
        32.200          12.4004
 107453651.788 7  83730100.20144  20447751.525    20447750.3854   20447751.9464
        43.200          27.1004
 130159141.966 7                  24768437.099
        45.600


 114048415.477 7  88868910.62747  21702697.619    21702696.7214   21702700.9454
        46.900          42.2004
 106941215.313 7  83330807.68547  20350233.144    20350232.7644   20350233.6974
        47.300          44.1004


 117437494.053 7  91509697.38747  22347614.131    22347613.7474   22347615.1084
        45.500          43.0004


 124790047.361 7                  23746753.523
        47.100
 126401974.429 5                  23679344.790    23679345.388
        30.200


 109937987.760 6                  20551751.643    20551749.055
        38.800
 198905986.733 6                  37850551.555
        41.700
 202050228.793 7                  38448878.393
        46.000
 122226015.616 5  95064488.542 5  22832802.562    22832803.853    22832799.488
        32.000          30.100
 145723101.194 5                  27730184.322
        32.800
 135151082.448 7                  25718365.972
        43.000
 130841167.195 7                  24898232.095
        43.000
 116290578.306 7  90448279.593 6  21815819.589    21815820.846    21815826.261
        43.500          40.100
 144641424.483 6                  27524339.163
        36.600
 110753109.193 8  86141286.512 6  20711382.114    20711383.785    20711389.074
        48.400          41.600
 108591956.668 7  84460387.182 7  20278774.744    20278775.477    20278778.241
        47.900          44.400
 25  1  1  4 19 30.0000000  0 26G18R01G06G12G11G20E27E03G25G05E34G29
                                E15R22S35R23S31R15S33E08E21E13R14E30
                                R24R08


 113840557.151 6  88542691.745 6  21296230.120                    21296238.290
        37.500          36.600


 117895590.602 7  91866748.04446  22434761.615    22434761.0924   22434761.8614
        47.700          39.5004


 107471718.772 7  83744178.43243  20451188.607    20451187.4674   20451189.9844
        45.200          20.5004
 130186869.451 7                  24773713.718
        46.700
 137425150.908 6                  26151138.166
        37.300
 114066950.943 7  88883353.87246  21706224.591    21706223.6664   21706226.8334
        46.800          39.8004
 106921035.973 8  83315083.52947  20346393.223    20346392.8524   20346393.1194
        49.100          42.3004
 140327789.418 4                  26703486.553
        28.900
 117394992.443 8  91476579.26047  22339525.943    22339525.5774   22339527.2044
        48.600          42.7004
 124799437.541 7                  23748540.611
        46.800
 126441972.737 5                  23686840.333    23686837.002
        34.200
 200866907.648 5                  38223698.701
        35.300
 109955711.579 6                  20555065.994    20555065.053
        40.300
 198905977.993 6                  37850547.070
        41.500
 123399098.669 7  95977021.822 6  23092445.190    23092443.080    23092441.086
        43.000          36.400
 202050207.614 7                  38448875.979
        45.300
 145679947.027 5                  27721974.420
        35.400
 135138181.296 6                  25715910.650
        41.800
 130821749.163 6                  24894537.033
        41.700
 116316700.577 7  90468596.888 5  21820721.339    21820721.060    21820722.764
        43.100          31.400
 144688279.103 5                  27533253.431
        34.300
 110725846.661 7  86120082.350 6  20706285.827    20706286.905    20706289.698
        46.800          41.500
 108592169.883 8  84460553.012 7  20278814.940    20278816.603    20278818.875
        48.600          43.900
 25  1  1  4 19 45.0000000  0 28G18R01G06G12G11G20E27E03G25G05E34G29
                                E15R22S35R23S31R15S33R07E08G09E21E13
                                R14E30R24R08
 134616070.051 5                  25616586.862
        35.100
 113782742.707 6  88497724.937 6  21285414.868    21285414.323    21285422.611
        39.000          37.300
 127446535.637 5  99309019.12242  24252264.395    24252264.3734   24252272.1704
        30.400          14.8004
 117941942.400 7  91902866.30746  22443582.597    22443582.0884   22443582.5884
        45.800          38.8004


 107489892.578 7  83758339.89443  20454647.427    20454646.2834   20454648.3064
        42.400          20.6004
 130214682.350 7                  24779005.658
        46.800
 137396951.398 6                  26145773.121
        36.800
 114085624.954 7  88897905.04346  21709777.862    21709776.9504   21709780.3204
        47.000          40.5004
 106900991.746 8  83299464.66247  20342578.115    20342577.7354   20342577.9264
        48.000          42.4004


 117352538.897 8  91443498.58447  22331448.044    22331447.6914   22331448.1094
        48.500          42.9004
 124808854.854 7                  23750332.397
        47.200
                                                  23694337.366

 200866931.247 6                  38223693.013
        38.600
 109973494.958 6                  20558392.776
        37.900
 198905971.298 6                  37850535.806
        39.600
 123375265.495 7  95958484.831 5  23087981.848    23087982.489    23087980.688
        44.500          31.400
 202050187.906 7                  38448872.692
        44.200
 122323642.004 6                  22851062.491    22851061.470
        38.200
 145636781.015 5                  27713758.941
        35.100


 135125385.284 7                  25713475.179
        43.600
 130802359.841 5                  24890846.142
        35.600
                                                  21825657.306

 144735137.567 5                  27542172.942
        35.900
 110698622.847 6  86098908.282 7  20701190.916    20701191.518    20701199.355
        40.400          42.900
 108592591.390 7  84460880.895 7  20278890.977    20278893.099    20278896.498
        46.900          43.400
 25  1  1  4 20  0.0000000  0 30G18R01G06G12G11G20E27E03G25G05E34G29
                                R13E05E15R22S35R23S31R15S33R07E08G09
                                E21E13R14E30R24R08


 113725021.457 6  88452830.657 6  21274618.176    21274616.969    21274625.315
        40.400          37.300


 117988365.165 7  91939039.86746  22452416.152    22452415.6654   22452415.4524
        45.600          36.3004
 113724444.657 6  88616461.83041  21641040.587    21641040.3154   21641044.4594
        37.400          11.8004
 107508167.063 7  83772579.77643  20458125.316    20458124.1494   20458128.6864
        42.800          21.4004
 130242574.727 7                  24784313.137
        46.100
 137368817.514 6                  26140419.817
        36.900
 114104431.420 7  88912559.42546  21713356.365    21713355.4764   21713359.0404
        47.300          40.6004
 106881076.937 8  83283946.65047  20338788.167    20338787.7874   20338788.3834
        48.000          42.1004
 140386689.361 4                  26714697.246
        28.800
 117310127.982 8  91410451.15747  22323378.009    22323377.6704   22323376.7004
        49.300          42.9004
 126178820.532 5                  23629240.291    23629241.664
        34.600
 134907355.083 4                  25672017.959
        29.200
 124818293.464 7                  23752128.162
        45.400
 126522038.936 5                  23701842.658    23701842.958
        31.100
 200866951.156 6                  38223714.561
        38.200
 109991371.536 5                  20561723.455
        31.000
 198905961.083 6                  37850539.097
        40.000
 123351601.877 7  95940079.777 5  23083551.543    23083552.899    23083551.564
        43.300          34.700
 202050164.825 7                  38448872.366
        45.100
 122372684.787 6                  22860220.803    22860223.176
        37.000
 145593597.476 6                  27705541.771
        36.300


 135112688.716 6                  25711058.478
        40.200
 130782992.896 6                  24887163.193
        38.200
 116369429.226 7                  21830617.458    21830617.713
        43.200
 144781993.689 5                  27551087.780
        30.900
 110671431.957 7  86077759.823 7  20696107.526    20696105.914    20696113.792
        43.700          42.200
 108593215.300 7  84461366.148 7  20279008.922    20279010.367    20279012.438
        46.400          43.700
 25  1  1  4 20 15.0000000  0 30G18R01G06G12G11G20E27E03G25G05E34G29
                                R13E05E15S35R23S31R15G13S33R07E08G09
                                E21E13R14E30R24R08


 113667401.359 7  88408015.044 5  21263838.072    21263837.349    21263844.631
        43.300          35.800


 118034866.180 7  91975274.34445  22461264.678    22461264.1914   22461262.0434
        47.200          34.8004
 113750007.935 5  88636381.20041  21645906.250    21645906.1124   21645908.3054
        34.800          11.6004
 107526549.540 7  83786903.76343  20461623.012    20461621.8414   20461629.7974
        43.400          21.8004
 130270553.921 7                  24789638.229
        44.800
 137340756.935 5                  26135076.629
        33.400
 114123377.728 7  88927322.78346  21716962.009    21716961.1064   21716964.6304
        46.900          40.5004
 106861299.046 7  83268535.31146  20335025.722    20335025.3564   20335025.4094
        45.800          40.9004
 140416142.859 5                  26720288.711
        33.300
 117267767.391 8  91377442.92147  22315317.033    22315316.6984   22315314.3474
        48.900          42.0004
 126239107.160 5                  23640526.125    23640528.062
        31.800


 124827760.865 7                  23753929.551
        45.800
 200866974.971 5                  38223733.235
        33.500
 110009270.287 6                  20565070.556    20565070.474
        39.100
 198905954.752 7                  37850537.832
        42.400
 123328115.701 7  95921812.784 5  23079152.366    23079154.285    23079160.023
        42.900          34.200
 127860275.542 4                  24330997.589
        27.700
 202050146.161 7                  38448870.818
        45.700
 122421853.717 6                  22869410.001    22869407.844
        36.300
 145550404.346 6                  27697322.209
        36.600


 135100099.205 6                  25708664.031
        36.800
 130763656.160 6                  24883479.667
        38.900
 116396036.523 6  90530353.518 5  21835606.249    21835607.919    21835625.390
        41.900          35.400
 144828854.755 4                  27560004.774
        25.700
 110644281.790 7  86056643.058 6  20691033.929    20691030.909    20691035.522
        44.300          39.600
 108594049.228 7  84462014.791 7  20279162.533    20279163.261    20279167.849
        44.900          43.400
 25  1  1  4 20 30.0000000  0 27G18R01G06G12G11G20E27E03G25G05E34G29
                                R13E05E15S35R23S31R15S33E08G09E21E13
                                E30R24R08
 134495002.074 5 104801312.5354   25593545.651    25593545.0524   25593549.5464
        35.100           5.4004
 113609879.474 7  88363275.817 5  21253077.703    21253076.152    21253084.024
        44.600          35.900


 118081441.305 7  92011566.59045  22470126.593    22470126.0974   22470126.3594
        45.600          35.5004
 113775612.644 5  88656332.87641  21650775.831    21650775.6084   21650780.1654
        35.300           8.8004
 107545036.280 7  83801308.94843  20465139.770    20465138.6084   20465146.9474
        43.000          21.4004
 130298616.183 7                  24794978.304
        44.800
 137312766.314 5                  26129750.289
        31.700
 114142460.027 8  88942192.06746  21720593.303    21720592.3964   21720596.2004
        48.200          41.0004
 106841654.441 7  83253227.83346  20331287.375    20331286.9914   20331286.1274
        46.700          40.0004
 140445595.792 4                  26725890.460
        27.900
 117225453.901 8  91344471.39047  22307265.014    22307264.6754   22307262.8154
        49.000          43.1004
 126299392.110 5                  23651815.542    23651815.510
        30.800


 124837253.407 7                  23755735.555
        43.600
 200866999.049 5                  38223725.848
        32.700
 110027226.758 5                  20568421.429    20568420.069
        34.200
 198905949.112 7                  37850538.654
        43.100
 123304803.678 6  95903681.295 6  23074791.048    23074790.827    23074796.864
        41.900          36.600
 202050127.173 7                  38448863.154
        45.500
 145507198.176 5                  27689101.011
        35.200


 135087613.226 5                  25706288.330
        34.700
 130744345.907 6                  24879805.737
        37.400


 110617168.801 7  86035555.159 6  20685962.684    20685961.314    20685965.131
        44.400          38.900
 108595089.765 7  84462824.143 7  20279355.772    20279355.613    20279362.294
        43.000          43.600
 25  1  1  4 20 45.0000000  0 28G18R01G06G12G11G20E27E03G25G05E34G29
                                E05E15S35R23S31R15G13S33R07E08E21E13
                                R14E30R24R08


 113552454.750 7  88318612.221 5  21242336.847    21242334.345    21242339.990
        45.700          33.000


 118128088.702 6  92047915.19845  22479004.619    22479004.1504   22479005.2494
        41.700          35.0004
 113801257.285 4  88676315.63241  21655653.498    21655652.7344   21655659.6984
        25.500           8.7004
 107563625.490 7  83815793.98643  20468677.331    20468676.1604   20468682.7354
        42.800          19.8004
 130326759.811 7                  24800333.400
        46.200
 137284844.445 5                  26124439.676
        34.500
 114161676.598 7  88957165.97946  21724250.566    21724249.6774   21724252.0654
        45.100          39.4004
 106822141.533 7  83238022.96346  20327573.349    20327572.9254   20327572.1634
        46.500          40.9004
 140475046.974 4                  26731495.492
        28.000
 117183186.147 7  91311535.47947  22299221.865    22299221.5394   22299221.0944
        47.300          43.6004


 124846769.532 7                  23757545.608
        42.100


 110045239.684 6                  20571792.442    20571791.681
        37.300
 198905941.468 7                  37850534.675
        42.800
 123281664.483 6  95885684.097 6  23070463.215    23070461.218    23070468.168
        41.400          39.800
 127759952.583 5                  24311903.212
        35.000
 202050106.679 7                  38448863.793
        45.700
 122520555.048 5                  22887850.219    22887847.752
        31.200
 145463977.859 5                  27680876.959
        32.500
 135075229.410 6                  25703933.422
        38.000
 130725060.676 6                  24876137.802
        36.200
 116449729.008 5  90572115.283 7  21845673.731    21845668.877    21845687.811
        31.000          42.700


 110590091.615 7  86014495.072 6  20680898.423    20680898.574    20680902.356
        46.100          39.200
 108596335.093 7  84463792.718 7  20279587.964    20279589.729    20279596.401
        45.600          45.000
 25  1  1  4 21  0.0000000  0 27G18R01G06G12G11G20E27E03G25G05E34G29
                                E05E15S35S31R15G13S33E08G09E21E13R14
                                E30R24R08
 134414288.000 6 104738418.53742  25578177.566    25578176.8734   25578182.1984
        36.900          12.1004
 113495128.925 7  88274025.542 5  21231612.988    21231611.903    21231615.599
        47.600          34.200


 118174809.214 7  92084320.76045  22487896.003    22487895.5564   22487894.8304
        44.700          34.4004
 113826942.487 6  88696330.03941  21660544.311    21660543.5604   21660546.3904
        37.800           6.8004
 107582318.057 6  83830359.64943  20472234.405    20472233.2834   20472237.9834
        39.700          18.5004
 130354985.659 7                  24805704.080
        45.200
 137256992.570 5                  26119143.121
        32.100
 114181028.176 7  88972245.12446  21727932.941    21727932.0784   21727933.2794
        45.500          38.6004
 106802761.874 8  83222921.95047  20323886.231    20323885.8294   20323883.8124
        48.700          42.8004
 140504497.184 5                  26737102.611
        34.900
 117140965.355 7  91278636.13947  22291187.613    22291187.3094   22291188.6914
        47.000          44.3004


 124856310.311 6                  23759361.221
        36.900


 198905933.919 7                  37850535.810
        43.600
 123258699.504 6  95867822.431 6  23066164.441    23066164.490    23066170.555
        40.200          41.600
 127709732.621 5                  24302327.081
        35.900
 202050086.685 7                  38448856.836
        46.700
 145420744.493 5                  27672648.470
        30.000


 135062948.885 6                  25701596.587
        40.000
 130705801.418 5                  24872473.410
        35.600
                  90593181.404 6                                  21850765.794
                        41.200


 110563051.227 6  85993463.662 6  20675840.515    20675839.877    20675846.431
        39.500          40.000
 108597786.393 7  84464921.498 7  20279861.321    20279862.100    20279867.359
        46.400          46.100
 25  1  1  4 21 15.0000000  0 29G18R01G06G12G11G20E27E03G25G05E34G29
                                E05E15S35R23S31R15G13S33R07E08G09E21
                                E13R14E30R24R08
 134373941.471 5 104706979.64541  25570499.354    25570498.7244   25570502.0564
        35.300          10.0004
 113437902.645 8  88229516.292 5  21220907.643    21220907.563    21220910.718
        48.200          35.200


 118221602.620 7  92120783.12945  22496799.595    22496799.1664   22496796.8204
        46.800          35.2004
 113852668.812 6  88716376.6864   21665436.691    21665435.9984   21665441.1934
        36.100           3.8004
 107601114.100 6  83845005.86042  20475811.753    20475810.6624   20475811.6914
        40.100          17.1004
 130383293.880 7                  24811090.631
        43.800


 114200514.938 7  88987429.62546  21731640.087    21731639.2384   21731641.9314
        43.500          39.0004
 106783515.708 8  83207924.95647  20320223.320    20320222.9184   20320221.5084
        50.000          44.5004
 140533946.910 6                  26742705.695
        36.400
 117098792.211 7  91245773.91847  22283161.865    22283161.5524   22283163.7614
        46.900          43.9004


 124865875.927 5                  23761182.834
        34.400


 110081402.296 5                  20578550.784    20578553.539
        30.700
 198905927.019 7                  37850529.233
        42.600
 123235909.067 6  95850096.512 7  23061899.232    23061900.995    23061906.049
        39.100          42.400
 127659505.262 5                  24292773.504
        31.600
 202050066.459 7                  38448850.352
        44.500
                  95370812.819 5                  22906376.582    22906372.248
                        34.900
 145377498.681 5                  27664418.245
        31.000


 135050772.068 6                  25699277.473
        40.100
 130686568.396 6                  24868812.111
        38.200
 116504038.946 5  90614371.092 6  21855866.574                    21855876.546
        33.500          38.200


 110536048.223 6  85972461.326 6  20670789.622    20670789.421    20670795.483
        40.100          40.200
 108599443.921 7  84466210.696 7  20280172.062    20280173.231    20280175.906
        47.900          45.700
 25  1  1  4 21 30.0000000  0 30G18R01G06G15G12G11G20E27E03G25G05E34
                                G29E05E15S35R23S31R15G13S33R07E08G09
                                E21E13R14E30R24R08
 134333603.781 6 104675547.64541  25562826.369    25562825.6724   25562825.3404
        37.200           9.5004
 113380778.365 7  88185086.358 6  21210219.021    21210219.071    21210225.297
        44.900          36.200


 133435055.407 5                  25391844.561
        32.100
 118268470.321 7  92157303.39846  22505717.779    22505717.3734   22505714.6804
        46.700          36.2004


 107620015.135 7  83859733.88043  20479409.100    20479408.0184   20479406.7994
        42.600          23.4004
 130411686.035 6                  24816493.999
        40.300


 114220138.340 7  89002720.57546  21735374.314    21735373.5014   21735377.2384
        42.400          39.1004
 106764404.750 7  83193033.31247  20316586.745    20316586.3344   20316585.4894
        47.800          44.7004
 140563397.917 6                  26748308.159
        37.100
 117056668.639 7  91212950.35447  22275146.038    22275145.7214   22275147.6714
        45.400          43.6004


 124875468.123 6                  23763008.866
        37.100


 110099590.386 6                  20581967.024    20581965.298
        39.600
 198905921.357 7                  37850536.960
        43.700
 123213295.135 5  95832507.986 7  23057662.540    23057661.029    23057675.746
        33.700          42.100
 127609272.543 5                  24283216.830
        33.100
 202050048.353 7                  38448849.390
        45.100
                  95409524.937 6                  22915675.880    22915670.755
                        36.100
 145334242.380 5                  27656185.986
        32.900


 135038700.835 6                  25696979.317
        39.400
 130667363.320 6                  24865157.919
        38.800
 116531443.167 6  90635685.468 5  21861016.673    21861021.805    21861019.569
        40.000          34.700


 110509084.768 6  85951489.748 6  20665750.309    20665747.689    20665752.266
        40.700          37.600
 108601309.594 8  84467661.802 7  20280519.765    20280520.833    20280524.683
        48.600          46.300
 25  1  1  4 21 45.0000000  0 30G18R01G06G15G12G11G20E27E03G25G05E34
                                G29E05E15S35R23S31R15G13S33R07E08G09
                                E21E13R14E30R24R08
 134293272.452 5 104644120.54541  25555162.753    25555161.9714   25555150.3904
        35.700           7.4004
 113323753.947 7  88140734.059 5  21199552.264    21199553.133    21199556.923
        44.600          35.400


 133379990.824 4                  25381373.426
        28.000
 118315409.374 7  92193879.24346  22514650.647    22514650.2584   22514647.9664
        45.800          38.0004
 113904196.987 5  88756548.47041  21675253.741    21675252.9144   21675255.7434
        34.700           8.8004
 107639018.353 6  83874541.58844  20483025.371    20483024.2944   20483023.9844
        41.300          27.3004
 130440159.402 6                  24821912.798
        38.100
 137173949.116 5                  26103329.856
        31.000
 114239895.657 6  89018115.87446  21739135.041    21739134.2194   21739137.8824
        38.200          38.5004
 106745426.477 8  83178245.06847  20312975.472    20312975.0754   20312974.6054
        48.100          44.9004
 140592847.661 6                  26753914.256
        38.900
 117014592.450 7  91180163.72947  22267139.015    22267138.7164   22267140.0824
        47.200          43.1004


 124885084.332 6                  23764838.352
        38.800
 200867159.727 5                  38223753.675
        35.300
 110117835.894 7                  20585369.003    20585370.425
        42.500
 198905915.078 7                  37850536.495
        43.700
 123190855.540 6  95815054.942 6  23053472.336    23053473.878    23053472.810
        40.300          38.900
 127559032.545 5                  24273655.554
        32.100
 202050029.838 7                  38448841.525
        44.900
                  95448329.404 5                  22924983.643    22924989.245
                        35.400
 145290973.389 5                  27647952.447
        33.100


 135026732.671 6                  25694702.451
        36.300
 130648183.607 6                  24861508.178
        41.200
 116559004.618 7  90657122.165 4  21866183.147    21866185.075    21866203.481
        42.800          28.900


 110482157.865 6  85930546.600 5  20660713.575    20660713.541    20660717.045
        41.200          35.200
 108603380.638 8  84469272.621 7  20280906.335    20280907.033    20280912.185
        48.800          46.900
 25  1  1  4 22  0.0000000  0 28G18R01G06G12G11G20E27E03G25G05E34G29
                                E05E15S35R23S31R15S33R07E08G09E21E13
                                R14E30R24R08
 134252946.613 5 104612697.98041  25547480.865    25547480.0964   25547476.2054
        33.700           6.4004
 113266829.334 6  88096459.390 6  21188900.232    21188901.576    21188909.502
        39.600          36.900


 118362418.662 7  92230509.82546  22523596.758    22523596.3694   22523595.3254
        46.600          40.5004
 113930045.536 6  88776690.24242  21680172.637    21680172.2264   21680170.6024
        37.000          14.5004
 107658122.897 6  83889428.24544  20486660.611    20486659.5434   20486660.3844
        40.700          26.1004
 130468712.972 6                  24827347.849
        41.000


 114259785.764 6  89033614.63446  21742919.301    21742918.4744   21742922.5074
        41.600          38.5004
 106726580.254 7  83163559.70847  20309388.119    20309387.7224   20309388.4894
        46.300          44.4004
 140622295.318 6                  26759515.885
        38.000
 116972563.315 7  91147413.78447  22259140.977    22259140.6514   22259140.8724
        47.200          42.1004


 124894723.712 6                  23766672.338
        38.800
 200867182.522 6                  38223757.373
        37.300
 110136137.861 6                  20588788.056    20588788.265
        38.700
 198905908.005 7                  37850534.607
        43.600
 123168589.552 6  95797737.039 6  23049305.785    23049307.828    23049306.045
        41.600          38.000
 202050009.815 7                  38448839.249
        44.800
 122769409.319 5  95487224.791 5  22934325.487    22934322.837    22934334.359
        30.500          35.900
 145247691.046 5                  27639716.838
        31.000


 135014866.925 5                  25692442.528
        35.700
 130629028.488 7                  24857863.338
        43.500
 116586722.374 7                  21871383.407    21871382.509
        42.500


 110455267.169 6  85909631.723 5  20655681.609    20655681.950    20655685.329
        38.200          32.500
 108605656.197 7  84471042.547 7  20281330.865    20281330.845    20281337.428
        47.400          47.100
 25  1  1  4 22 15.0000000  0 29G18R01G06G12G11G20E27E03G25G05E34G29
                                E05E15S35R23S31R15G13S33R07E08G09E21
                                E13R14E30R24R08
 134212628.104 5 104581280.9694   25539809.895    25539809.0194   25539803.4864
        34.600           5.6004
 113210006.883 5  88052264.180 6  21178267.823    21178267.199    21178281.180
        30.900          38.800


 118409499.666 8  92267196.30647  22532555.435    22532555.0424   22532556.4174
        48.700          42.7004
 113955935.064 6  88796863.91043  21685098.764    21685098.4074   21685096.5054
        38.400          18.1004
 107677330.314 6  83904395.06444  20490315.276    20490314.1634   20490316.1634
        37.700          25.7004
 130497348.506 7                  24832795.578
        43.000
 137118882.930 5                  26092840.419
        32.000
 114279810.376 7  89049218.20246  21746729.161    21746728.3614   21746732.2934
        43.900          40.6004
 106707867.959 7  83148978.72047  20305826.629    20305826.2724   20305827.7944
        45.600          43.1004
 140651742.763 6                  26765120.027
        37.500
 116930583.303 7  91114702.11047  22251153.183    22251152.8534   22251151.3034
        47.500          42.2004


 124904388.129 6                  23768512.168
        40.400
 200867205.357 6                  38223760.185
        37.500
 110154498.365 6                  20592223.617    20592225.167
        38.800
 198905900.839 7                  37850529.988
        44.000
 123146499.496 7  95780555.837 6  23045173.507    23045170.115    23045173.152
        42.900          39.200
 127458531.218 5                  24254537.580
        31.100
 202049990.587 7                  38448836.660
        45.600
                  95526212.559 5                                  22943695.236
                        32.500
 145204397.551 5                  27631478.916
        33.100


 135003105.547 6                  25690205.388
        37.700
 130609899.748 7                  24854222.818
        45.300
 116614597.823 6  90700309.018 5  21876611.298    21876610.507    21876618.288
        40.300          33.800


 110428414.521 7  85888746.332 5  20650662.404    20650663.242    20650664.806
        43.700          34.700
 108608138.287 8  84472973.008 7  20281796.098    20281797.092    20281800.218
        49.400          46.500
 25  1  1  4 22 30.0000000  0 29G18R01G06G12G11G20E27E03G25G05E34G29
                                R13E05E15S35R23S31R15G13S33E08G09E21
                                E13R14E30R24R08
 134172318.867 5 104549871.11841  25532132.754    25532131.9904   25532132.7854
        35.300           8.2004
 113153289.018 4  88008150.269 6  21167656.552                    21167671.070
        27.400          38.800


 118456653.720 8  92303939.71647  22541527.866    22541527.4604   22541530.9904
        48.600          43.5004
 113981867.350 6  88817070.87343  21690033.308    21690033.1834   21690030.4364
        39.600          19.3004
 107696642.047 6  83919443.16444  20493990.354    20493989.2634   20493990.9834
        37.400          25.1004
 130526067.546 7                  24838261.391
        44.100
 137091459.578 5                  26087623.739
        35.900
 114299970.982 7  89064927.75447  21750566.517    21750565.7264   21750568.9904
        46.400          42.9004
 106689291.601 7  83134503.65346  20302291.654    20302291.2884   20302292.9404
        43.000          41.5004
 140681191.748 5                  26770722.116
        33.700
 116888654.646 8  91082030.45847  22243174.519    22243174.1754   22243172.6634
        49.400          43.6004
 126781584.690 5                  23742121.495    23742119.454
        34.400


 124914079.213 7                  23770355.829
        43.200
 200867230.638 5                  38223759.747
        33.900
 110172919.061 6                  20595666.468    20595667.239
        39.500
 198905895.768 7                  37850527.605
        43.500
 123124587.095 7  95763512.818 6  23041065.547    23041066.512    23041071.982
        46.000          39.300
 127408274.884 6                  24244975.512
        36.400
 202049973.062 7                  38448838.140
        45.700
 145161094.874 4                  27623237.768
        29.400


 134991450.350 6                  25687987.022
        37.700
 130590799.135 7                  24850587.832
        44.300
 116642632.137 6  90722113.482 5  21881869.439    21881870.700    21881873.285
        36.200          34.100
 145250691.757 5                  27640287.695
        30.600
 110401601.994 7  85867892.172 6  20645645.292    20645646.838    20645653.253
        45.100          38.900
 108610828.653 8  84475065.519 7  20282297.450    20282298.714    20282302.873
        49.200          46.300
 25  1  1  4 22 45.0000000  0 28G18R01G06G12G11G20E27E03G25G05E34G29
                                R13E05E15S35R23S31R15G13S33E08E21E13
                                R14E30R24R08
 134132013.606 5 104518464.35441  25524459.803    25524459.1604   25524463.1384
        34.100           9.5004
                  87964113.956 6                                  21157078.033
                        37.100


 118503875.195 8  92340735.68146  22550513.654    22550513.2434   22550517.3694
        48.400          41.8004
 114007837.181 7  88837307.09443  21694973.700    21694973.6334   21694971.1764
        42.000          19.5004
 107716052.754 6  83934568.39944  20497684.009    20497682.9814   20497684.9324
        36.700          24.9004
 130554864.706 7                  24843740.923
        45.200
 137064104.906 5                  26082418.136
        35.400
 114320262.186 8  89080739.08247  21754428.144    21754427.3494   21754431.3684
        48.300          44.6004
 106670845.778 6  83120130.29946  20298783.263    20298782.8484   20298783.0794
        41.700          40.4004
 140710637.055 5                  26776327.120
        34.600
 116846772.218 8  91049394.82047  22235203.747    22235203.4034   22235203.8164
        49.100          44.3004
 126841825.184 5                  23753395.923    23753394.668
        31.100


 124923791.828 7                  23772203.871
        46.700
 200867253.424 5                  38223772.670
        32.700
 110191394.878 7                  20599121.179    20599121.545
        42.000
 198905888.085 7                  37850524.613
        43.100
 123102847.491 7  95746604.206 6  23036997.760    23036997.639    23037002.930
        45.800          39.200
 127358010.310 5                  24235402.381
        34.800
 202049952.864 7                  38448830.578
        46.100
 145117778.114 4                  27614996.141
        28.100
 134979896.300 6                  25685788.156
        39.800
 130571721.417 7                  24846957.734
        45.600
 116670820.127 5  90744037.183 5  21887185.707    21887190.898    21887161.708
        33.500          32.600
 145297551.126 5                  27649202.342
        33.100
 110374824.301 7  85847065.044 7  20640640.038    20640640.798    20640647.960
        46.100          42.300
 108613721.963 8  84477315.849 7  20282837.503    20282837.643    20282842.285
        48.400          44.700
 25  1  1  4 23  0.0000000  0 28G18R01G06G12G11G20E27E03G25G05E34G29
                                R13E05E15S35R23S31R15G13S33E08E21E13
                                R14E30R24R08
 134091715.122 5 104487062.97841  25516794.210    25516793.6114   25516794.9314
        32.000          10.3004
 113040128.073 5  87920157.923 5  21146495.015                    21146505.101
        34.800          35.100


 118551166.393 7  92377585.97046  22559513.505    22559513.0854   22559515.9234
        47.800          40.6004
 114033847.292 6  88857574.71242  21699921.721    21699921.6324   21699920.7664
        36.300          17.1004
 107735565.172 5  83949772.89243  20501396.570    20501395.4664   20501398.3424
        35.900          23.9004
 130583742.662 7                  24849235.458
        46.000
 137036822.146 5                  26077225.137
        34.700
 114340686.591 7  89096654.20247  21758314.199    21758313.3954   21758318.8404
        47.500          45.5004
 106652533.666 7  83105861.11047  20295298.498    20295298.1094   20295298.8844
        44.400          42.7004
 140740081.665 5                  26781929.300
        35.700
 116804939.131 8  91016797.62747  22227243.334    22227242.9994   22227244.5024
        49.700          45.0004
                                                  23764667.651



 124933528.746 8                  23774056.483
        48.600
 200867275.257 5                  38223770.081
        33.600
 110209928.915 7                  20602584.648    20602585.492
        44.700
 198905880.696 7                  37850526.004
        43.600
 123081283.909 7  95729832.515 7  23032963.245    23032962.420    23032970.041
        46.500          42.200
 127307740.841 5                  24225839.877
        34.100
 202049932.110 7                  38448827.453
        46.500
 145074450.300 4                  27606755.655
        27.300
 134968446.276 6                  25683609.101
        39.300
 130552669.430 7                  24843332.572
        46.800
 116699163.818 6  90766082.158 5  21892470.347    21892480.041    21892482.898
        38.200          33.400
 145344409.085 5                  27658121.670
        32.200
 110348084.507 7  85826267.431 7  20635640.809    20635639.964    20635646.379
        46.900          43.600
 108616821.020 7  84479726.258 7  20283415.622    20283415.355    20283420.775
        47.100          44.700
 25  1  1  4 23 15.0000000  0 29G18R01G06G12G11G20E27E03G25G05E34G29
                                R13E05E15S35R23S31R15G13S33R07E08E21
                                E13R14E30R24R08
 134051422.947 5 104455666.47842  25509124.752    25509124.1184   25509127.7934
        33.900          12.4004
 112983716.381 6  87876282.215 5  21135942.017    21135943.569    21135950.073
        37.500          32.800


 118598526.675 8  92414490.08146  22568525.166    22568524.7464   22568527.4194
        48.200          39.9004
 114059897.052 6  88877873.23543  21704884.858    21704884.7334   21704879.2184
        36.200          18.1004
 107755178.455 5  83965055.98343  20505128.687    20505127.4854   20505129.3884
        32.100          20.4004
 130612700.659 7                  24854746.395
        45.700
 137009610.895 6                  26072047.191
        36.300
 114361243.340 7  89112672.44447  21762226.426    21762225.6314   21762230.5984
        47.200          45.5004
 106634354.431 7  83091695.47547  20291838.003    20291837.6104   20291840.0404
        47.000          45.3004
 140769524.979 6                  26787532.483
        36.200
 116763154.980 8  90984238.54347  22219292.566    22219292.2364   22219293.7474
        48.000          44.9004
 126962282.742 4                  23775945.811    23775948.043
        29.500


 124943289.343 8                  23775913.900
        49.400
 200867297.251 5                  38223780.706
        30.700
 110228520.706 7                  20606061.218    20606061.535
        46.600
 198905871.858 7                  37850522.248
        43.400
 123059895.763 7  95713197.289 7  23028959.353    23028959.093    23028969.025
        45.800          43.300
 127257466.236 5                  24216275.825
        31.000
 202049911.735 7                  38448820.960
        44.900
                  95683070.960 6                                  22981378.203
                        36.600


 134957099.790 6                  25681449.440
        39.300
 130533642.523 7                  24839711.182
        47.100
 116727662.253 6  90788247.546 5  21897833.378    21897833.051    21897822.713
        36.400          33.700
 145391264.797 4                  27667025.486
        28.600
 110321382.288 8  85805499.021 7  20630647.773    20630647.692    20630654.398
        49.200          44.200
 108620125.332 8  84482296.254 7  20284033.708    20284033.431    20284038.315
        48.700          44.200
 25  1  1  4 23 30.0000000  0 27G18R01G06G12G11G20E27E03G25G05E34G29
                                R13E05E15S35R23S31R15S33E08E21E13R14
                                E30R24R08
 134011138.696 5 104424276.12941  25501458.865    25501458.2264   25501462.0374
        32.400           9.6004
 112927409.969 6  87832488.386 5  21125412.300    21125411.221    21125416.983
        40.400          32.600


 118645957.199 7  92451448.87946  22577550.311    22577549.9094   22577551.7704
        47.300          38.1004
 114085988.096 5  88898203.97643  21709847.393    21709847.3134   21709845.2194
        34.300          19.2004
 107774893.970 5  83980418.70843  20508879.274    20508878.1484   20508880.1584
        34.100          19.2004
 130641740.102 7                  24860272.662
        42.500
 136982472.976 5                  26066881.700
        34.100
 114381933.856 7  89128794.90947  21766164.371    21766163.5804   21766166.8864
        47.100          45.1004
 106616309.993 7  83077634.88447  20288404.784    20288404.3734   20288406.5134
        47.900          47.0004
 140798968.618 5                  26793135.399
        35.000
 116721421.619 8  90951719.04647  22211350.975    22211350.6404   22211352.0254
        48.100          44.5004
 127022499.873 4                  23787241.079    23787237.441
        29.200


 124953075.220 8                  23777776.031
        49.300
 200867319.862 5                  38223782.351
        32.800
 110247171.796 7                  20609544.183    20609544.616
        43.800
 198905863.727 7                  37850521.993
        43.800
 123038684.816 7  95696699.908 7  23024989.429    23024989.777    23024997.943
        45.100          42.700
 202049891.597 7                  38448819.931
        46.000


 134945858.576 6                  25679310.687
        40.700
 130514642.312 7                  24836095.937
        47.500
 116756316.871 5  90810534.244 6  21903199.494    21903194.921    21903203.663
        34.900          36.900
 145438119.943 4                  27675930.188
        27.800
 110294719.165 8  85784761.005 7  20625662.271    20625662.159    20625667.729
        50.100          44.200
 108623636.525 8  84485027.163 7  20284689.200    20284689.562    20284692.603
        49.900          42.700
 25  1  1  4 23 45.0000000  0 27G18R01G06G12G11G20E27E03G25G05E34G29
                                E05E15S35R23S31R15S33R07E08E21E13R14
                                E30R24R08
 133970860.703 4 104392890.6784   25493791.758    25493790.9714   25493797.4884
        27.800           5.4004
 112871207.980 7  87788775.779 5  21114899.510    21114899.116    21114905.106
        42.400          35.000


 118693456.065 7  92488460.93346  22586588.315    22586587.9714   22586589.5104
        44.000          36.5004
 114112118.751 5  88918565.53642  21714820.148    21714820.0554   21714818.5044
        34.900          17.9004
 107794709.948 5  83995859.77142  20512651.333    20512650.3274   20512650.0494
        34.100          17.8004
 130670859.317 6                  24865814.084
        41.900
 136955407.166 5                  26061730.129
        33.500
 114402756.329 7  89145020.20547  21770126.993    21770126.2204   21770128.2844
        47.600          45.7004
 106598398.785 8  83063678.11248  20284996.701    20284996.2994   20284997.7024
        48.600          48.4004
 140828410.965 5                  26798738.201
        33.000
 116679737.788 8  90919238.14247  22203418.772    22203418.4374   22203419.2864
        48.600          44.6004


 124962884.774 8                  23779642.878
        49.300
 200867341.631 5                  38223797.188
        33.500
 110265880.754 7                  20613042.311    20613042.104
        44.200
 198905856.083 7                  37850518.304
        42.900
 123017649.852 7  95680339.377 7  23021053.840    23021055.035    23021060.885
        44.800          42.500
 202049870.970 7                  38448813.237
        45.100
                  95762042.279 6                                  23000345.422
                        36.200


 134934721.159 6                  25677192.104
        40.300
 130495667.199 7                  24832484.834
        47.000
 116785125.138 6  90832940.726 6  21908603.836    21908601.913    21908610.485
        40.300          39.600
 145484972.443 4                  27684845.886
        26.600
 110268093.804 8  85764052.378 7  20620681.664    20620682.328    20620688.600
        49.100          43.500
 108627352.929 8  84487917.709 6  20285383.729    20285383.920    20285385.011
        50.800          41.000
 25  1  1  4 24  0.0000000  0 28G18R01G06G12G11G20E27E03G25G05E34G29
                                E05E15S35R23S31R15G13S33R07E08E21E13
                                R14E30R24R08
 133930588.485 5 104361509.72041  25486132.628    25486131.8554   25486133.9904
        32.200           8.8004
 112815110.273 7  87745144.239 6  21104404.810    21104403.896    21104411.339
        42.300          36.900


 118741022.102 6  92525525.35445  22595640.512    22595640.1594   22595641.4694
        41.200          34.5004
 114138288.316 6  88938957.43343  21719797.853    21719797.7154   21719798.8454
        37.500          18.3004
 107814625.376 5  84011378.29843  20516439.809    20516438.7184   20516438.9984
        35.600          19.8004
 130700057.446 6                  24871369.133
        41.600
 136928413.044 5                  26056594.585
        30.100
 114423709.837 8  89161347.60047  21774113.824    21774113.0604   21774115.3924
        48.700          45.9004
 106580620.217 8  83049824.68948  20281613.918    20281613.5164   20281613.7164
        49.500          48.7004
 140857851.468 5                  26804340.213
        32.300
 116638103.267 8  90886795.66747  22195495.758    22195495.4194   22195496.0044
        49.800          45.0004


 124972717.337 8                  23781513.616
        49.600
 200867362.759 5                  38223796.030
        33.000
 110284646.925 7                  20616549.709    20616551.201
        43.800
 198905846.820 7                  37850519.163
        43.000
 122996790.356 7  95664115.281 7  23017152.143    23017148.742    23017157.096
        43.400          42.700
 127106619.650 4                  24187593.241
        29.300
 202049849.453 7                  38448810.085
        45.300
 123173431.924 6  95801660.689 5  23009851.189    23009853.899    23009861.902
        37.600          33.900


 134923687.017 6                  25675091.608
        38.100
 130476716.519 7                  24828878.685
        46.800
 116814086.448 7  90855466.203 6  21914037.059    21914036.691    21914041.704
        46.300          39.800
 145531821.560 4                  27693761.973
        27.500
 110241505.721 7  85743372.755 6  20615708.507    20615709.410    20615715.999
        47.000          41.000
 108631273.775 8  84490967.275 6  20286115.887    20286116.345    20286118.438
        51.500          41.800
 25  1  1  4 24 15.0000000  0 27G18R01G06G12G11G20E27E03G25G05E34G29
                                E05E15S35R23S31R15S33R07E08E21E13R14
                                E30R24R08
 133890328.404 5 104330138.26541  25478473.303    25478472.6244   25478473.0284
        30.000           6.4004
 112759123.756 7  87701599.187 6  21093931.861    21093931.638    21093939.899
        42.900          37.800


 118788661.339 6  92562646.81745  22604707.885    22604707.4794   22604708.3054
        38.200          32.1004
 114164503.093 5  88959384.47442  21724786.260    21724786.1844   21724787.5934
        32.400          16.2004
 107834646.634 6  84026979.29943  20520252.642    20520251.6104   20520248.5614
        38.500          21.8004
 130729340.648 6                  24876940.743
        40.600
 136901497.110 4                  26051471.592
        28.400
 114444800.543 7  89177781.93047  21778126.586    21778125.8264   21778129.1164
        46.100          45.2004
 106562980.699 8  83036079.61848  20278257.218    20278256.8164   20278256.9954
        51.400          49.8004
 140887296.449 5                  26809941.431
        32.700
 116596524.753 8  90854396.83147  22187583.397    22187583.0584   22187582.9414
        50.100          44.7004


 124982579.225 8                  23783390.122
        49.300
 200867388.571 5                  38223803.734
        30.500
 110303476.858 7                  20620069.690    20620069.062
        42.900
 198905842.672 7                  37850509.750
        42.800
 122976112.949 7  95648032.885 7  23013279.508    23013280.359    23013286.728
        45.200          42.100
 202049832.381 7                  38448808.623
        46.300
 123224489.402 6  95841372.007 4  23019384.615    23019387.197    23019409.040
        36.000          28.200


 134912762.554 6                  25673016.302
        38.200
 130457796.569 7                  24825278.802
        46.600
 116843206.718 6  90878115.286 6  21919496.092    21919494.481    21919503.411
        41.600          39.900
 145578673.434 4                  27702685.047
        27.200
 110214961.391 7  85722727.141 6  20610745.042    20610745.099    20610750.956
        46.700          39.300
 108635405.721 8  84494181.023 7  20286887.188    20286887.776    20286891.456
        50.700          43.700
 25  1  1  4 24 30.0000000  0 28G18R01G06G12G11G20E27E03G25G05E34G29
                                E05E15S35R23R17S31R15S33R07E08E21E13
                                R14E30R24R08
 133850071.195 5 104298769.1944   25470811.893    25470811.3354   25470812.6514
        31.400           4.7004
 112703239.574 6  87658133.751 6  21083475.224    21083475.428    21083485.836
        39.900          38.300


 118836364.242 6  92599817.90845  22613784.462    22613784.0064   22613785.8564
        40.600          30.5004
 114190753.785 6  88979839.59643  21729782.454    21729782.5344   21729783.3974
        38.900          19.3004
 107854764.212 6  84042655.33943  20524079.160    20524078.1594   20524077.2144
        40.700          23.6004
 130758699.544 6                  24882528.142
        37.000


 114466018.974 7  89194315.77447  21782164.220    21782163.4784   21782167.7834
        47.300          45.5004
 106545471.019 8  83022435.70848  20274924.806    20274924.4044   20274925.3004
        51.300          50.4004
 140916736.670 5                  26815542.814
        32.900
 116554993.304 8  90822034.68247  22179680.637    22179680.3024   22179678.9774
        50.400          44.4004


 124992461.225 8                  23785270.853
        48.800


 110322361.259 7                  20623600.978    20623600.464
        42.800


 198905834.486 6                  37850512.522
        41.500
 122955608.741 7  95632085.154 7  23009445.167    23009445.880    23009449.338
        47.600          42.000
 202049812.457 7                  38448803.082
        45.500
 123275656.602 6                  23028953.101    23028950.281
        38.700


 134901938.646 6                  25670955.301
        37.100
 130438898.152 7                  24821683.041
        46.300
 116872476.276 6  90900880.544 6  21924984.658    21924982.338    21924992.927
        37.300          38.100
 145625518.775 4                  27711596.207
        29.100
 110188451.776 7  85702108.657 6  20605787.222    20605786.562    20605792.002
        46.200          38.200
 108639739.171 8  84497551.465 7  20287695.588    20287696.643    20287700.176
        50.100          44.300
 25  1  1  4 24 45.0000000  0 27G18R01G06G12G11G20E27E03G25G05E34G29
                                E05E15S35R23R17S31R15S33E08E21E13R14
                                E30R24R08


 112647465.797 6  87614754.197 6  21073044.747    21073041.724    21073048.765
        36.400          36.400


 118884137.693 6  92637044.00444  22622873.801    22622873.3054   22622876.6644
        38.900          29.4004
 114217047.560 6  89000328.32743  21734792.399    21734792.2744   21734787.1254
        38.900          19.7004
 107874985.229 6  84058411.96243  20527927.752    20527926.7114   20527925.5144
        38.300          21.9004
 130788141.251 6                  24888132.226
        38.200


 114487372.187 7  89210954.63947  21786226.758    21786226.0304   21786231.5764
        45.900          45.3004
 106528098.478 8  83008898.66248  20271619.091    20271618.7114   20271619.5514
        50.300          50.4004
 140946179.576 4                  26821150.102
        29.100
 116513516.374 8  90789714.99947  22171787.949    22171787.6194   22171786.2234
        49.100          43.9004


 125002370.534 8                  23787156.538
        49.300


 110341307.892 7                  20627144.452    20627144.936
        45.600


 198905829.265 6                  37850508.100
        41.600
 122935285.173 7  95616277.943 6  23005639.698    23005639.416    23005646.916
        45.100          41.800
 202049795.276 7                  38448803.780
        44.700


 134891222.754 6                  25668917.029
        37.500
 130420028.511 7                  24818091.431
        44.200
                  90923767.212 6                                  21930512.837
                        37.100


 110161984.255 7  85681522.814 6  20600840.742    20600837.884    20600844.425
        46.500          41.100
 108644281.556 8  84501084.425 7  20288543.250    20288543.000    20288548.134
        48.100          44.300
 25  1  1  4 25  0.0000000  0 27G18R01G06G12G11G20E27E03G25G05E34G29
                                E05E15S35R23R17S31R15S33E08E21E13R14
                                E30R24R08


 112591796.882 6  87571456.245 6  21062628.987    21062628.764    21062635.268
        40.100          38.300


 118931975.453 5  92674320.18544  22631978.228    22631977.7554   22631979.9714
        34.600          27.0004
 114243378.734 5  89020846.09543  21739794.991    21739794.8984   21739798.1154
        33.800          20.3004
 107895303.583 6  84074244.39143  20531795.367    20531794.3574   20531791.9744
        39.500          23.4004
 130817659.623 6                  24893748.552
        37.100


 114508853.949 7  89227693.65347  21790315.376    21790314.6884   21790318.6574
        45.100          44.3004
 106510857.213 8  82995463.90848  20268338.325    20268337.9544   20268338.3684
        50.000          49.6004


 116472088.408 8  90757433.48847  22163905.344    22163905.0144   22163903.0214
        49.100          44.0004


 125012301.214 8                  23789046.164
        48.800
 200867469.137 5                  38223824.769
        35.400
 110360310.410 7                  20630696.780    20630697.134
        45.800


 198905821.650 7                  37850510.868
        42.600
 122915136.377 7  95600606.645 6  23001868.624    23001869.056    23001875.518
        45.600          41.900
 202049775.695 7                  38448795.896
        45.200


 134880608.940 6                  25666896.207
        36.800
 130401181.668 7                  24814505.159
        42.900
                  90946770.244 5                                  21936058.011
                        33.600
 145719204.611 5                  27729422.334
        31.300
 110135553.188 8  85660965.326 7  20595896.548    20595896.567    20595902.217
        49.300          42.500
 108649026.677 7  84504775.103 7  20289429.624    20289428.632    20289434.070
        46.800          44.200
 25  1  1  4 25 15.0000000  0 28G18R01G06G12G11G20E27E03G25G05E34G29
                                E05E15S35R23R17S31R15S33R07E08E21E13
                                R14E30R24R08


 112536237.647 6  87528243.514 6  21052235.979    21052235.542    21052243.687
        41.400          40.100


 118979881.069 5  92711649.23944  22641095.199    22641094.6364   22641095.9914
        35.000          25.4004


 107915723.160 6  84090155.74744  20535679.680    20535678.6524   20535678.3824
        41.700          25.3004
 130847258.650 6                  24899381.670
        40.700


 114530468.207 7  89244535.92747  21794429.792    21794429.0954   21794431.2574
        47.100          45.4004
 106493751.301 8  82982134.64448  20265083.317    20265082.9604   20265082.6294
        50.000          49.2004


 116430713.840 8  90725193.58547  22156031.893    22156031.5494   22156029.5264
        48.700          42.8004


 125022257.385 8                  23790940.837
        49.100
 200867493.227 5                  38223817.051
        32.400
 110379373.283 7                  20634260.873    20634260.289
        45.700
 130254032.543 4                  24341090.804
        28.000
 198905815.664 7                  37850512.773
        43.400
 122895166.903 7  95585074.832 6  22998132.343    22998132.112    22998138.226
        46.800          40.600
 202049756.879 7                  38448793.692
        45.200




 134870101.463 5                  25664896.852
        33.100
 130382361.702 7                  24810924.458
        42.700
 116961338.204 4                  21941622.842    21941620.857
        29.800
 145766042.898 5                  27738351.362
        35.500
 110109162.507 8  85640439.265 7  20590961.642    20590961.702    20590965.542
        50.900          42.000
 108653978.993 7  84508626.912 7  20290354.509    20290354.191    20290359.772
        47.200          44.800
 25  1  1  4 25 30.0000000  0 27G18R01G06G12G11G20E27E03G25G05E34G29
                                E05E15S35R23S31R15S33R07E08E21E13R14
                                E30R24R08


 112480785.264 6  87485113.860 6  21041859.750    21041859.924    21041869.746
        38.500          40.500


 119027851.012 6  92749028.42944  22650225.310    22650224.5684   22650224.6524
        38.800          25.6004
 114296233.390 4  89061987.38842  21749839.600    21749839.0954   21749845.4354
        29.100          16.4004
 107936240.284 6  84106143.11044  20539584.284    20539583.2744   20539583.9154
        41.600          27.1004
 130876934.726 7                  24905028.481
        43.600
 136767902.908 5                  26026067.532
        33.300
 114552211.327 8  89261478.59847  21798567.286    21798566.5584   21798569.1854
        48.500          47.2004
 106476777.627 8  82968908.40748  20261852.868    20261852.5114   20261852.4724
        49.800          49.2004


 116389389.577 8  90692992.88746  22148167.781    22148167.3974   22148165.4094
        48.200          41.0004


 125032235.614 8                  23792839.524
        48.000
 200867515.846 5                  38223813.161
        30.800
 110398492.932 6                  20637834.594    20637832.020
        40.000
 198905807.142 7                  37850506.915
        42.400
 122875373.237 8  95569679.708 6  22994430.865    22994431.200    22994435.490
        49.000          41.500
 202049736.446 7                  38448790.132
        45.400
 123481620.048 5                  23067398.030
        34.700


 134859696.967 5                  25662916.566
        33.000
 130363565.251 7                  24807347.280
        43.100
 116991217.103 6                  21947238.417    21947236.169
        40.000
 145812875.763 5                  27747262.491
        32.900
 110082809.079 8  85619942.130 7  20586033.000    20586034.135    20586038.198
        51.800          44.400
 108659134.667 8  84512636.853 7  20291317.085    20291317.468    20291320.921
        48.200          43.600
 25  1  1  4 25 45.0000000  0 27G18R01G06G12G11G20E27E03G25G05E34G29
                                E05E15S35R23S31R15S33R07E08E21E13R14
                                E30R24R08


 112425442.581 6  87442069.537 6  21031506.754    21031506.799    21031515.878
        40.500          40.500


 119075887.107 6  92786459.16444  22659363.098    22659362.3034   22659364.2504
        39.900          27.7004
 114322683.687 6  89082598.03943  21754874.183    21754873.6024   21754876.6994
        38.300          18.9004
 107956856.981 6  84122208.05044  20543506.038    20543505.0504   20543508.3864
        39.600          26.4004
 130906690.032 7                  24910690.055
        44.100
 136741426.597 6                  26021030.840
        36.700
 114574085.381 8  89278523.31248  21802730.260    21802729.5324   21802732.5034
        49.600          48.8004
 106459938.692 8  82955787.16548  20258648.677    20258648.3114   20258648.2594
        50.300          49.6004


 116348118.178 8  90660833.38246  22140313.937    22140313.5624   22140310.9734
        49.400          41.9004


 125042238.244 7                  23794743.325
        47.600


 110417672.143 6                  20641417.530    20641415.287
        38.400
 198905799.715 6                  37850497.082
        40.400
 122855758.238 8  95554423.589 6  22990760.351    22990760.437    22990765.218
        50.000          41.400
 202049717.502 7                  38448788.572
        45.400
 123533348.844 5                  23077062.300
        33.100


 134849397.975 6                  25660957.423
        38.600
 130344794.632 7                  24803774.465
        42.700
 117021247.551 6                  21952870.209    21952868.352
        40.400


 110056495.466 8  85599476.009 7  20581111.982    20581113.244    20581118.175
        50.800          44.800
 108664496.285 8  84516806.945 7  20292319.796    20292320.927    20292323.239
        49.800          44.100
 25  1  1  4 26  0.0000000  0 26G18R01G06G12G11G20E27E03G25G05E34G29
                                E05E15S35R23S31R15G13S33E08E21E13E30
                                R24R08


 112370209.151 6  87399110.238 6  21021171.853    21021172.343    21021183.412
        40.800          39.400


 119123988.048 6  92823940.42044  22668517.890    22668517.1354   22668518.6464
        41.400          29.1004
 114349173.182 6  89103239.25643  21759914.715    21759914.3624   21759916.2584
        41.100          18.7004
 107977572.309 5  84138349.89343  20547449.175    20547448.1604   20547450.1754
        35.900          21.5004
 130936523.512 6                  24916364.405
        39.300
 136715024.424 6                  26016006.269
        36.900
 114596089.250 8  89295669.16548  21806916.769    21806916.0324   21806920.5314
        49.700          48.9004
 106443233.288 8  82942769.98548  20255469.120    20255468.7404   20255469.6024
        49.100          49.3004


 116306899.267 8  90628714.76047  22132470.441    22132470.0844   22132467.7784
        48.800          42.8004


 125052264.317 7                  23796651.443
        47.100
 200867539.143 5                  38223822.073
        35.600
 110436910.054 5                  20645011.268    20645009.618
        34.200
 198905791.775 6                  37850513.698
        40.800
 122836320.899 8  95539305.675 6  22987122.413    22987122.526    22987128.680
        48.500          39.600
 126704146.526 4                  24110996.547
        29.200
 202049697.239 7                  38448784.547
        45.400


 134839203.634 5                  25659016.809
        34.900
 130326048.838 6                  24800207.817
        41.300


 110030220.911 8  85579040.250 7  20576199.075    20576199.705    20576204.760
        48.900          44.900
 108670062.705 8  84521136.393 7  20293360.354    20293361.246    20293363.294
        49.700          46.000
 25  1  1  4 26 15.0000000  0 26G18R01G06G12G11G20E27E03G25G05E34G29
                                E05E15S35S31R15S33R07E08E21E13R14E30
                                R24R08


 112315088.167 6  87356238.372 6  21010862.623    21010860.777    21010871.985
        37.000          38.400


 119172155.930 6  92861473.78744  22677682.210    22677681.3974   22677685.3564
        38.400          26.6004
 114375704.230 6  89123912.72342  21764961.961    21764961.7784   21764963.6464
        37.800          15.3004
 107998388.397 6  84154570.22043  20551409.843    20551408.7264   20551411.5674
        36.800          22.7004
 130966437.261 5                  24922059.450
        34.000
 136688699.131 6                  26010997.900
        36.600
 114618225.061 8  89312917.82548  21811128.484    21811127.7604   21811133.0854
        49.900          48.9004
 106426664.071 8  82929858.90948  20252316.302    20252315.9314   20252317.0504
        48.800          49.7004


 116265735.178 7  90596638.87146  22124636.170    22124635.8404   22124633.9564
        45.300          39.3004


 125062316.209 8                  23798564.047
        48.200


 198905785.789 7                  37850515.742
        43.300
 122817064.057 6  95524327.983 6  22983521.719    22983519.225    22983525.254
        41.600          37.900
 202049678.463 7                  38448781.690
        46.200
 123637045.812 4                  23096442.596
        28.500


 134829116.396 6                  25657095.626
        36.800
 130307330.406 6                  24796645.282
        41.800
 117081761.320 7  91063546.040 5  21964223.536    21964223.791    21964226.823
        42.100          35.500


 110003987.800 7  85558636.729 7  20571291.316    20571293.480    20571297.503
        46.300          45.300
 108675836.379 7  84525627.051 7  20294437.192    20294438.232    20294441.590
        47.900          45.900
 25  1  1  4 26 30.0000000  0 26G18R01G12G11G20E27E03G25G05E34G29E05
                                E15S35R23S31R15G13S33E08E21E13R14E30
                                R24R08


 112260075.591 7  87313450.834 6  21000573.592    21000573.773    21000578.614
        42.200          37.300
 119220385.817 5  92899055.50643  22686861.913    22686861.1534   22686862.8064
        35.700          23.6004
 114402272.277 6  89144615.09542  21770016.789    21770016.5934   21770018.9144
        38.800          15.5004
 108019300.463 6  84170865.29544  20555388.346    20555387.1884   20555391.0654
        39.500          24.9004
 130996426.765 7                  24927767.567
        42.600
 136662446.343 6                  26006001.364
        37.200
 114640488.090 8  89330265.61247  21815364.894    21815364.1884   21815368.6244
        48.600          47.0004
 106410226.559 8  82917050.45548  20249187.901    20249187.5354   20249189.2714
        50.000          50.3004


 116224621.943 6  90564602.57746  22116811.939    22116811.5684   22116810.3474
        39.400          36.1004


 125072389.412 8                  23800480.990
        48.300


 110475538.972 5                  20652238.833    20652238.255
        32.400
 198905776.321 7                  37850509.607
        43.000
 122797983.262 6  95509487.219 6  22979946.868    22979946.050    22979958.447
        40.000          36.400
 126603561.082 6                  24091855.939
        36.900
 202049658.051 7                  38448775.103
        45.000


 134819131.930 6                  25655196.907
        39.600
 130288634.596 7                  24793087.428
        42.200
 117112241.603 6  91087252.904 5  21969937.072    21969935.994    21969944.781
        38.000          35.600


 109977791.961 7  85538262.161 7  20566391.251    20566391.670    20566399.149
        43.800          45.100
 108681812.733 7  84530275.306 7  20295554.780    20295555.887    20295558.284
        47.900          46.600
 25  1  1  4 26 45.0000000  0 29G18R01G12G11G20E27E03G25G05E34G29R13
                                E05E15S35R23R17S31R15G13S33R07E08E21
                                E13R14E30R24R08
 133488015.655 5                  25401924.858
        33.500
 112205178.600 7  87270753.229 5  20990301.728    20990301.991    20990309.778
        42.600          35.900
 119268684.192 6  92936690.65543  22696051.117    22696050.3044   22696050.5204
        36.200          20.9004
 114428883.986 6  89165351.43142  21775082.396    21775082.2494   21775081.7834
        41.800          15.7004
 108040315.201 6  84187240.43344  20559389.074    20559387.9074   20559389.3584
        40.100          26.2004
 131026498.565 7                  24933490.774
        42.300
 136636273.125 6                  26001020.729
        39.400
 114662884.824 7  89347717.59347  21819626.105    21819625.4264   21819629.5124
        47.300          44.2004
 106393927.427 8  82904349.83448  20246086.393    20246086.0274   20246087.7494
        49.800          50.5004
 141181587.912 5                  26865966.174
        34.200
 116183566.337 7  90532611.18646  22109002.604    22109002.1714   22108998.0064
        44.000          37.1004
 127804294.827 4                  23933640.519    23933642.138
        28.100
 135086575.004 4                  25706118.276
        26.400
 125082490.693 8                  23802403.491
        48.700


 110494958.135 6                  20655873.250    20655872.235
        41.400
 129991798.435 5                  24292072.618
        30.100
 198905772.745 6                  37850510.072
        40.500
 122779085.724 6  95494789.158 5  22976408.907    22976409.417    22976421.290
        41.200          35.300
 126553269.202 6                  24082285.539
        37.100
 202049642.381 7                  38448774.661
        45.800
 123741286.458 6                  23115911.636    23115912.845
        37.000
 144423417.426 4                  27482860.229
        28.900
 134809256.957 5                  25653317.702
        35.400
 130269968.329 6                  24789535.449
        38.000
 117142875.742 7  91111079.390 6  21975684.014    21975686.934    21975691.473
        42.800          36.100


 109951640.315 7  85517922.072 7  20561501.702    20561500.784    20561508.992
        42.200          46.100
 108687998.542 7  84535086.567 7  20296707.196    20296706.816    20296713.948
        44.200          47.600
 25  1  1  4 27  0.0000000  0 26G18R01G12G11G20E27E03G25G05E34G29R13
                                E05E15S35R23R17S31S33R07E08E21E13R14
                                R24R08
 133447829.613 5 103985320.6444   25394275.439    25394275.5994   25394278.4794
        32.800           5.7004
 112150391.039 7  87228140.711 6  20980055.133    20980054.919    20980061.754
        45.600          37.300
 119317043.838 6  92974373.50444  22705253.723    22705253.0174   22705252.4754
        40.800          25.8004
 114455532.593 6  89186116.54143  21780153.803    21780153.6604   21780152.5594
        41.400          19.7004
 108061425.330 7  84203689.90744  20563407.868    20563406.7284   20563405.6494
        45.100          27.5004
 131056645.693 6                  24939225.385
        40.300
 136610172.924 7                  25996055.275
        43.100
 114685408.233 7  89365268.31147  21823913.264    21823912.5984   21823914.9284
        46.000          44.0004
 106377760.119 8  82891751.95448  20243009.930    20243009.5774   20243010.8664
        50.100          51.2004
 141211023.385 6                  26871565.341
        37.700
 116142562.223 7  90500659.94946  22101197.030    22101196.5124   22101195.7054
        46.700          38.9004
 127864343.159 5                  23944890.728
        34.200


 125092613.255 8                  23804329.674
        50.400
 200867634.609 6                  38223833.793
        37.500
 110514434.065 7                  20659509.993    20659510.696
        42.100
 129948025.762 4                  24283881.978
        27.100
 198905765.927 6                  37850501.437
        41.900
 202049623.564 7                  38448761.496
        45.600
 123793556.222 5                  23125677.929    23125677.576
        35.400
 144379949.249 4                  27474594.729
        28.000
 134799484.990 6                  25651458.906
        39.000
 130251324.696 6                  24785988.222
        41.400
 117173656.332 5  91135019.883 6  21981459.555    21981459.638    21981468.202
        35.100          38.000
 109925526.188 7  85497611.096 7  20556619.112    20556621.452    20556624.791
        43.900          45.100
 108694387.016 8  84540055.381 7  20297902.496    20297903.127    20297905.931
        48.200          47.700
 25  1  1  4 27 15.0000000  0 28G18R01G06G12G11G20E27E03G25G05E34G29
                                R13E05E15S35R23R17S31R15S33R07E08E21
                                E13R14R24R08
 133407647.243 4 103954009.78141  25386629.397    25386629.8304   25386634.0344
        29.100           7.0004
 112095712.584 7  87185613.010 5  20969826.173    20969824.916    20969833.154
        44.800          35.900
 128631314.787 5                  24477727.888
        34.600
 119365463.391 7  93012102.95444  22714468.718    22714468.0794   22714464.6434
        43.900          27.8004
 114482184.015 7  89206884.55643  21785233.642    21785233.3704   21785231.7234
        44.500          20.6004
 108082630.075 8  84220213.04944  20567442.289    20567441.1584   20567439.8704
        48.300          27.5004
 131086866.992 6                  24944976.765
        41.700
 136584144.966 6                  25991100.834
        40.000
 114708057.157 7  89382916.81746  21828222.681    21828222.0114   21828224.2044
        46.300          41.4004
 106361723.914 8  82879256.22448  20239958.945    20239958.6064   20239958.8944
        49.900          51.0004
 141240454.836 6                  26877168.998
        37.800
 116101608.784 7  90468748.16346  22093402.704    22093402.1234   22093403.2324
        43.300          38.2004
 127924408.245 4                  23956123.990
        29.500


 125102756.064 8                  23806260.120
        51.100
 200867655.402 6                  38223843.738
        37.700
 110533965.952 7                  20663162.538    20663162.934
        44.300
 129904232.282 5                  24275701.308    24275696.302
        34.600
 198905755.748 7                  37850503.015
        43.100
 122741817.792 6                  22969436.070    22969437.384
        41.000
 202049600.742 7                  38448760.396
        45.000
 123845940.245 4                  23135477.901
        27.900


 134789814.998 7                  25649619.438
        45.000
 130232702.875 6                  24782442.818
        38.800
 117204581.810 6  91159072.987 5  21987260.976    21987258.890    21987262.861
        38.500          31.400
 109899448.724 7  85477328.566 7  20551741.860    20551743.189    20551748.218
        44.800          45.800
 108700976.780 7  84545180.792 8  20299130.997    20299131.915    20299137.586
        47.600          48.600
 25  1  1  4 27 30.0000000  0 28G18R01G06G15G12G11G20E27E03G25G05E34
                                G29E15S35R23R17S31R15S33R07E08E21E13
                                R14E30R24R08


 112041148.899 7  87143174.612 6  20959618.926    20959618.245    20959629.158
        45.900          36.000
 128670847.606 5                  24485247.206
        32.100
 132102939.290 4                  25138351.111
        28.500
 119413947.851 7  93049883.05444  22723696.288    22723695.6764   22723688.8004
        43.900          28.1004
 114508909.523 7  89227709.59944  21790317.983    21790317.5054   21790317.5634
        44.400          24.0004
 108103934.325 7  84236813.78844  20571496.115    20571494.9804   20571494.4564
        46.600          29.3004
 131117167.470 6                  24950741.813
        40.400
 136558194.764 6                  25986162.937
        39.700
 114730836.468 7  89400666.93846  21832557.280    21832556.5784   21832559.5624
        45.100          40.1004
 106345823.934 8  82866866.64548  20236933.569    20236933.2074   20236932.6614
        49.700          51.2004
 141269887.406 6                  26882769.083
        37.200
 116060711.554 7  90436880.21046  22085620.561    22085620.0034   22085620.9144
        45.200          40.2004
 125112924.335 8                  23808194.618
        50.400
 200867676.985 5                  38223849.385
        32.700
 110553559.193 7                  20666826.762    20666826.342
        45.400
 129860423.172 5 101002533.071 5  24267506.826    24267505.009    24267521.600
        33.900          33.500
 198905747.427 7                  37850505.448
        42.500
 122723453.429 7                  22966003.120    22966001.510
        44.700
 202049581.414 7                  38448765.337
        46.000
                  96365512.183 5                                  23145283.105
                        31.300


 134780252.358 7                  25647798.887
        43.300
 130214107.865 6                  24778904.670
        39.700
 117235657.165 5  91183242.989 6  21993091.621    21993089.492    21993101.642
        33.800          37.700


 109873413.163 7  85457078.699 7  20546874.470    20546873.494    20546879.784
        45.000          46.000
 108707773.217 7  84550466.922 7  20300401.178    20300401.700    20300405.751
        46.500          47.600
 25  1  1  4 27 45.0000000  0 27G18R01G06G12G11G20E27E03G25G05E34G29
                                E15S35R23R17S31R15G13S33R07E08E21E13
                                R14R24R08
 133327295.654 5 103891417.82941  25371344.560    25371344.2884   25371347.0054
        32.800           7.5004
 111986697.266 7  87100823.424 5  20949431.722    20949432.801    20949439.940
        43.300          33.100
 128710381.394 4 100294001.3854   24492771.315    24492771.6144   24492819.5294
        29.400           4.4004
 119462493.481 7  93087710.77244  22732934.030    22732933.4184   22732928.0094
        44.300          29.3004
 114535672.741 7  89248564.06443  21795410.276    21795409.8524   21795409.9814
        45.500          23.6004
 108125334.431 7  84253489.21544  20575568.421    20575567.2594   20575566.5174
        47.600          28.7004
 131147543.748 6                  24956524.616
        36.900
 136532319.251 6                  25981239.409
        40.800
 114753742.743 7  89418515.94246  21836916.857    21836916.1204   21836918.6664
        44.600          40.2004
 106330056.771 8  82854580.55448  20233933.589    20233933.2274   20233932.5244
        50.600          52.1004
 141299317.964 5                  26888368.856
        32.500
 116019867.674 7  90405053.84446  22077848.314    22077847.7644   22077848.7464
        45.500          40.8004
 125123114.797 8                  23810133.833
        51.000


 110573210.502 7                  20670500.268    20670500.447
        46.900
 129816595.487 6 100968453.856 5  24259324.512    24259323.594    24259330.276
        39.600          30.700
 198905738.028 6                  37850494.680
        39.800
 122705266.920 5  95437368.719 6  22962590.006    22962590.606    22962604.232
        34.400          39.900
 126352092.181 5                  24044003.169
        33.400
 202049559.482 7                  38448760.392
        46.400
 123951074.322 5                  23155101.868
        32.400


 134770793.855 7                  25645999.126
        44.500
 130195536.512 7                  24775371.207
        42.400
 117266878.905 7  91207526.427 6  21998951.975    21998950.372    21998963.675
        44.800          36.500
 109847416.551 7  85436859.144 7  20542012.798    20542013.627    20542017.762
        47.600          44.700
 108714773.050 7  84555911.280 7  20301709.338    20301709.663    20301712.266
        47.100          47.000
 25  1  1  4 28  0.0000000  0 26G18G06G15G12G11G20E27E03G25G05E34G29
                                E15S35R23R17S31R15G13S33E08E21E13R14
                                R24R08
 133287135.765 5 103860124.3484   25363699.158    25363698.5594   25363704.4614
        32.100           3.6004
 128749918.780 4 100324809.6054   24500294.530    24500295.0484   24500340.0334
        29.300           2.8004
 131990994.438 4                  25117051.879
        25.700
 119511102.534 7  93125588.00644  22742183.456    22742182.8804   22742177.8824
        43.000          24.3004
 114562476.194 7  89269449.87244  21800510.416    21800510.0544   21800511.1774
        46.100          24.7004
 108146832.859 7  84270241.22744  20579659.289    20579658.1404   20579657.2964
        46.700          27.2004
 131177998.123 6                  24962319.588
        39.500
 136506521.150 6                  25976329.932
        40.800
 114776778.236 7  89436465.68146  21841299.915    21841299.1874   21841302.1174
        43.200          39.9004
 106314424.908 8  82842399.88848  20230958.753    20230958.4054   20230957.8804
        51.800          52.7004
 141328749.066 5                  26893969.012
        35.300
 115979080.209 7  90373271.41346  22070087.078    22070086.5374   22070087.4994
        43.300          39.5004
 125133329.912 8                  23812077.826
        51.000


 110592922.439 7                  20674185.289    20674185.117
        46.200
 129772751.254 6                  24251128.847    24251130.459
        39.500
 198905729.137 7                  37850497.278
        42.300
 122687261.309 7  95423364.281 6  22959231.548    22959229.135    22959235.928
        42.500          40.800
 126301806.932 5                  24034432.965
        33.300
 202049539.445 7                  38448751.493
        45.100


 134761442.022 7                  25644219.378
        43.400
 130176991.183 7                  24771843.219
        43.700
 117298248.749 7  91231925.293 5  22004834.953    22004835.886    22004846.614
        43.500          35.100
 109821461.630 8  85416671.974 7  20537160.907    20537161.706    20537164.294
        48.200          45.200
 108721978.713 7  84561515.747 7  20303054.212    20303054.888    20303058.233
        46.200          46.900
 25  1  1  4 28 15.0000000  0 29G18R01G06G15G12G11G20E27E03G25G05E34
                                G29E15R22S35R23R17S31R15G13S33E08E21
                                E13R14E30R24R08
 133246984.609 5 103828838.0304   25356060.961    25356060.1164   25356062.7454
        31.800           4.9004
 111878140.539 7                  20929119.346    20929120.245
        43.100


 131934983.544 5                  25106398.637
        30.700
 119559775.312 7  93163514.79244  22751445.993    22751445.4524   22751440.8844
        43.000          27.0004
 114589320.522 7  89290367.51044  21805619.280    21805618.9414   21805618.5974
        44.900          25.9004
 108168429.911 7  84287070.06644  20583768.918    20583767.7474   20583767.1554
        46.100          26.7004
 131208531.128 6                  24968128.975
        40.700
 136480801.526 6                  25971434.244
        36.900
 114799943.429 7  89454516.49547  21845707.791    21845707.0404   21845711.1554
        45.500          42.4004
 106298929.562 8  82830325.60348  20228009.649    20228009.3054   20228009.3904
        52.800          53.6004
 141358181.554 4                  26899582.893
        28.000
 115938349.646 7  90341533.31446  22062336.699    22062336.1674   22062337.0544
        45.300          38.8004
 125143570.469 8                  23814026.464
        50.900
                                                  23951853.709

 200867775.196 5                  38223865.930
        31.800
 110612695.802 7                  20677882.264    20677882.286
        47.400
 129728891.795 6                  24242928.519    24242930.908
        37.700
 198905722.738 7                  37850499.438
        44.400
 122669437.350 6  95409501.068 6  22955896.016    22955895.733    22955899.745
        40.100          41.300
 126251526.870 5                  24024866.574
        30.000
 202049520.614 7                  38448752.535
        47.700


 134752197.851 7                  25642460.783
        45.800
 130158472.793 7                  24768318.956
        43.000
 117329767.736 7                  22010749.884    22010751.176
        43.100


 109795549.023 8  85396517.737 7  20532313.057    20532315.357    20532318.799
        48.800          46.300
 108729390.964 7  84567280.820 7  20304439.652    20304441.314    20304442.281
        47.900          46.900
 25  1  1  4 28 30.0000000  0 26G18R01G12G11G20E27E03G25G05E34G29E15
                                R22S35R23S31R15G13S33E08E21E13R14E30
                                R24R08
 133206840.097 6 103797556.61641  25348422.761    25348421.9704   25348422.5534
        36.100           6.4004
 111824035.216 6  86974284.786 5  20919001.964    20919001.858    20919009.743
        41.500          35.900
 119608508.778 7  93201488.82444  22760718.189    22760717.6624   22760717.5744
        42.700          27.8004
 114616203.354 7  89311315.15043  21810735.755    21810735.3984   21810733.9904
        44.200          22.8004
 108190123.295 7  84303973.92244  20587896.819    20587895.6574   20587893.5864
        44.100          25.1004
 131239140.297 6                  24973953.794
        40.500
 136455158.124 5                  25966555.812
        33.500
 114823235.646 7  89472666.26047  21850140.942    21850140.1604   21850143.5304
        46.000          43.2004
 106283568.188 8  82818355.71048  20225086.196    20225085.8484   20225086.1884
        51.700          53.1004
 141387612.869 4                  26905167.205
        29.100
 115897674.048 7  90309838.01246  22054595.385    22054594.8404   22054596.8414
        43.000          36.8004
 125153834.024 8                  23815978.998
        50.400
 127897496.882 5                  23959506.796    23959510.791
        33.300


 110632528.397 7                  20681588.234    20681589.141
        46.800
 198905715.484 7                  37850502.304
        43.000
 122651792.674 7  95395777.558 6  22952593.692    22952594.088    22952596.070
        44.000          38.600
 126201250.234 5                  24015296.405
        30.400
 202049502.374 7                  38448742.760
        45.700


 134743058.953 7                  25640721.702
        45.900
 130139978.758 7                  24764800.316
        44.600
 117361432.207 7                  22016692.190    22016692.796
        45.200


 109769676.875 7  85376394.974 7  20527473.684    20527474.276    20527481.188
        47.000          46.100
 108737007.166 7  84573204.553 7  20305862.383    20305862.937    20305865.330
        47.800          47.500
 25  1  1  4 28 45.0000000  0 26G18R01G06G12G11G20E27E03G25G05E34G29
                                E15S35R23S31R15G13S33E08E21E13R14E30
                                R24R08
 133166701.573 6 103766279.84841  25340784.457    25340783.7914   25340784.2844
        37.000           8.7004
 111770044.521 7  86932292.060 6  20908904.252    20908904.272    20908910.226
        43.500          37.100


 119657302.167 6  93239509.60044  22770003.651    22770003.1014   22770002.4824
        38.700          26.6004
 114643124.086 7  89332292.32844  21815858.844    21815858.5184   21815856.2604
        45.400          27.0004
 108211912.096 7  84320952.16944  20592043.260    20592042.1294   20592039.2644
        45.000          27.9004
 131269824.792 6                  24979793.583
        39.400
 136429590.739 6                  25961692.923
        37.700
 114846654.159 7  89490914.45147  21854598.091    21854597.3134   21854600.6784
        43.200          42.4004
 106268340.013 8  82806489.60448  20222188.583    20222188.2444   20222188.1214
        50.700          52.9004
 141417042.625 5                  26910772.366
        35.100
 115857053.414 7  90278185.55946  22046867.187    22046866.6424   22046866.8414
        45.200          37.9004
 125164120.024 8                  23817936.760
        50.400
 200867819.902 5                  38223878.934
        33.400
 110652419.871 7                  20685305.376    20685306.673
        45.300
 198905706.896 7                  37850490.495
        43.100
 122634326.973 6  95382193.212 6  22949323.441    22949323.373    22949325.494
        40.600          38.900
 126150976.760 5                  24005731.354
        31.600
 202049482.429 7                  38448739.192
        45.600


 134734024.864 7                  25639002.884
        46.200
 130121508.640 7                  24761284.793
        44.000
 117393241.494 6                  22022657.343    22022653.218
        36.300


 109743844.543 8  85356303.124 7  20522644.061    20522644.852    20522650.230
        48.200          46.200
 108744826.642 7  84579286.365 7  20307322.279    20307322.685    20307325.865
        46.400          46.900
 25  1  1  4 29  0.0000000  0 26G18R01G06G12G11G20E27E03G25G05E34G29
                                E15S35R23S31R15G13S33E08E21E13R14E30
                                R24R08
 133126568.747 6 103735007.43041  25333145.717    25333145.0604   25333147.0744
        36.000           8.6004
 111716168.618 6  86890388.628 6  20898822.952    20898823.308    20898832.700
        41.200          38.800


 119706154.925 6  93277576.67544  22779300.273    22779299.6924   22779299.7954
        41.400          29.3004
 114670082.296 7  89353298.70944  21820988.736    21820988.4234   21820987.1484
        46.700          29.6004
 108233795.848 7  84338004.43444  20596207.279    20596206.1484   20596203.7534
        45.100          29.4004
 131300584.161 6                  24985647.964
        40.500
 136404099.223 6                  25956840.173
        36.600
 114870198.319 7  89509260.53446  21859078.698    21859077.9074   21859081.1094
        43.100          41.6004
 106253245.034 8  82794727.28648  20219316.011    20219315.6764   20219315.7964
        50.700          53.1004
 141446470.499 5                  26916370.520
        34.400
 115816487.373 7  90246575.70446  22039147.865    22039147.3204   22039146.1874
        47.000          38.3004
 125174428.066 8                  23819898.371
        50.800
 200867840.891 5                  38223887.855
        33.300
 110672369.799 7                  20689034.619    20689034.786
        44.100
 198905697.634 7                  37850488.384
        42.900
 122617040.440 7  95368748.199 6  22946090.017    22946090.064    22946092.413
        43.200          39.800
 126100706.423 5                  23996163.316
        30.700
 202049461.220 7                  38448735.798
        45.000


 134725095.327 7                  25637303.417
        45.400
 130103061.999 6                  24757773.841
        40.000
 117425194.658 5                  22028647.216    22028645.734
        34.000


 109718051.749 7  85336242.065 7  20517820.127    20517819.605    20517826.302
        46.000          45.900
 108752849.049 7  84585526.055 7  20308819.884    20308819.883    20308823.322
        45.700          45.800
 25  1  1  4 29 15.0000000  0 27G18R01G06G12G11G20E27E03G25G05E34G29
                                E15S35R23S31R15G13S33R07E08E21E13R14
                                E30R24R08
 133086444.627 6 103703741.94141  25325511.976    25325511.3554   25325511.8954
        38.800           8.9004
 111662411.296 6  86848577.386 6  20888769.826    20888767.331    20888775.561
        40.200          40.300


 119755069.838 6  93315692.18044  22788608.984    22788608.4124   22788607.5754
        41.200          28.2004
 114697081.062 7  89374336.69045  21826126.237    21826125.9294   21826126.3794
        44.600          30.2004
 108255777.263 7  84355132.81945  20600390.072    20600388.9194   20600387.6444
        44.700          31.0004
 131331421.223 6                  24991516.065
        39.900
 136378686.855 5                  25952004.966
        35.300
 114893870.883 7  89527706.68147  21863582.702    21863581.9204   21863586.0814
        44.600          42.0004
 106238286.453 8  82783071.25848  20216468.956    20216468.6084   20216469.7254
        50.900          53.3004
 141475899.473 5                  26921972.143
        35.100
 115775979.402 7  90215011.11346  22031439.022    22031438.4644   22031436.4844
        47.900          39.2004
 125184761.238 8                  23821864.509
        50.200
 200867863.629 5                  38223888.338
        35.500
 110692381.432 7                  20692775.779    20692776.367
        45.200
 198905689.780 7                  37850488.147
        42.600
 122599935.829 7  95355444.641 6  22942888.540    22942891.002    22942890.619
        43.000          39.600
 126050442.741 4                  23986598.252
        28.400
 202049441.291 7                  38448735.020
        45.200
 124269004.333 5                  23214489.725
        30.400
 143988441.939 5                  27400090.160
        35.300
 134716273.516 7                  25635625.249
        43.400
 130084641.912 6                  24754268.702
        36.500
 117457294.441 5                  22034667.951    22034666.286
        32.600


 109692301.757 7  85316214.242 7  20513005.811    20513004.852    20513010.275
        46.200          45.600
 108761077.429 7  84591925.899 7  20310355.931    20310356.212    20310359.445
        44.900          44.300
 25  1  1  4 29 30.0000000  0 27G18R01G06G12G11G20E27E03G25G05E34G29
                                E15S35R23S31R15G13S33R07E08E21E13R14
                                E30R24R08
 133046327.362 6 103672481.95241  25317877.029    25317876.4754   25317878.5364
        36.900           7.3004
 111608770.733 6  86806856.953 6  20878732.934    20878732.339    20878740.099
        38.800          39.300


 119804044.325 6  93353854.13244  22797926.822    22797926.2554   22797926.7454
        37.500          27.5004
 114724118.315 7  89395404.66744  21831271.917    21831271.6184   21831272.3004
        44.600          29.9004
 108277854.204 7  84372335.66645  20604591.938    20604590.7714   20604590.1154
        46.100          33.5004
 131362333.823 6                  24997398.795
        41.200
 136353351.902 5                  25947184.184
        33.900
 114917669.682 7  89546251.17646  21868110.981    21868110.2034   21868114.8334
        45.700          41.8004
 106223461.739 8  82771519.54148  20213648.647    20213648.2994   20213649.2314
        51.300          53.8004
 141505327.723 5                  26927571.261
        35.000
 115735527.803 8  90183490.44146  22023741.224    22023740.6434   22023738.7734
        48.200          40.1004
 125195117.517 8                  23823835.239
        49.200
 200867886.499 5                  38223886.661
        35.100
 110712452.925 8                  20696532.505    20696533.106
        49.400
 198905682.091 7                  37850481.663
        42.600
 122583011.721 6  95342281.418 6  22939720.905    22939720.385    22939724.643
        38.900          40.600
 126000184.053 4                  23977034.703
        29.800
 202049422.552 7                  38448729.703
        45.400
 124322342.630 5                  23224434.068    23224432.382
        30.600
 143944915.699 6                  27391808.451
        37.000
 134707557.520 7                  25633966.567
        43.700
 130066246.460 5                  24750768.852
        35.800
 117489538.468 7                  22040727.934    22040726.381
        45.000


 109666592.934 8  85296218.470 7  20508198.845    20508197.719    20508202.927
        48.100          45.100
 108769509.860 7  84598484.406 7  20311929.813    20311929.726    20311933.250
        45.200          43.200
 25  1  1  4 29 45.0000000  0 26G18R01G06G12G11G20E27E03G25G05E34G29
                                E15S35R23S31R15G13S33E08E21E13R14E30
                                R24R08
 133006216.418 5 103641226.78041  25310246.739    25310246.2214   25310246.7954
        33.900           7.3004
 111555247.404 7  86765227.746 6  20868720.958    20868721.333    20868727.332
        42.300          39.500


 119853077.617 6  93392061.89544  22807256.241    22807255.7094   22807256.5984
        37.300          28.0004
 114751193.551 7  89416502.25344  21836423.400    21836423.1054   21836424.0884
        44.400          29.8004
 108300026.068 7  84389612.48045  20608810.398    20608809.2224   20608810.4644
        47.000          35.6004
 131393321.356 6                  25003294.608
        38.600
 136328094.024 6                  25942377.638
        38.500
 114941593.916 7  89564893.43446  21872662.553    21872661.7804   21872666.5614
        45.000          40.2004
 106208770.998 8  82760072.21648  20210853.224    20210852.8854   20210853.5014
        51.100          53.4004
 141534754.712 5                  26933169.993
        35.500
 115695132.532 8  90152013.65646  22016054.746    22016054.1834   22016052.5504
        48.700          41.7004
 125205496.404 8                  23825810.417
        48.800
 200867907.968 5                  38223903.009
        35.300
 110732583.727 8                  20700293.231    20700294.144
        48.900
 198905673.362 7                  37850481.149
        42.300
 122566267.452 5  95329258.052 6  22936585.203    22936584.342    22936590.367
        32.000          40.400
 125949930.500 5  98142798.2754   23967472.398    23967471.5804   23967474.3254
        31.900           5.3004
 202049401.767 7                  38448725.942
        45.100
 143901384.492 5                  27383525.538
        32.100
 134698946.885 7                  25632326.935
        44.400
 130047874.878 6                  24747272.855
        39.800
 117521925.868 6  91405889.027 6  22046795.146    22046796.890    22046803.772
        38.100          37.500


 109640924.763 8  85276254.336 7  20503398.588    20503398.725    20503403.897
        51.100          45.900
 108778145.386 7  84605200.899 7  20313542.448    20313541.755    20313546.218
        44.600          43.400
 25  1  1  4 30  0.0000000  0 25G18R01G06G12G11G20E27E03G25G05E34G29
                                E15S35R23S31R15G13S33E08E21E13E30R24
                                R08


 111501840.434 7  86723688.986 6  20858729.024    20858729.622    20858737.003
        44.200          38.900


 119902168.082 4  93430314.15543  22816603.850    22816603.3724   22816599.0564
        26.200          23.6004
 114778305.711 7  89437628.61344  21841582.028    21841581.7694   21841582.3284
        44.200          28.7004
 108322291.334 7  84406962.05646  20613047.702    20613046.5224   20613048.1144
        46.600          36.8004
 131424382.578 5                  25009205.896
        34.200
 136302912.511 6                  25937586.551
        38.600
 114965642.353 7  89583632.47246  21877238.451    21877237.7094   21877242.7974
        44.000          39.9004
 106194213.140 8  82748728.43348  20208082.727    20208082.3834   20208082.6474
        51.300          52.7004
 141564179.466 4                  26938767.507
        28.300
 115654792.681 7  90120580.03147  22008377.685    22008377.1094   22008377.9274
        47.600          42.2004
 125215896.891 8                  23827789.270
        48.000
 200867928.325 5                  38223897.589
        35.900
 110752772.912 7                  20704067.232    20704067.312
        47.900
 198905662.567 7                  37850478.028
        42.500
 122549702.201 6  95316373.898 6  22933489.216    22933489.452    22933490.549
        38.200          38.200
 125899681.384 5  98103643.2014   23957911.876    23957911.7694   23957910.6914
        32.700           5.6004
 202049380.100 7                  38448722.593
        46.000
 143857847.479 5                  27375243.349
        32.800
 134690440.706 7                  25630708.865
        46.400
 130029526.331 7                  24743780.810
        42.100


 109615296.325 8  85256321.116 7  20498604.355    20498604.779    20498611.552
        49.000          46.300
 108786983.178 6  84612074.733 7  20315192.839    20315190.183    20315196.990
        41.700          43.800
 25  1  1  4 30 15.0000000  0 28G18R01G06G12G11G20E27E03G25G05E34G29
                                E05E15S35R23R17S31R15G13S33E08E21E13
                                R14E30R24R08


 111448553.396 7  86682243.544 6  20848761.900    20848760.922    20848767.958
        44.900          36.700


 119951213.120 6  93468471.96244  22825954.152    22825953.4464   22825954.5544
        37.700          29.1004
 114805457.452 7  89458785.80044  21846748.345    21846748.0864   21846748.6484
        44.400          28.5004
 108344652.805 7  84424386.59746  20617302.033    20617300.8174   20617303.6724
        45.100          36.5004
 131455519.948 6                  25015130.032
        36.500
 136277810.346 6                  25932808.422
        38.500
 114989817.420 7  89602470.17446  21881838.940    21881838.1584   21881843.2164
        43.000          37.8004
 106179790.733 8  82737490.18648  20205338.129    20205337.7944   20205337.7054
        49.500          51.8004


 115614511.433 7  90089192.04147  22000712.214    22000711.6024   22000713.5974
        46.700          42.2004


 125226321.666 7                  23829772.484
        46.200
 200867949.718 5                  38223892.988
        35.300
 110773023.399 7                  20707852.917    20707851.038
        45.800


 198905654.072 7                  37850484.588
        43.200
 122533318.873 6  95303631.279 6  22930420.777    22930419.688    22930425.399
        40.300          36.600
 125849439.820 6  98064493.9694   23948349.850    23948349.9344   23948350.0274
        36.000           3.6004
 202049359.337 7                  38448719.396
        45.100
 143814307.398 4                  27366968.683
        25.600
 134682041.779 7                  25629110.008
        44.800
 130011203.541 7                  24740294.564
        44.300
 117587006.141 6  91456602.051 6  22059022.749    22059025.526    22059035.677
        36.200          38.200


 109589710.745 8  85236421.215 7  20493821.134    20493819.610    20493826.330
        49.100          45.600
 108796025.832 7  84619107.841 7  20316882.297    20316881.427    20316884.920
        47.100          44.100
 25  1  1  4 30 30.0000000  0 28G18R01G06G12G11G20E27E03G25G05E34G29
                                E05E15S35R23S31R15G13S33R07E08E21E13
                                R14E30R24R08
 132885940.058 6                  25287352.040
        36.300
 111395387.001 7  86640892.135 5  20838815.726    20838814.746    20838820.262
        45.700          34.400


 120000423.035 5  93506817.28444  22835315.521    22835314.8824   22835317.8944
        35.200          28.6004
 114832649.064 7  89479974.04644  21851922.677    21851922.4364   21851922.6474
        44.800          28.5004
 108367110.475 7  84441886.10145  20621576.738    20621575.5224   20621576.6474
        44.700          35.6004
 131486733.694 5                  25021067.943
        33.300
 136252787.941 6                  25928046.643
        40.100
 115014119.182 7  89621406.60746  21886464.738    21886463.8804   21886467.3524
        43.000          38.5004
 106165504.297 8  82726357.91548  20202619.413    20202619.0694   20202618.6554
        48.500          50.3004


 115574289.424 8  90057850.20547  21993058.071    21993057.4374   21993059.5974
        48.200          43.1004


 125236770.966 7                  23831761.266
        45.600
 200867972.189 6                  38223896.829
        36.800
 110793335.359 7                  20711649.730    20711648.747
        45.700
 198905646.149 6                  37850473.615
        40.600
 122517118.058 6  95291030.730 5  22927389.562    22927388.241    22927393.420
        40.300          32.800
 125799206.750 4  98025351.4284   23938789.069    23938788.7884   23938790.9454
        26.000           2.2004
 202049340.628 7                  38448714.495
        44.700
                                                  23264486.945

 143770765.119 5                  27358679.721
        35.700
 134673750.484 7                  25627532.699
        43.700
 129992906.671 7                  24736812.358
        46.500
 117619823.535 7  91482126.816 5  22065183.647    22065181.913    22065191.308
        42.500          35.200


 109564168.375 8  85216554.950 7  20489044.856    20489045.134    20489050.597
        50.300          46.300
 108805273.599 8  84626300.502 7  20318608.621    20318609.884    20318613.815
        48.900          46.500
 25  1  1  4 30 45.0000000  0 26G18R01G06G12G11G20E27E03G25G05E34G29
                                E05E15S35R23S31S33R07E08E21E13R14E30
                                R24R08
 132845859.353 6 103516254.28541  25279726.982    25279727.0894   25279727.6404
        38.200          10.7004
 111342342.135 7  86599635.072 5  20828892.307    20828891.326    20828900.039
        45.300          35.800


 120049692.169 6  93545208.87045  22844696.703    22844696.6544   22844693.0984
        41.100          33.2004
 114859880.506 6  89501193.35644  21857104.205    21857103.9464   21857105.4094
        41.400          26.0004
 108389664.324 7  84459460.54046  20625868.355    20625867.1354   20625868.4524
        44.900          36.2004
 131518023.636 5                  25027023.370
        34.800
 136227845.692 6                  25923298.814
        39.600
 115038547.406 7  89640441.57746  21891114.499    21891113.5834   21891115.4024
        44.100          38.4004
 106151354.091 8  82715331.80348  20199926.909    20199926.5654   20199925.7054
        50.600          51.0004


 115534126.919 7  90026554.75247  21985415.211    21985414.5634   21985416.8034
        47.600          44.1004
 135228240.666 4                  25733078.311
        28.700
 125247244.930 7                  23833754.736
        45.600
 200867996.714 6                  38223895.094
        38.800
 110813709.323 7                  20715457.808    20715458.028
        46.600
 198905639.638 7                  37850483.296
        42.900
 202049322.699 7                  38448715.340
        44.800
 124590448.926 4                  23274540.976
        27.600
 143727221.286 5                  27350381.846
        34.700
 134665566.977 7                  25625975.420
        43.000
 129974635.881 7                  24733336.043
        47.500
 117652784.419 7                  22071370.361    22071371.940
        45.100


 109538669.301 8  85196722.327 7  20484274.353    20484275.755    20484281.705
        49.300          44.200
 108814726.293 8  84633652.589 7  20320374.428    20320375.106    20320379.766
        50.000          47.300
 25  1  1  4 31  0.0000000  0 27G18R01G06G12G11G20E27E03G25G05E34G29
                                E05E15S35R23S31R15G13S33E08E21E13R14
                                E30R24R08
 132805782.615 5 103485025.97141  25272099.667    25272099.9664   25272102.4914
        35.400          11.3004
 111289414.411 7  86558469.084 6  20818991.635    20818991.243    20818997.613
        45.600          38.200


 120099015.854 7  93583642.87945  22854081.234    22854081.2384   22854078.9094
        42.000          34.3004
 114887147.360 7  89522440.20744  21862294.546    21862294.2964   21862294.5214
        43.900          28.2004
 108412309.381 7  84477106.04445  20630177.332    20630176.0944   20630177.5494
        45.700          34.9004
 131549385.089 5                  25032990.591
        32.400
 136202979.347 6                  25918567.310
        41.800
 115063097.351 7  89659571.41846  21895785.495    21895784.5564   21895787.4344
        42.000          39.3004
 106137335.491 8  82704408.22948  20197258.608    20197258.2604   20197258.3064
        50.000          51.1004


 115494019.769 7  89995302.42647  21977783.723    21977783.0844   21977785.1564
        45.200          43.2004
 135237969.969 5                  25734929.650
        32.400
 125257739.006 7                  23835751.698
        44.600


 110834140.674 7                  20719276.684    20719276.409
        45.900
 198905630.613 6                  37850474.876
        40.800
 122485322.193 5  95266238.279 6  22921441.656    22921438.282    22921433.172
        34.700          36.900
 125698757.823 5                  23919677.356
        30.800
 202049302.124 7                  38448701.013
        45.700
 143683671.346 5                  27342093.090
        32.400
 134657486.838 7                  25624438.303
        44.200
 129956386.603 7                  24729863.194
        47.300
 117685883.963 7                  22077580.078    22077581.217
        44.900


 109513209.172 7  85176920.049 7  20479513.105    20479513.025    20479518.904
        47.300          42.200
 108824379.301 8  84641160.447 7  20322177.611    20322178.239    20322181.181
        49.900          47.200
 25  1  1  4 31 15.0000000  0 28G18R01G06G12G11G20E27E03G25G05E34G29
                                E05E15R22S35R23R17S31G13S33E08E21E13
                                R14E30R24R08
 132765712.615 5 103453802.36842  25264476.610    25264476.7174   25264478.3614
        32.000          14.3004
 111236607.379 7  86517396.967 6  20809112.447    20809112.360    20809120.657
        44.900          38.500


 120148396.228 6  93622121.05345  22863476.159    22863476.1674   22863475.6704
        39.400          32.2004
 114914452.140 7  89543716.68344  21867490.617    21867490.3634   21867490.3324
        44.000          28.5004
 108435048.202 7  84494824.60645  20634504.985    20634503.7654   20634504.3584
        45.400          34.9004
 131580820.612 5                  25038972.020
        33.800
 136178191.625 6                  25913849.385
        40.100
 115087771.449 7  89678797.99146  21900480.523    21900479.6254   21900483.8504
        43.600          40.9004
 106123451.167 8  82693589.28048  20194616.995    20194616.6384   20194616.4054
        51.100          51.8004
 141711312.109 5                  26966766.739
        34.200
 115453970.755 7  89964095.39047  21970162.825    21970162.1954   21970164.1294
        46.400          45.9004


 125268255.826 7                  23837753.015
        44.900
 128348378.796 5                  24043968.597
        31.400


 110854631.965 8                  20723111.002    20723111.488
        48.100
 129201127.901 5                  24144319.580    24144317.079
        34.600
 198905621.017 7                  37850476.056
        42.000
 125648546.066 5                  23910123.081
        31.200
 202049280.503 7                  38448708.968
        46.300
 143640118.150 5                  27333813.055
        32.400
 134649512.742 7                  25622920.119
        43.800
 129938161.433 7                  24726396.099
        47.400
 117719124.323 6                  22083816.688    22083816.157
        41.900


 109487791.147 8  85157150.489 6  20474762.240    20474761.318    20474763.812
        48.900          39.600
 108834235.140 8  84648826.129 7  20324016.837    20324017.596    20324021.008
        49.400          45.900
 25  1  1  4 31 30.0000000  0 27G18R01G06G12G11G20E27E03G25G05E34G29
                                E05E15S35R23S31R15G13S33E08E21E13R14
                                E30R24R08
 132725647.525 5                  25256860.305
        33.800
 111183919.746 7  86476417.711 6  20799255.687    20799256.041    20799262.867
        45.800          39.200


 120197831.091 6  93660641.70545  22872884.382    22872884.4084   22872882.4534
        40.500          32.2004
 114941793.310 7  89565021.48644  21872692.499    21872692.2224   21872692.7124
        45.500          26.8004
 108457878.970 7  84512614.82645  20638849.011    20638847.8224   20638848.2674
        47.200          33.4004
 131612328.286 6                  25044969.193
        37.800
 136153481.346 6                  25909149.234
        40.000
 115112567.804 7  89698119.84946  21905197.914    21905197.0294   21905202.9014
        42.000          38.4004
 106109699.404 8  82682873.63548  20192000.334    20191999.9684   20192000.1084
        50.000          52.5004
 141740732.415 6                  26972364.567
        37.500
 115413978.762 8  89932932.79447  21962552.123    21962551.5154   21962553.7994
        48.200          45.3004


 125278793.792 7                  23839757.660
        44.100


 110875182.134 7                  20726951.024    20726951.883
        47.500
 198905609.009 6                  37850474.652
        41.200
                  95242020.030 6                  22915599.716    22915606.035
                        40.600
 125598340.813 5                  23900570.526
        34.100
 202049258.221 7                  38448696.837
        44.500
 143596560.390 4                  27325530.917
        28.800
 134641643.242 7                  25621422.799
        46.200
 129919958.844 8                  24722931.915
        48.500
 117752503.336 7  91585316.936 6  22090082.267    22090080.636    22090081.612
        43.200          40.200


 109462413.235 8  85137412.132 6  20470016.185    20470016.274    20470019.022
        51.100          40.500
 108844292.397 8  84656648.394 7  20325894.275    20325894.881    20325899.277
        48.000          46.900
 25  1  1  4 31 45.0000000  0 27G18R01G06G12G11G20E27E03G25G05E34G29
                                E05E15S35R23S31R15S33R07E08E21E13R14
                                E30R24R08
 132685595.604 4                  25249231.890
        28.700
 111131360.170 7  86435538.085 6  20789422.607    20789422.643    20789431.191
        44.000          39.600


 120247328.250 5  93699210.89845  22882301.601    22882301.6324   22882301.5594
        35.500          30.5004
 114969178.558 6  89586360.64444  21877902.217    21877901.8824   21877903.4094
        41.100          25.2004
 108480809.415 7  84530482.72445  20643212.180    20643210.9784   20643212.1734
        47.100          32.8004
 131643915.998 5                  25050978.869
        35.000
 136128856.430 6                  25904460.481
        39.900
 115137493.950 6  89717542.83546  21909941.484    21909940.5634   21909946.0624
        38.800          36.0004
 106096087.662 8  82672267.10348  20189410.089    20189409.7364   20189410.0144
        51.500          52.4004
 141770158.218 6                  26977964.722
        38.700
 115374052.043 8  89901821.06547  21954955.140    21954954.5194   21954955.0634
        49.300          45.1004


 125289360.698 7                  23841768.911
        46.500


 110895798.906 7                  20730803.864    20730804.020
        45.000
 198905603.775 6                  37850469.326
        41.600
 122438714.232 7  95230126.803 6  22912741.151    22912738.772    22912742.408
        42.200          36.300
 202049241.305 7                  38448698.098
        45.300
 124806880.499 5                  23314976.340
        32.000
 143553006.421 5                  27317240.268
        32.300
 134633886.272 7                  25619946.116
        46.000
 129901786.615 7                  24719473.647
        45.800
 117786028.894 6  91611392.364 6  22096366.714                    22096369.835
        38.500          39.900


 109437083.977 8  85117711.683 7  20465278.744    20465279.412    20465284.898
        52.600          44.500
 108854558.620 8  84664633.243 7  20327811.771    20327812.434    20327817.389
        48.100          47.700
 25  1  1  4 32  0.0000000  0 26R01G06G12G11G20E27E03G25G05E34G29E05
                                E15S35R23S31R15S33R07E08E21E13R14E30
                                R24R08
 111078923.374 6  86394753.904 6  20779613.262    20779612.386    20779620.992
        41.900          39.600


 120296881.773 6  93737824.02244  22891733.874    22891733.8344   22891731.8534
        38.300          27.7004
 114996602.240 5  89607729.74643  21883121.305    21883120.9974   21883122.6114
        31.300          23.7004
 108503833.443 7  84548423.51845  20647593.101    20647591.8994   20647593.0394
        45.600          30.6004
 131675577.555 5                  25057010.690
        34.200
 136104311.499 6                  25899790.885
        38.100
 115162543.914 7  89737062.31846  21914706.791    21914705.9374   21914712.3254
        42.300          36.2004
 106082611.079 8  82661765.88748  20186845.218    20186844.8704   20186845.0204
        50.800          52.1004
 141799583.774 6                  26983563.608
        36.600
 115334185.298 8  89870756.09447  21947368.030    21947367.4184   21947366.7244
        49.200          45.6004


 125299950.845 7                  23843783.345
        46.100
 200868108.261 5                  38223925.649
        33.800
 110916476.253 7                  20734668.591    20734668.933
        45.200
 198905598.759 7                  37850467.967
        42.300
 122423604.978 6  95218375.208 6  22909909.336    22909908.199    22909913.454
        40.900          36.100
 202049225.012 7                  38448688.032
        43.700
 124861231.966 5                  23325129.098    23325128.756
        35.000
 143509450.344 5                  27308956.604
        31.000
 134626236.093 7                  25618491.050
        46.600
 129883638.989 7                  24716020.220
        46.500
 117819694.712 6  91637576.481 6  22102696.648    22102696.676    22102683.825
        38.100          40.300


 109411797.531 8  85098044.439 7  20460550.766    20460550.962    20460555.692
        51.900          45.400
 108865028.036 8  84672776.143 7  20329766.821    20329767.526    20329772.016
        48.900          47.300
