     2.11           OBSERVATION DATA    M (MIXED)           RINEX VERSION / TYPE
teqc  2019Feb25                         20260317 16:18:01UTCPGM / RUN BY / DATE
Linux 2.4.21-27.ELsmp|Opteron|gcc -static|Linux 64|=+       COMMENT
BIT 2 OF LLI FLAGS DATA COLLECTED UNDER A/S CONDITION       COMMENT
-Unknown-                                                   MARKER NAME
-Unknown-           -Unknown-                               OBSERVER / AGENCY
-Unknown-           -Unknown-           -Unknown-           REC # / TYPE / VERS
-Unknown-           -Unknown-                               ANT # / TYPE
        0.0000        0.0000        0.0000                  APPROX POSITION XYZ
        0.0000        0.0000        0.0000                  ANTENNA: DELTA H/E/N
     1     1                                                WAVELENGTH FACT L1/2
     7    L1    L2    C1    P1    P2    S1    S2            # / TYPES OF OBSERV
 SNR is mapped to RINEX snr flag value [0-9]                COMMENT
  L1 & L2: min(max(int(snr_dBHz/6), 0), 9)                  COMMENT
  2025     1     1    17     0    0.0000000     GPS         TIME OF FIRST OBS
    18                                                      LEAP SECONDS
                                                            END OF HEADER
 25  1  1 17  0  0.0000000  0 27R17E31G07G26E29G08G16G27G04G03R18R06
                                R10E09G09E04R07R09E21S35S31G31E06S33
                                R08E19R16
 128320577.466 5                  23979744.624
        32.300
 137412773.028 5                  26148782.744
        33.800
 124956870.119 6  97369004.69542  23778495.776    23778495.9364   23778494.5604
        38.800          15.8004
 117657845.095 6  91681451.05543  22389542.615    22389542.9104   22389555.4214
        37.600          19.6004


 122191327.063 6  95214045.20944  23252215.964    23252215.4324   23252230.6264
        40.300          27.3004
 106421442.181 6  82925619.65344  20251271.364    20251270.6094   20251271.7054
        40.300          29.7004
 115468899.167 6  89975807.99145  21973001.357    21973001.0004   21973010.2594
        39.200          34.6004
 104952564.217 8  81781222.64747  19971795.059    19971794.7204   19971797.3784
        52.400          44.4004
 122894739.750 7  95762170.01643  23386113.711    23386113.7154   23386126.8084
        43.200          23.9004
 125990370.147 5  97992592.543 5  23602239.742                    23602254.875
        34.200          30.400
 109025479.050 5                  20431326.911    20431326.601
        32.400
 113689647.486 6                  21327874.850    21327873.682
        37.800


 109944925.934 7  85671368.55046  20921828.581    20921828.1434   20921831.7124
        46.300          41.9004
 124128499.074 8                  23620849.080
        48.100
 103564943.693 8  80550547.202 8  19346802.198    19346801.923    19346806.305
        53.400          48.300
 103802553.704 8  80735335.123 8  19438870.999    19438871.028    19438876.635
        52.200          50.100
 131123917.218 5                  24952059.585
        32.300


 198904618.901 7                  37850302.110
        42.900
 124110005.188 4  96709143.30242  23617351.863    23617352.1174   23617362.3314
        28.200          15.3004
 131814038.066 7                  25083381.026
        44.500
 202040052.341 7                  38446964.315
        44.000
 119717943.836 5  93113963.717 6  22356485.152    22356487.501    22356483.634
        35.700          38.800
 126157570.663 7                  24006992.806
        42.100
 115655806.792 7  89954508.261 6  21650986.301    21650987.364    21650992.386
        44.300          40.600
 25  1  1 17  0 15.0000000  0 26E31G07G26E29G08G16G27G04G03R18R06R10
                                E09G09E04R07R09E21S35S31G31E06S33R08
                                E19R16
 137374076.692 5                  26141415.933
        32.400
 124923239.923 5  97342799.36842  23772096.509    23772096.7684   23772094.8674
        35.800          12.9004
 117704095.158 6  91717490.12343  22398343.072    22398343.2774   22398358.5834
        37.200          20.9004


 122136887.445 6  95171624.96544  23241855.312    23241854.7494   23241871.1784
        41.300          27.9004
 106444584.389 7  82943652.56245  20255675.036    20255674.2584   20255675.7084
        42.600          30.3004
 115429847.915 6  89945378.51645  21965571.630    21965571.3314   21965579.8454
        37.100          34.3004
 104947447.638 8  81777235.69047  19970821.233    19970820.8894   19970823.6514
        51.400          43.8004
 122945435.033 7  95801672.67244  23395760.205    23395760.2054   23395773.0734
        42.500          28.9004
 125957470.273 5                  23596079.116    23596077.738
        34.100
 109073714.464 5                  20440363.505    20440366.514
        31.300
 113654273.108 6                  21321240.429    21321238.541
        37.900
 143534183.701 4                  27313633.493
        28.500
 109914134.143 7  85647374.97546  20915968.668    20915968.1994   20915970.9584
        47.800          41.2004
 124112533.628 8                  23617810.839
        48.200
 103554346.563 8  80542305.003 7  19344821.018    19344821.755    19344826.029
        52.800          47.800
 103805282.110 8  80737457.213 8  19439381.773    19439382.005    19439387.245
        52.500          49.700
 131153496.751 5                  24957689.636
        32.600


 198904613.782 7                  37850303.380
        42.400
 124150875.428 6  96740990.06443  23625129.544    23625130.1384   23625139.1714
        38.000          19.8004
 131782264.434 7                  25077335.262
        44.600
 202040067.350 7                  38446963.949
        45.000
 119660830.421 5  93069542.191 6  22345809.769    22345814.346    22345817.678
        35.200          36.200
 126184525.821 7                  24012122.867
        43.000
 115702150.727 7  89990553.353 6  21659663.287    21659662.093    21659667.799
        44.300          39.100
 25  1  1 17  0 30.0000000  0 26E31G07G26E29G08G16G27G04G03R18R06R10
                                E09G09E04R07R09E21S35S31G31E06S33R08
                                E19R16
 137335424.072 4                  26134062.255
        29.500
 124889615.489 6  97316598.42842  23765701.091    23765701.3414   23765696.2714
        39.900          15.4004
 117750390.295 6  91753564.31043  22407151.448    22407151.5824   22407166.4954
        36.800          19.1004


 122082471.984 6  95129223.54444  23231500.341    23231499.7964   23231514.7484
        38.400          26.3004
 106467854.430 6  82961785.01945  20260104.574    20260103.7524   20260104.2424
        39.600          30.3004
 115390899.810 6  89915029.40044  21958159.446    21958159.0754   21958166.8834
        36.400          29.5004
 104942459.511 8  81773348.81147  19969872.657    19969872.3134   19969874.2954
        51.100          43.8004
 122996156.583 6  95841195.63844  23405411.788    23405411.7754   23405424.1354
        40.300          27.1004
 125924694.653 5                  23589932.981    23589934.046
        34.100
 109122086.661 4                  20449429.217    20449429.809
        29.900
 113618988.196 6                  21314618.790    21314618.908
        36.700
 143494212.398 4                  27306027.063
        26.100
 109883443.803 7  85623460.40046  20910129.097    20910128.6554   20910130.1294
        47.700          41.1004
 124096636.782 8                  23614786.173
        49.200
 103543944.661 9  80534214.619 8  19342878.367    19342879.407    19342884.111
        54.100          48.300
 103808112.823 8  80739658.896 8  19439912.145    19439912.009    19439917.383
        51.100          49.400
 131183125.050 5                  24963319.546
        35.800


 198904607.575 7                  37850310.530
        43.900
 124191760.472 5  96772848.48942  23632903.878    23632904.0924   23632917.6884
        34.600          17.7004
 131750530.399 7                  25071295.298
        44.900
 202040081.882 7                  38446971.206
        46.000
 119603794.536 6  93025180.988 6  22335168.190    22335169.564    22335169.403
        40.000          39.200
 126211548.372 7                  24017264.792
        43.500
 115748514.662 7  90026614.096 6  21668341.225    21668340.104    21668348.452
        43.600          38.600
 25  1  1 17  0 45.0000000  0 24E31G07G26G08G16G27G04G03R18R10E09G09
                                E04R07R09E21S35S31G31E06S33R08E19R16
 137296819.962 5                  26126719.476
        35.200
 124856001.375 6  97290405.72741  23759302.461    23759302.6394   23759300.4154
        38.300          10.9004
 117796735.106 6  91789677.09143  22415969.189    22415969.2424   22415983.6984
        36.900          19.6004
 122028085.710 6  95086844.90143  23221151.425    23221150.9474   23221163.2994
        37.100          23.6004
 106491256.802 6  82980020.63845  20264558.035    20264557.2044   20264558.1974
        40.500          30.7004


 104937604.702 8  81769565.81647  19968948.976    19968948.6374   19968950.1224
        50.900          43.1004
 123046908.632 6  95880742.41944  23415068.381    23415068.3504   23415083.1134
        38.500          27.8004
 125892048.699 5                  23583822.202    23583821.695
        35.800
 113583797.127 6                  21308015.233    21308013.346
        38.000
 143454255.158 5                  27298430.037
        31.500
 109852860.081 8  85599628.94847  20904309.064    20904308.6354   20904311.0454
        48.100          42.4004
 124080813.466 8                  23611775.101
        49.100
 103533742.735 8  80526279.792 8  19340971.700    19340972.421    19340977.813
        52.800          48.100
 103811050.116 8  80741943.446 8  19440461.986    19440461.844    19440466.704
        50.700          49.000
 131212806.582 6                  24968969.198
        37.000


 198904604.772 7                  37850310.356
        45.000
 124232664.740 6  96804721.81342  23640688.779    23640689.0154   23640700.9194
        37.800          16.3004
 131718840.725 7                  25065264.676
        45.400
 202040098.857 7                  38446970.039
        44.400
                  92980884.098 7                                  22324535.742
                        43.200
 126238643.199 7                  24022420.771
        44.400
 115794902.643 7  90062693.602 6  21677025.229    21677025.596    21677033.689
        46.000          40.300
 25  1  1 17  1  0.0000000  0 23E31G07G26G08G16G27G04G03R10E09G09E04
                                R07R09E21S35S31G31E06S33R08E19R16
 137258259.206 6                  26119379.106
        39.700
 124822393.380 5  97264168.91742  23752907.726    23752907.7574   23752903.3924
        32.200          15.8004
 117843123.820 5  91825824.01843  22424798.095    22424798.1174   22424810.1584
        34.800          20.8004
 121973723.845 6  95044485.26843  23210806.610    23210806.2134   23210815.6434
        38.600          21.2004
 106514785.604 7  82998354.72544  20269033.668    20269032.8414   20269035.8034
        42.300          29.7004
 115313315.668 5  89854562.54144  21943396.773    21943396.7204   21943402.2114
        34.600          25.4004
 104932878.088 8  81765882.72846  19968049.198    19968048.8594   19968050.2534
        50.100          41.2004
 123097685.452 6  95920308.48643  23424729.927    23424729.8834   23424746.7194
        37.100          22.7004
 113548694.727 6                  21301432.079    21301431.038
        40.500
 143414307.137 4                  27290832.512
        29.200
 109822377.823 8  85575876.54447  20898508.893    20898508.4694   20898510.4344
        48.500          42.7004
 124065058.406 8                  23608776.402
        48.600
 103523735.720 8  80518496.537 7  19339102.425    19339103.176    19339108.125
        52.200          47.200
 103814088.732 8  80744306.822 8  19441031.062    19441031.296    19441036.425
        51.500          49.100
 131242535.773 4                  24974631.513
        28.700


 198904599.502 6                  37850311.621
        41.200
 124273583.400 6  96836606.41342  23648477.960    23648478.2554   23648485.6564
        40.600          16.4004
 131687190.417 7                  25059241.997
        44.500
 202040114.386 7                  38446971.474
        43.700
 119489968.006 6  92936647.974 7  22313915.776    22313915.065    22313914.789
        37.000          42.000
 126265805.033 7                  24027589.101
        43.800
 115841309.692 8  90098787.849 6  21685715.754    21685716.243    21685721.582
        49.000          41.600
 25  1  1 17  1 15.0000000  0 26E31G07G26E29G08G16G27G04G03R18R06R10
                                E09G09E04R07R09E21S35S31G31E06S33R08
                                E19R16
 137219743.489 6                  26112049.754
        38.700
 124788790.821 6  97237985.26041  23746513.751    23746513.4384   23746505.1174
        37.200          11.7004
 117889557.586 6  91862006.19843  22433634.845    22433634.8534   22433643.1824
        40.000          22.3004


 121919388.201 5  95002145.99543  23200461.860    23200461.4404   23200475.6954
        34.400          18.0004
 106538441.988 6  83016788.27544  20273536.035    20273535.2224   20273537.3634
        41.500          29.1004
 115274685.494 6  89824486.38644  21936043.003    21936043.0164   21936054.6784
        37.000          27.1004
 104928281.165 8  81762300.71646  19967174.111    19967173.7724   19967175.2864
        51.200          40.9004
 123148487.272 5  95959893.90643  23434398.855    23434398.7534   23434414.7964
        35.100          18.9004
 125827132.611 4                  23571653.004    23571654.388
        29.700
 109268046.612 5                  20476778.378    20476782.496
        30.800
 113513682.340 7                  21294865.422    21294864.437
        42.700
 143374369.921 5                  27283226.989
        30.000
 109791998.809 8  85552204.60647  20892728.298    20892727.8874   20892729.2934
        48.900          44.5004
 124049373.295 8                  23605791.417
        49.100
 103513925.453 8  80510866.340 7  19337269.310    19337269.931    19337275.547
        53.300          46.900
 103817229.683 8  80746749.757 8  19441620.340    19441620.656    19441624.081
        50.600          49.300
 131272357.682 5                  24980295.850
        31.900


 198904594.675 6                  37850311.500
        41.200
 124314517.529 6  96868502.96642  23656267.490    23656267.7714   23656273.1704
        36.300          17.2004
 131655581.017 7                  25053226.936
        45.700
 202040129.483 7                  38446974.533
        42.500
 119433173.254 7  92892474.172 6  22303309.386    22303311.838    22303308.060
        42.700          39.700
 126293035.102 7                  24032770.610
        43.300
 115887736.450 7  90134897.554 6  21694406.457    21694406.627    21694411.743
        47.000          39.400
 25  1  1 17  1 30.0000000  0 24E31G07G26G08G16G27G04G03R18R06R10E09
                                G09E04R07R09E21S35S31G31E06S33E19R16
 137181274.478 6                  26104729.641
        37.900
 124755196.228 6  97211807.69343  23740122.508    23740122.2894   23740119.6364
        40.900          21.3004


 121865079.660 6  94959735.77143  23190132.099    23190131.4064   23190140.2964
        36.100          18.5004
 106562227.435 7  83035322.39945  20278062.908    20278062.1084   20278062.2474
        46.400          31.3004


 104923815.850 8  81758821.22846  19966324.482    19966324.1474   19966326.2594
        50.100          41.5004
 123199437.156 6  95999636.22743  23444071.127    23444070.9444   23444089.8804
        36.700          18.2004
 125794866.673 5                  23565611.019    23565610.293
        30.500
 109316970.322 4                  20485953.464    20485951.545
        27.100
 113478761.895 6                  21288312.865    21288313.358
        40.000
 143334444.235 5                  27275641.247
        30.800
 109761725.034 8  85528614.64347  20886967.156    20886966.7324   20886969.5124
        48.600          47.4004
 124033759.957 8                  23602820.936
        49.200
 103504313.665 8  80503390.497 8  19335473.449    19335473.059    19335481.080
        50.300          49.000
 103820474.735 8  80749273.723 8  19442227.483    19442227.929    19442232.020
        51.800          49.200
 131302186.986 6                  24985966.829
        37.200


 198904590.744 7                  37850298.689
        42.500
 124355468.944 6  96900412.97043  23664059.183    23664059.4374   23664063.2064
        40.500          18.0004
 131624014.449 7                  25047220.500
        46.300
 202040145.583 7                  38446981.674
        43.500
 126320335.221 6                  24037965.579
        41.800
 115934185.024 7  90171024.362 6  21703099.628    21703100.052    21703107.076
        46.300          38.800
 25  1  1 17  1 45.0000000  0 24E31G07G26G08G16G27G04G03R18R10E09G09
                                E04R07R09E21S35S31G31E06S33R08E19R16
 137142850.735 6                  26097418.380
        41.500
 124721608.240 7  97185635.29743  23733728.766    23733728.8824   23733736.0644
        43.800          22.9004


 121810799.312 5  94917439.57743  23179800.461    23179799.9744   23179814.3984
        34.000          21.2004
 106586140.359 7  83053955.82944  20282612.196    20282611.3834   20282611.1444
        43.600          27.1004


 104919480.733 8  81755443.18246  19965499.143    19965498.8224   19965501.6564
        50.500          41.8004
 123250292.274 6  96039263.36743  23453750.174    23453750.4734   23453763.2164
        36.500          20.0004
                                                  23559586.355

 113443931.868 6                  21281776.807    21281777.519
        38.000
 143294529.892 5                  27268030.677
        30.800
 109731555.255 7  85505105.70447  20881225.576    20881225.1704   20881229.0404
        47.500          46.9004
 124018217.015 8                  23599862.906
        48.600
 103494898.936 8  80496067.955 8  19333715.430    19333715.381    19333722.315
        50.800          48.700
 103823821.859 8  80751877.054 8  19442853.046    19442853.567    19442858.785
        50.600          48.100
 131332065.383 5                  24991651.700
        35.700
 200842601.655 6                  38219077.614
        37.800
 198904586.587 6                  37850302.548
        39.900
 124396435.850 6  96932335.06042  23671855.207    23671855.4124   23671858.6124
        37.000          15.7004
 131592489.362 7                  25041221.299
        46.000
 202040162.141 7                  38446991.082
        42.200
                  92804317.524 6                                  22282138.871
                        38.000
 126347703.602 6                  24043173.604
        38.600
 115980652.728 7  90207165.962 6  21711800.666    21711798.990    21711807.065
        45.200          39.500
 25  1  1 17  2  0.0000000  0 24E31G07G26G08G16G27G04G03R18R10E09G09
                                E04R07R09E21S35S31G31E06S33R08E19R16
 137104471.073 6                  26090113.905
        40.600
 124688025.833 7  97159467.14744  23727337.486    23727337.6694   23727349.5184
        42.400          25.2004


 121756545.091 6  94875163.82443  23169478.413    23169478.0834   23169491.7694
        36.400          21.5004
 106610178.900 7  83072687.16144  20287188.039    20287187.2124   20287185.7934
        43.800          27.2004


 104915274.671 8  81752165.69646  19964698.646    19964698.3164   19964701.2134
        50.600          40.9004
 123301171.029 6  96078908.87642  23463436.758    23463436.6384   23463443.7964
        36.700          15.8004
 125730716.974 5  97790588.292 5  23553597.501    23553596.863    23553607.132
        33.000          31.300
 113409190.517 6                  21275259.921    21275260.017
        37.600


 109701488.450 7  85481677.00147  20875504.224    20875503.8224   20875507.7514
        47.600          47.8004
 124002743.315 8                  23596918.493
        49.400
 103485680.494 8  80488898.014 8  19331993.182    19331993.730    19332000.379
        51.000          48.700
 103827269.601 8  80754558.608 8  19443500.508    19443500.629    19443504.492
        52.400          49.000
 131361991.261 6                  24997347.385
        37.300
 200842562.847 6                  38219079.836
        37.700
 198904580.930 7                  37850304.279
        44.300
 124437417.029 5  96964268.26341  23679653.403    23679653.4294   23679656.3624
        33.100          11.7004
 131561004.617 7                  25035230.534
        46.800
 202040176.486 7                  38446995.250
        44.900
 119263303.205 5  92760333.168 6  22271578.465    22271581.481    22271580.699
        32.800          40.500
 126375139.034 6                  24048394.944
        37.800
 116027138.025 7  90243320.957 6  21720499.823    21720499.927    21720506.875
        42.200          37.100
 25  1  1 17  2 15.0000000  0 24E31G07G26G08G16G27G04G03R18R10E09G09
                                E04R07R09E21S35S31G31E06S33R08E19R16
 137066135.449 6                  26082818.359
        39.800
 124654448.623 7  97133302.86042  23720948.440    23720948.5924   23720956.0324
        42.300          17.7004
 118075741.548 4  92007104.51042  22469063.287    22469063.2914   22469070.1174
        29.100          13.8004
 121702317.478 6  94832908.74743  23159158.627    23159158.0694   23159171.2874
        38.600          19.1004
 106634342.606 7  83091515.97343  20291785.538    20291784.7204   20291784.5614
        44.600          23.6004


 104911197.556 8  81748988.69946  19963923.414    19963923.0844   19963925.0744
        50.400          41.8004
 123352072.578 5  96118572.12342  23473118.165    23473118.0894   23473129.4874
        30.300          14.4004
 125698833.651 5                  23547620.523    23547617.789
        31.300
 113374538.359 5                  21268760.712    21268758.086
        35.100
 143214698.268 5                  27252849.562
        31.800
 109671524.690 8  85458328.57947  20869802.714    20869802.3084   20869805.2024
        48.600          46.6004
 123987338.805 8                  23593986.961
        48.500
 103476658.014 8  80481880.494 7  19330308.209    19330308.751    19330313.906
        51.500          47.900
 103830817.485 8  80757318.096 8  19444162.639    19444162.921    19444169.396
        49.700          48.600
 131391964.230 5                  25003046.318
        31.600


 198904573.227 6                  37850295.555
        40.500
 124478412.425 6  96996212.63842  23687453.942    23687453.9914   23687457.4964
        39.200          13.2004
 131529560.175 8                  25029246.683
        48.000
 202040189.500 7                  38446986.776
        45.400
 119206833.347 5  92716411.334 6  22261046.013    22261027.298    22261033.675
        34.300          39.300
 126402641.362 6                  24053628.397
        41.200
 116073640.733 6  90279489.627 6  21729207.364    21729204.968    21729212.570
        40.400          38.500
 25  1  1 17  2 30.0000000  0 24E31G07G26G08G16G27G04G03R18R10E09G09
                                E04R07R09E21S35S31G31E06S33R08E19R16
 137027848.683 6                  26075532.814
        39.500
 124620881.291 6  97107146.47144  23714560.181    23714560.2434   23714564.0804
        37.600          24.5004
 118122407.553 6  92043461.44842  22477943.341    22477943.2074   22477953.2914
        39.100          14.2004
 121648121.380 6  94790678.18843  23148844.647    23148843.9954   23148857.0824
        38.900          18.2004
 106658636.031 7  83110445.89443  20296407.892    20296407.0794   20296408.4024
        43.500          22.2004
 115083129.322 6  89675210.57645  21899598.087    21899597.6904   21899601.3134
        40.500          32.0004
 104907254.302 8  81745916.02546  19963173.123    19963172.8024   19963174.4814
        50.600          41.1004


 125667081.658 5                  23541685.048
        32.100
 113339980.056 6                  21262277.651    21262279.889
        41.700


 109641669.111 7  85435064.52147  20864121.173    20864120.7894   20864123.7964
        47.600          47.4004
 123972008.403 8                  23591069.294
        49.400
 103467836.669 8  80475019.452 7  19328661.437    19328661.660    19328666.668
        52.700          47.700
 103834470.331 8  80760159.199 8  19444846.606    19444847.021    19444852.928
        50.900          48.900
 131421988.902 5                  25008760.551
        31.900


 198904568.846 7                  37850303.854
        42.900
 124519434.468 5  97028150.44542  23695260.170    23695260.0774   23695265.2764
        32.400          12.7004
 131498160.944 7                  25023271.738
        46.700
 202040205.571 6                  38446985.779
        39.900
 119150448.656 6  92672556.705 6  22250504.549    22250502.914    22250504.923
        38.400          41.100
 126430215.121 6                  24058875.148
        41.700
 116120166.244 5  90315676.314 6  21737914.607    21737912.022    21737919.968
        34.700          36.200
 25  1  1 17  2 45.0000000  0 24E31G07G26G08G16G27G04G03R06R10E09G09
                                E04R07R09E21S35S31G31E06S33R08E19R16
 136989606.204 6                  26068255.484
        37.800
 124587319.086 4  97080994.08143  23708171.713    23708171.7534   23708176.8954
        28.600          22.2004
 118169107.539 6  92079851.05042  22486830.104    22486829.9794   22486838.2884
        38.000          14.7004
 121593952.608 6  94748469.20242  23138536.203    23138535.6584   23138549.1204
        37.600          16.1004
 106683054.149 7  83129473.03643  20301054.633    20301053.7974   20301056.3504
        44.600          23.3004
 115045139.335 7  89645608.07745  21892364.009    21892363.4284   21892372.3414
        42.300          34.7004
 104903440.495 8  81742944.20446  19962447.182    19962446.8564   19962448.6834
        49.500          40.3004
 123453957.762 5                  23492509.379
        33.200
 109563603.679 5                  20532170.301
        33.500
 113305510.476 6                  21255811.332    21255812.470
        40.200


 109611917.294 7  85411881.27347  20858460.347    20858459.9634   20858462.5434
        46.600          46.6004
 123956747.652 8                  23588166.255
        50.000
 103459211.934 8  80468311.310 8  19327049.885    19327050.181    19327055.618
        51.400          48.500
 103838223.064 8  80763078.011 8  19445550.636    19445550.506    19445554.736
        50.800          48.200
 131452060.186 5                  25014485.674
        35.700
 200842466.225 6                  38219043.706
        38.700
 198904562.793 6                  37850300.111
        41.900
 124560507.456 5                  23703074.876
        33.800
 131466802.607 7                  25017305.150
        47.300
 202040219.715 7                  38446983.257
        42.900
 119094145.933 6  92628765.638 6  22239989.930    22239985.846    22239991.481
        39.800          40.300
 126457855.754 6                  24064135.932
        40.200
 116166708.105 6  90351875.312 6  21746631.338    21746630.211    21746639.064
        39.600          41.300
 25  1  1 17  3  0.0000000  0 23E31G07G26G08G16G27G04G03R06R10E09G09
                                E04R07R09E21S35S31E06S33R08E19R16
 136951415.863 5                  26060987.087
        35.600
 124553769.229 5  97054869.16343  23701791.445    23701791.5524   23701791.5394
        35.400          23.1004
 118215857.198 5  92116279.46942  22495725.647    22495725.3524   22495736.3664
        35.400          14.4004
 121539819.367 4  94706287.57041  23128233.722    23128233.1194   23128247.1864
        28.600           8.2004
 106707604.572 7  83148603.18843  20305726.564    20305725.7194   20305729.2764
        45.100          22.9004
 115007263.991 6  89616094.94845  21885155.730    21885155.2344   21885164.2194
        38.300          33.2004
 104899764.012 8  81740079.41646  19961747.795    19961747.4564   19961748.7894
        49.700          40.2004


 109613342.521 4                  20541491.374    20541490.210
        26.600
 113271137.923 6                  21249360.786    21249359.167
        36.300
 143095049.979 5                  27230084.606
        33.800
 109582277.354 7  85388785.18747  20852818.963    20852818.5614   20852822.6104
        46.800          46.7004
 123941564.589 8                  23585276.690
        48.600
 103450792.132 8  80461762.577 7  19325475.775    19325475.898    19325482.528
        50.000          47.100
 103842083.609 8  80766080.656 8  19446274.043    19446273.912    19446278.195
        52.300          48.000
 131482186.003 4                  25020213.959
        26.400
 200842411.984 6                  38219036.220
        39.100
 198904562.842 7                  37850294.508
        44.100
 131435493.124 7                  25011346.931
        46.900
 202040240.011 7                  38446996.632
        43.400
 119037933.254 7  92585044.815 5  22229490.974    22229491.395    22229492.750
        45.900          35.900
 126485570.832 6                  24069409.585
        41.600
 116213275.003 6  90388094.032 6  21755345.941    21755347.746    21755355.017
        40.200          39.400
 25  1  1 17  3 15.0000000  0 23E31G07G26G08G16G27G04G03R06R10E09G09
                                E04R07R09E21S35S31E06S33R08E19R16
 136913264.477 6                  26053729.535
        39.300
 124520219.828 5  97028726.79744  23695404.889    23695404.8634   23695409.0044
        34.200          25.3004
 118262642.819 6  92152735.37042  22504628.432    22504628.1114   22504638.1634
        39.900          15.3004
 121485709.609 5  94664134.57541  23117936.072    23117935.8854   23117947.2954
        35.300          11.1004
 106732273.377 7  83167825.62643  20310420.161    20310419.2944   20310423.0624
        43.800          19.0004
 114969490.113 6  89586660.86045  21877969.410    21877968.9774   21877974.5304
        39.200          35.2004
 104896211.506 8  81737311.21746  19961071.811    19961071.4634   19961072.7654
        50.400          40.8004
 123555992.204 6  96277412.10643  23511914.881    23511915.3464   23511926.5954
        36.500          20.7004
 109663207.829 5                  20550843.184    20550843.137
        34.100
 113236848.743 6                  21242928.714    21242928.625
        41.800
 143055203.107 5                  27222501.199
        35.600
 109552736.072 7  85365765.98047  20847197.933    20847197.5184   20847201.0884
        47.300          46.9004
 123926445.716 8                  23582399.665
        49.000
 103442563.345 8  80455362.347 7  19323938.098    19323938.540    19323944.599
        53.200          47.300
 103846037.990 8  80769156.282 8  19447014.767    19447015.244    19447018.347
        53.200          48.200
 131512352.645 6                  25025959.273
        37.600
 200842371.453 5                  38219030.644
        30.000
 198904555.627 7                  37850303.371
        44.400
 131404219.042 7                  25005395.639
        47.500
 202040252.968 6                  38447004.055
        40.700
 118981797.692 7  92541383.844 6  22219006.037    22219006.509    22219012.076
        42.900          38.400
 126513347.013 7                  24074695.932
        42.300
 116259852.513 6  90424320.902 6  21764065.195    21764064.544    21764075.396
        39.300          41.600
 25  1  1 17  3 30.0000000  0 22E31G07G26G16G27G04G03R18R10E09G09E04
                                R07R09E21S35S31E06S33R08E19R16
 136875159.637 5                  26046475.602
        34.300


 118309471.608 6  92189225.40943  22513539.779    22513539.3284   22513547.5854
        40.700          20.5004
 106757068.078 6  83187146.15442  20315137.241    20315136.3704   20315139.1934
        41.000          16.2004
 114931825.857 6  89557312.25245  21870802.178    21870801.7544   21870806.3584
        41.100          34.7004
 104892790.749 8  81734645.69446  19960420.712    19960420.3644   19960422.1084
        50.100          40.7004
 123607012.058 4  96317167.55342  23521625.596    23521626.2134   23521635.4404
        26.300          16.2004
                  97643360.850 5                                  23518133.237
                        32.500
 113202650.654 7                  21236514.545    21236514.713
        42.600
 143015368.736 5                  27214925.723
        33.800
 109523301.428 7  85342829.86347  20841595.557    20841595.1424   20841599.8174
        47.600          46.8004
 123911398.931 8                  23579536.656
        50.200
 103434533.749 8  80449117.107 7  19322438.316    19322439.501    19322444.848
        52.700          46.800
 103850093.554 8  80772310.623 7  19447773.594    19447774.079    19447777.803
        52.200          47.000
 131542567.403 6                  25031708.045
        39.800


 198904548.783 7                  37850297.151
        43.200
 131372988.365 7                  24999452.358
        46.000
 202040266.375 7                  38447006.358
        43.800
 118925747.094 7  92497789.024 6  22208541.349    22208541.669    22208546.217
        43.700          37.800
 126541191.743 7                  24079994.127
        42.400
 116306448.522 6  90460562.021 6  21772789.267    21772789.646    21772797.184
        38.600          41.300
 25  1  1 17  3 45.0000000  0 24E31G07G26G08G16G27G04G03R18R10E09G09
                                E04R07R09E21S35S31G31E06S33R08E19R16
 136837102.734 6                  26039235.330
        37.100


 118356344.629 7  92225749.69443  22522459.705    22522459.2094   22522465.4004
        43.100          21.3004


 106781989.708 6  83206565.70442  20319878.919    20319877.9804   20319880.4104
        39.100          14.3004
 114894272.712 6  89528050.15545  21863654.361    21863653.9374   21863660.2814
        41.200          35.5004
 104889503.066 8  81732083.87946  19959795.226    19959794.8914   19959796.3044
        49.800          40.7004
 123658055.446 6  96356940.22743  23531335.134    23531335.7514   23531350.2684
        38.300          18.8004
 125510239.161 6  97619172.849 5  23512305.545    23512305.874    23512308.018
        38.600          34.100
 113168544.797 6                  21230117.192    21230116.059
        41.000


 109493974.917 8  85319978.00247  20836015.405    20836014.9944   20836018.6734
        48.500          47.3004
 123896425.533 8                  23576686.970
        49.200
 103426704.770 8  80443027.943 7  19320976.409    19320976.824    19320980.374
        52.300          44.600
 103854251.377 8  80775544.427 8  19448551.845    19448552.096    19448556.764
        51.000          48.800
 131572831.425 6                  25037466.977
        40.500


 198904543.373 6                  37850285.614
        40.600
 124724763.298 6  97188143.10542  23734333.485    23734333.2844   23734336.7984
        36.400          15.4004
 131341802.403 7                  24993517.799
        43.700
 202040280.657 7                  38447006.264
        42.400
 118869783.465 7  92454261.825 6  22198093.250    22198092.976    22198094.747
        43.400          40.300
 126569106.336 7                  24085306.749
        44.500
 116353064.172 6  90496818.601 6  21781517.604    21781516.464    21781524.164
        38.100          41.200
 25  1  1 17  4  0.0000000  0 26R17E31G07G26G08G16G27G04G03R18R06R10
                                E09G09E04R07R09E21S35S31G31E06S33R08
                                E19R16
 128417908.066 6                  23997954.639
        36.000
 136799092.198 7                  26032001.311
        42.300


 118403260.179 6  92262307.31643  22531388.172    22531387.6904   22531391.5814
        41.600          18.9004


 106807036.166 6  83226082.30441  20324646.934    20324646.0674   20324645.5324
        40.500          11.6004
 114856829.667 7  89498873.89046  21856531.642    21856531.2314   21856536.3554
        42.300          37.1004
 104886347.126 8  81729624.72846  19959194.966    19959194.6274   19959196.0204
        49.600          41.3004
 123709120.979 5  96396731.31843  23541051.316    23541052.1204   23541070.1174
        34.100          22.2004
 125479272.343 5  97595087.625 5  23506499.587    23506502.271    23506506.258
        32.500          32.400
 109813600.011 5                  20579023.588
        34.100
 113134529.698 7                  21223735.745    21223734.915
        42.500


 109464755.269 8  85297209.42247  20830455.214    20830454.8304   20830458.5414
        48.700          46.6004
 123881524.262 8                  23573851.307
        49.800
 103419074.897 8  80437093.576 7  19319550.317    19319550.685    19319556.256
        51.600          45.800
 103858510.002 8  80778856.722 8  19449349.377    19449349.449    19449354.537
        50.600          49.000
 131603143.141 6                  25043235.060
        37.100


 198904537.945 7                  37850295.666
        42.500
 124765870.009 5  97220174.09742  23742151.591    23742151.3234   23742152.0724
        32.000          15.1004
 131310659.792 7                  24987591.489
        42.800
 202040295.775 7                  38447005.056
        45.400
 118813906.152 7  92410801.781 6  22187656.172    22187655.981    22187660.744
        42.000          40.500
 126597089.151 7                  24090631.137
        42.600
 116399697.262 5  90533088.900 6  21790248.040    21790243.529    21790252.485
        34.100          38.700
 25  1  1 17  4 15.0000000  0 26R17E31G07G26G08G16G27G04G03R18R06R10
                                E09G09E04R07R09E21S35S31G31E06S33R08
                                E19R16
 128425500.009 5                  23999368.807    23999367.140
        31.600
 136761128.977 7                  26024777.628
        42.200
 124386017.624 5  96924216.96343  23669880.547    23669880.6994   23669883.6104
        35.300          21.0004
 118450218.519 6  92298898.14743  22540323.760    22540323.3004   22540327.8374
        40.900          23.7004
 121269469.125 5  94495732.05143  23076809.495    23076809.3124   23076823.2674
        30.300          20.8004
 106832208.022 6  83245696.65443  20329436.026    20329435.2084   20329434.9174
        36.500          18.0004
 114819497.639 7  89469784.10246  21849427.033    21849426.5684   21849433.4564
        42.900          37.6004
 104883323.723 8  81727268.81046  19958619.814    19958619.4794   19958620.8044
        49.200          41.2004
 123760208.718 5  96436539.74943  23550774.463    23550775.5274   23550791.0894
        35.100          23.5004
                  97571106.167 5                  23500727.005    23500725.523
                        30.600
 109863998.321 6                  20588468.772    20588470.271
        36.700
 113100606.407 7                  21217372.714    21217372.261
        42.200


 109435643.477 8  85274524.91047  20824915.546    20824915.1934   20824918.5144
        50.400          45.0004
 123866695.857 8                  23571029.688
        49.800
 103411645.275 8  80431314.942 7  19318164.033    19318164.540    19318168.188
        53.000          45.500
 103862869.666 8  80782247.593 8  19450166.464    19450166.652    19450170.376
        52.300          48.800
 131633502.892 6                  25049010.939
        41.200


 198904533.204 6                  37850288.807
        41.800
 124806992.978 5  97252205.83642  23749976.473    23749976.2634   23749981.4224
        31.600          12.3004
 131279561.421 7                  24981673.967
        45.500
 202040311.261 7                  38447009.626
        44.700
 118758115.705 5  92367409.226 6  22177235.848    22177235.643    22177242.109
        35.500          38.900
 126625140.778 7                  24095968.999
        42.500
 116446348.642 6  90569373.196 5  21798982.130    21798980.431    21798982.809
        41.500          32.900
 25  1  1 17  4 30.0000000  0 23E31G07G26G08G16G27G04G03R06R10E09G09
                                E04R07R09E21S35S31E06S33R08E19R16
 136723211.673 7                  26017561.821
        42.000
 124352501.891 6  96898110.18744  23663506.728    23663507.0184   23663508.0824
        38.800          24.6004
 118497217.972 7  92335521.12744  22549268.468    22549268.0304   22549271.2884
        42.000          24.3004
 121215515.052 5  94453690.14443  23066541.159    23066541.4854   23066556.3234
        35.300          22.0004
 106857503.498 5  83265407.41642  20334248.981    20334248.1544   20334248.7804
        30.700          12.7004
 114782275.729 7  89440780.10646  21842343.380    21842342.9074   21842350.1244
        45.000          38.8004
 104880431.593 8  81725015.19346  19958069.151    19958068.8214   19958070.3974
        50.000          41.3004


 109914527.432 6                  20597938.434    20597938.972
        37.300
 113066772.917 6                  21211025.290    21211023.831
        41.200


 109406638.392 8  85251923.52847  20819396.236    20819395.8794   20819398.5334
        50.100          46.4004
 123851939.097 8                  23568221.523
        50.000
 103404414.388 8  80425690.907 7  19316812.797    19316813.815    19316818.836
        52.400          47.600
 103867328.830 8  80785715.839 8  19451001.399    19451001.857    19451005.523
        52.600          48.000
 131663908.922 6                  25054797.047
        40.700


 198904527.867 6                  37850295.009
        40.700
 131248506.070 7                  24975763.845
        47.500
 202040325.255 7                  38447017.671
        44.700
 118702424.722 5  92324083.817 6  22166833.404    22166828.903    22166838.155
        32.000          36.900
 126653259.731 6                  24101319.188
        39.700
 116493015.935 6                  21807716.923    21807712.691
        38.100
 25  1  1 17  4 45.0000000  0 23E31G07G26G08G16G27G04G03R18R06R10E09
                                G09E04R07R09E21S35S31E06S33E19R16
 136685340.149 6                  26010354.742
        41.900
 124318994.995 6  96872000.84243  23657130.298    23657130.4324   23657131.8484
        37.000          23.7004
 118544258.015 6  92372175.76044  22558218.565    22558218.1814   22558218.8984
        40.400          24.2004
 121161592.391 4  94411672.69342  23056280.325    23056280.2854   23056294.0174
        28.000          16.7004
 106882921.950 6  83285213.99342  20339087.990    20339087.0474   20339086.3384
        36.400          16.9004
 114745164.076 7  89411862.04546  21835279.792    21835279.3194   21835286.6374
        43.400          37.8004
 104877670.642 8  81722863.79547  19957543.663    19957543.3244   19957545.1554
        50.600          42.0004




 109965186.677 6                  20607431.588    20607431.310
        36.500
 113033029.659 6                  21204693.423    21204692.810
        41.200
 142816453.089 4                  27177066.868
        27.200
 109377740.094 8  85229405.39247  20813897.126    20813896.7734   20813899.3004
        49.800          45.9004
 123837253.907 8                  23565427.103
        49.800
 103397382.186 8  80420221.410 8  19315499.192    19315499.713    19315504.729
        52.500          48.200
 103871886.969 8  80789261.058 8  19451854.854    19451855.543    19451859.581
        51.800          49.000
 131694361.008 7                  25060593.284
        42.800


 198904521.791 6                  37850283.490
        40.800
 131217493.756 7                  24969862.716
        47.700
 202040339.714 6                  38447014.567
        41.400
 126681445.879 6                  24106683.812
        40.100
 116539699.295 6  90641979.214 6  21816453.628    21816453.417    21816459.636
        41.500          38.000
 25  1  1 17  5  0.0000000  0 23E31G07G26G08G16G27G04G03R06R10E09G09
                                E04R07R09E21S35S31E06S33R08E19R16
 136647516.687 6                  26003159.291
        38.400


 118591340.584 6  92408863.45843  22567174.599    22567174.2334   22567181.7334
        39.300          23.8004
 121107703.401 5  94369681.49243  23046025.052    23046024.7484   23046038.4444
        33.100          19.5004
 106908465.466 6  83305118.02043  20343947.593    20343946.5964   20343947.8414
        38.900          20.2004
 114708165.130 7  89383031.81545  21828240.069    21828239.6004   21828245.3124
        43.200          34.2004
 104875043.054 8  81720816.27147  19957043.325    19957042.9684   19957045.9664
        49.700          42.5004
 123913614.676 5  96556147.22142  23579977.079    23579977.0174   23579994.7734
        33.000          15.8004
 110015977.835 5                  20616949.640    20616949.418
        35.700
 112999378.059 6                  21198382.320    21198380.734
        40.900
 142776650.939 5                  27169496.434
        33.100
 109348950.992 8  85206972.33247  20808418.788    20808418.4354   20808420.0924
        48.000          43.8004
 123822642.577 8                  23562646.669
        49.300
 103390551.219 8  80414908.409 8  19314223.692    19314223.543    19314227.826
        52.300          48.000
 103876546.127 8  80792884.868 8  19452726.248    19452726.794    19452732.848
        50.500          50.000
 131724860.974 6                  25066395.439
        39.900
 200842166.289 6                  38218995.166
        38.400
 198904516.215 6                  37850286.745
        40.900
 131186526.710 8                  24963970.523
        48.500
 202040354.543 7                  38447021.981
        45.400
 118591342.746 5  92237636.730 6  22146092.073                    22146080.803
        34.100          36.700
 126709701.138 6                  24112059.827
        40.200
 116586400.212 6  90678302.100 6  21825192.155    21825194.464    21825203.827
        40.300          40.300
 25  1  1 17  5 15.0000000  0 24E31G07G26G08G16G27G04G03R06R10E09G09
                                E04R07R09E21S35S31G31E06S33R08E19R16
 136609742.317 6                  25995970.019
        39.600
 124252130.852 6  96819863.35542  23644390.881    23644390.3674   23644397.5614
        38.200          17.2004
 118638466.155 6  92445584.64044  22576146.433    22576146.0944   22576151.8794
        40.300          24.2004
 121053849.460 6  94327717.59343  23035777.895    23035777.8784   23035789.0344
        36.400          18.4004
 106934134.571 6  83325119.93543  20348832.398    20348831.4644   20348832.6334
        39.500          22.9004
 114671280.327 6  89354290.51345  21821221.648    21821221.1664   21821224.8874
        40.100          34.3004
 104872549.958 8  81718873.60247  19956569.275    19956568.9184   19956571.8714
        49.500          43.0004


 110066901.308 4                  20626489.999    20626489.093
        28.500
 112965819.464 7                  21192085.728    21192084.609
        42.000


 109320272.345 8  85184625.34347  20802961.500    20802961.1344   20802962.7804
        48.500          45.0004
 123808106.172 8                  23559880.295
        49.500
 103383922.548 8  80409752.781 8  19312984.309    19312984.313    19312990.743
        51.500          49.500
 103881307.255 8  80796587.972 8  19453618.611    19453618.892    19453624.253
        51.800          50.100
 131755409.663 6                  25072209.775
        40.200


 198904513.545 6                  37850278.781
        38.700
 124971689.102 4  97380517.96641  23781313.410    23781313.0624   23781315.5444
        27.800           9.1004
 131155606.014 8                  24958086.915
        48.800
 202040372.246 6                  38447022.513
        41.900
 118535884.667 4  92194518.443 6  22135739.496    22135736.692    22135731.071
        28.900          40.200
 126738026.413 6                  24117451.045
        41.000
 116633119.660 7  90714639.365 7  21833945.600    21833946.444    21833950.938
        42.900          44.000
 25  1  1 17  5 30.0000000  0 24E31G07G26G08G16G27G04G03R06R10E09G09
                                E04R07R09E21S35S31G31E06S33R08E19R16
 136572013.004 6                  25988790.794
        40.500
 124218646.705 6  96793771.57841  23638008.431    23638007.8014   23638025.4054
        38.000           9.4004
 118685630.412 6  92482336.09844  22585116.495    22585116.0984   22585128.0224
        36.400          24.9004
 121000030.915 5  94285789.22042  23025539.543    23025539.1594   23025551.7014
        35.600          17.5004
 106959924.733 7  83345216.14444  20353740.669    20353739.6954   20353741.3924
        42.300          26.1004
 114634505.965 6  89325635.26745  21814223.109    21814222.6094   21814226.6194
        37.600          33.3004
 104870187.407 8  81717032.59647  19956119.456    19956119.1034   19956122.1334
        50.700          44.3004


 110117952.637 4                  20636055.317    20636055.029
        29.500
 112932349.750 6                  21185807.456    21185806.411
        41.300


 109291700.299 8  85162361.45647  20797524.019    20797523.6354   20797526.1824
        48.100          44.7004
 123793640.801 8                  23557127.650
        50.400
 103377492.101 8  80404751.295 8  19311784.699    19311784.483    19311789.356
        53.000          49.600
 103886165.528 8  80800366.615 8  19454529.232    19454528.957    19454533.302
        51.500          50.300
 131786002.822 6                  25078030.118
        37.600
 200842010.073 6                  38218977.915
        39.200
 198904508.567 7                  37850283.705
        42.800
 125012888.482 5  97412621.15441  23789151.766    23789151.5164   23789154.1604
        33.100           9.3004
 131124727.865 7                  24952211.156
        46.400
 202040387.001 7                  38447028.170
        43.200
 118480534.064 5  92151468.005 6  22125409.954    22125405.947    22125394.486
        30.500          39.800
 126766417.738 6                  24122853.263
        41.900
 116679853.333 7  90750987.830 7  21842690.984    21842693.041    21842700.593
        43.300          44.200
 25  1  1 17  5 45.0000000  0 24E31G07G26G08G16G27G04G03R06R10E09G09
                                E04R07R09E21S35S31G31E06S33R08E19R16
 136534332.329 6                  25981619.873
        39.900
 124185170.729 5  96767686.95842  23631641.398    23631640.9254   23631651.9124
        30.900          17.5004
 118732836.724 6  92519120.22044  22594103.229    22594102.8454   22594111.1814
        38.300          25.4004
 120946243.644 6  94243877.33143  23015300.271    23015299.7844   23015311.6594
        37.900          19.2004
 106985839.335 6  83365409.37744  20358672.259    20358671.2674   20358672.9434
        40.500          26.4004
 114597845.747 6  89297068.96746  21807248.398    21807247.9924   21807251.6574
        39.900          38.3004
 104867958.953 8  81715296.13747  19955695.265    19955694.9264   19955697.6064
        50.900          44.1004
 124067144.789 5  96675778.70642  23609192.157    23609192.2154   23609212.2574
        33.700          17.5004
 110169135.139 5                  20645648.411    20645650.179
        32.400
 112898972.780 7                  21179544.288    21179544.740
        42.100
 142657475.387 4                  27146816.373
        28.400
 109263238.606 8  85140183.50747  20792107.633    20792107.2534   20792111.4144
        49.200          45.8004
 123779250.002 8                  23554389.145
        49.700
 103371263.486 8  80399906.779 8  19310620.633    19310620.699    19310625.460
        53.300          48.600
 103891124.515 8  80804223.652 8  19455457.722    19455458.178    19455462.913
        53.200          51.000
 131816643.525 6                  25083861.700
        36.900
 200841973.489 5                  38218969.432
        35.000
 198904505.179 7                  37850284.818
        42.100
 125054104.765 5  97444737.42942  23796993.683    23796993.3534   23796998.6244
        33.300          14.9004
 131093895.890 7                  24946343.210
        46.300
 202040403.702 6                  38447027.039
        39.600
 118425274.290 5  92108488.150 6  22115079.647                    22115073.865
        32.800          41.000
 126794878.314 7                  24128269.631
        42.600
 116726604.496 7  90787349.863 7  21851445.401    21851446.765    21851451.921
        44.600          44.800
 25  1  1 17  6  0.0000000  0 24E31G07G26G08G16G27G04G03R06R10E09G09
                                E04R07R09E21S35S31G31E06S33R08E19R16
 136496698.644 6                  25974457.418
        39.800
 124151676.809 6  96741598.18743  23625270.697    23625270.3404   23625282.1444
        39.900          20.9004
 118780082.795 6  92555935.38444  22603094.194    22603093.7474   22603101.1014
        38.300          24.6004
 120892490.394 5  94201991.88343  23005071.654    23005071.1674   23005079.8444
        35.900          20.5004
 107011876.149 5  83385697.85244  20363625.317    20363624.3164   20363626.9834
        34.400          24.7004
 114561298.347 7  89268590.59546  21800291.684    21800291.2784   21800298.7224
        42.400          41.5004
 104865862.986 8  81713662.90847  19955296.213    19955295.8744   19955298.7914
        51.500          44.1004


 110220446.169 5                  20655263.827    20655265.692
        34.100
 112865686.048 6                  21173299.562    21173299.618
        38.800


 109234885.836 7  85118090.44947  20786712.820    20786712.4314   20786716.1554
        47.100          44.1004
 123764932.247 8                  23551664.918
        50.200
 103365235.160 8  80395218.093 8  19309493.868    19309494.579    19309499.336
        53.700          48.700
 103896181.976 8  80808157.227 8  19456404.526    19456404.820    19456409.975
        51.000          51.100
 131847330.266 4                  25089704.987
        29.900
 200841936.432 6                  38218949.717
        40.200
 198904500.545 6                  37850277.588
        40.300


 131063108.476 7                  24940485.235
        46.300
 202040420.542 7                  38447034.412
        45.600
                  92065578.161 6                  22104766.851    22104772.329
                        40.600
 126823406.490 7                  24133698.006
        42.300
 116773371.150 7  90823723.903 7  21860201.994    21860201.773    21860206.298
        44.000          43.600
 25  1  1 17  6 15.0000000  0 24E31G07G26G08G16G27G04G03R06R10E09G09
                                E04R07R09E21S35S31G31E06S33R08E19R16
 136459108.664 6                  25967304.483
        40.000
 124118210.959 6  96715520.87843  23618901.791    23618901.8844   23618909.7294
        37.900          23.1004
 118827365.197 6  92592778.69643  22612090.958    22612090.4134   22612097.0854
        36.000          21.9004
 120838768.070 6  94160130.53943  22994846.790    22994846.5494   22994855.4304
        38.600          21.6004
 107038031.622 5  83406078.71543  20368601.133    20368600.1994   20368604.3644
        35.100          22.3004
 114524860.791 6  89240197.78446  21793358.689    21793358.3054   21793365.5344
        40.700          40.3004
 104863896.239 8  81712130.36047  19954922.766    19954922.4224   19954924.6374
        53.400          45.3004
 124169697.143 5  96755642.85942  23628698.046    23628698.0814   23628714.1884
        35.700          12.8004
 110271881.946 5                  20664901.820    20664903.041
        34.800
 112832486.801 6                  21167069.803    21167069.351
        38.800
 142578092.894 4                  27131704.946
        27.400
 109206638.884 7  85096079.85147  20781337.942    20781337.5764   20781340.4424
        46.200          43.8004
 123750684.253 8                  23548953.441
        50.600
 103359403.825 8  80390682.611 8  19308404.418    19308405.224    19308409.557
        52.700          48.800
 103901334.609 8  80812164.801 8  19457369.342    19457369.872    19457374.567
        50.300          51.200
 131878058.866 5                  25095548.166
        35.300


 198904493.481 7                  37850281.317
        42.100


 131032362.371 7                  24934633.279
        46.400
 202040432.809 7                  38447032.168
        44.700
 118315021.089 6  92022735.855 6  22094477.856    22094477.791    22094483.953
        39.200          39.600
 126851998.619 7                  24139138.640
        42.300
 116820149.007 7  90860106.707 7  21868956.586    21868958.180    21868962.799
        43.300          43.500
 25  1  1 17  6 30.0000000  0 24E31G07G26G08G16G27G04G03R06R10E09G09
                                E04R07R09E21S35S31G31E06S33R08E19R16
 136421570.136 6                  25960160.757
        41.500
 124084755.996 4  96689452.06043  23612533.080    23612533.3254   23612541.8394
        27.600          23.4004
 118874691.207 6  92629656.06344  22621098.940    22621098.3994   22621103.0624
        41.000          24.5004


 107064312.936 6  83426557.72844  20373606.162    20373605.3224   20373605.3104
        39.700          25.5004
 114488541.212 7  89211896.91546  21786447.009    21786446.6034   21786454.4584
        42.300          39.2004
 104862066.525 8  81710704.59847  19954574.308    19954573.9694   19954576.2534
        52.900          45.3004
 124220961.973 5  96795589.55141  23638446.393    23638446.3314   23638469.3504
        34.900           6.8004
 110323449.989 5                  20674569.982    20674567.867
        34.200
 112799382.493 7                  21160863.596    21160861.997
        44.400
 142538423.167 5                  27124157.998
        31.700
 109178505.704 8  85074157.87847  20775984.370    20775983.9954   20775986.3094
        48.300          44.2004
 123736513.893 8                  23546256.851
        49.900
 103353777.550 8  80386306.623 8  19307353.197    19307353.655    19307359.253
        51.400          48.900
 103906590.038 8  80816252.415 8  19458353.672    19458353.710    19458358.033
        50.500          50.600
 131908837.206 6                  25101407.919
        38.300


 198904489.897 6                  37850284.778
        40.800
 125177815.064 5  97541159.41641  23820541.249    23820541.2624   23820547.4544
        30.300           9.5004
 131001665.559 7                  24928792.201
        47.200
 202040449.241 7                  38447043.821
        42.400
 118260032.873 5  91979967.229 6  22084211.106    22084208.204    22084215.328
        34.200          38.700
 126880662.578 7                  24144593.780
        43.200
 116866946.249 6  90896504.445 6  21877715.619    21877715.276    21877722.681
        40.100          41.000
 25  1  1 17  6 45.0000000  0 24E31G07G26G08G16G27G04G03R18R06R10E09
                                G09E04R07R09E21S35S31E06S33R08E19R16
 136384078.851 7                  25953027.380
        42.300
 124051308.329 6  96663341.87444  23606172.578    23606173.1454   23606174.4894
        39.000          26.2004
 118922056.245 6  92666563.81543  22630111.141    22630110.5514   22630115.9394
        38.900          20.7004
 120731391.458 5  94076450.90843  22974420.804    22974421.1794   22974430.3824
        33.300          23.3004
 107090715.520 6  83447131.26244  20378629.635    20378628.7994   20378629.7864
        41.800          28.5004
 114452335.512 7  89183684.79446  21779556.164    21779555.7174   21779564.0184
        42.600          37.7004
 104860369.615 8  81709382.31647  19954251.657    19954251.3274   19954253.1654
        52.900          45.4004


                  97336983.631 5                                  23444353.450
                        32.200
 110375145.336 5                  20684253.691    20684255.807
        32.100
 112766368.671 7                  21154670.008    21154669.242
        45.700
 142498767.487 4                  27116609.281
        26.500
 109150482.210 8  85052321.38947  20770650.403    20770650.0014   20770654.3244
        50.400          43.5004
 123722416.965 8                  23543574.198
        49.600
 103348351.978 8  80382086.729 8  19306339.287    19306339.398    19306345.787
        51.500          49.400
 103911943.308 8  80820416.077 8  19459356.392    19459356.851    19459361.367
        50.300          50.500
 131939660.770 6                  25107272.038
        39.800
 200841807.057 5                  38218934.339
        35.200
 198904485.749 6                  37850283.307
        41.100
 130971013.805 7                  24922959.478
        46.000
 202040465.933 6                  38447042.229
        41.900
 118205135.848 6  91937269.478 6  22073957.951    22073961.007    22073965.877
        41.000          40.800
 126909393.863 7                  24150061.272
        43.000
                  90932913.714 6                                  21886486.449
                        39.500
 25  1  1 17  7  0.0000000  0 23E31G07G26G08G16G27G04G03R06R10E09G09
                                E04R07R09E21S35S31E06S33R08E19R16
 136346633.910 7                  25945900.990
        42.000


 118969459.125 5  92703501.13543  22639131.296    22639130.7294   22639137.6084
        34.100          20.5004


 107117238.165 7  83467798.18045  20383678.103    20383677.2994   20383677.0004
        45.000          30.1004
 114416243.331 6  89155561.10646  21772688.095    21772687.5904   21772696.0624
        39.900          37.8004
 104858804.658 8  81708162.85947  19953953.621    19953953.2914   19953955.4224
        51.900          45.3004


 110426966.662 4                  20693966.994    20693964.661
        28.800
 112733444.827 7                  21148491.944    21148491.056
        43.600


 109122567.754 8  85030569.84047  20765339.360    20765338.9404   20765342.6274
        48.100          45.3004
 123708392.636 8                  23540906.212
        50.100
 103343126.341 8  80378022.297 8  19305363.591    19305363.506    19305369.882
        51.100          48.900
 103917393.416 8  80824655.083 8  19460374.736    19460375.585    19460381.921
        48.300          50.600
 131970528.253 6                  25113144.678
        41.000
 200841769.035 6                  38218939.807
        37.900
 198904480.802 7                  37850286.915
        42.200
 130940406.338 7                  24917134.684
        46.000
 202040481.187 7                  38447050.725
        42.100
 118150329.677 6  91894642.380 6  22063731.623    22063732.506    22063728.567
        41.900          39.400
 126938191.403 7                  24155540.927
        42.200
 116960477.430 5  90969333.205 6  21895247.887    21895246.170    21895252.135
        35.400          36.900
 25  1  1 17  7 15.0000000  0 22E31G07G26G08G16G27G04G03R10E09G09E04
                                R07R09E21S35S31E06S33R08E19R16
 136309237.258 6                  25938785.352
        40.100
 123984431.165 7  96611216.87044  23593444.932    23593444.9634   23593447.1784
        42.900          28.2004
 119016876.422 6  92740454.07543  22648160.117    22648159.5184   22648166.0954
        36.700          22.2004
 120624270.988 6  93992941.35544  22954025.874    22954026.1284   22954036.3664
        38.300          26.7004
 107143882.555 7  83488560.13645  20388746.988    20388746.1704   20388747.7674
        45.800          31.4004
 114380266.752 6  89127527.46045  21765840.959    21765840.4054   21765849.4854
        39.200          35.8004
 104857373.633 8  81707047.77047  19953681.575    19953681.2454   19953683.1414
        52.200          45.5004
 124374750.228 4  96915473.28241  23667725.832    23667725.7654   23667745.2334
        29.200           9.8004
 112700612.184 7                  21142333.825    21142333.324
        44.400
 142419484.521 5                  27101525.906
        34.700
 109094764.504 8  85008905.00747  20760049.271    20760048.8474   20760051.3874
        48.500          43.9004
 123694442.930 8                  23538251.581
        51.100
 103338102.468 8  80374114.823 8  19304424.637    19304425.141    19304431.454
        51.300          48.900
 103922942.026 8  80828970.649 8  19461415.496    19461415.689    19461420.008
        49.800          49.400
 132001441.465 6                  25119028.809
        41.700


 198904476.448 6                  37850280.490
        41.600
 130909845.270 7                  24911318.878
        45.900
 202040496.896 7                  38447044.366
        44.200
                  91852087.814 6                  22053515.416    22053512.278
                        36.700
 126967057.010 6                  24161033.371
        40.900
 117007317.715 6  91005764.634 6  21904017.092    21904016.694    21904022.323
        36.300          38.600
 25  1  1 17  7 30.0000000  0 22E31G07G26G08G16G27G04G03R10E09G09E04
                                R07R09E21S35S31E06S33R08E19R16
 136271891.673 6                  25931679.468
        41.800
 123951007.061 5  96585172.02143  23587085.597    23587085.5264   23587085.5754
        35.000          22.2004
 119064360.389 6  92777454.64543  22657194.109    22657193.3764   22657203.2454
        36.600          18.3004
 120570733.960 6  93951224.37144  22943832.906    22943833.5144   22943848.2754
        39.300          25.8004
 107170651.016 7  83509418.67045  20393840.932    20393840.1144   20393841.8354
        47.600          32.0004
 114344408.785 6  89099586.30246  21759017.316    21759016.7664   21759025.7224
        41.000          36.1004
 104856079.362 8  81706039.25247  19953434.932    19953434.5974   19953436.9784
        52.600          45.1004
 124426085.616 6  96955474.57942  23677496.952    23677496.9744   23677510.4384
        39.900          16.2004
 112667873.860 7                  21136191.655    21136190.987
        43.200
 142379876.055 6                  27093990.675
        37.200
 109067075.309 7  84987329.01347  20754779.046    20754778.6224   20754781.9874
        47.800          44.0004
 123680570.668 8                  23535611.860
        50.600
 103333283.609 8  80370366.799 8  19303524.188    19303524.780    19303530.597
        52.600          48.100
 103928591.961 8  80833365.046 8  19462473.346    19462474.176    19462478.357
        50.800          50.100
 132032402.742 7                  25124920.811
        43.000
 200841720.881 5                  38218914.310
        33.600
 198904475.002 7                  37850283.159
        43.500
 130879333.365 7                  24905512.841
        43.000
 202040515.537 6                  38447044.344
        39.900
 118040936.080 6  91809608.274 6  22043317.778    22043317.537    22043312.037
        36.600          38.600
 126995993.434 7                  24166540.081
        43.000
 117054151.448 6  91042209.690 6  21912785.684                    21912794.449
        40.300          37.300
 25  1  1 17  7 45.0000000  0 23E31G07G26G08G16G27G04G03R06R10E09G09
                                E04R07R09E21S35S31E06S33R08E19R16
 136234591.987 6                  25924580.298
        41.100
 123917587.632 7  96559130.89844  23580728.608    23580728.4974   23580724.9204
        42.900          29.3004
 119111880.598 5  92814483.17741  22666236.942    22666236.0664   22666246.3414
        32.500          10.9004
 120517231.942 5  93909534.70544  22933653.310    22933653.8424   22933667.4504
        35.800          26.9004
 107197537.894 7  83530369.52045  20398957.569    20398956.7424   20398957.6134
        47.400          31.3004
 114308664.754 6  89071733.94945  21752217.081    21752216.4784   21752222.9224
        38.400          35.7004
 104854916.639 8  81705133.23947  19953213.496    19953213.1664   19953215.4634
        51.600          44.6004


 110583226.681 5                  20723250.372
        34.200
 112635224.587 7                  21130068.816    21130068.320
        44.200
 142340280.619 6                  27086456.831
        40.600
 109039495.310 7  84965838.13046  20749531.056    20749530.6234   20749532.6374
        44.100          41.2004
 123666770.713 8                  23532985.505
        50.600
 103328664.339 8  80366774.029 7  19302662.124    19302662.620    19302667.176
        53.100          47.700
 103934336.977 8  80837833.359 8  19463548.806    19463549.226    19463554.810
        49.700          50.300
 132063406.824 7                  25130821.092
        44.500


 198904471.663 6                  37850275.075
        40.900
 130848865.676 6                  24899714.455
        40.900
 202040532.712 7                  38447051.981
        43.900
 117986410.150 5  91767199.808 6  22033142.376                    22033131.521
        30.400          37.900
 127024995.090 6                  24172058.807
        40.400
 117101021.418 6  91078664.240 6  21921563.218    21921564.043    21921566.019
        38.600          36.000
 25  1  1 17  8  0.0000000  0 23E31G07G08G16G27G04G03R06R10E09G09E04
                                R07R09E21S35S31G31E06S33R08E19R16
 136197335.700 6                  25917491.844
        39.400
 123884170.633 7  96533091.72445  23574367.307    23574367.0794   23574365.2134
        44.400          30.0004
 120463762.747 5  93867870.63543  22923480.836    22923481.4704   22923492.6674
        34.700          23.8004
 107224540.342 7  83551410.44045  20404095.727    20404094.8694   20404095.3824
        45.500          31.4004
 114273032.229 6  89043968.45145  21745436.496    21745435.8174   21745440.5484
        39.600          34.6004
 104853883.035 8  81704327.82047  19953016.903    19953016.5734   19953018.7964
        51.100          44.2004


 110635549.794 6                  20733052.652    20733053.753
        38.300
 112602661.613 7                  21123958.557    21123957.906
        43.100
 142300695.801 6                  27078923.291
        41.100
 109012022.107 6  84944430.44346  20744302.564    20744302.1224   20744303.4064
        40.800          38.8004
 123653040.634 8                  23530372.483
        50.000
 103324241.969 8  80363334.396 7  19301836.193    19301836.210    19301840.435
        52.500          47.600
 103940174.825 8  80842373.906 8  19464642.613    19464642.269    19464647.925
        49.400          49.900
 132094450.796 7                  25136727.669
        43.400


 198904463.955 7                  37850282.180
        42.600


 130818439.636 6                  24893924.760
        41.300
 202040544.817 7                  38447054.754
        45.300
 117931974.599 6  91724861.115 6  22022969.169    22022970.626    22022966.360
        40.100          37.900
 127054059.531 6                  24177589.883
        40.500
 117147900.722 6  91115126.345 5  21930337.616    21930336.682    21930342.991
        38.600          35.200
 25  1  1 17  8 15.0000000  0 25E31G07G26G08G16G27G04G03R18R06R10E09
                                G09E04R07R09E21S35S31G31E06S33R08E19
                                R16
 136160129.420 6                  25910410.393
        36.000
 123850762.684 6  96507059.61844  23568009.429    23568009.1794   23568007.8634
        40.900          28.9004


 120410333.216 5  93826237.39743  22913311.078    22913311.4624   22913325.9104
        32.800          21.5004
 107251664.416 7  83572546.12345  20409257.512    20409256.6584   20409256.5284
        44.500          30.5004
 114237518.117 6  89016295.24445  21738676.764    21738675.9824   21738681.2434
        39.800          35.7004
 104852985.088 8  81703628.11947  19952846.509    19952846.1654   19952848.2714
        50.400          44.0004
 124580174.477 5  97075527.58242  23706821.831    23706821.6174   23706835.1114
        34.300          15.1004
 124973562.205 5                  23411744.933
        32.200
 110687999.684 6                  20742880.489    20742880.988
        37.500
 112570191.290 7                  21117866.190    21117866.510
        42.500
 142261128.425 6                  27071394.389
        41.500
 108984662.476 7  84923111.28646  20739096.657    20739096.1974   20739096.8364
        44.200          39.1004
 123639387.051 8                  23527774.235
        49.400
 103320023.543 8  80360053.394 8  19301047.556    19301048.127    19301053.157
        51.800          48.500
 103946111.508 8  80846991.310 8  19465755.428    19465755.059    19465759.839
        50.800          49.900
 132125540.933 7                  25142643.055
        42.500


 198904457.640 7                  37850278.916
        42.200


 130788061.859 7                  24888144.100
        42.600
 202040558.900 7                  38447057.790
        45.300
 117877635.360 7  91682597.440 6  22012820.467    22012821.585    22012819.985
        44.200          39.300
 127083193.236 6                  24183134.591
        41.300
 117194795.113 5  91151599.816 5  21939121.370    21939120.925    21939120.067
        34.400          35.800
 25  1  1 17  8 30.0000000  0 25E31G07G26G08G16G27G04G03R18R06R10E09
                                G09E04R07R09E21S35S31G31E06S33R08E19
                                R16
 136122973.993 5                  25903339.890
        35.300
 123817364.639 6  96481035.21344  23561653.884    23561653.7414   23561652.4264
        41.700          28.6004
 119254721.147 4  92925777.86441  22693408.292    22693407.5194   22693422.1894
        28.000          10.2004
 120356944.647 5  93784636.15843  22903152.137    22903152.4054   22903166.7284
        35.700          22.5004
 107278910.669 7  83593776.97745  20414442.494    20414441.6094   20414442.3684
        44.800          30.8004
 114202123.724 6  88988715.30846  21731942.112    21731941.3254   21731947.1414
        41.000          36.3004
 104852223.803 8  81703034.91247  19952701.732    19952701.3884   19952703.5164
        49.900          44.0004
 124631569.404 5  97115575.25642  23716598.634    23716598.0044   23716615.7574
        32.400          12.3004
 124945052.555 5                  23406406.767
        35.800
 110740576.969 6                  20752734.280    20752733.167
        36.800
 112537814.604 7                  21111793.884    21111793.751
        42.300
 142221579.403 6                  27063867.419
        40.200
 108957417.552 7  84901881.47846  20733911.535    20733911.0394   20733912.6474
        44.000          39.9004
 123625810.917 8                  23525190.897
        49.300
 103316010.074 8  80356931.793 8  19300298.538    19300299.229    19300304.572
        51.900          49.300
 103952147.792 8  80851686.209 8  19466885.349    19466885.553    19466889.653
        51.600          50.000
 132156677.986 7                  25148567.861
        43.400
 200841660.884 6                  38218895.780
        36.800
 198904454.037 7                  37850276.157
        42.400


 130757733.506 6                  24882372.556
        40.900
 202040576.138 7                  38447059.145
        45.100
 117823393.994 7  91640409.637 6  22002691.818    22002690.167    22002688.840
        42.200          37.400
 127112396.739 7                  24188692.092
        42.000
 117241739.626 6  91188085.937 6  21947902.595    21947904.238    21947903.903
        36.400          36.000
 25  1  1 17  8 45.0000000  0 25E31G07G26G08G16G27G04G03R18R06R10E09
                                G09E04R07R09E21S35S31G31E06S33R08E19
                                R16
 136085864.294 6                  25896277.267
        37.200
 123783971.021 6  96455014.16944  23555297.225    23555297.1994   23555298.5684
        36.600          27.6004


 120303592.173 5  93743063.02143  22893000.130    22893000.3534   22893014.8614
        35.300          23.9004
 107306273.611 7  83615098.72545  20419650.475    20419649.6044   20419649.4874
        45.400          31.5004
 114166844.069 7  88961224.82246  21725229.250    21725228.4634   21725234.4534
        42.500          39.2004
 104851594.066 8  81702544.19447  19952581.724    19952581.3764   19952583.5734
        51.000          43.4004


 124916681.027 6                  23401091.825
        39.100
 110793275.603 6                  20762608.133    20762608.347
        36.900
 112505526.544 7                  21105737.333    21105736.000
        42.000
 142182043.675 5                  27056343.478
        35.700
 108930282.378 7  84880737.17947  20728748.881    20728748.4214   20728749.9804
        46.800          43.3004
 123612307.233 8                  23522621.208
        49.700
 103312196.255 8  80353965.460 8  19299586.385    19299586.676    19299592.452
        52.400          49.100
 103958278.233 8  80856454.344 8  19468032.234    19468032.305    19468038.359
        50.300          50.300
 132187856.590 6                  25154500.781
        41.700


 198904448.163 7                  37850275.016
        42.300


 130727449.498 6                  24876609.821
        40.600
 202040590.049 7                  38447067.064
        46.300
 117769245.450 6  91598294.220 6  21992576.559    21992576.113    21992575.805
        36.900          36.100
 127141664.924 7                  24194261.342
        43.300
                  91224579.517 5                                  21956685.025
                        33.900
 25  1  1 17  9  0.0000000  0 25E31G07G26G08G16G27G04G03R18R06R10E09
                                G09E04R07R09E21S35S31G31E06S33R08E19
                                R16
 136048802.683 5                  25889224.119
        35.800
 123750584.252 5  96428998.54244  23548944.281    23548944.2854   23548946.4904
        32.400          25.1004
 119350042.118 5  93000087.68843  22711559.555    22711559.9214   22711568.9994
        30.100          18.4004
 120250278.338 6  93701520.01543  22882853.270    22882853.4624   22882869.4614
        38.300          21.8004
 107333755.105 7  83636512.84345  20424879.216    20424878.3534   20424878.1604
        47.000          31.5004
 114131681.814 7  88933825.78746  21718537.443    21718536.6614   21718543.9754
        43.100          40.1004
 104851098.155 8  81702157.75447  19952486.773    19952486.4294   19952488.4534
        50.600          42.3004


 124888450.214 6                  23395802.646    23395801.344
        36.600
 110846097.722 5                  20772505.828    20772505.877
        33.700
 112473328.908 7                  21099696.546    21099696.666
        42.600
 142142523.586 6                  27048824.790
        36.400
 108903259.372 8  84859680.30447  20723606.569    20723606.1274   20723608.0434
        48.000          44.2004
 123598878.280 8                  23520065.739
        49.500
 103308584.219 8  80351156.103 8  19298911.418    19298911.054    19298917.336
        52.000          49.200
 103964504.897 8  80861297.248 8  19469199.892    19469199.537    19469204.232
        51.500          50.300
 132219078.387 7                  25160443.141
        44.300


 198904441.812 7                  37850268.394
        42.400
 125591377.134 5                  23899230.733
        34.500
 130697212.189 6                  24870856.134
        41.300
 202040603.991 7                  38447071.156
        46.600
 117715192.976 5  91556253.496 5  21982489.129    21982487.457    21982478.505
        32.000          34.900
 127170999.806 6                  24199842.189
        40.100
                  91261082.864 5                                  21965472.626
                        32.300
 25  1  1 17  9 15.0000000  0 25E31G07G26G08G16G27G04G03R18R06R10E09
                                G09E04R07R09E21S35S31G31E06S33R08E19
                                R16
 136011791.061 7                  25882184.211
        44.100
 123717206.026 6  96402989.59144  23542595.905    23542595.8384   23542594.8494
        39.100          24.5004


 120197005.489 5  93660008.82243  22872716.299    22872716.4594   22872730.9734
        35.800          20.5004
 107361356.747 7  83658020.58244  20430131.730    20430130.8364   20430129.0834
        46.900          28.8004
 114096639.133 7  88906519.86046  21711868.957    21711868.1974   21711876.0264
        45.000          41.0004
 104850738.056 8  81701877.13946  19952418.656    19952418.3174   19952419.2954
        50.000          41.7004
 124785815.691 5  97235851.50042  23745957.310    23745957.1324   23745982.1504
        35.600          17.6004
 124860362.357 5                  23390538.562    23390534.667
        30.800
 110899044.526 5                  20782429.444    20782428.886
        34.100
 112441223.781 7                  21093672.302    21093672.152
        43.400
 142103021.173 5                  27041309.096
        31.900
 108876350.770 7  84838712.58647  20718486.103    20718485.6704   20718487.4054
        46.900          44.0004
 123585526.110 8                  23517525.085
        50.500
 103305176.390 8  80348505.566 8  19298273.478    19298274.353    19298279.893
        51.800          48.000
 103970829.493 8  80866216.404 8  19470383.529    19470383.216    19470388.344
        51.400          50.000
 132250345.484 6                  25166392.191
        40.200


 198904437.280 7                  37850272.181
        43.200
 125632801.957 5                  23907097.426
        33.900
 130667023.584 7                  24865111.236
        44.200
 202040619.427 7                  38447073.061
        44.500
 117661184.734 4  91514288.981 5  21972404.789                    21972403.497
        29.800          32.000
 127200403.306 6                  24205437.860
        38.500
 117382539.982 5                  21974256.735    21974255.626
        33.100
 25  1  1 17  9 30.0000000  0 26R17E31G07G26G08G16G27G04G03R18R06R10
                                E09G09E04R07R09E21S35S31G31E06S33R08
                                E19R16
 128625655.813 4                  24036780.792
        29.400
 135974827.672 6                  25875146.793
        40.700
 123683834.762 7  96376986.06544  23536245.648    23536245.5324   23536241.7384
        43.500          28.2004


 120143772.249 5  93618528.55442  22862586.382    22862586.4584   22862600.2444
        30.700          17.4004
 107389076.386 7  83679620.28544  20435406.403    20435405.4784   20435403.5724
        46.200          28.4004
 114061714.539 7  88879305.98046  21705222.587    21705221.8544   21705230.3634
        43.700          41.5004
 104850512.011 8  81701700.96047  19952375.052    19952374.7224   19952376.3144
        50.700          42.5004
 124837264.415 6  97275941.28643  23755752.905    23755752.5754   23755764.7364
        40.500          22.0004
 124832416.137 6                  23385308.806    23385308.042
        39.100
 110952113.876 5                  20792374.425    20792375.384
        31.300
 112409209.369 7                  21087666.837    21087665.954
        43.400
 142063534.791 5                  27033795.763
        33.900
 108849554.964 8  84817832.71247  20713387.601    20713387.1774   20713388.0124
        49.000          45.1004
 123572249.048 8                  23514998.598
        49.700
 103301970.785 8  80346012.293 7  19297675.069    19297675.822    19297680.901
        51.100          47.900
 103977249.694 8  80871209.909 8  19471585.601    19471585.930    19471590.661
        52.300          49.700
 132281655.433 6                  25172351.178
        40.300


 198904432.060 7                  37850268.135
        42.200
 125674241.234 5                  23914985.437
        34.400
 130636882.197 7                  24859376.258
        44.800
 202040634.867 7                  38447073.137
        44.400
                  91472399.816 5                                  21962344.055
                        33.600
 127229873.427 5                  24211047.632
        35.200
 117429533.422 5  91334080.227 4  21983055.914                    21983053.951
        32.200          29.100
 25  1  1 17  9 45.0000000  0 25E31G07G26G08G16G27G04G03R18R06R10E09
                                G09E04R07R09E21S35S31G31E06S33R08E19
                                R16
 135937914.611 7                  25868123.157
        42.000
 123650472.278 7  96350989.32644  23529895.898    23529895.7114   23529894.9324
        45.700          28.2004
 119493584.813 4                  22738857.568
        29.700
 120090580.778 6  93577080.72942  22852463.997    22852463.8544   22852479.1334
        39.200          15.7004
 107416915.779 6  83701313.23844  20440703.224    20440702.3124   20440700.8184
        41.600          25.1004
 114026910.459 7  88852185.99747  21698599.135    21698598.4204   21698607.0764
        45.600          42.2004
 104850422.130 8  81701630.94047  19952358.209    19952357.8744   19952359.1524
        50.700          42.3004
 124888728.078 5  97316042.57142  23765563.421    23765562.8584   23765558.0954
        32.500          16.1004
 124804613.846 6                  23380095.452    23380095.977
        39.900
 111005307.239 5                  20802344.237    20802342.586
        32.700
 112377287.655 6                  21081678.710    21081678.165
        41.900
 142024066.584 6                  27026285.124
        38.800
 108822874.168 7  84797042.51647  20708310.281    20708309.8484   20708310.6724
        46.400          43.7004
 123559049.118 8                  23512486.602
        48.900
 103298969.481 8  80343677.941 8  19297114.832    19297114.727    19297120.540
        50.500          48.100
 103983767.435 8  80876279.271 8  19472806.071    19472806.857    19472810.774
        52.900          48.700
 132313010.208 5                  25178316.907
        34.300


 198904427.912 6                  37850273.527
        41.200
 125715697.018 4  97960235.14741  23922873.302    23922873.2184   23922886.9944
        25.000          11.9004
 130606790.061 7                  24853649.009
        43.800
 202040651.416 7                  38447075.413
        44.200
 117553725.086 6  91430588.085 6  21952326.752                    21952308.991
        40.900          39.800
 127259412.072 6                  24216667.235
        40.500


 25  1  1 17 10  0.0000000  0 25E31G07G26G08G16G27G04G03R18R06R10E09
                                G09E04R07R09E21S35S31G31E06S33R08E19
                                R16
 135901045.994 6                  25861107.715
        37.900
 123617112.734 7  96324994.87245  23523547.199    23523546.9674   23523548.7154
        45.900          32.2004


 120037425.919 6  93535661.31841  22842346.369    22842346.2584   22842364.7924
        37.300           9.7004
 107444868.501 7  83723094.60544  20446021.979    20446021.0584   20446021.5704
        44.300          25.3004
 113992221.295 7  88825155.54946  21691998.572    21691997.8704   21692006.1754
        45.300          41.4004
 104850462.606 8  81701662.45647  19952366.285    19952365.9464   19952367.2284
        51.600          43.5004
 124940198.628 6  97356098.76443  23775335.316    23775334.9364   23775353.7664
        39.100          20.8004
 124776950.197 5  97048720.678 5  23374915.194    23374916.019    23374921.942
        33.100          33.600
 111058618.161 5                  20812333.660    20812333.206
        33.500
 112345452.596 6                  21075705.954    21075704.471
        39.800
 141984610.905 5                  27018774.699
        33.000
 108796302.790 7  84776337.51447  20703253.840    20703253.4074   20703254.1844
        46.800          44.3004
 123545920.678 8                  23509988.435
        50.100
 103296166.865 8  80341498.102 8  19296591.387    19296591.042    19296597.713
        50.200          49.300
 103990376.516 8  80881419.688 8  19474044.117    19474045.045    19474048.331
        52.400          48.500
 132344404.885 6                  25184295.090
        36.700


 198904420.875 6                  37850270.344
        40.200


 130576741.415 7                  24847930.543
        42.500
 202040663.500 6                  38447088.233
        41.000
 117500061.937 6  91388849.059 6  21942291.746    21942292.132    21942287.276
        39.200          37.100
 127289013.315 5                  24222301.914
        35.900


 25  1  1 17 10 15.0000000  0 25E31G07G26G08G16G27G04G03R18R06R10E09
                                G09E04R07R09E21S35S31G31E06S33R08E19
                                R16
 135864227.587 6                  25854101.663
        38.700
 123583761.508 7  96299006.93345  23517201.037    23517200.7874   23517203.1484
        45.100          34.6004
 119589193.919 5  93186419.50841  22757056.541    22757057.2164   22757072.9014
        32.700          11.6004
 119984313.163 6  93494274.75142  22832241.086    22832241.0464   22832255.2814
        37.300          17.8004
 107472939.773 6  83744968.30844  20451365.219    20451364.3434   20451364.1354
        41.900          26.6004
 113957652.997 7  88798219.29546  21685420.207    21685419.5014   21685427.3714
        44.200          39.5004
 104850639.053 8  81701799.92047  19952399.293    19952398.9494   19952401.6284
        50.200          44.5004


                  97027316.964 5                                  23369769.993
                        30.300
 111112027.877 5                  20822345.268    20822346.707
        31.900
 112313709.680 7                  21069751.149    21069750.993
        42.200
 141945173.280 6                  27011270.921
        36.700
 108769846.601 8  84755722.30947  20698219.119    20698218.6864   20698220.0534
        50.400          45.6004
 123532869.317 8                  23507504.598
        50.100
 103293568.410 8  80339477.075 7  19296106.555    19296106.448    19296111.232
        50.500          47.700
 103997082.119 8  80886635.145 8  19475299.925    19475299.894    19475304.169
        50.800          49.400
 132375842.619 5                  25190273.929
        33.300
 200841300.109 6                  38218826.018
        38.200
 198904414.352 7                  37850273.049
        42.900
 125798517.773 6                  23938658.619
        37.100
 130546741.997 7                  24842222.457
        46.500
 202040677.933 7                  38447077.680
        43.600
 117446381.622 6  91347188.101 7  21932283.018    21932282.467    21932287.950
        38.300          42.900
 127318682.708 6                  24227947.292
        39.800
 117570481.954 6                  22009436.334    22009439.082
        39.800
 25  1  1 17 10 30.0000000  0 25E31G07G26G08G16G27G04G03R18R06R10E09
                                G09E04R07R09E21S35S31G31E06S33R08E19
                                R16
 135827459.994 6                  25847104.350
        41.400
 123550419.484 6  96273026.15245  23510856.540    23510856.3044   23510857.7054
        40.800          30.8004


 119931243.919 6  93452922.25443  22822142.386    22822142.3464   22822156.5154
        36.600          23.1004
 107501130.075 6  83766934.81743  20456729.160    20456728.2894   20456729.2014
        37.000          20.0004
 113923206.545 7  88771377.98245  21678866.793    21678866.1324   21678871.3164
        44.100          35.1004
 104850952.239 8  81702043.97247  19952459.765    19952459.4174   19952461.4184
        51.800          44.5004


 124721985.023 5  97006035.364 5  23364636.432                    23364641.704
        34.700          33.500
 111165584.419 5                  20832380.046    20832382.379
        30.100
 112282059.687 7                  21063812.332    21063812.003
        42.100
 141905754.642 6                  27003767.916
        38.800
 108743506.641 8  84735197.63347  20693206.041    20693205.6084   20693208.6704
        48.300          45.3004
 123519895.894 8                  23505035.952
        49.700
 103291175.047 8  80337615.552 8  19295658.924    19295659.460    19295664.772
        50.600          48.500
 104003884.973 8  80891926.267 8  19476573.528    19476573.793    19476577.987
        52.800          49.800
 132407324.747 6                  25196266.554
        40.500


 198904409.729 7                  37850276.215
        42.800
 125840016.078 5  98057145.34143  23946554.692    23946554.6704   23946556.2584
        34.700          19.9004
 130516792.762 7                  24836523.255
        43.900
 202040693.608 7                  38447086.860
        43.900
 117392918.782 6  91305605.671 7  21922304.928    21922302.503    21922303.912
        36.700          42.500
 127348420.726 6                  24233605.118
        38.300


 25  1  1 17 10 45.0000000  0 24E31G07G26G08G16G27G04G03R06R10E09G09
                                E04R07R09E21S35S31G31E06S33R08E19R16
 135790742.488 6                  25840117.833
        39.900
 123517085.686 6  96247051.80344  23504513.016    23504512.8024   23504512.9204
        41.100          28.5004


 119878217.537 6  93411603.25543  22812051.898    22812051.7384   22812067.1934
        37.300          20.4004
 107529438.404 6  83788993.20844  20462115.350    20462114.4744   20462117.0914
        40.800          24.2004
 113888881.517 7  88744631.25345  21672333.088    21672332.4544   21672339.1204
        43.000          33.4004
 104851401.462 8  81702393.97547  19952545.108    19952544.7644   19952546.8844
        51.500          45.1004
 125094820.446 5  97476505.46941  23804733.389    23804733.5234   23804757.1254
        32.400          11.4004
                                                  20842443.042

 112250502.011 6                  21057893.431    21057891.941
        37.900
 141866354.310 6                  26996274.656
        36.200
 108717282.199 8  84714763.04147  20688215.725    20688215.3054   20688218.8054
        49.300          45.3004
 123506999.664 8                  23502582.004
        49.800
 103288986.163 8  80335913.117 8  19295248.716    19295250.606    19295256.419
        52.400          48.900
 104010783.989 8  80897292.157 8  19477865.953    19477866.212    19477870.728
        52.800          49.700
 132438850.583 6                  25202265.879
        37.500


 198904406.464 6                  37850266.762
        41.900
 125881529.017 5                  23954457.845
        32.600
 130486892.935 7                  24830833.548
        43.700
 202040710.221 7                  38447089.861
        43.400
 117339501.169 6  91264101.495 7  21912338.802                    21912340.600
        37.200          44.800
 127378226.602 6                  24239278.875
        39.900
 117664564.571 5  91516825.790 5  22027042.806    22027042.228    22027043.157
        35.500          35.800
 25  1  1 17 11  0.0000000  0 24E31G07G26G08G16G27G04G03R06R10E09G09
                                E04R07R09E21S35S31G31E06S33R08E19R16
 135754068.607 5                  25833136.395
        31.900
 123483753.519 7  96221078.63745  23498170.516    23498170.3734   23498170.5854
        43.900          30.8004


 119825228.023 5  93370312.94044  22801967.564    22801967.3144   22801983.3134
        34.900          26.3004
 107557857.516 6  83811137.95543  20467521.315    20467520.4614   20467525.1874
        38.200          20.1004
 113854671.616 7  88717974.40944  21665822.784    21665822.1634   21665827.6824
        45.000          29.2004
 104851980.133 8  81702844.87147  19952655.049    19952654.7104   19952657.0964
        51.900          45.7004


 111273054.297 5                  20852526.268    20852522.384
        30.600
 112219029.661 7                  21051988.957    21051988.550
        42.000
 141826965.875 5                  26988772.324
        34.000
 108691166.932 8  84694413.49747  20683246.244    20683245.8384   20683249.4904
        49.700          46.8004
 123494174.114 8                  23500140.805
        49.200
 103286994.603 8  80334364.098 8  19294878.828    19294879.609    19294883.951
        52.300          48.300
 104017772.054 8  80902727.290 8  19479175.231    19479175.459    19479179.044
        51.600          50.200
 132470413.152 5                  25208272.003
        34.000


 198904397.648 7                  37850273.639
        42.600


 130457036.124 7                  24825151.948
        42.500
 202040720.833 7                  38447090.352
        45.900
                  91222671.098 7                  21902388.696    21902391.017
                        42.100
 127408093.551 6                  24244961.125
        37.800
 117711589.365 6  91553400.690 6  22035838.145    22035840.726    22035846.973
        40.500          36.800
 25  1  1 17 11 15.0000000  0 24E31G07G26G08G16G27G04G03R06R10E09G09
                                E04R07R09E21S35S31G31E06S33R08E19R16
 135717449.139 4                  25826182.177
        28.600
 123450433.662 7  96195115.04844  23491829.253    23491829.0884   23491829.1314
        44.800          28.9004


 119772286.069 6  93329059.63244  22791893.652    22791893.3174   22791908.9224
        40.600          28.3004
 107586397.735 6  83833377.09743  20472954.867    20472954.0274   20472956.9254
        39.300          22.3004
 113820587.865 7  88691415.76444  21659337.224    21659336.6124   21659338.4324
        42.900          24.2004
 104852698.971 8  81703404.98547  19952791.526    19952791.1784   19952794.1834
        50.800          45.3004
 125197853.025 4                  23824351.025
        29.300
 111326972.843 5                  20862627.706    20862629.633
        34.200
 112187653.193 7                  21046106.261    21046106.135
        44.200
 141787600.038 5                  26981280.910
        34.800
 108665171.807 8  84674157.57247  20678299.816    20678299.4104   20678302.3644
        50.100          47.1004
 123481430.102 8                  23497716.106
        48.800
 103285211.791 8  80332977.460 8  19294544.185    19294544.940    19294550.023
        50.900          48.400
 104024859.989 8  80908240.136 8  19480501.852    19480502.323    19480506.826
        51.800          51.200
 132502022.972 5                  25214286.800
        35.300


 198904393.330 7                  37850275.960
        43.600


 130427233.108 7                  24819480.579
        43.600
 202040737.786 6                  38447076.446
        41.200
 117233280.725 6  91181323.015 7  21892460.432    21892460.182    21892464.158
        39.400          42.700
 127438031.932 6                  24250658.314
        40.000
 117758630.080 6  91589987.816 5  22044640.307    22044640.280    22044652.881
        37.500          35.900
 25  1  1 17 11 30.0000000  0 23E31G07G26G08G27G04G03R18R06R10E09G09
                                E04R07R09E21S35S31E06S33R08E19R16
 135680878.459 6                  25819208.493
        40.200
 123417120.160 6  96169156.47044  23485489.514    23485489.3274   23485489.3184
        40.700          27.9004


 119719386.336 5  93287839.24744  22781824.479    22781824.0774   22781842.1194
        33.200          26.2004
 113786624.458 6  88664950.79444  21652873.308    21652872.6514   21652876.0034
        39.800          25.7004
 104853552.040 8  81704069.73647  19952954.209    19952953.8704   19952956.5744
        52.500          45.3004


 124613919.710 4  96921977.061 5  23344385.222                    23344402.648
        27.400          35.300
 111381008.607 5                  20872754.570    20872755.631
        35.600
 112156366.693 6                  21040234.162    21040234.023
        41.700
 141748250.755 5                  26973795.096
        32.500
 108639291.046 8  84653990.74248  20673374.864    20673374.4754   20673377.3914
        49.900          48.4004
 123468761.684 7                  23495305.495
        47.600
 103283631.241 8  80331748.189 8  19294250.032    19294250.510    19294255.317
        50.200          49.500
 104032041.186 8  80913825.478 8  19481846.543    19481846.913    19481851.800
        50.200          50.800
 132533673.518 5                  25220308.599
        34.200


 198904387.936 7                  37850266.874
        44.100
 130397477.952 7                  24813818.565
        45.900
 202040752.864 6                  38447084.736
        41.800
 117180219.021 7  91140052.992 7  21882551.077    21882548.509    21882555.418
        42.900          42.400
 127468035.928 5                  24256367.639
        35.600
 117805680.648 7                  22053454.872    22053455.038
        47.000
 25  1  1 17 11 45.0000000  0 23E31G07G26G08G27G04G03R18R10E09G09E04
                                R07R09E21S35S31G31E06S33R08E19R16
 135644355.602 5                  25812260.471
        30.900
 123383812.839 6  96143202.78943  23479152.140    23479151.9354   23479148.5984
        38.900          23.3004


 119666529.113 6  93246652.02344  22771768.345    22771767.9564   22771782.2834
        39.900          28.7004
 113752782.110 6  88638580.29244  21646431.980    21646431.3634   21646435.7354
        38.300          25.1004
 104854539.462 8  81704839.13747  19953141.841    19953141.5024   19953144.0114
        50.600          44.3004


 124587265.513 5                  23339395.600
        32.100
 112125170.116 7                  21034382.386    21034382.167
        42.500
 141708918.480 6                  26966311.529
        36.600
 108613524.887 7  84633913.21147  20668471.935    20668471.5334   20668473.8954
        47.800          46.9004
 123456168.928 8                  23492909.064
        48.300
 103282253.664 8  80330676.665 8  19293992.098    19293992.592    19293998.096
        51.800          49.300
 104039315.664 8  80919483.400 8  19483208.557    19483209.466    19483213.651
        50.600          50.900




 198904382.697 7                  37850267.526
        42.100


 130367771.111 7                  24808165.093
        42.500
 202040767.043 7                  38447081.128
        42.500
 117127258.296 6  91098861.329 6  21872660.423    21872659.846    21872664.591
        41.400          41.800
 127498105.420 6                  24262090.198
        37.200
 117852740.592 6                  22062259.843    22062262.422
        40.100
 25  1  1 17 12  0.0000000  0 24E31G07G26G08G16G27G04G03R06R10E09G09
                                E04R07R09E21S35S31G31E06S33R08E19R16
 135607884.981 5                  25805320.366
        30.200
 123350515.665 5  96117256.85644  23472814.831    23472814.6534   23472812.7154
        34.900          24.0004


 119613718.667 7  93205501.23044  22761718.515    22761718.1314   22761730.5404
        45.600          29.4004
 107672709.693 6  83900595.21343  20489380.241    20489379.9024   20489378.5034
        37.300          19.0004
 113719064.609 6  88612306.96444  21640017.983    21640017.4204   21640021.2464
        41.400          26.4004
 104855665.263 8  81705716.36847  19953356.452    19953356.1174   19953358.1444
        51.000          44.4004
 125352502.925 5  97677316.44943  23853784.614    23853784.2754   23853797.7054
        31.100          18.1004
 111489452.702 5                  20893075.250    20893075.882
        31.500
 112094067.719 6                  21028542.617    21028544.687
        37.100
 141669607.254 6                  26958831.881
        38.200
 108587877.474 8  84613928.23647  20663591.153    20663590.7154   20663593.0834
        48.900          45.6004
 123443656.005 8                  23490527.997
        48.000
 103281082.587 8  80329765.805 8  19293773.398    19293773.943    19293779.389
        52.300          50.000
 104046687.014 8  80925216.654 8  19484589.084    19484589.753    19484594.582
        48.900          50.600
 132597155.767 5                  25232376.605
        32.700


 198904379.230 7                  37850267.500
        45.600
 126089402.128 5                  23993991.592
        34.100
 130338116.321 7                  24802522.178
        42.500
 202040784.546 6                  38447096.653
        37.700
 117074402.804 7  91057751.439 6  21862791.490    21862792.183    21862792.756
        43.400          39.600
 127528244.008 6                  24267824.903
        36.400
 117899813.794 6                  22071071.871    22071071.509
        38.000
 25  1  1 17 12 15.0000000  0 24E31G07G26G08G16G27G04G03R18R06R10E09
                                G09E04R07R09E21S35S31G31E06S33R08E19
 135571463.499 5                  25798388.890
        34.700
 123317226.081 6  96091317.26042  23466476.468    23466476.0664   23466477.9244
        37.600          15.5004
 119973526.373 4  93485868.94041  22830192.615    22830192.7754   22830201.7724
        29.300          10.4004
 119560951.978 7  93164384.57944  22751677.795    22751677.3714   22751685.9534
        45.200          26.3004
 107701711.616 6  83923194.09643  20494899.023    20494898.5584   20494898.2924
        40.700          21.8004
 113685459.167 5  88586087.85844  21633623.835    21633623.2724   21633627.8374
        35.600          24.6004
 104856926.040 8  81706698.78147  19953596.038    19953595.7084   19953598.0154
        50.200          43.6004
 125404074.060 5  97717501.46843  23863598.314    23863598.0514   23863607.7394
        32.800          19.4004
 124534448.989 5                  23329496.850
        32.000
 111543844.454 4                  20903267.074    20903267.390
        29.200
 112063055.667 5                  21022728.489    21022726.422
        35.300
 141630313.530 6                  26951354.255
        40.100
 108562345.690 7  84594033.30247  20658732.455    20658731.9824   20658734.6024
        44.500          43.1004
 123431219.577 8                  23488161.600
        49.000
 103280114.747 8  80329013.030 8  19293592.354    19293592.610    19293598.395
        52.800          49.200
 104054151.612 8  80931022.429 8  19485986.705    19485987.082    19485992.434
        50.100          50.300
 132628932.645 5                  25238423.414
        34.900


 198904375.371 7                  37850262.277
        42.600


 130308510.449 6                  24796888.120
        39.700
 202040801.175 6                  38447104.738
        38.100
 117021649.472 6  91016721.280 6  21852938.081    21852942.365    21852943.367
        40.700          39.500
 127558448.431 6                  24273574.698
        40.500
 25  1  1 17 12 30.0000000  0 23E31G07G08G16G27G04G03R18R10E09G09E04
                                R07R09E21S35S31G31E06S33R08E19R16
 135535090.487 4                  25791469.939
        29.500


 119508228.951 7  93123301.90043  22741643.760    22741643.2604   22741649.2884
        42.200          22.8004
 107730517.967 6  83945857.36643  20500438.989    20500438.2874   20500436.1374
        40.600          22.3004
 113651985.531 7  88560004.56444  21627255.891    21627255.5524   21627259.0304
        43.100          24.0004
 104858321.325 8  81707786.00547  19953861.942    19953861.6124   19953863.3214
        51.400          44.2004


 124508239.112 4                  23324584.188
        29.400
 112032133.346 6                  21016928.279    21016928.548
        36.400
 141591037.275 6                  26943880.450
        41.200
 108536929.268 6  84574228.31747  20653896.225    20653895.7384   20653898.1494
        41.200          44.0004
 123418859.151 8                  23485809.391
        49.200
 103279349.521 8  80328417.889 8  19293450.479    19293450.323    19293455.706
        52.400          48.600
 104061708.386 8  80936899.898 8  19487402.489    19487402.547    19487407.747
        51.600          49.500
 132660614.490 6                  25244481.467
        36.500


 198904371.130 7                  37850265.009
        45.400
 126172502.010 5                  24009828.635
        32.800
 130278953.202 6                  24791263.041
        41.700


 116968998.213 6  90975770.308 6  21843096.891    21843097.422    21843109.684
        36.500          40.600
 127588717.973 6                  24279334.234
        39.900
 117993987.473 6                  22088702.469    22088701.883
        38.400
 25  1  1 17 12 45.0000000  0 24E31G07G26G08G16G27G04G03R18R06R10E09
                                G09E04R07R09E21S35S31E06S33R08E19R16
 135498738.690 6                  25784555.267
        38.300
 123250661.608 6  96039416.59444  23453813.361    23453812.6774   23453811.8074
        38.100          28.8004
 120069881.095 5  93560996.38441  22848539.507    22848539.2714   22848549.9264
        33.100           9.8004
 119455548.462 6  93082252.35743  22731619.424    22731618.8794   22731624.0814
        41.500          23.7004
 107759745.019 7  83968631.65943  20506001.836    20506001.1934   20505998.4564
        42.500          22.1004
 113618632.600 6  88534015.25544  21620908.920    21620908.4204   21620912.7074
        40.400          29.4004
 104859849.761 8  81708976.96447  19954152.704    19954152.3784   19954154.1334
        51.100          43.3004


 124482173.986 5                  23319701.946    23319703.639
        32.600
 111652992.787 5                  20923719.372
        34.700
 112001299.172 6                  21011142.118    21011140.725
        37.900
 141551777.108 6                  26936409.338
        38.700
 108511626.909 7  84554512.18847  20649080.720    20649080.2204   20649083.5044
        43.400          43.2004
 123406573.493 8                  23483471.786
        48.800
 103278785.966 8  80327979.529 8  19293344.465    19293345.468    19293350.238
        53.200          48.300
 104069355.981 8  80942848.050 8  19488834.265    19488834.665    19488839.489
        51.500          49.500
 132692469.702 6                  25250543.084
        36.800


 198904363.910 7                  37850264.316
        45.000
 130249443.233 7                  24785648.783
        42.000
 202040855.283 7                  38447110.497
        45.200
 116916448.193 6  90934898.041 6  21833289.727    21833288.511    21833295.644
        36.900          37.900
 127619051.259 7                  24285106.720
        42.100
 118041085.560 6                  22097517.652    22097517.754
        40.800
 25  1  1 17 13  0.0000000  0 24E31G07G26G08G16G27G04G03R06R10E09G09
                                E04R07R09E21S35S31G31E06S33R08E19R16
 135462466.148 5                  25777652.813
        30.300
 123217392.998 7  96013492.99145  23447482.849    23447482.4074   23447484.8734
        42.000          34.3004
 120118141.654 5  93598602.04341  22857721.797    22857721.5024   22857736.2084
        35.500           6.1004
 119402917.051 6  93041241.06044  22721603.359    22721602.8364   22721611.2504
        41.900          26.9004
 107789089.636 7  83991497.58943  20511585.175    20511584.4384   20511582.5784
        43.900          22.7004
 113585406.850 5  88508125.12944  21614586.991    21614586.7144   21614589.1934
        35.100          26.8004
 104861517.584 8  81710276.55247  19954470.349    19954470.0194   19954471.4804
        50.400          42.9004
 125558843.923 5  97838102.34142  23893046.259    23893046.2014   23893059.0574
        35.200          16.1004
 111707735.349 5                  20933978.466    20933979.746
        35.600
 111970559.646 6                  21005377.522    21005375.131
        41.100
 141512539.194 6                  26928942.288
        39.900
 108486445.106 7  84534889.99247  20644287.597    20644287.0834   20644292.0534
        46.800          45.9004
 123394368.873 8                  23481148.828
        48.800
 103278430.030 8  80327702.693 8  19293277.307    19293278.040    19293283.477
        52.600          48.100
 104077100.352 7  80948871.459 7  19490284.961    19490284.119    19490289.010
        47.800          47.700




 198904359.837 6                  37850262.773
        41.800
 126255789.040 5                  24025679.044
        34.900
 130219986.878 7                  24780043.162
        44.400
 202040872.003 6                  38447105.207
        39.000
 116864006.346 6  90894109.953 6  21823502.464    21823499.794    21823504.378
        38.600          40.700
 127649454.234 7                  24290891.927
        42.600
 118088196.710 6  91846344.598 5  22106338.882    22106339.518    22106350.871
        40.900          30.900
 25  1  1 17 13 15.0000000  0 24E31G07G26G08G16G27G04G03R06R10E09G09
                                E04R07R09E21S35S31G31E06S33R08E19R16
 135426239.054 6                  25770758.466
        38.800
 123184127.239 7  95987571.58145  23441152.676    23441152.3774   23441155.6894
        42.600          35.5004
 120166429.932 5  93636229.84641  22866912.003    22866911.5074   22866924.3064
        33.100          11.5004
 119350327.050 7  93000262.05745  22711595.346    22711594.8104   22711604.7164
        43.100          30.1004
 107818543.207 7  84014448.40444  20517190.646    20517189.9534   20517189.0444
        43.700          25.0004
 113552300.560 5  88482328.07844  21608287.206    21608286.9344   21608289.4594
        35.200          29.2004
 104863316.689 8  81711678.42347  19954812.627    19954812.2924   19954813.4294
        51.500          42.3004
 125610442.323 5  97878308.54942  23902861.484    23902861.4714   23902876.8444
        34.000          16.9004
 111762589.154 5                  20944257.389    20944258.356
        35.200
 111939906.235 6                  20999624.388    20999624.048
        38.000
 141473315.649 6                  26921478.577
        41.200
 108461375.805 8  84515355.43247  20639517.921    20639517.4304   20639521.6194
        48.300          46.6004
 123382237.204 8                  23478840.584
        49.200
 103278273.441 8  80327580.868 8  19293248.751    19293248.926    19293254.318
        51.700          48.100
 104084932.859 7  80954963.440 8  19491750.740    19491749.961    19491756.427
        47.600          48.000
 132756304.949 6                  25262690.063
        39.200


 198904351.558 7                  37850263.556
        44.200
 126297441.986 4                  24033607.821
        27.300
 130190576.047 7                  24774446.734
        44.700
 202040883.854 7                  38447105.386
        43.300
 116811664.437 6  90853399.690 6  21813722.162    21813721.581    21813727.470
        41.900          37.200
 127679918.537 7                  24296688.901
        42.800
 118135312.366 6  91882990.279 6  22115160.414    22115160.241    22115174.532
        41.400          36.200
 25  1  1 17 13 30.0000000  0 24E31G07G26G08G16G27G04G03R06R10E09G09
                                E04R07R09E21S35S31G31E06S33R08E19R16
 135390064.400 6                  25763875.414
        38.900
 123150871.316 6  95961657.86946  23434824.581    23434824.3184   23434827.4134
        41.100          36.0004
 120214752.766 6  93673883.78441  22876106.823    22876106.3764   22876119.4874
        39.000          11.0004
 119297785.711 6  92959320.88044  22701595.667    22701595.1314   22701607.6934
        38.400          26.9004
 107848112.528 7  84037489.39745  20522817.174    20522816.4554   20522817.0204
        47.800          30.1004
 113519321.107 6  88456629.81945  21602010.196    21602009.8434   21602014.9954
        39.100          31.7004
 104865254.225 8  81713188.16747  19955181.098    19955180.7684   19955181.9724
        52.200          42.6004


 111817560.843 5                  20954556.008    20954557.138
        34.900
 111909346.493 6                  20993893.608    20993894.326
        40.500
 141434113.631 7                  26914019.374
        44.200
 108436426.443 7  84495914.35747  20634770.127    20634769.6184   20634773.3824
        46.300          46.0004
 123370185.740 8                  23476547.199
        49.800
 103278323.659 8  80327619.883 7  19293258.145    19293258.651    19293263.382
        52.200          47.500
 104092860.476 8  80961129.354 8  19493236.295    19493237.317    19493240.612
        52.700          49.300
 132788283.521 6                  25268775.312
        38.200


 198904345.714 6                  37850268.000
        40.900
 126339112.286 5                  24041540.215
        34.600
 130161218.109 6                  24768858.479
        40.300
 202040898.024 5                  38447106.459
        34.400
 116759430.269 6  90812773.228 6  21803967.165    21803964.228    21803974.759
        41.400          37.500
 127710451.148 7                  24302499.359
        43.400
 118182439.172 6                  22123979.477    22123979.658
        41.700
 25  1  1 17 13 45.0000000  0 23E31G07G26G08G16G27G04G03R18R06R10E09
                                G09E04R07R09E21S35S31E06S33R08E19


 123117621.258 7  95935748.76946  23428496.350    23428496.0374   23428499.7014
        44.800          36.0004
 120263106.163 4  93711562.03841  22885309.087    22885308.5824   22885320.8654
        26.800          10.3004
 119245289.560 6  92918415.03144  22691607.556    22691607.0514   22691618.0614
        40.300          28.5004
 107877793.264 8  84060617.24645  20528464.123    20528463.3864   20528464.5054
        48.200          30.8004
 113486464.667 7  88431027.41746  21595757.688    21595757.3894   21595764.2844
        42.100          36.9004
 104867326.344 8  81714802.77047  19955574.645    19955574.3064   19955576.6104
        51.200          42.3004
 125713665.294 5  97958740.26343  23922512.338    23922512.8164   23922523.8654
        30.600          20.1004
 124379468.428 4  96739546.590 5  23300464.246                    23300457.702
        27.500          30.300
 111872646.060 5                  20964882.520    20964881.081
        33.300
 111878875.858 6                  20988173.218    20988172.656
        39.100
 141394929.336 7                  26906561.709
        42.600
 108411593.395 7  84476563.87548  20630045.208    20630044.6904   20630047.6464
        46.700          48.0004
 123358210.627 8                  23474268.668
        49.200
 103278576.687 8  80327816.698 7  19293305.871    19293305.823    19293310.553
        52.300          47.600
 104100878.885 8  80967365.855 8  19494737.360    19494737.971    19494742.809
        48.900          48.800
 132820300.835 6                  25274868.564
        38.700


 198904337.993 7                  37850262.831
        42.700
 130131909.301 7                  24763283.454
        46.100
 202040911.289 7                  38447113.636
        45.600
 116707300.549 6  90772227.844 6  21794237.380    21794233.561    21794240.542
        41.100          39.700
 127741048.235 7                  24308320.995
        42.400
 25  1  1 17 14  0.0000000  0 24E31G07G26G08G16G27G04G03R18R06R10E09
                                G09E04R07R09E21S35S31E06S33R08E19R16
 135317891.812 6                  25750139.334
        38.700
 123084382.059 6  95909848.04745  23422172.213    23422171.9094   23422174.6174
        40.100          35.1004


 119192844.177 7  92877548.64745  22681627.770    22681627.2794   22681638.5494
        42.500          31.3004
 107907590.365 8  84083835.68145  20534134.853    20534134.1164   20534135.4214
        49.000          34.5004
 113453736.858 7  88405525.30346  21589530.295    21589529.9334   21589536.3104
        42.300          39.0004
 104869538.055 8  81716526.18347  19955996.240    19955995.9104   19955997.9044
        52.500          42.5004
 125765278.268 5  97998954.31941  23932330.128    23932329.8564   23932345.6234
        33.400          10.1004
 124354133.044 5                  23295713.852
        34.500
 111927849.397 5                  20975228.618    20975229.409
        33.900
 111848499.547 6                  20982475.722    20982473.658
        36.900
 141355767.947 7                  26899110.939
        42.800
 108386881.792 8  84457308.07948  20625342.883    20625342.3604   20625345.7084
        49.500          49.6004
 123346316.943 8                  23472005.713
        50.000
 103279037.621 8  80328175.182 7  19293391.817    19293392.331    19293396.963
        52.400          47.400
 104108993.319 8  80973677.075 7  19496258.050    19496258.631    19496261.569
        50.900          46.800
 132852361.653 6                  25280968.221
        37.300


 198904334.285 6                  37850256.231
        40.000
 130102654.725 7                  24757716.649
        45.600
 202040927.584 6                  38447130.619
        40.100
 116655280.500 7  90731767.670 5  21784522.726    21784520.159    21784522.767
        42.300          34.800
 127771714.561 7                  24314157.313
        42.300


 25  1  1 17 14 15.0000000  0 24R17E31G07G26G08G16G27G04G03R06R10E09
                                G09E04R07R09E21S35S31E06S33R08E19R16
 128873423.434 4                  24083078.590
        27.100
 135281867.078 5                  25743282.327
        32.700
 123051146.514 6  95883950.22945  23415847.275    23415846.9494   23415849.3734
        40.900          33.3004


 119140442.609 6  92836716.42645  22671654.611    22671654.1334   22671668.4764
        41.200          32.1004
 107937495.953 7  84107138.71345  20539825.176    20539824.4304   20539826.6024
        47.300          33.1004
 113421130.667 7  88380117.94446  21583323.405    21583323.0614   21583329.8154
        43.500          38.8004
 104871882.343 8  81718352.85547  19956441.937    19956441.5984   19956443.9534
        50.300          42.2004


 111983163.052 6                  20985592.704    20985593.145
        36.400
 111818210.756 6                  20976797.168    20976795.901
        41.600
 141316622.589 6                  26891660.861
        41.000
 108362284.830 8  84438141.59048  20620662.339    20620661.8214   20620664.7384
        51.100          50.9004
 123334497.758 8                  23469755.955
        49.300
 103279699.294 8  80328689.780 8  19293515.395    19293515.756    19293521.533
        52.400          48.800
 104117196.081 8  80980056.956 7  19497793.508    19497794.620    19497797.880
        52.500          46.500
 132884458.522 6                  25287076.965
        36.400


 198904326.500 7                  37850261.342
        42.200
 130073447.440 7                  24752156.596
        42.700
 202040939.692 7                  38447127.892
        43.000
 116603363.375 7  90691387.702 5  21774822.860    21774824.023    21774828.034
        44.300          35.900
 127802442.940 6                  24320003.679
        40.500


 25  1  1 17 14 30.0000000  0 23E31G07G08G16G27G04G03R06R10E09G09E04
                                R07R09E21S35S31G31E06S33R08E19R16
 135245902.099 5                  25736434.018
        35.300
 123017920.427 6  95858059.83044  23409523.338    23409522.9994   23409523.4944
        36.100          28.2004
 119088090.964 6  92795923.11545  22661692.320    22661691.8294   22661707.5754
        40.800          32.2004
 107967515.488 7  84130530.51645  20545538.191    20545537.4494   20545538.8414
        46.600          33.7004
 113388652.299 6  88354810.15146  21577144.849    21577144.4924   21577148.4494
        41.600          39.2004
 104874364.976 8  81720287.37947  19956914.534    19956914.1954   19956916.8144
        49.200          42.5004


 112038592.421 6                  20995981.959    20995982.039
        36.100
 111788014.368 7                  20971131.312    20971131.254
        43.900
 141277499.019 6                  26884214.716
        38.800
 108337808.418 8  84419069.06848  20616004.182    20616003.6684   20616007.4044
        49.100          50.3004
 123322758.885 8                  23467521.769
        48.500
 103280567.753 8  80329365.225 8  19293677.075    19293677.388    19293683.902
        51.200          48.000
 104125492.551 8  80986509.790 7  19499347.388    19499347.736    19499350.919
        52.900          46.500
 132916597.356 6                  25293192.320
        37.400


 198904320.558 7                  37850256.392
        44.200
 126505910.486 5                  24073277.299
        34.800
 130044293.255 7                  24746609.602
        42.600
 202040954.264 7                  38447129.971
        46.200
 116551555.999 7  90651093.061 5  21765152.455    21765152.087    21765150.607
        43.500          34.400
 127833238.959 6                  24325865.447
        38.900
 118370998.059 5  92066340.115 5  22159302.095                    22159296.305
        34.000          34.200
 25  1  1 17 14 45.0000000  0 24E31G07G08G16G27G04G03R18R06R10E09G09
                                E04R07R09E21S35S31G31E06S33R08E19R16
 135209983.117 5                  25729601.480
        34.600
 122984706.115 6  95832178.55144  23403202.972    23403202.6064   23403202.9004
        38.900          27.3004
 119035792.014 6  92755170.83444  22651741.786    22651741.2864   22651755.5054
        37.000          29.4004
 107997651.092 8  84154012.82545  20551273.046    20551272.3184   20551273.7734
        48.800          34.4004
 113356304.380 7  88329604.01746  21570988.354    21570987.9974   21570993.4044
        44.400          41.8004
 104876988.285 8  81722331.48047  19957413.455    19957413.1204   19957416.3214
        50.000          43.9004
 125920279.010 5  98119704.53841  23961817.017    23961816.7944   23961833.1974
        30.600          10.4004
 124279044.398 5                  23281643.737
        31.100
 112094139.307 5                  21006390.743    21006391.131
        35.700
 111757913.154 7                  20965485.404    20965485.486
        44.200
 141238399.813 6                  26876775.457
        40.700
 108313455.133 8  84400092.47348  20611369.906    20611369.3924   20611373.9364
        48.200          49.6004
 123311102.716 8                  23465304.050
        48.700
 103281645.224 8  80330203.196 8  19293879.496    19293879.814    19293884.906
        52.100          48.200
 104133884.944 8  80993037.185 7  19500919.647    19500919.873    19500922.542
        52.100          47.300
 132948779.817 6                  25299317.233
        38.300


 198904319.358 6                  37850252.457
        41.500
 126547654.794 5  98608598.47043  24081223.370    24081223.4594   24081226.1564
        35.700          19.9004
 130015194.721 7                  24741072.854
        43.300
 202040972.950 7                  38447131.742
        45.300
 116499860.520 6  90610885.559 6  21755495.162    21755493.033    21755501.029
        38.700          37.300
 127864104.884 6                  24331738.304
        38.800
 118418121.980 6  92103029.911 5  22168121.938    22168122.697    22168123.261
        39.200          34.000
 25  1  1 17 15  0.0000000  0 23E31G07G08G16G27G04G03R06R10E09G09E04
                                R07R09E21S35S31G31E06S33R08E19R16
 135174114.006 5                  25722774.875
        35.100
 122951498.674 7  95806302.59644  23396885.506    23396885.1174   23396881.6314
        42.500          28.9004
 118983541.156 6  92714456.16644  22641799.321    22641798.7984   22641806.2114
        39.300          26.9004
 108027897.293 7  84177581.26345  20557028.314    20557027.5904   20557029.5384
        47.200          33.3004
 113324082.208 7  88304495.88647  21564857.154    21564856.7884   21564862.7344
        45.400          43.5004
 104879747.460 8  81724481.46547  19957938.731    19957938.4054   19957941.3924
        50.600          43.3004


 112149798.292 5                  21016820.766    21016822.291
        34.700
 111727902.418 7                  20959856.487    20959856.782
        42.900
 141199319.965 5                  26869336.075
        33.800
 108289220.226 8  84381208.11348  20606759.258    20606758.7404   20606762.4144
        51.000          50.8004
 123299524.466 8                  23463100.609
        48.800
 103282926.575 8  80331199.749 7  19294118.786    19294118.889    19294124.536
        53.000          47.900
 104142368.026 8  80999635.135 8  19502506.642    19502506.816    19502512.817
        50.400          49.800
 132981000.762 6                  25305447.422
        37.300


 198904317.478 6                  37850255.194
        41.400
 126589412.373 5  98641136.49142  24089167.659    24089167.4404   24089171.9924
        34.700          17.0004
 129986146.966 7                  24735545.841
        42.200
 202040991.056 7                  38447138.355
        42.200
                  90570761.933 5                  21745858.793    21745866.431
                        35.100
 127895035.629 6                  24337623.796
        40.500
 118465301.674 4  92139725.326 5  22176951.409    22176950.923    22176959.929
        27.500          35.900
 25  1  1 17 15 15.0000000  0 25E31G07G26G08G16G27G04G03R18R06R10E09
                                G09E04R07R09E21S35S31G31E06S33R08E19
                                R16
 135138290.282 5                  25715958.896
        33.600
 122918293.737 5  95780428.65344  23390565.541    23390565.0724   23390563.8234
        33.700          28.3004
 120553973.350 4  93938168.60541  22940643.670    22940643.8894   22940660.0564
        29.000          11.0004
 118931334.464 7  92673775.86344  22631862.729    22631862.2334   22631872.6094
        42.100          27.6004
 108058249.571 8  84201232.35445  20562804.394    20562803.6614   20562804.6924
        48.200          32.6004
 113291981.852 7  88279482.62947  21558748.780    21558748.3784   21558754.7214
        46.000          45.5004
 104882638.124 8  81726733.90247  19958489.024    19958488.7074   19958491.3804
        51.800          43.7004


 124229759.542 6                  23272413.648    23272412.980
        37.100
 112205564.454 5                  21027273.707    21027272.880
        30.400
 111697976.877 7                  20954240.951    20954241.707
        42.400
 141160255.358 6                  26861903.776
        37.000
 108265099.623 8  84362412.82248  20602168.824    20602168.2884   20602172.5134
        51.400          50.3004
 123288019.912 8                  23460911.179
        48.600
 103284407.558 8  80332351.590 8  19294394.807    19294394.413    19294401.017
        51.900          48.200
 104150937.272 8  81006300.080 8  19504112.470    19504112.625    19504117.369
        51.200          49.900
 133013255.938 6                  25311586.111
        37.600


 198904310.161 6                  37850246.465
        38.900


 129957146.071 5                  24730024.678
        34.900
 202041004.006 6                  38447146.029
        39.900
 116396583.122 6  90530718.976 6  21736250.550    21736247.563    21736251.807
        41.800          39.200
 127926026.804 6                  24343521.679
        40.500
 118512483.625 4  92176422.358 6  22185784.466    22185783.751    22185794.058
        28.200          36.400
 25  1  1 17 15 30.0000000  0 23E31G07G26G08G16G27G04G03R18R10E09G09
                                E04R07R09E21S35S31G31E06S33R08E19
 135102518.456 5                  25709150.616
        35.400
 122885097.232 7  95754561.21645  23384249.131    23384248.7114   23384250.0624
        42.900          30.3004
 120602543.699 4  93976015.53342  22949884.233    22949884.5954   22949896.8554
        29.700          12.4004
 118879178.466 6  92633134.95343  22621938.574    22621938.0784   22621945.9964
        36.400          22.1004
 108088713.898 8  84224970.77745  20568601.519    20568600.7824   20568601.3514
        50.000          33.2004
 113260009.826 7  88254569.39747  21552665.076    21552664.6614   21552670.7654
        47.600          46.0004
 104885666.598 8  81729093.74347  19959065.560    19959065.2304   19959068.0274
        50.800          45.1004


 124205342.846 4  96604163.255 6  23267835.281    23267832.098    23267849.611
        28.200          36.200
 111668143.382 6                  20948642.467    20948642.422
        38.600
 141121212.491 6                  26854474.175
        39.500
 108241099.886 7  84343711.68547  20597601.220    20597600.6624   20597605.3054
        47.500          47.3004
 123276595.407 7                  23458736.777
        47.400
 103286094.545 8  80333663.663 8  19294709.635    19294708.737    19294716.655
        49.000          48.600
 104159598.806 8  81013036.841 7  19505733.532    19505734.179    19505738.779
        51.700          46.400
 133045551.333 6                  25317730.407
        38.100


 198904304.220 6                  37850243.760
        41.800
 126673030.992 4  98706277.21542  24105069.239    24105068.7524   24105077.9024
        29.800          15.0004
 129928198.079 6                  24724517.020
        39.700
 202041019.073 7                  38447141.079
        45.000
 116345210.142 7  90490762.238 6  21726657.560    21726654.806    21726656.483
        43.600          37.000
 127957084.486 6                  24349431.064
        37.900
 25  1  1 17 15 45.0000000  0 24E31G07G26G08G16G27G04G03R18R10E09G09
                                E04R07R09E21S35S31G31E06S33R08E19R16
 135066796.233 4                  25702353.098
        27.200
 122851907.201 7  95728698.76644  23377932.267    23377931.8704   23377936.4984
        42.300          29.9004
 120651142.333 5  94013884.59342  22959133.288    22959133.5114   22959139.5294
        34.400          17.9004
 118827071.335 5  92592532.05944  22612021.879    22612021.2314   22612031.2514
        33.700          24.2004
 108119287.612 8  84248794.42845  20574419.302    20574418.5784   20574417.2594
        50.400          31.6004
 113228164.060 7  88229754.52347  21546605.701    21546605.2634   21546610.7064
        46.800          46.3004
 104888830.619 8  81731559.17747  19959668.027    19959667.6974   19959670.4444
        50.200          45.1004
 126126744.910 5  98280630.48442  24001121.132    24001120.5564   24001133.8684
        31.700          17.6004
 124181077.265 5  96585289.907 5  23263291.659    23263290.731    23263305.991
        34.000          32.900
 111638399.625 6                  20943062.350    20943062.146
        36.700
 141082189.149 6                  26847047.299
        38.100
 108217218.683 8  84325102.91548  20593056.839    20593056.2814   20593059.9994
        49.500          48.0004
 123265248.651 8                  23456578.109
        48.800
 103287985.121 8  80335134.064 8  19295062.919    19295063.113    19295069.489
        51.000          48.200
 104168349.808 8  81019843.152 7  19507372.828    19507372.894    19507377.155
        50.700          46.300
 133077884.231 5                  25323882.851
        35.100


 198904297.281 6                  37850239.686
        41.700


 129899301.082 7                  24719018.068
        42.200
 202041031.302 7                  38447147.831
        46.000
 116293945.616 6  90450889.826 5  21717083.374    21717082.015    21717083.473
        39.900          35.800
 127988206.272 6                  24355354.584
        38.900
 118606893.970 6  92249833.884 5  22203453.446    22203453.157    22203465.378
        36.800          34.400
 25  1  1 17 16  0.0000000  0 24E31G07G26G08G16G27G04G03R18R10E09G09
                                E04R07R09E21S35S31G31E06S33R08E19R16
 135031125.521 5                  25695566.235
        34.800
 122818725.534 6  95702842.92244  23371618.915    23371618.5444   23371623.1974
        41.800          26.7004
 120699771.401 6  94051777.33643  22968386.745    22968386.6294   22968391.2134
        37.400          20.7004
 118775015.380 5  92551969.10544  22602114.270    22602113.3724   22602127.2464
        31.100          24.2004
 108149972.283 8  84272704.53745  20580258.752    20580258.0374   20580255.4904
        50.500          32.4004
 113196447.019 7  88205039.96147  21540570.091    21540569.6444   21540574.7044
        44.200          44.5004
 104892132.254 8  81734131.84747  19960296.193    19960295.8634   19960298.9574
        50.700          45.5004
 126178402.762 5  98320882.94443  24010951.789    24010951.5124   24010966.9434
        35.200          20.2004
 124156965.046 5                  23258771.561    23258770.645
        33.500
 111608747.393 5                  20937500.670    20937498.526
        34.500
 141043187.326 6                  26839625.305
        36.200
 108193458.398 8  84306588.34148  20588536.208    20588535.6504   20588538.3034
        49.400          49.7004
 123253981.850 8                  23454434.257
        49.200
 103290081.617 8  80336764.604 7  19295455.754    19295456.303    19295460.867
        52.500          47.500
 104177191.886 8  81026720.259 7  19509029.662    19509028.991    19509033.051
        51.600          46.900
 133110256.477 6                  25330043.975
        38.700


 198904290.199 7                  37850244.198
        43.300
 126756578.757 5  98771380.39942  24120976.613    24120975.8534   24120980.6964
        35.100          14.2004
 129870457.133 6                  24713529.524
        40.900
 202041045.366 7                  38447148.837
        46.400
 116242792.287 7  90411103.871 6  21707531.644    21707532.458    21707533.938
        44.200          41.200
 128019394.083 5                  24361288.049
        35.100
 118654098.035 6  92286548.022 4  22212293.791    22212291.185    22212317.581
        37.200          24.800
 25  1  1 17 16 15.0000000  0 25E31G07G26G08G16G27G04G03R18R06R10E09
                                G09E04R07R09E21S35S31G31E06S33R08E19
                                R16


 122785552.968 6  95676994.16843  23365305.664    23365305.3254   23365310.1294
        37.200          23.2004
 120748431.234 4  94089693.82643  22977644.328    22977644.2084   22977650.9824
        28.300          18.3004
 118723011.844 5  92511446.98243  22592216.557    22592215.6414   22592233.3974
        31.900          21.8004
 108180768.069 8  84296701.25945  20586118.885    20586118.1664   20586116.1554
        49.000          32.8004
 113164859.852 7  88180426.59247  21534558.927    21534558.4854   21534563.8204
        46.000          46.9004
 104895572.394 8  81736812.45147  19960950.283    19960949.9624   19960953.3794
        50.400          42.6004


 124133007.305 5                  23254286.857    23254286.010
        32.300
 112429729.685 5                  21069283.219    21069284.776
        32.700
 111579187.567 6                  20931957.412    20931957.757
        39.900
 141004208.268 6                  26832208.522
        38.500
 108169820.150 7  84288168.87847  20584037.940    20584037.3774   20584039.6144
        47.500          47.7004
 123242795.918 8                  23452305.802
        50.100
 103292384.727 8  80338555.867 7  19295884.907    19295885.270    19295890.997
        51.300          45.500
 104186126.008 8  81033669.062 7  19510701.333    19510701.279    19510706.180
        49.000          47.000
 133142668.653 5                  25336210.896
        32.100
 200840389.614 5                  38218616.031
        30.800
 198904285.867 7                  37850246.617
        44.400
 126798402.921 5  98803970.26441  24128936.696    24128936.5764   24128940.6404
        32.300           8.4004
 129841667.168 6                  24708050.311
        38.400
 202041059.617 7                  38447148.533
        43.600
 116191751.409 7  90371405.315 6  21697998.508    21697999.312    21698001.512
        44.800          39.400
 128050648.642 7                  24367237.028
        42.600
 118701227.819 6                  22221133.877
        36.300
 25  1  1 17 16 30.0000000  0 24E31G07G08G16G27G04G03R18R06R10E09G09
                                E04R07R09E21S35S31G31E06S33R08E19R16


 122752388.272 6  95651151.49443  23358995.249    23358994.9234   23358997.3874
        40.200          22.2004
 118670960.850 7  92470926.02044  22582332.663    22582332.2344   22582344.9044
        42.300          29.4004
 108211673.546 7  84320783.38645  20592000.051    20591999.3274   20591997.9584
        47.700          31.4004
 113133401.552 7  88155913.59947  21528571.228    21528570.7594   21528577.4484
        42.300          42.8004
 104899149.845 8  81739600.03847  19961631.177    19961630.8644   19961633.6834
        50.100          43.9004




 112486052.699 5                  21079833.319    21079836.106
        32.300
 111549718.762 6                  20926427.977    20926427.348
        39.700
 140965250.583 6                  26824795.798
        39.200
 108146302.903 8  84269843.73748  20579562.604    20579562.0464   20579564.7674
        49.400          48.7004
 123231689.795 8                  23450192.091
        48.800
 103294893.295 8  80340506.937 7  19296354.402    19296354.026    19296359.360
        50.700          45.900
 104195150.717 8  81040688.203 7  19512391.621    19512392.112    19512395.961
        52.000          46.300
 133175119.670 6                  25342388.349
        36.100


 198904281.312 7                  37850244.524
        44.100
 126840241.410 6  98836571.25042  24136895.585    24136895.7544   24136904.7434
        37.400          15.0004
 129812930.255 7                  24702583.377
        44.200
 202041076.379 7                  38447152.092
        42.500
 116140822.404 7  90331793.884 7  21688487.382    21688487.849    21688492.969
        43.600          43.800
 128081968.686 6                  24373196.052
        37.600
 118748446.859 6  92359964.779 5  22229967.651    22229969.240    22229973.680
        37.600          33.600
 25  1  1 17 16 45.0000000  0 23E31G07G26G08G16G27G04G03R10E09G09E04
                                R07R09E21S35S31G31E06S33R08E19R16


 122719229.755 6  95625313.75042  23352686.354    23352685.9124   23352686.2874
        38.800          17.0004
 120845738.733 5  94165545.42342  22996182.023    22996182.2684   22996187.1944
        30.500          16.5004
 118619058.997 7  92430483.14845  22572459.485    22572459.1144   22572468.4454
        43.200          32.0004
 108242686.697 8  84344949.41645  20597901.447    20597900.7144   20597901.1394
        48.900          32.0004
 113102070.808 7  88131500.04347  21522610.134    21522609.6074   21522615.2734
        43.500          42.0004
 104902862.906 8  81742493.30047  19962337.619    19962337.3154   19962340.3244
        49.000          43.4004
 126333391.609 5  98441662.17442  24040447.463    24040446.9094   24040459.9194
        34.800          17.2004
 111520339.147 7                  20920916.157    20920916.243
        42.300
 140926312.906 6                  26817385.591
        40.600
 108122905.164 8  84251611.70248  20575110.186    20575109.6324   20575112.1494
        50.300          49.2004
 123220661.824 8                  23448094.045
        49.900
 103297605.567 8  80342616.459 7  19296860.008    19296860.169    19296866.419
        50.800          47.300
 104204263.964 8  81047776.274 7  19514098.826    19514099.650    19514104.126
        53.100          47.400
 133207607.211 6                  25348569.465
        38.300


 198904275.344 7                  37850244.158
        42.700
 126882092.090 6  98869181.86342  24144863.011    24144863.0514   24144869.9014
        39.000          14.9004
 129784244.781 7                  24697124.291
        44.400
 202041089.887 7                  38447155.669
        44.700
 116090003.858 6  90292268.275 7  21678996.557    21678998.104    21679003.600
        41.600          45.600
 128113352.320 6                  24379168.701
        39.300
 118795670.601 6  92396694.438 6  22238813.022    22238813.532    22238814.489
        39.100          37.100
 25  1  1 17 17  0.0000000  0 25E31G07G26G08G16G27G04G03R18R06R10E09
                                G09E04R07R09E21S35S31G31E06S33R08E19
                                R16
 134888995.655 4                  25668513.341
        29.400
 122686079.752 6  95599482.60443  23346376.616    23346375.9734   23346378.3844
        38.100          18.9004
 120894484.607 5  94203529.04843  23005457.480    23005457.8824   23005463.7014
        35.500          18.2004
 118567210.258 6  92390081.66544  22562591.226    22562590.7034   22562599.9504
        41.800          28.8004
 108273809.781 7  84369201.17845  20603823.652    20603822.8924   20603824.4744
        46.600          30.9004
 113070870.404 7  88107188.03246  21516671.667    21516671.1534   21516678.0814
        42.500          41.9004
 104906714.109 8  81745494.19346  19963070.503    19963070.2044   19963073.3134
        48.100          41.7004


 124062068.503 5                  23240999.783    23241002.600
        32.900
 112599036.899 5                  21101010.809    21101011.090
        34.600
 111491051.146 6                  20915421.062    20915418.750
        38.400
 140887397.861 6                  26809979.860
        39.300
 108099629.610 8  84233474.89948  20570680.554    20570679.9824   20570682.7704
        50.000          49.3004
 123209714.562 8                  23446010.699
        50.100
 103300523.691 8  80344886.075 7  19297405.687    19297406.449    19297411.778
        51.500          46.800
 104213467.755 8  81054934.749 7  19515821.854    19515821.927    19515825.901
        52.900          46.500
 133240133.611 6                  25354759.840
        38.300


 198904270.389 7                  37850247.042
        43.400
 126923957.452 5  98901803.85042  24152830.053    24152830.1964   24152840.3454
        30.100          14.0004
 129755613.406 7                  24691676.289
        44.800
 202041104.862 7                  38447153.599
        42.200
 116039298.770 6  90252830.778 7  21669521.218    21669531.567    21669533.249
        37.600          44.700
 128144801.829 7                  24385154.742
        43.200
 118842901.544 5  92433429.435 6  22247657.265    22247655.589    22247655.969
        34.400          36.200
 25  1  1 17 17 15.0000000  0 24E31G07G26G08G16G27G04G03R18R06R10E09
                                G09E04R07R09E21S35S31E06S33R08E19R16
 134853584.762 5                  25661772.957
        33.900
 122652940.435 6  95573659.80244  23340070.811    23340070.1774   23340073.0344
        41.400          24.4004
 120943261.427 6  94241536.93543  23014737.961    23014738.3364   23014746.1054
        36.000          19.5004
 118515416.762 6  92349723.31344  22552736.447    22552735.9514   22552742.7054
        39.700          26.4004
 108305044.227 7  84393539.71145  20609767.979    20609767.2064   20609768.4504
        47.100          32.1004
 113039802.425 7  88082979.17046  21510760.583    21510760.0564   21510765.3484
        42.400          41.9004
 104910705.344 7  81748604.19646  19963830.077    19963829.7604   19963832.5594
        47.700          41.0004


 124038728.873 5                  23236619.106
        33.100
 112655689.217 6                  21111626.162    21111628.671
        36.300
 111461856.845 5                  20909944.248    20909942.094
        35.500
 140848507.554 6                  26802580.142
        41.300
 108076478.280 8  84215434.84448  20566275.640    20566275.0734   20566277.6544
        49.000          50.2004
 123198849.955 8                  23443943.110
        48.700
 103303650.223 8  80347317.758 7  19297990.149    19297990.210    19297995.723
        51.600          46.300
 104222764.146 8  81062165.283 7  19517563.026    19517563.297    19517565.922
        52.200          44.000
 133272700.498 6                  25360957.127
        39.600


 198904268.208 7                  37850247.525
        42.500
 129727038.075 6                  24686238.669
        41.800
 202041122.929 6                  38447138.664
        39.700
                  90213483.707 7                                  21660087.210
                        46.000
 128176319.120 7                  24391151.523
        42.500


 25  1  1 17 17 30.0000000  0 24E31G07G26G08G16G27G04G03R18R06R10E09
                                G09E04R07R09E21S35S31E06S33R08E19R16
 134818222.923 5                  25655045.514
        33.000
 122619806.590 5  95547841.24243  23333763.161    23333762.5674   23333769.6424
        35.200          21.0004


 118463674.031 6  92309404.41344  22542889.707    22542889.1934   22542894.4974
        40.700          27.2004
 108336384.757 7  84417960.87345  20615731.953    20615731.1714   20615732.1454
        47.600          31.6004
 113008862.255 7  88058869.94346  21504872.038    21504871.4974   21504877.7154
        42.800          41.6004
 104914831.707 8  81751819.49046  19964616.323    19964616.0064   19964617.5924
        48.500          40.9004
 126488434.522 5  98562478.02241  24069948.173    24069948.3564   24069962.6744
        34.800           9.2004
 124015542.014 5                  23232279.929    23232280.047
        34.200
 112712447.482 5                  21122266.145    21122266.281
        34.500
 111432750.929 5                  20904483.321    20904480.884
        35.600
 140809637.221 6                  26795183.525
        41.800
 108053446.602 8  84197488.08048  20561892.095    20561891.5234   20561894.9814
        48.200          48.7004
 123188063.208 8                  23441890.730
        50.200
 103306979.819 8  80349907.423 7  19298611.435    19298612.611    19298617.677
        52.600          46.300
 104232147.302 9  81069463.269 7  19519320.478    19519320.842    19519324.056
        54.100          47.400
 133305302.922 6                  25367160.267
        36.500


 198904264.026 7                  37850243.134
        44.800
 129698513.958 7                  24680809.843
        45.000
 202041139.065 7                  38447159.689
        44.000
 115938231.968 7  90174223.115 7  21650665.334    21650668.533    21650659.505
        42.800          42.700
 128207899.076 7                  24397161.328
        42.400
                  92506915.957 6                                  22265343.883
                        38.100
 25  1  1 17 17 45.0000000  0 24E31G07G26G08G16G27G04G03R18R06R10E09
                                G09E04R07R09E21S35S31E06S33R08E19R16
 134782913.581 6                  25648324.129
        41.100
 122586681.417 5  95522029.40443  23327461.919    23327461.2894   23327463.9254
        35.800          22.0004


 118411985.519 6  92269127.72443  22533051.461    22533050.9344   22533058.8014
        36.500          21.5004
 108367833.988 8  84442466.73745  20621716.803    20621716.0124   20621717.1574
        48.800          32.6004
 112978053.330 7  88034862.99147  21499009.856    21499009.2714   21499015.1944
        45.000          42.0004
 104919096.371 8  81755142.54446  19965427.396    19965427.0704   19965429.2324
        49.300          41.2004


                                                  23227963.617

 112769314.122 4                  21132916.467    21132916.644
        25.500
 111403736.524 6                  20899041.116    20899040.882
        37.100
 140770789.758 7                  26787792.184
        42.200
 108030537.747 7  84179636.99848  20557533.363    20557532.8134   20557536.2134
        47.000          49.4004
 123177357.505 8                  23439853.127
        49.300
 103310515.542 8  80352657.374 7  19299272.322    19299272.989    19299278.833
        52.200          47.500
 104241620.750 8  81076831.504 7  19521094.443    19521094.690    19521098.298
        53.900          47.000
 133337943.577 6                  25373373.284
        37.000


 198904260.884 7                  37850240.974
        45.100
 129670044.344 7                  24675392.180
        44.800
 202041156.074 6                  38447157.235
        37.800
 115887869.103 7  90135052.073 6  21641247.241    21641248.255    21641254.239
        43.200          41.100
 128239544.690 7                  24403182.781
        42.300
                  92543665.431 5                                  22274187.380
                        34.400
 25  1  1 17 18  0.0000000  0 24E31G07G26G08G16G27G04G03R18R10E09G09
                                E04R07R09E21S35S31G31E06S33R08E19R16
 134747652.489 5                  25641613.491
        34.000
 122553559.583 5  95496220.56143  23321170.627    23321170.0824   23321160.4094
        31.000          23.3004


 118360348.390 5  92228855.28844  22523225.288    22523224.5334   22523232.8854
        34.100          25.3004
 108399387.821 7  84467054.09945  20627721.424    20627720.6334   20627720.8744
        44.400          31.1004
 112947371.725 7  88010955.20647  21493171.279    21493170.6854   21493176.2264
        44.600          42.7004
 104923495.128 8  81758570.09446  19966264.271    19966263.9414   19966266.3744
        50.300          41.8004
 126591789.766 5  98643011.32941  24089614.057    24089614.0264   24089628.6024
        32.200          10.7004
 123969632.903 5                  23223679.827    23223678.224
        34.100
 111374809.501 6                  20893617.349    20893617.323
        40.600
 140731961.409 7                  26780402.927
        43.100
 108007747.885 8  84161878.63248  20553196.577    20553196.0144   20553199.9204
        48.900          50.6004
 123166728.847 8                  23437830.705
        50.100
 103314253.126 8  80355564.329 7  19299970.299    19299971.533    19299977.041
        51.900          47.300
 104251179.773 9  81084266.297 8  19522884.956    19522885.584    19522888.776
        54.500          48.800
 133370618.155 5                  25379589.687
        34.000


 198904254.137 6                  37850240.808
        41.200
 127091592.389 4                  24184725.959
        29.800
 129641625.201 7                  24669984.487
        45.500
 202041169.420 7                  38447160.950
        42.000
 115837617.644 7  90095967.632 7  21631869.604    21631864.609    21631870.597
        42.800          44.300
 128271251.610 6                  24409216.949
        40.500
 119032093.269 6  92580416.353 5  22283048.092                    22283034.485
        36.500          32.500
 25  1  1 17 18 15.0000000  0 23E31G07G26G08G16G27G04R18R10E09G09E04
                                R07R09E21S35S31G31E06S33R08E19R16
 134712439.697 5                  25634913.638
        34.200
 122520444.325 5  95470416.00444  23314850.780    23314850.1374   23314858.6144
        34.600          28.2004


 118308761.246 6  92188657.55844  22513409.558    22513409.1024   22513419.7394
        36.400          28.1004
 108431045.698 7  84491722.54645  20633744.947    20633744.1564   20633744.9374
        46.300          30.3004
 112916818.175 7  87987147.22947  21487357.656    21487357.0484   21487361.6094
        46.000          43.5004
 104928028.322 8  81762102.38646  19967126.469    19967126.1434   19967128.9854
        50.000          41.8004
                                                  23219420.519

 111345969.922 6                  20888205.640    20888205.796
        39.600
 140693152.496 7                  26773018.309
        43.900
 107985077.416 8  84144213.29048  20548882.321    20548881.7634   20548885.5644
        49.400          49.9004
 123156177.468 8                  23435823.177
        49.300
 103318192.926 8  80358628.588 7  19300706.375    19300707.428    19300712.650
        51.500          47.200
 104260824.320 8  81091767.611 8  19524690.770    19524691.377    19524695.481
        53.500          48.800




 198904244.471 7                  37850235.232
        44.500
 127133521.068 6  99065133.02042  24192702.204    24192702.5524   24192717.1084
        37.100          12.5004
 129613257.045 7                  24664585.526
        47.000
 202041179.541 7                  38447166.884
        44.000
 115787478.197 7  90056970.276 6  21622506.056    21622503.589    21622505.749
        43.800          40.000
 128303020.006 6                  24415261.679
        38.300
                  92617178.600 4                                  22291882.462
                        28.100
 25  1  1 17 18 30.0000000  0 22E31G07G26G08G16G27G04G03R10E09G09E04
                                R07R09E21S35S31E06S33R08E19R16
 134677284.964 6                  25628224.377
        37.500
 122487342.252 6  95444622.18245  23308559.524    23308558.8094   23308559.7704
        40.800          32.9004


 118257235.113 7  92148507.46245  22503603.808    22503603.5184   22503617.3304
        44.000          32.5004
 108462816.881 7  84516479.28544  20639791.087    20639790.2964   20639790.7454
        44.600          28.9004
 112886402.275 7  87963446.52846  21481569.268    21481568.6654   21481573.3804
        43.400          41.9004
 104932705.415 8  81765746.82347  19968016.516    19968016.1904   19968019.3614
        49.400          42.1004


 111317227.292 6                  20882818.037    20882818.909
        36.400
 140654372.702 7                  26765637.853
        43.300
 107962536.109 8  84126648.61348  20544592.786    20544592.2284   20544595.9734
        50.000          51.1004
 123145713.083 8                  23433832.420
        50.200
 103322344.883 8  80361857.848 7  19301482.764    19301483.335    19301488.897
        52.100          46.700
 104270563.728 8  81099342.668 8  19526515.156    19526514.931    19526519.827
        52.900          49.800
 133436100.278 5                  25392046.964
        35.000


 198904241.539 7                  37850234.343
        43.100
 129584949.395 7                  24659199.557
        46.500
 202041196.456 7                  38447170.609
        42.500
 115737460.477 7  90018067.581 6  21613164.793    21613163.438    21613166.547
        46.600          37.700
 128334859.314 7                  24421322.235
        42.600
                  92653939.816 5                  22300733.650    22300730.171
                        30.400
 25  1  1 17 18 45.0000000  0 23E31G07G26G08G16G27G04G03R06R10E09G09
                                E04R07R09E21S35S31E06S33R08E19R16
 134642180.440 5                  25621540.164
        33.500
 122454246.523 7  95418833.29646  23302260.619    23302259.9044   23302261.6244
        43.000          36.0004


 118205762.232 6  92108398.77545  22493808.339    22493807.9864   22493820.7294
        40.800          30.6004
 108494693.076 6  84541317.89944  20645856.687    20645855.9054   20645857.2704
        36.400          26.7004
 112856116.524 7  87939847.25047  21475806.483    21475805.8754   21475810.5234
        46.500          43.0004
 104937518.572 8  81769497.27047  19968932.970    19968932.6494   19968935.6774
        50.700          42.2004
 126746766.514 4  98763803.41741  24119114.182    24119113.9324   24119129.6804
        29.300           9.9004
 112997813.687 5                  21175749.481
        31.700
 111288573.340 6                  20877439.662    20877442.529
        38.600
 140615614.129 7                  26758262.390
        43.800
 107940116.196 8  84109178.51348  20540326.199    20540325.6414   20540329.2804
        50.000          50.2004
 123135327.847 8                  23431855.032
        48.800
 103326700.554 8  80365245.533 7  19302295.145    19302294.908    19302301.923
        49.900          45.800
 104280389.823 8  81106985.185 8  19528354.891    19528354.906    19528359.462
        52.500          48.900
 133468886.828 5                  25398283.964
        30.700


 198904236.647 7                  37850240.898
        42.000
 129556694.556 7                  24653822.220
        42.300
 202041211.208 7                  38447180.800
        44.800
 115687557.373 8  89979253.910 6  21603845.577    21603845.856    21603846.764
        49.500          40.000
 128366761.494 6                  24427392.113
        40.500
 119173878.022 5  92690703.228 5  22309574.772    22309581.945    22309579.816
        32.900          35.800
 25  1  1 17 19  0.0000000  0 22E31G07G26G08G16G27G04G03R10E09G09E04
                                R07R09E21S35S31E06S33R08E19R16
 134607126.056 5                  25614871.974
        34.500
 122421156.826 6  95393049.09646  23295963.934    23295963.2774   23295964.5284
        41.400          36.3004


 118154342.850 6  92068331.79745  22484024.134    22484023.7814   22484034.3114
        40.400          31.6004
 108526673.565 6  84566237.73143  20651943.220    20651942.3804   20651943.2964
        38.500          23.3004
 112825961.034 7  87916349.42047  21470067.619    21470067.0024   21470072.4434
        47.300          44.4004
 104942467.682 8  81773353.67146  19969874.531    19969874.2144   19969877.6964
        49.500          41.8004
 126798434.752 5  98804063.89941  24128942.276    24128942.1024   24128961.3024
        33.000          11.6004
 111260008.477 6                  20872080.020    20872079.762
        37.800
 140576876.928 7                  26750891.115
        44.200
 107917817.776 8  84091803.07148  20536082.409    20536081.8734   20536085.8584
        48.200          49.5004
 123125021.683 8                  23429894.186
        49.000
 103331259.737 8  80368791.465 7  19303147.138    19303146.975    19303153.110
        50.500          45.500
 104290302.120 8  81114694.746 8  19530210.767    19530211.076    19530216.214
        53.500          49.100
 133501708.222 5                  25404529.759
        31.500


 198904229.695 6                  37850236.592
        41.700
 129528492.496 7                  24648456.179
        46.000
 202041224.930 7                  38447181.896
        46.800
 115637768.944 8  89940529.707 5  21594547.580    21594548.521    21594542.136
        48.200          31.000
 128398726.320 7                  24433475.959
        43.200
 119221148.615 5  92727468.916 5  22318450.365    22318447.737    22318429.537
        33.500          34.300
 25  1  1 17 19 15.0000000  0 24E31G07G26G08G16G27G04G03R18R10E09G09
                                E04R07R09E21S35S31G31E06S33R08E19R16
 134572125.268 6                  25608211.432
        36.000
 122388076.866 7  95367272.52845  23289669.871    23289669.2454   23289668.7654
        44.400          35.4004


 118102981.155 7  92028309.74145  22474250.122    22474249.7114   22474258.5214
        42.600          31.7004
 108558761.874 5  84591241.59943  20658049.006    20658048.0454   20658049.5604
        32.800          23.7004
 112795939.716 7  87892956.16147  21464353.854    21464353.2284   21464359.8564
        46.500          45.0004
 104947556.334 8  81777318.82546  19970842.807    19970842.4594   19970845.1994
        48.000          39.2004
 126850103.116 5  98844324.50441  24138778.361    24138778.2944   24138794.8434
        34.100          11.9004
                  96333673.911 5                                  23202702.981
                        31.300
 111231535.949 6                  20866735.596    20866735.900
        36.600
 140538164.722 7                  26743524.432
        42.700
 107895644.676 8  84074525.29348  20531863.615    20531863.0794   20531866.0464
        48.300          48.2004
 123114798.261 8                  23427949.032
        49.200
 103336026.259 8  80372498.721 7  19304038.487    19304038.872    19304042.914
        51.900          45.600
 104300303.955 8  81122473.913 8  19532083.288    19532084.239    19532088.965
        53.400          48.600
 133534561.815 6                  25410786.691
        36.800


 198904225.198 6                  37850232.263
        41.600
 127301382.553 5                  24224646.108
        34.000
 129500347.024 7                  24643100.177
        45.500
 202041240.570 7                  38447186.497
        46.400
 115588099.400 7  89901897.928 5  21585269.867    21585270.861    21585273.115
        46.600          33.800
 128430757.193 6                  24439569.758
        41.100
 119268394.539 5  92764239.658 6  22327288.364                    22327279.589
        33.700          37.100
 25  1  1 17 19 30.0000000  0 22E31G07G26G08G27G04G03R10E09G09E04R07
                                R09E21S35S31G31E06S33R08E19R16
 134537176.114 6                  25601561.868
        36.900
 122355004.466 7  95341501.82946  23283376.220    23283375.6174   23283374.0854
        45.200          36.0004


 118051675.146 7  91988331.05445  22464486.243    22464485.8374   22464496.0344
        45.500          34.9004
 112766050.700 7  87869665.98947  21458666.387    21458665.7844   21458672.5964
        45.600          44.3004
 104952782.402 7  81781391.04646  19971837.701    19971837.3354   19971838.9724
        47.800          38.4004
 126901768.997 5  98884583.25641  24148601.493    24148600.9524   24148628.7554
        32.300           9.0004
 111203153.454 5                  20861411.726    20861410.117
        35.400
 140499475.577 7                  26736162.593
        42.100
 107873594.919 8  84057343.63448  20527667.579    20527667.0164   20527669.6654
        49.900          48.6004
 123104655.563 8                  23426018.781
        49.000
 103340997.765 8  80376365.389 7  19304967.626    19304967.360    19304974.008
        51.800          47.000
 104310392.995 8  81130320.909 8  19533973.759    19533974.152    19533978.498
        53.100          49.000
 133567456.738 5                  25417043.915
        34.700


 198904220.588 7                  37850230.036
        43.900
 127343383.249 5  99228691.77442  24232640.818    24232640.4744   24232659.7514
        35.600          13.2004
 129472256.086 7                  24637754.216
        45.400
 202041254.840 7                  38447188.151
        45.600
 115538547.093 7  89863357.154 6  21576016.993    21576017.290    21576020.599
        44.400          39.200
 128462851.852 6                  24445677.906
        40.100
                  92801012.979 6                                  22336130.174
                        37.700
 25  1  1 17 19 45.0000000  0 24E31G07G26G08G16G27G04G03R06R10E09G09
                                E04R07R09E21S35S31G31E06S33R08E19R16
 134502277.066 5                  25594921.580
        33.700
 122321938.056 7  95315735.74045  23277083.511    23277082.9484   23277081.5064
        44.600          34.9004


 118000423.748 7  91948394.92846  22454733.469    22454733.0584   22454744.6334
        46.800          37.2004
 108623252.707 7  84641494.18444  20670321.424    20670320.4004   20670322.6664
        42.600          28.1004
 112736292.750 7  87846477.95047  21453004.422    21453003.8144   21453009.6444
        46.700          43.8004
 104958144.374 7  81785569.18246  19972858.129    19972857.7724   19972858.8154
        47.900          37.8004


 113228058.334 5                  21218888.775
        34.300
 111174859.401 5                  20856101.665    20856099.757
        31.300
 140460808.057 7                  26728804.664
        43.400
 107851667.190 8  84040257.05648  20523495.139    20523494.5854   20523496.6404
        51.600          49.7004
 123094592.150 8                  23424104.097
        49.400
 103346172.931 8  80380390.498 7  19305933.507    19305933.552    19305940.156
        50.600          46.700
 104320567.465 8  81138234.370 8  19535879.147    19535879.484    19535884.147
        52.900          49.300
 133600385.793 5                  25423307.863
        32.800


 198904212.819 7                  37850238.130
        44.100
 127385395.326 5  99261427.84841  24240637.336    24240637.1174   24240651.9004
        33.600          11.5004
 129444218.174 7                  24632419.133
        45.200
 202041268.516 7                  38447190.150
        44.600
 115489110.604 7  89824906.429 7  21566786.663    21566785.464    21566790.750
        46.100          44.100
 128495008.616 6                  24451797.295
        39.600
 119362957.063 6  92837788.077 5  22344976.084    22344980.584    22344980.525
        38.200          35.100
 25  1  1 17 20  0.0000000  0 25E31G07G26G08G16G27G04G03R18R06R10E09
                                G09E04R07R09E21S35S31G31E06S33R08E19
                                R16
 134467432.468 6                  25588291.229
        38.500
 122288881.871 7  95289977.67245  23270792.650    23270792.0834   23270791.6414
        42.600          35.3004
 121481583.875 5  94661016.85142  23117175.593    23117175.2274   23117187.5124
        34.400          16.8004
 117949231.750 7  91908505.12546  22444992.316    22444991.9144   22445003.8924
        44.500          38.0004
 108655657.006 7  84666744.21544  20676487.246    20676486.2144   20676489.0524
        43.000          29.0004
 112706670.573 7  87823395.72047  21447367.787    21447367.1574   21447372.3184
        46.500          43.3004
 104963646.654 7  81789856.62746  19973905.098    19973904.7324   19973906.1104
        47.600          38.6004
 127005186.295 5  98965126.08142  24168271.410    24168271.0264   24168293.8644
        35.600          15.5004
 123792234.642 5                  23190460.043
        34.700
 113285870.466 4                  21229721.934    21229719.010
        26.500
 111146658.151 6                  20850817.377    20850815.868
        38.000
 140422166.746 7                  26721450.667
        43.000
 107829866.097 8  84023269.15748  20519346.810    20519346.2474   20519348.7894
        50.600          51.0004
 123084612.572 8                  23422205.281
        50.400
 103351556.100 8  80384577.345 7  19306940.565    19306941.425    19306945.024
        50.900          45.500
 104330831.463 8  81146217.440 8  19537801.191    19537801.504    19537806.162
        52.200          49.000
 133633352.874 4                  25429584.391
        29.700


 198904208.577 7                  37850233.403
        44.800
 127427423.126 6  99294176.07541  24248637.256    24248636.6174   24248647.6934
        40.300          11.0004
 129416238.116 7                  24627094.507
        47.200
 202041283.779 6                  38447174.857
        39.100
 115439795.214 7  89786549.945 7  21557576.569    21557577.772    21557582.740
        47.100          44.000
 128527231.862 6                  24457930.500
        41.100


 25  1  1 17 20 15.0000000  0 24E31G07G26G08G16G27G04G03R06R10E09G09
                                E04R07R09E21S35S31G31E06S33R08E19R16
 134432638.426 5                  25581668.793
        35.100
 122255832.083 6  95264224.60845  23264504.050    23264503.4564   23264503.2434
        40.700          32.9004
 121530675.858 5  94699270.26542  23126517.615    23126517.3704   23126527.3954
        33.700          15.1004
 117898095.525 7  91868658.71446  22435262.212    22435261.8504   22435274.1554
        44.900          38.9004
 108688164.557 7  84692074.77445  20682675.085    20682674.0704   20682675.3994
        43.500          31.3004
 112677180.539 8  87800416.44747  21441755.777    21441755.1344   21441760.0524
        48.800          44.1004
 104969285.351 8  81794250.36646  19974978.114    19974977.7524   19974979.1384
        49.300          39.0004
 127056843.168 6  99005377.80943  24178105.161    24178105.1484   24178119.4234
        40.800          19.7004
 113343783.666 5                  21240575.677    21240573.113
        32.100
 111118545.429 5                  20845538.527    20845540.431
        35.400
 140383547.876 7                  26714102.856
        42.600
 107808187.982 8  84006377.08548  20515222.094    20515221.5314   20515224.2634
        51.900          52.6004
 123074712.926 8                  23420321.175
        50.600
 103357143.028 8  80388922.660 7  19307982.891    19307983.747    19307990.507
        50.200          47.300
 104341180.916 8  81154266.983 8  19539739.099    19539739.330    19539744.812
        52.600          49.500
 133666354.066 5                  25435860.863
        30.700


 198904202.654 7                  37850231.311
        43.500
 127469462.719 6  99326933.46542  24256635.985    24256635.2124   24256647.9944
        38.200          16.4004
 129388312.057 7                  24621780.284
        47.200
 202041297.906 7                  38447194.573
        44.100
 115390597.613 7  89748285.129 7  21548391.587    21548393.283    21548393.525
        45.400          44.300
 128559517.407 7                  24464073.859
        42.500
 119457384.669 6                  22362679.352    22362678.273
        40.000
 25  1  1 17 20 30.0000000  0 24E31G07G26G08G16G27G04G03R06R10E09G09
                                E04R07R09E21S35S31G31E06S33R08E19R16
 134397898.223 5                  25575058.106
        35.600
 122222791.789 6  95238478.89345  23258216.956    23258216.3394   23258216.2184
        36.400          31.9004
 121579794.468 5  94737544.34442  23135863.518    23135863.5584   23135873.6724
        32.600          14.8004
 117847018.471 7  91828858.41346  22425542.588    22425542.2264   22425554.9544
        46.300          39.7004
 108720777.888 7  84717487.70645  20688881.411    20688880.4234   20688881.6984
        42.300          31.1004
 112647825.922 7  87777542.68047  21436169.471    21436168.8014   21436174.1954
        46.600          43.3004
 104975063.480 7  81798752.72446  19976077.520    19976077.1584   19976078.9794
        47.900          39.2004
 127108498.207 6  99045628.08443  24187926.359    24187926.6674   24187949.6554
        38.200          19.6004
 113401800.769 5                  21251443.485    21251445.086
        32.300
 111090524.956 5                  20840290.766    20840289.320
        32.400
 140344954.441 7                  26706758.518
        42.200
 107786636.021 8  83989583.32148  20511120.848    20511120.2984   20511123.4014
        51.900          53.1004
 123064896.287 8                  23418453.546
        50.500
 103362937.122 8  80393429.105 7  19309065.527    19309065.213    19309072.362
        49.000          47.200
 104351618.297 8  81162384.926 7  19541693.531    19541694.065    19541698.388
        52.300          47.900
 133699392.134 5                  25442148.727
        30.500


 198904197.337 7                  37850224.071
        42.800
 127511517.089 5  99359702.42841  24264634.595    24264633.9024   24264650.7004
        31.100          10.2004
 129360443.020 7                  24616477.717
        47.300
 202041312.973 7                  38447197.005
        45.300
 115341521.198 7  89710114.740 7  21539226.051    21539226.819    21539229.797
        43.500          42.300
 128591868.308 6                  24470229.840
        41.300


 25  1  1 17 20 45.0000000  0 25E31G07G26G08G16G27G04G03R18R06R10E09
                                G09E04R07R09E21S35S31G31E06S33R08E19
                                R16
 134363207.702 5                  25568456.236
        33.500
 122189757.139 6  95212737.58645  23251931.263    23251930.5934   23251929.0854
        38.000          31.5004
 121628935.098 5  94775835.65242  23145219.714    23145219.9284   23145225.0554
        30.600          13.5004
 117795997.166 7  91789101.57845  22415830.198    22415829.8014   22415845.0814
        42.500          34.7004
 108753492.770 6  84742979.76044  20695105.993    20695105.0014   20695106.3894
        40.900          29.1004
 112618603.131 7  87754771.65147  21430608.915    21430608.2454   21430613.6564
        46.100          43.7004
 104980977.249 7  81803360.80446  19977203.246    19977202.8754   19977204.9914
        47.000          38.8004
 127160146.906 6  99085873.47243  24197758.323    24197758.9044   24197781.6804
        37.100          21.5004
                  96233160.646 5                                  23178490.294
                        32.600
 113459917.207 5                  21262337.914    21262339.143
        31.500
 111062592.224 4                  20835056.833    20835059.123
        29.500
 140306382.661 7                  26699418.222
        42.300
 107765206.575 8  83972884.99748  20507042.630    20507042.0804   20507045.7374
        52.300          53.2004
 123055158.979 8                  23416600.498
        50.300
 103368934.067 8  80398093.357 7  19310185.638    19310185.355    19310191.569
        49.200          46.400
 104362139.947 9  81170568.399 7  19543664.481    19543665.540    19543668.920
        54.200          46.800
 133732462.888 5                  25448443.308
        32.400


 198904189.844 7                  37850231.226
        42.500
 127553582.222 5  99392479.72741  24272642.047    24272641.4664   24272655.6474
        32.600           9.5004
 129332627.379 7                  24611184.571
        46.100
 202041325.157 7                  38447200.055
        43.700
 115292562.106 7  89672035.340 7  21530082.042    21530083.384    21530089.403
        43.800          44.500
 128624280.604 6                  24476397.773
        40.100
 119551975.966 6                  22380386.807    22380389.364
        38.900
 25  1  1 17 21  0.0000000  0 24E31G07G26G08G16G27G04G03R06R10E09G09
                                E04R07R09E21S35S31G31E06S33R08E19R16
 134328567.331 6                  25561865.999
        36.400
 122156727.985 6  95187000.53045  23245646.179    23245645.5494   23245643.5174
        40.700          32.1004


 117745032.058 7  91749388.55145  22406134.063    22406133.6884   22406145.4924
        43.900          33.6004
 108786308.612 6  84768550.48444  20701350.388    20701349.4094   20701350.5094
        41.600          28.4004
 112589512.650 7  87732103.71647  21425072.539    21425071.8734   21425078.3744
        44.100          42.1004
 104987026.690 8  81808074.59946  19978354.814    19978354.4344   19978356.6714
        49.000          40.2004


 113518132.483 5                  21273247.354    21273246.115
        30.800
 111034740.030 5                  20829822.144
        33.700
 140267833.291 7                  26692083.105
        44.400
 107743899.834 8  83956282.27148  20502987.777    20502987.2234   20502990.7804
        50.100          52.1004
 123045501.083 8                  23414762.518
        48.900
 103375134.052 8  80402915.482 7  19311345.017    19311345.061    19311350.359
        50.200          45.500
 104372745.194 9  81178816.875 7  19545649.567    19545650.932    19545654.450
        54.000          46.500
 133765566.193 5                  25454743.460
        30.700


 198904180.643 7                  37850230.622
        44.100
 127595658.211 5  99425265.32041  24280649.687    24280649.1964   24280662.6374
        32.600           8.0004
 129304865.217 7                  24605901.671
        46.200
 202041335.788 6                  38447200.533
        41.300
 115243721.253 6  89634047.860 6  21520956.162    21520958.497    21520963.532
        40.800          41.200
 128656754.098 6                  24482577.264
        41.100
                  93021714.452 5                                  22389246.865
                        30.700
 25  1  1 17 21 15.0000000  0 24E31G07G26G08G16G27G04G03R18R06R10E09
                                G09E04R07R09E21S35S31E06S33R08E19R16
 134293986.905 6                  25555285.024
        39.300
 122123714.266 6  95161275.56245  23239362.766    23239362.1364   23239361.9214
        41.400          33.1004
 121727278.343 6  94852458.68042  23163933.256    23163933.7564   23163938.7554
        37.000          13.5004
 117694133.428 6  91709727.39345  22396446.444    22396446.0334   22396458.4064
        36.800          30.1004
 108819235.506 7  84794207.77744  20707616.469    20707615.5134   20707616.7504
        42.100          29.3004
 112560564.608 7  87709546.78546  21419563.998    21419563.3644   21419570.2114
        44.400          41.6004
 104993221.775 8  81812901.87246  19979533.739    19979533.3594   19979535.9724
        49.000          41.4004
 127263354.969 6  99166365.48443  24217415.389    24217416.0504   24217438.2844
        40.300          22.4004
                  96200645.763 5                                  23170661.516
                        34.300
 113576456.219 5                  21284180.298    21284181.249
        33.500
 111006992.910 4                  20824624.498
        26.900
 140229316.000 7                  26684752.496
        43.800
 107722726.185 8  83939783.30248  20498959.042    20498958.4844   20498961.6704
        48.700          51.6004
 123035932.738 8                  23412941.627
        49.300
 103381547.213 8  80407903.414 7  19312544.374    19312544.198    19312548.790
        51.200          46.300
 104383444.167 9  81187138.303 7  19547653.427    19547654.165    19547657.317
        54.100          45.300
 133798711.700 5                  25461053.305
        33.000


 198904178.294 7                  37850226.414
        43.700
 129277166.868 7                  24600630.693
        47.000
 202041353.801 7                  38447196.916
        43.600
 115195009.042 6  89596160.502 6  21511863.706    21511862.850    21511869.459
        38.000          41.300
 128689298.737 6                  24488769.996
        39.600
 119646883.723 5  93058508.440 5  22398112.797    22398111.996    22398108.311
        33.000          35.500
 25  1  1 17 21 30.0000000  0 24E31G07G26G08G16G27G04G03R18R06R10E09
                                G09E04R07R09E21S35S31E06S33R08E19R16
 134259454.941 5                  25548710.777
        32.300
 122090704.660 6  95135553.78545  23233080.585    23233079.9684   23233081.2454
        41.600          31.9004
 121776492.712 5  94890807.36442  23173298.298    23173298.4544   23173304.4354
        33.400          15.8004
 117643290.125 6  91670109.22745  22386773.946    22386773.5404   22386782.2264
        38.800          32.0004
 108852261.211 7  84819942.04044  20713900.758    20713899.8464   20713901.1954
        42.100          27.5004
 112531747.917 7  87687092.17446  21414080.850    21414080.2164   21414086.6694
        44.200          41.8004
 104999551.058 8  81817833.71446  19980737.959    19980737.5754   19980740.2654
        50.600          40.9004
 127314991.057 5  99206601.09742  24227242.382    24227242.8204   24227266.2494
        35.500          12.5004
 123665840.735 4                  23166786.088
        27.200
 113634876.397 5                  21295127.831    21295127.539
        33.300
 110979331.773 5                  20819430.425    20819428.919
        35.900
 140190819.583 7                  26677426.363
        43.600
 107701674.180 8  83923379.11348  20494953.430    20494952.8674   20494955.9814
        50.200          52.4004
 123026442.433 8                  23411136.077
        48.600
 103388161.800 8  80413048.015 7  19313778.859    19313778.192    19313784.366
        48.200          47.500
 104394225.085 8  81195523.465 7  19549672.617    19549673.322    19549676.836
        53.600          46.600
 133831918.035 5                  25467364.147
        35.000


 198904171.852 7                  37850221.813
        44.500
 129249520.850 7                  24595369.588
        46.400
 202041367.022 6                  38447203.046
        39.700
 115146414.221 7  89558364.516 6  21502786.426    21502787.102    21502792.964
        43.100          39.800
 128721902.747 6                  24494974.408
        41.700
 119694187.726 5  93095301.347 4  22406966.326                    22406956.606
        31.800          28.200
 25  1  1 17 21 45.0000000  0 22E31G07G26G08G16G27G04G03R06E09G09E04
                                R07R09E21S35S31E06S33R08E19R16


 122057703.619 6  95109838.69245  23226803.132    23226802.5874   23226801.5404
        40.900          33.5004
 121825731.380 5  94929175.07442  23182668.122    23182668.5244   23182676.6204
        34.600          14.8004
 117592507.100 7  91630538.15245  22377110.512    22377110.1324   22377117.6904
        44.700          34.1004
 108885390.102 6  84845756.74243  20720203.003    20720202.1724   20720205.1864
        37.200          20.5004
 112503067.388 7  87664743.62446  21408622.911    21408622.2454   21408629.0814
        42.400          39.5004
 105006019.116 8  81822873.73646  19981968.894    19981968.5144   19981970.9854
        50.500          41.2004
 127366622.234 6  99246832.56243  24237073.204    24237073.8344   24237090.6004
        39.200          19.0004
 113693396.861 6                  21306094.782    21306096.957
        36.900
 140152348.603 6                  26670105.358
        41.900
 107680748.652 8  83907073.45548  20490971.760    20490971.2024   20490974.1314
        51.100          52.4004
 123017035.011 8                  23409346.015
        49.500
 103394982.272 8  80418352.803 7  19315054.277    19315053.749    19315057.549
        51.100          45.700
 104405091.917 9  81203975.373 7  19551708.541    19551708.670    19551709.922
        54.600          44.300
 133865129.229 5                  25473687.639
        34.900


 198904166.377 7                  37850231.154
        42.000
 129221932.008 7                  24590119.993
        47.100
 202041381.960 7                  38447208.873
        42.200
 115097942.212 7  89520663.961 6  21493735.986    21493736.766    21493743.058
        46.400          38.700
 128754570.697 7                  24501191.562
        42.600
                  93132097.056 5                  22415816.384    22415810.942
                        32.100
 25  1  1 17 22  0.0000000  0 24E31G07G08G16G27G04G03R18R06R10E09G09
                                E04R07R09E21S35S31G31E06S33R08E19R16
 134190550.640 5                  25535601.922
        34.500
 122024712.321 7  95084131.11845  23220523.258    23220522.7354   23220523.9414
        44.100          35.3004
 117541785.918 7  91591015.23746  22367457.627    22367457.2474   22367465.3844
        46.200          36.3004
 108918622.897 5  84871652.35942  20726526.677    20726525.8324   20726529.3664
        33.100          17.1004
 112474524.290 7  87642502.16546  21403191.866    21403191.2094   21403196.4084
        43.100          39.0004
 105012627.073 8  81828022.74146  19983226.312    19983225.9324   19983228.7774
        50.900          41.7004
 127418249.489 6  99287061.22143  24246892.602    24246893.2954   24246914.8264
        37.000          18.7004
 123624999.052 4                  23159126.787
        28.100
 113752018.482 5                  21317081.356    21317082.151
        34.200
 110924217.394 5                  20809101.280
        33.900
 140113904.340 6                  26662789.985
        38.800
 107659950.982 8  83890867.46348  20487013.405    20487012.8424   20487016.4864
        50.500          52.2004
 123007711.609 8                  23407571.269
        49.400
 103402010.044 8  80423818.757 7  19316366.137    19316364.941    19316371.482
        49.600          45.900
 104416046.073 8  81212495.313 7  19553759.335    19553759.227    19553761.399
        53.600          44.300




 198904161.631 7                  37850225.082
        43.000
 127764153.142 5                  24312710.372
        31.200
 129194401.462 7                  24584881.908
        47.500
 202041397.761 6                  38447217.977
        41.300
 115049594.340 7  89483060.045 6  21484710.030    21484710.639    21484713.962
        46.400          39.900
 128787303.565 7                  24507420.885
        42.300
 119788679.537 6                  22424668.710    22424668.162
        40.900
 25  1  1 17 22 15.0000000  0 25E31G07G26G08G16G27G04G03R18R06R10E09
                                G09E04R07R09E21S35S31G31E06S33R08E19
                                R16
 134156177.182 6                  25529062.664
        37.600
 121991727.494 7  95058428.63846  23214246.668    23214246.1594   23214248.0184
        43.300          36.6004


 117491123.716 7  91551538.24245  22357817.166    22357816.7694   22357823.4174
        43.800          34.2004
 108951956.167 5  84897626.35642  20732871.462    20732870.6674   20732872.2374
        35.600          17.4004
 112446115.895 7  87620365.75546  21397786.015    21397785.4074   21397790.1764
        43.400          39.4004
 105019371.731 8  81833278.27547  19984509.623    19984509.2524   19984512.2534
        50.600          42.0004
 127469868.940 5  99327283.77543  24256714.978    24256715.6264   24256740.6094
        34.600          21.3004
 123604821.512 6  96137121.186 5  23155353.948    23155353.232    23155355.117
        36.900          33.900
 113810737.428 5                  21328086.955    21328086.514
        31.600
 110896827.300 6                  20803964.631    20803963.446
        41.000
 140075483.940 6                  26655479.827
        39.700
 107639278.027 8  83874758.61248  20483079.118    20483078.5734   20483082.7414
        50.100          51.6004
 122998469.075 8                  23405812.646
        50.700
 103409241.575 8  80429443.234 7  19317714.685    19317715.429    19317721.617
        48.000          45.500
 104427083.791 9  81221080.225 7  19555826.586    19555827.053    19555829.351
        54.500          44.800




 198904155.727 7                  37850220.534
        42.400
 127806309.973 5  99589324.90541  24320731.607    24320731.9244   24320732.5654
        32.300          10.3004
 129166926.340 7                  24579652.898
        46.600
 202041411.539 7                  38447220.723
        45.300
 115001367.717 7  89445550.462 5  21475704.048    21475703.959    21475702.699
        47.900          31.500
 128820098.043 7                  24513661.721
        43.500
 119835992.718 7  93205673.953 5  22433523.517    22433523.307    22433533.274
        42.000          33.200
 25  1  1 17 22 30.0000000  0 25E31G07G26G08G16G27G04G03R18R06R10E09
                                G09E04R07R09E21S35S31G31E06S33R08E19
                                R16
 134121856.087 6                  25522536.639
        39.300
 121958750.411 7  95032732.18845  23207971.000    23207970.5094   23207972.5164
        43.100          35.7004


 117440522.171 7  91512108.52145  22348188.474    22348188.0994   22348195.5894
        42.200          35.5004
 108985390.741 6  84923679.24243  20739235.680    20739234.8764   20739235.3394
        38.800          19.9004
 112417843.675 7  87598335.42146  21392406.399    21392405.8094   21392408.9104
        43.000          38.3004
 105026254.399 8  81838641.33246  19985819.307    19985818.9324   19985821.3574
        50.000          41.5004
 127521481.663 5  99367501.05042  24266532.795    24266533.5284   24266563.6464
        32.800          13.6004
 123584805.597 5  96121553.022 6  23151590.515    23151594.162    23151609.011
        34.700          36.600
 113869554.464 4                  21339110.505
        26.100
 110869526.489 6                  20798841.231    20798841.086
        39.500
 140037088.622 7                  26648173.330
        42.000
 107618731.350 8  83858748.14448  20479169.110    20479168.5784   20479172.4554
        50.600          50.9004
 122989308.820 8                  23404069.805
        50.400
 103416677.935 7  80435227.015 7  19319103.362    19319103.899    19319111.352
        47.100          46.200
 104438205.875 9  81229730.681 7  19557909.358    19557910.221    19557911.906
        54.300          44.000




 198904149.548 6                  37850219.939
        41.200
 127848468.606 4  99622175.06542  24328755.121    24328755.6304   24328761.0334
        27.000          13.3004
 129139507.903 7                  24574435.252
        46.200
 202041425.493 7                  38447220.320
        43.200
 114953264.385 8                  21466721.768    21466721.574
        48.500
 128852955.321 7                  24519914.454
        43.800
 119883306.857 6  93242473.518 5  22442380.804    22442380.715    22442392.082
        41.700          33.200
 25  1  1 17 22 45.0000000  0 22E31G07G26G08G16G27G04G03R18R10E09G09
                                E04R07R09E21S35S31E06S33E19R16
 134087587.448 6                  25516007.025
        38.000
 121925781.129 6  95007041.81745  23201697.353    23201696.8714   23201697.4124
        41.000          32.0004


 117389981.551 6  91472726.26146  22338571.413    22338571.0514   22338580.1074
        40.300          36.9004
 109018926.268 6  84949810.78843  20745617.399    20745616.5774   20745618.7504
        40.100          21.1004
 112389707.897 7  87576411.44846  21387052.415    21387051.8124   21387054.0664
        44.600          38.0004
 105033275.038 8  81844111.89547  19987155.523    19987155.1574   19987157.1514
        50.400          42.1004
 127573098.175 5                  24276355.332
        31.700
 123564951.723 6  96106110.962 5  23147880.350    23147878.713    23147890.798
        38.200          33.100
 110842315.399 6                  20793737.135    20793737.677
        39.300
 139998718.760 7                  26640871.855
        43.600
 107598311.115 8  83842836.23748  20475283.325    20475282.8074   20475286.3114
        50.000          50.2004
 122980230.895 8                  23402342.442
        49.200
 103424319.460 7  80441170.374 7  19320531.866    19320531.321    19320539.727
        46.600          46.300
 104449412.286 9  81238446.788 7  19560007.835    19560008.592    19560010.993
        54.100          45.300
 133998290.026 5                  25499025.103
        30.200


 198904142.000 7                  37850223.481
        42.400
 129112146.355 7                  24569228.726
        46.000
 202041438.668 7                  38447223.245
        44.900
 128885875.174 7                  24526179.490
        43.400
 119930621.950 6  93279273.815 4  22451240.491    22451240.466    22451243.726
        37.400          27.500
 25  1  1 17 23  0.0000000  0 22E31G07G26G08G16G27G04R18R10E09G09E04
                                R07R09E21S35S31E06S33R08E19R16
 134053373.178 6                  25509496.802
        39.700
 121892821.469 6  94981358.95245  23195425.176    23195424.7074   23195424.1464
        41.000          31.6004


 117339504.084 7  91433393.21046  22328964.580    22328964.1474   22328976.6494
        44.000          39.3004
 109052564.317 6  84976022.20243  20752018.225    20752017.4524   20752020.8304
        38.300          21.2004
 112361710.685 7  87554595.44646  21381723.910    21381723.2984   21381726.3464
        42.800          37.1004
 105040435.444 8  81849691.34947  19988517.852    19988517.4994   19988520.0304
        50.900          42.9004
 123545261.708 6  96090796.191 5  23144191.114    23144189.857    23144209.678
        36.100          30.600
 110815195.649 6                  20788646.130    20788645.832
        36.800
 139960376.266 6                  26633575.674
        41.800
 107578019.362 8  83827024.44348  20471421.834    20471421.3294   20471425.0874
        48.200          50.0004
 122971237.286 8                  23400630.707
        48.800
 103432167.729 7  80447274.523 7  19321997.412    19321997.705    19322006.048
        47.400          47.100
 104460704.631 8  81247229.710 7  19562121.917    19562122.435    19562125.511
        52.800          44.900
 134031671.403 4                  25505379.471
        28.700


 198904136.933 6                  37850211.126
        41.700
 129084843.715 7                  24564032.839
        44.700
 202041453.275 6                  38447208.707
        39.000
 114857431.437 7  89333622.160 5  21448822.982    21448824.142    21448827.398
        44.900          34.000
 128918859.379 7                  24532455.771
        42.700
 119977940.598 6                  22460100.451    22460099.354
        37.000
 25  1  1 17 23 15.0000000  0 23E31G07G26G08G16G27G04R18R10E09G09E04
                                R07R09E21S35S31G31E06S33R08E19R16
 134019214.378 5                  25502995.702
        31.200
 121859872.511 6  94955684.40445  23189153.102    23189152.6374   23189153.2994
        41.700          30.2004


 117289091.350 7  91394110.61046  22319371.702    22319371.2374   22319384.2994
        42.400          38.2004
 109086305.347 6  85002313.88742  20758437.457    20758436.7474   20758440.4664
        39.200          16.8004
 112333853.440 7  87532888.52246  21376422.525    21376421.9224   21376426.3964
        44.000          36.4004
 105047736.801 8  81855380.66447  19989907.423    19989907.0794   19989909.6504
        48.800          42.2004
 123525723.867 5                  23140533.425
        35.700
 110788168.014 6                  20783578.174    20783578.048
        38.800
 139922062.228 7                  26626284.128
        42.700
 107557857.417 8  83811313.81148  20467585.056    20467584.5424   20467588.6364
        49.100          49.4004
 122962329.107 8                  23398935.839
        48.300
 103440223.798 7  80453540.280 7  19323504.181    19323503.229    19323510.875
        47.500          45.300
 104472083.667 8  81256080.031 7  19564252.851    19564253.231    19564257.062
        52.700          46.300
 134065088.397 5                  25511738.696
        33.500


 198904133.433 7                  37850220.185
        42.300
 127975043.938 5  99720839.11441  24352839.983    24352840.4124   24352849.0024
        32.600           8.4004
 129057601.101 7                  24558848.873
        45.000
 202041469.999 6                  38447219.122
        41.600
 114809705.477 7                  21439909.389    21439910.240
        43.500
 128951908.850 7                  24538745.184
        43.700
 120025262.849 5                  22468959.245    22468955.554
        34.800
 25  1  1 17 23 30.0000000  0 22E31G07G26G08G16G27G04G03R10E09G09E04
                                R07R09E21S35S31E06S33R08E19R16
 133985106.525 6                  25496509.780
        40.300
 121826929.817 7  94930014.75145  23182886.090    23182885.6304   23182884.5994
        42.100          30.1004
 122171070.844 5  95198279.72141  23248383.798    23248383.1684   23248388.9924
        32.800           7.0004
 117238739.203 7  91354875.17046  22309789.223    22309788.7504   22309802.7974
        43.400          39.4004
 109120144.566 6  85028682.02042  20764877.835    20764877.1834   20764879.3614
        40.100          17.6004
 112306132.019 7  87511287.40245  21371148.197    21371147.5944   21371152.3454
        42.300          34.9004
 105055174.650 8  81861176.35547  19991323.138    19991322.7994   19991325.1424
        50.600          42.5004


 110761228.445 6                  20778521.960    20778522.499
        38.100
 139883772.450 6                  26618998.109
        41.500
 107537821.024 8  83795701.00748  20463772.535    20463772.0124   20463776.0954
        48.700          50.3004
 122953502.099 8                  23397256.009
        49.200
 103448483.103 8  80459964.144 7  19325047.708    19325047.379    19325053.039
        50.200          45.100
 104483544.850 8  81264994.212 7  19566399.348    19566399.641    19566403.821
        53.000          47.400
 134098536.586 6                  25518104.535
        36.400


 198904127.542 7                  37850220.847
        45.300
 129030414.360 7                  24553675.084
        45.000
 202041485.381 6                  38447221.890
        40.600
 114762102.989 6  89259478.063 6  21431021.480    21431018.262    21431033.019
        39.100          36.200
 128985019.053 6                  24545046.222
        41.900


 25  1  1 17 23 45.0000000  0 24E31G07G26G08G16G27G04G03R06R10E09G09
                                E04R07R09E21S35S31G31E06S33R08E19R16
 133951051.198 5                  25490027.187
        32.200
 121793994.651 6  94904350.96945  23176619.110    23176618.6454   23176618.4564
        41.200          33.9004
 122220490.749 5  95236788.6634   23257791.808    23257791.1744   23257796.1054
        33.000           5.9004
 117188449.360 7  91315688.25446  22300220.824    22300220.3594   22300232.0624
        44.700          38.6004
 109154083.103 7  85055127.50042  20771335.733    20771335.0184   20771336.9344
        42.500          12.5004
 112278548.003 7  87489793.29045  21365897.477    21365896.8204   21365903.0944
        44.000          35.6004
 105062750.396 8  81867079.49747  19992764.679    19992764.3354   19992766.8874
        50.600          43.2004


 114165137.708 4                  21394494.960
        27.700
 110734377.967 6                  20773483.701    20773482.873
        37.800
 139845508.601 6                  26611716.617
        41.700
 107517911.788 8  83780187.28348  20459984.258    20459983.7354   20459987.6254
        48.300          50.2004
 122944757.677 8                  23395591.782
        48.800
 103456946.858 8  80466546.973 7  19326629.036    19326628.799    19326635.350
        49.500          46.700
 104495089.180 8  81273973.133 8  19568561.175    19568561.035    19568566.459
        52.500          49.700
 134132017.026 6                  25524477.205
        40.300


 198904121.787 7                  37850214.721
        42.800
 128059480.016 5  99786638.88642  24368911.704    24368912.0034   24368916.1004
        31.200          13.0004
 129003285.009 7                  24548513.493
        46.200
 202041499.554 7                  38447235.416
        46.600
 114714625.899 6  89222551.329 6  21422151.818    21422151.947    21422161.378
        41.200          36.600
 129018191.263 6                  24551358.395
        40.400


 25  1  1 17 24  0.0000000  0 22E31G07G26G08G16G27G04R10E09G09E04R07
                                R09E21S35S31G31E06S33R08E19R16
 133917050.010 6                  25483560.142
        36.300
 121761068.670 7  94878694.38246  23170353.817    23170353.3524   23170354.2634
        44.800          37.9004
 122269933.208 5  95275315.47742  23267223.166    23267222.1294   23267208.1874
        34.400          12.1004
 117138223.957 6  91276551.64045  22290662.932    22290662.4504   22290671.0444
        39.800          30.5004
 109188122.249 6  85081651.45942  20777811.845    20777811.0544   20777812.7114
        38.300          12.2004
 112251103.410 7  87468407.87346  21360676.211    21360675.5634   21360681.0754
        45.200          38.0004
 105070465.684 8  81873091.36047  19994233.594    19994233.2594   19994235.3814
        50.600          43.6004
 110707618.148 6                  20768463.785    20768462.743
        36.300
 139807272.244 6                  26604441.288
        41.200
 107498131.583 8  83764774.09648  20456220.454    20456219.9544   20456222.9264
        50.000          50.0004
 122936097.570 8                  23393943.748
        48.600
 103465617.192 8  80473290.518 7  19328248.693    19328249.217    19328253.312
        50.000          44.800
 104506718.200 9  81283017.939 8  19570739.282    19570739.619    19570744.121
        54.000          49.900
 134165531.319 6                  25530853.752
        36.100


 198904116.680 6                  37850205.317
        39.100
 128101717.863 5  99819550.79341  24376946.687    24376946.8924   24376951.1414
        32.400          11.3004
 128976214.803 7                  24543362.128
        45.500
 202041514.675 7                  38447239.275
        45.200
 114667276.381 6  89185723.807 5  21413314.019    21413312.358    21413316.200
        41.300          34.200
 129051427.066 6                  24557683.036
        41.600
 120167178.707 5                  22495529.047    22495528.811
        31.900
 25  1  1 17 24 15.0000000  0 21E31G07G26G08G16G27G04R10E09G09E04R07
                                R09E21S35S31E06S33R08E19R16
 133883098.245 5                  25477101.001
        34.700
 121728147.046 7  94853041.18346  23164088.753    23164088.2884   23164089.0954
        47.000          38.0004


 117088058.293 6  91237461.64644  22281116.131    22281115.5734   22281119.6814
        41.400          26.6004
 109222256.756 6  85108249.72042  20784309.344    20784308.4734   20784307.8274
        41.800          12.2004
 112223793.530 7  87447127.49046  21355478.687    21355478.0794   21355484.3034
        46.900          39.5004
 105078315.561 8  81879208.11347  19995727.027    19995726.6884   19995729.4264
        50.600          43.4004
 110680944.153 6                  20763459.808    20763459.883
        38.500
 139769058.591 6                  26597168.570
        41.100
 107478475.602 8  83749457.71548  20452479.850    20452479.3324   20452482.9554
        49.200          50.8004
 122927516.963 8                  23392311.056
        49.000
 103474488.464 8  80480190.374 7  19329904.524    19329905.765    19329911.019
        50.400          46.300
 104518426.601 8  81292124.480 8  19572931.515    19572931.859    19572936.670
        53.300          50.000
 134199073.956 6                  25537236.643
        38.200


 198904107.036 6                  37850205.219
        40.800
 128949198.997 7                  24538221.235
        45.900
 202041525.265 7                  38447237.710
        46.200
 114620049.748 6  89148991.995 6  21404493.336    21404492.132    21404503.106
        39.900          37.100
 129084721.326 6                  24564019.074
        39.200
 120214498.506 5                  22504389.231    22504389.689
        34.700
 25  1  1 17 24 30.0000000  0 23E31G07G26G08G16G27G04G03R10E09G09E04
                                R07R09E21S35S31G31E06S33R08E19R16
 133849206.741 4                  25470645.371
        26.800
 121695240.829 7  94827399.93746  23157827.978    23157827.5004   23157827.4734
        45.300          39.5004


 117037963.951 6  91198427.12344  22271582.691    22271582.0434   22271584.7294
        40.700          26.8004
 109256497.635 6  85134930.87541  20790825.417    20790824.3044   20790823.9034
        38.400          10.7004
 112196629.759 7  87425960.91646  21350309.379    21350308.7764   21350315.4654
        43.200          39.5004
 105086311.093 8  81885438.36347  19997247.904    19997247.5654   19997250.9414
        50.200          42.0004


 110654366.845 5                  20758473.094    20758471.099
        35.700
 139730879.117 6                  26589903.126
        38.900
 107458955.217 8  83734246.99948  20448765.403    20448764.8854   20448768.3064
        49.600          50.2004
 122919027.028 8                  23390695.546
        49.800
 103483572.039 8  80487255.327 7  19331601.743    19331602.751    19331607.870
        48.600          46.000
 104530225.334 8  81301301.269 8  19575140.929    19575140.934    19575145.499
        52.400          49.300
 134232656.223 6                  25543627.542
        40.700


 198904104.879 7                  37850212.669
        43.100
 128186291.107 5  99885418.82941  24393030.797    24393031.3964   24393037.9734
        31.400           8.3004
 128922248.875 7                  24533091.501
        43.600
 202041543.289 7                  38447242.567
        45.900
 114572957.833 7  89112364.923 5  21395703.296    21395700.269    21395706.338
        44.800          35.300
 129118085.101 6                  24570367.244
        37.400
 120261825.984 6                  22513249.213    22513249.051
        41.300
 25  1  1 17 24 45.0000000  0 24E31G07G26G08G16G27G04G03R18R10E09G09
                                E04R07R09E21S35S31G31E06S33R08E19R16
 133815363.974 5                  25464212.438
        34.100
 121662338.561 7  94801761.82746  23151566.826    23151566.3264   23151566.6654
        43.600          40.0004


 116987929.723 6  91159439.50045  22262062.679    22262062.0674   22262066.9924
        41.100          33.1004
 109290832.486 7  85161685.22742  20797358.300    20797357.1604   20797357.6774
        42.600          12.4004
 112169600.813 7  87404899.44946  21345166.427    21345165.8554   21345172.5004
        43.300          38.5004
 105094440.838 8  81891773.16347  19998795.353    19998795.0234   19998797.9704
        50.800          42.3004


                  95987161.015 5                  23119240.453    23119239.078
                        33.200
 110627874.998 5                  20753503.835    20753501.356
        32.300
 139692722.453 6                  26582642.435
        40.700
 107439559.095 8  83719133.08448  20445074.358    20445073.8354   20445077.1254
        49.200          50.5004
 122910616.435 8                  23389095.163
        49.400
 103492856.193 8  80494476.246 7  19333337.350    19333336.479    19333342.819
        48.100          46.500
 104542102.559 8  81310539.041 7  19577365.649    19577365.808    19577369.081
        53.800          47.900
 134266266.203 6                  25550021.274
        37.000


 198904098.093 6                  37850216.881
        41.500
 128228565.786 5  99918359.5674   24401072.865    24401073.5134   24401080.4284
        32.500           4.9004
 128895353.032 7                  24527973.851
        42.200
 202041557.111 7                  38447252.288
        44.700
 114525989.306 7  89075833.782 5  21386929.776    21386928.801    21386931.445
        44.300          31.200
 129151506.740 6                  24576728.106
        39.900
 120309148.952 6                  22522108.165    22522109.280
        40.200
 25  1  1 17 25  0.0000000  0 23E31G07G26G08G16G27G04G03R18R10E09G09
                                E04R07R09E21S35S31E06S33R08E19R16
 133781576.822 6                  25457778.984
        36.600
 121629446.823 7  94776131.92546  23145307.397    23145306.9064   23145307.6324
        47.100          41.2004


 116937962.578 7  91120504.13545  22252552.717    22252552.1504   22252563.0414
        42.600          34.7004
 109325267.672 7  85188517.84642  20803911.472    20803910.4224   20803911.4664
        42.900          14.2004
 112142713.566 7  87383948.41946  21340050.761    21340050.1984   21340055.9314
        43.700          38.5004
 105102711.321 8  81898217.62446  20000368.999    20000368.6604   20000371.2034
        48.700          40.5004
 128037228.962 4  99769425.06241  24364679.993    24364679.9354   24364712.4834
        27.200          10.9004
 123393637.043 5  95972868.544 5  23115789.538                    23115799.726
        31.100          33.200
 110601474.397 5                  20748552.867    20748550.460
        35.000
 139654595.047 6                  26575386.410
        38.800
 107420294.014 8  83704121.30848  20441408.201    20441407.6744   20441410.8914
        49.600          50.0004
 122902291.772 8                  23387511.050
        50.100
 103502347.429 7  80501858.329 7  19335109.116    19335108.655    19335116.269
        47.300          46.000
 104554064.517 8  81319842.769 7  19579605.677    19579606.010    19579609.444
        53.900          47.900
 134299910.224 6                  25556424.693
        37.500


 198904092.576 7                  37850214.725
        43.500
 128868518.151 7                  24522866.498
        45.000
 202041571.969 6                  38447248.044
        38.700
 114479151.445 7  89039404.405 5  21378183.499    21378182.938    21378186.824
        44.400          32.600
 129184992.658 6                  24583100.299
        41.400
 120356474.347 6  93610576.221 5  22530967.902    22530971.768    22530974.925
        37.500          30.800
 25  1  1 17 25 15.0000000  0 23E31G07G26G08G16G27G04G03R10E09G09E04
                                R07R09E21S35S31G31E06S33R08E19R16
 133747841.803 5                  25451359.480
        34.300
 121596562.031 8  94750507.43147  23139049.121    23139048.6254   23139049.7884
        48.200          42.2004
 122517437.130 5  95468143.46341  23314296.935    23314296.6314   23314300.0424
        32.900          10.4004
 116888059.315 6  91081618.53045  22243057.248    22243056.6764   22243069.1024
        40.500          35.6004
 109359799.275 7  85215425.37842  20810480.972    20810479.9134   20810483.1454
        42.600          13.4004
 112115964.777 7  87363105.20146  21334961.110    21334960.5834   21334964.7974
        42.400          39.1004
 105111118.983 8  81904769.00846  20001969.780    20001969.4504   20001970.4254
        50.400          40.2004
 128088747.161 5  99809568.70341  24374479.232    24374479.1164   24374511.5034
        30.300           8.7004
 110575161.927 5                  20743614.633    20743612.425
        31.800
 139616493.653 6                  26568137.132
        39.100
 107401156.600 8  83689209.04648  20437766.266    20437765.7434   20437768.7324
        50.200          49.6004
 122894049.565 8                  23385942.440
        49.500
 103512042.212 8  80509398.646 7  19336921.940    19336922.551    19336926.557
        48.800          46.500
 104566107.676 8  81329209.670 8  19581861.142    19581860.951    19581865.337
        53.300          48.600
 134333584.733 6                  25562833.260
        37.100


 198904085.781 6                  37850215.544
        41.100
 128313094.230 4                  24417172.068
        27.800
 128841740.850 7                  24517771.656
        45.400
 202041585.662 6                  38447246.944
        41.700
 114432441.074 7  89003074.182 5  21369459.702    21369459.648    21369465.882
        47.000          34.700
 129218539.214 6                  24589484.843
        41.500
 120403797.960 5                  22539827.563    22539823.716
        35.100
 25  1  1 17 25 30.0000000  0 24E31G07G26G08G16G27G04G03R18R10E09G09
                                E04R07R09E21S35S31G31E06S33R08E19R16


 121563689.177 7  94724892.19846  23132793.394    23132792.8944   23132794.2304
        46.000          40.1004
 122567006.479 5  95506768.81942  23323733.053    23323732.7404   23323735.6314
        34.800          17.2004
 116838225.546 6  91042787.04745  22233574.992    22233574.4424   22233586.8074
        41.500          35.1004
 109394432.131 7  85242412.10443  20817071.515    20817070.4784   20817073.4854
        43.500          18.3004
 112089359.899 7  87342374.05646  21329897.078    21329896.5204   21329902.5044
        43.900          39.1004
 105119668.997 8  81911431.30846  20003596.801    20003596.4534   20003597.7074
        50.200          40.5004


 123357373.046 5                  23108997.178    23108997.719
        33.600
 110548942.575 6                  20738698.916    20738695.653
        37.000
 139578423.822 6                  26560891.516
        41.500
 107382152.246 8  83674400.46848  20434149.920    20434149.3934   20434151.2344
        51.100          49.1004
 122885895.162 8                  23384390.867
        50.600
 103521945.782 8  80517101.342 7  19338772.178    19338772.180    19338776.852
        49.200          45.500
 104578236.835 9  81338643.443 8  19584133.054    19584133.600    19584137.373
        55.000          48.000
 134367294.683 6                  25569248.025
        36.200


 198904083.300 6                  37850199.128
        41.100
 128355411.602 5                  24425225.595
        33.700
 128815026.534 7                  24512687.869
        44.100
 202041603.342 7                  38447249.520
        44.900
 114385864.142 7  88966847.704 6  21360763.395    21360763.742    21360771.478
        47.300          38.900
 129252151.350 6                  24595880.724
        40.800
 120451125.268 5  93684169.295 5  22548685.871    22548686.141    22548696.984
        32.400          30.200
 25  1  1 17 25 45.0000000  0 24E31G07G26G08G16G27G04G03R18R10E09G09
                                E04R07R09E21S35S31G31E06S33R08E19R16


 121530824.885 7  94699283.71046  23126539.788    23126539.2794   23126539.7584
        45.500          37.2004
 122616595.704 4  95545409.48842  23333166.997    23333166.5774   23333172.5124
        28.400          13.6004
 116788458.131 6  91004007.25745  22224104.465    22224103.9474   22224116.8634
        38.800          34.2004
 109429162.368 7  85269474.57842  20823682.142    20823681.0784   20823682.6024
        42.000          14.3004
 112062895.554 6  87321752.49446  21324860.025    21324859.4534   21324866.6664
        40.400          39.6004
 105128357.880 8  81918201.82646  20005249.182    20005248.8474   20005252.2744
        49.800          41.6004


 123339496.989 5                  23105645.759    23105644.297
        33.000
 110522812.723 6                  20733796.996    20733793.967
        38.000
 139540381.904 6                  26553651.098
        40.100
 107363277.584 8  83659692.94748  20430558.532    20430558.0144   20430560.1194
        51.500          50.6004
 122877825.072 8                  23382854.759
        49.500
 103532054.275 8  80524963.452 7  19340658.616    19340659.213    19340664.623
        48.200          45.300
 104590448.186 8  81348141.135 7  19586419.383    19586420.012    19586422.435
        53.600          45.700
 134401036.223 5                  25575668.918
        32.000


 198904079.450 7                  37850201.114
        42.300
 128397741.524 4 100050235.81841  24433281.185    24433281.2204   24433290.0534
        28.300           7.0004
 128788371.806 7                  24507616.628
        45.700
 202041619.824 7                  38447258.164
        46.900
 114339417.023 7  88930722.097 6  21352087.025    21352087.573    21352094.929
        44.300          40.900
 129285825.438 6                  24602288.720
        37.700
 120498370.918 6                  22557549.894    22557555.850
        38.200
 25  1  1 17 26  0.0000000  0 23E31G07G26G08G16G27G04G03R18R10E09G09
                                E04R07R09E21S35S31E06S33R08E19R16
 133646889.951 6                  25432160.026
        36.100
 121497963.096 7  94673677.13146  23120286.927    23120286.4314   23120286.9004
        47.100          38.8004


 116738751.201 5  90965274.67645  22214644.120    22214643.6154   22214656.8064
        35.400          30.3004
 109463983.711 7  85296607.99043  20830308.698    20830307.5854   20830310.4634
        42.300          18.0004
 112036566.082 6  87301235.98946  21319850.860    21319850.3424   21319856.8394
        39.500          39.5004
 105137179.437 8  81925075.71846  20006928.131    20006927.8054   20006931.4674
        49.100          41.6004


 123321781.139 5                  23102324.783    23102326.662
        33.900
 110496766.316 7                  20728912.786    20728911.877
        42.400
 139502362.020 6                  26546416.203
        38.000
 107344526.666 8  83645081.81948  20426990.076    20426989.5224   20426992.7254
        48.600          50.4004
 122869833.227 8                  23381334.506
        49.200
 103542361.480 8  80532980.119 7  19342585.881    19342585.772    19342591.642
        49.000          47.500
 104602735.244 8  81357697.683 7  19588720.704    19588721.708    19588722.884
        52.500          45.200
 134434802.830 6                  25582095.372
        36.900


 198904070.249 7                  37850199.741
        42.700
 128761770.611 7                  24502554.691
        47.300
 202041630.840 7                  38447260.891
        45.400
 114293094.306 7  88894693.203 6  21343438.736    21343437.653    21343441.942
        45.900          40.100
 129319555.355 6                  24608707.491
        39.200
 120545690.760 6                  22566407.135    22566409.417
        37.300
 25  1  1 17 26 15.0000000  0 23E31G07G26G08G16G27G04G03R18R10E09G09
                                E04R07R09E21S35S31E06S33R08E19R16
 133613369.342 5                  25425781.434
        35.100
 121465112.241 7  94648079.07146  23114035.259    23114034.7684   23114035.4474
        46.900          37.8004


 116689113.716 5  90926596.24243  22205198.274    22205197.6894   22205207.9904
        33.000          23.7004
 109498903.999 7  85323818.54642  20836953.393    20836952.2584   20836957.9914
        42.600          17.9004
 112010379.968 7  87280831.19046  21314868.056    21314867.5204   21314874.7134
        42.400          41.4004
 105146142.158 8  81932059.60146  20008634.321    20008633.9954   20008636.9484
        49.100          41.6004


 123304234.461 5                  23099042.191    23099041.204
        33.400
 110470811.462 6                  20724042.875    20724042.897
        41.400
 139464372.815 6                  26539187.975
        36.200
 107325908.174 7  83630573.87048  20423448.259    20423447.7054   20423450.5164
        47.700          50.5004
 122861928.194 8                  23379829.740
        49.000
 103552875.790 8  80541157.816 8  19344549.268    19344549.713    19344556.433
        48.700          48.600
 104615106.282 8  81367319.600 7  19591036.370    19591036.712    19591040.029
        49.800          46.000
 134468603.275 5                  25588523.717
        33.100


 198904063.265 6                  37850200.439
        40.800
 128735231.603 7                  24497503.866
        46.900
 202041644.350 7                  38447263.619
        45.500
 114246905.047 8  88858768.293 6  21334813.759    21334813.825    21334815.337
        48.000          38.700
 129353349.364 5                  24615136.142
        34.800
 120593012.324 6                  22575268.742    22575268.086
        38.900
 25  1  1 17 26 30.0000000  0 22E31G07G26G08G16G27G04G03R10E09G09E04
                                R07R09E21S35S31E06S33R08E19R16
 133579902.173 5                  25419414.218
        35.300
 121432269.578 7  94622487.40945  23107784.609    23107784.1094   23107785.5184
        45.500          35.3004


 116639543.142 5  90887969.91244  22195764.949    22195764.2474   22195774.3964
        34.200          25.6004
 109533920.054 7  85351103.78543  20843617.790    20843616.6904   20843621.4914
        44.400          21.3004
 111984334.867 7  87260536.28447  21309911.837    21309911.3194   21309919.1814
        45.700          44.0004
 105155243.166 8  81939151.24647  20010366.068    20010365.7424   20010369.1484
        49.900          42.1004


 110444945.442 6                  20719189.117    20719188.530
        37.600
 139426411.552 6                  26531965.316
        36.000
 107307419.482 8  83616167.07048  20419929.342    20419928.7664   20419932.7674
        48.100          50.7004
 122854107.270 8                  23378341.625
        48.500
 103563594.269 8  80549494.357 8  19346551.112    19346551.327    19346558.987
        48.600          48.900
 104627558.605 7  81377004.721 7  19593367.664    19593367.344    19593372.616
        47.300          46.600
 134502434.426 4                  25594962.069
        28.900


 198904055.447 7                  37850200.381
        42.600
 128708752.215 7                  24492465.610
        46.700
 202041656.395 7                  38447266.879
        46.400
 114200846.702 7  88822945.187 6  21326211.731    21326212.006    21326215.083
        47.900          39.800
 129387204.564 5                  24621579.146
        34.400
 120640332.429 6  93831427.480 5  22584123.244    22584124.201    22584137.312
        38.900          34.600
 25  1  1 17 26 45.0000000  0 24E31G07G26R17G08G16G27G04G03R18R10E09
                                G09E04R07R09E21S35S31E06S33R08E19R16
 133546490.082 6                  25413055.787
        37.200
 121399436.703 7  94596903.37645  23101537.095    23101536.6044   23101537.7984
        43.800          33.2004


 129821346.843 5                  24260217.488    24260215.822
        31.600
 116590041.688 6  90849397.37145  22186350.574    22186349.9224   22186355.8134
        39.900          30.8004
 109569033.375 7  85378464.83043  20850297.842    20850296.7564   20850302.6234
        42.200          21.2004
 111958432.678 7  87240352.74147  21304982.426    21304981.9174   21304990.2774
        47.100          43.8004
 105164484.251 8  81946352.05046  20012124.447    20012124.1264   20012127.7654
        49.100          41.8004


                  95876428.048 5                                  23092567.062
                        33.200
 110419170.078 6                  20714353.781    20714353.740
        36.300
 139388479.996 5                  26524746.159
        34.700
 107289062.604 8  83601862.97848  20416435.454    20416434.8784   20416439.9874
        49.000          51.3004
 122846372.320 8                  23376869.938
        49.300
 103574518.593 7  80557990.993 8  19348591.969    19348590.826    19348599.008
        45.100          48.300
 104640093.159 8  81386753.793 7  19595716.178    19595716.086    19595719.980
        49.100          46.800




 198904048.932 6                  37850203.309
        40.000
 128682334.258 7                  24487438.414
        47.400
 202041670.324 7                  38447270.809
        45.000
 114154921.630 7  88787225.704 6  21317635.823    21317637.428    21317638.735
        47.900          41.400
 129421122.416 5                  24628034.211
        35.500
 120687652.430 5  93868231.828 6  22592981.431    22592980.630    22592994.407
        33.600          36.700
 25  1  1 17 27  0.0000000  0 23E31G07G26G08G16G27G04G03R18R10E09G09
                                E04R07R09E21S35S31E06S33R08E19R16
 133513132.927 6                  25406707.904
        37.600
 121366613.605 6  94571326.93145  23095291.117    23095290.6304   23095291.5764
        40.900          31.6004


 116540609.464 7  90810878.84446  22176938.520    22176937.8454   22176950.6724
        44.200          37.5004
 109604243.591 6  85405901.32943  20856998.737    20856997.7004   20857000.0224
        40.900          18.9004
 111932673.523 8  87220280.69946  21300081.305    21300080.7784   21300087.4474
        49.100          40.7004
 105173865.256 8  81953661.89746  20013909.640    20013909.3144   20013912.6544
        48.900          41.0004


 123252680.750 5  95863172.631 5  23089368.399                    23089375.325
        30.200          33.700
 110393485.190 6                  20709535.299    20709536.041
        38.000
 139350578.422 6                  26517533.772
        37.500
 107270837.463 7  83587661.53548  20412967.988    20412967.4164   20412971.8814
        47.400          50.8004
 122838723.191 8                  23375414.463
        49.300
 103585648.510 6  80566647.557 7  19350670.193    19350667.456    19350677.669
        41.000          47.700
 104652709.938 8  81396566.837 7  19598077.894    19598078.543    19598082.683
        50.800          47.300




 198904043.174 6                  37850201.946
        39.400
 128655977.707 7                  24482422.695
        46.800
 202041685.266 6                  38447259.505
        41.400
 114109130.216 7  88751610.179 7  21309083.501    21309083.706    21309090.495
        45.500          43.900
 129455102.717 5                  24634502.331
        35.200
 120734972.581 4  93905036.200 5  22601839.175    22601841.463    22601849.060
        26.800          32.800
 25  1  1 17 27 15.0000000  0 23E31G07G26G08G16G27G04G03R18R10E09G09
                                E04R07R09E21S35S31E06S33R08E19R16
 133479831.205 6                  25400371.027
        36.500
 121333800.439 6  94545758.26744  23089046.863    23089046.3724   23089045.6684
        41.000          29.5004


 116491247.185 7  90772414.81546  22167545.743    22167545.1134   22167557.3044
        43.900          39.0004
 109639550.460 6  85433413.13143  20863716.476    20863715.3944   20863717.6424
        41.500          19.2004
 111907058.018 8  87200320.57146  21295206.828    21295206.3014   21295212.8734
        48.100          41.3004
 105183386.390 8  81961080.89546  20015721.677    20015721.3604   20015724.6004
        48.500          41.5004
 128500606.314 5 100130475.87341  24452843.205    24452843.2014   24452881.2004
        31.500           6.9004
 123235807.385 4  95850049.045 5  23086209.031    23086210.027    23086215.096
        29.100          32.400
 110367890.677 5                  20704733.148    20704732.696
        33.500
 139312707.345 6                  26510328.043
        38.100
 107252744.659 7  83573563.23348  20409524.849    20409524.2994   20409528.7634
        47.200          50.7004
 122831160.365 8                  23373975.354
        49.300
 103596984.505 7  80575464.369 8  19352788.917    19352787.998    19352795.429
        46.400          48.200
 104665408.829 8  81406443.754 7  19600457.558    19600458.434    19600458.805
        50.500          45.900
 134604159.658 5                  25614316.785
        33.300


 198904038.732 7                  37850206.739
        43.000
 128629683.075 7                  24477419.043
        47.200
 202041700.467 7                  38447272.424
        46.700
 114063472.927 7  88716098.963 6  21300560.788    21300562.068    21300561.541
        46.600          40.000
 129489145.806 5                  24640979.716
        35.700
 120782292.464 5  93941840.335 5  22610720.695    22610716.350    22610706.007
        35.100          35.600
 25  1  1 17 27 30.0000000  0 23E31G07G26G08G16G27G04G03R18R10E09G09
                                E04R07R09E21S35S31E06S33R08E19R16
 133446580.902 4                  25394042.280
        29.500
 121300993.453 7  94520194.40445  23082802.855    23082802.3644   23082803.7574
        42.500          31.7004


 116441951.439 7  90734002.65646  22158165.419    22158164.8164   22158176.1984
        42.700          38.0004
 109674949.611 6  85460996.85342  20870453.558    20870452.4274   20870454.3254
        40.900          17.7004
 111881582.569 7  87180469.58146  21290358.904    21290358.3774   21290364.5214
        47.600          40.4004
 105193043.867 8  81968606.15347  20017559.724    20017559.4164   20017562.4244
        49.600          42.1004


                  95837054.278 5                                  23083088.716
                        31.000
 110342382.616 5                  20699948.536    20699946.839
        32.400
 139274862.774 6                  26503126.293
        41.000
 107234780.487 8  83559565.15548  20406106.565    20406106.0114   20406110.2214
        49.800          51.4004
 122823680.110 8                  23372551.463
        48.100
 103608522.003 7  80584437.968 8  19354941.993    19354943.951    19354950.662
        46.700          48.100
 104678185.655 8  81416381.308 8  19602849.855    19602850.068    19602852.929
        50.200          48.100
 134638114.022 5                  25620774.773
        34.300


 198904031.353 6                  37850194.406
        40.800
 128603446.599 7                  24472426.469
        46.000
 202041714.043 7                  38447276.184
        44.600
 114017946.435 7  88680689.525 6  21292059.477    21292061.044    21292060.280
        47.500          41.500
 129523247.568 6                  24647469.844
        38.000
 120829695.005 5                  22619570.391
        34.000
 25  1  1 17 27 45.0000000  0 24E31G07G26G08G16G27G04G03R18R10E09G09
                                E04R07R09E21S35S31G31E06S33R08E19R16
 133413384.352 5                  25387724.874
        35.100
 121268194.841 7  94494637.05645  23076561.902    23076561.4114   23076562.6014
        43.100          33.2004
 123014030.855 5                  23408790.909
        34.400
 116392724.706 7  90695644.22446  22148797.425    22148796.7954   22148808.5644
        43.700          38.5004
 109710442.929 6  85488653.87342  20877207.736    20877206.6194   20877208.4704
        40.800          17.4004
 111856249.545 7  87160729.59746  21285537.926    21285537.4124   21285544.5904
        44.000          39.2004
 105202839.861 8  81976239.33247  20019423.852    20019423.5394   20019426.6394
        48.600          42.1004
 128603363.724 5                  24472403.585
        34.800
                  95824190.405 5                                  23079996.576
                        35.300
 110316963.137 6                  20695182.896    20695180.344
        37.600
 139237047.265 6                  26495928.809
        40.500
 107216947.341 8  83545669.16848  20402712.956    20402712.3934   20402716.4074
        50.000          52.3004
 122816284.634 7                  23371144.307
        47.300
 103620263.796 8  80593570.373 7  19357137.202    19357139.468    19357144.440
        48.500          47.900
 104691042.653 8  81426381.189 8  19605256.446    19605257.071    19605261.600
        48.100          49.400
 134672098.189 6                  25627245.816
        38.300


 198904023.937 6                  37850191.902
        40.800
 128736921.451 5                  24497819.296
        33.400
 128577270.682 7                  24467445.408
        45.100
 202041726.296 7                  38447280.911
        45.700
 113972553.437 6  88645383.895 6  21283574.300    21283575.904    21283583.676
        39.400          40.400
 129557410.098 6                  24653970.831
        38.800
 120877008.521 6                  22628421.950    22628422.218
        38.800
 25  1  1 17 28  0.0000000  0 24E31G07G26G08G16G27G04G03R18R10E09G09
                                E04R07R09E21S35S31G31E06S33R08E19R16
 133380246.162 5                  25381417.962
        34.100
 121235409.221 7  94469089.85745  23070323.816    23070323.2584   23070323.5924
        44.400          34.2004
 123063788.792 5  95893884.50941  23418253.277    23418253.7464   23418265.2134
        32.100           8.5004
 116343572.091 7  90657343.54246  22139443.948    22139443.2784   22139455.2004
        43.600          39.0004
 109746034.786 6  85516387.77342  20883981.401    20883980.3424   20883981.1674
        39.400          13.5004
 111831063.998 6  87141104.57745  21280747.241    21280746.7454   21280752.1064
        39.000          33.6004
 105212778.900 8  81983983.97547  20021315.259    20021314.9384   20021318.0104
        49.700          42.1004
 128654746.852 5 100250594.2784   24482182.550    24482182.0774   24482217.7764
        31.400           5.6004
                  95811460.984 6                                  23076924.960
                        37.100
 110291636.860 6                  20690425.925    20690427.515
        36.700
 139199265.498 7                  26488740.840
        42.800
 107199249.981 8  83531878.98148  20399345.343    20399344.7894   20399348.2114
        50.200          51.9004
 122808978.683 8                  23369754.407
        48.600
 103632213.872 7  80602864.847 7  19359369.125    19359368.299    19359376.254
        46.400          47.800
 104703983.946 7  81436446.602 8  19607681.153    19607681.080    19607685.041
        47.900          50.000
 134706116.403 5                  25633729.579
        31.700


 198904019.805 6                  37850190.319
        41.000


 128551160.140 7                  24462476.955
        44.700
 202041743.312 7                  38447279.985
        45.700
 113927299.474 6  88610186.243 5  21275126.888    21275126.907    21275129.595
        40.200          35.600
 129591637.942 6                  24660484.284
        39.200
 120924324.453 6  94052203.713 6  22637274.263    22637277.144    22637281.428
        37.100          36.000
 25  1  1 17 28 15.0000000  0 24E31G07G26G08G16G27G04G03R18R10E09G09
                                E04R07R09E21S35S31G31E06S33R08E19R16
 133347159.424 5                  25375121.684
        35.400
 121202629.463 7  94443547.18945  23064086.252    23064085.6264   23064084.9054
        42.900          33.2004
 123113561.364 5  95932668.42041  23427722.990    23427723.2674   23427735.0994
        34.200           9.1004
 116294486.811 7  90619095.34446  22130103.180    22130102.5104   22130114.9194
        43.600          40.1004
 109781717.695 6  85544192.52142  20890770.187    20890769.1014   20890770.4814
        40.600          15.0004
 111806018.964 6  87121589.02845  21275977.406    21275976.9014   21275986.1754
        36.900          30.4004
 105222853.989 8  81991834.63846  20023232.405    20023232.0924   20023234.9054
        49.800          41.7004
 128706112.124 5 100290619.13041  24491951.433    24491950.7674   24491989.3674
        34.200           6.6004
                  95798860.961 6                                  23073885.603
                        36.100
 110266396.848 6                  20685694.247    20685693.193
        37.000
 139161510.729 6                  26481555.697
        41.500
 107181681.660 8  83518189.35148  20396002.630    20396002.0984   20396004.7704
        50.700          51.8004
 122801755.268 8                  23368379.762
        50.600
 103644365.308 8  80612315.934 8  19361639.824    19361638.980    19361647.078
        48.200          49.300
 104717002.488 8  81446572.105 8  19610118.618    19610118.758    19610123.032
        48.700          50.200
 134740161.427 5                  25640190.619
        31.200


 198904013.255 7                  37850195.484
        43.300
 128821742.576 5 100380645.20841  24513968.304    24513968.0324   24513978.6314
        35.200          11.1004
 128525108.053 7                  24457519.775
        44.700
 202041756.743 7                  38447287.904
        46.400
 113882177.225 6  88575091.141 6  21266704.327    21266705.263    21266707.405
        40.700          40.200
 129625923.733 6                  24667008.140
        38.000
 120971635.355 5  94089000.957 6  22646135.019    22646132.947    22646139.744
        35.000          36.200
 25  1  1 17 28 30.0000000  0 23E31G07G26G08G16G27G04G03R10E09G09E04
                                R07R09E21S35S31G31E06S33R08E19R16
 133314124.697 6                  25368836.932
        36.900
 121169856.410 7  94418009.75545  23057850.492    23057849.8314   23057848.1414
        43.000          33.0004
 123163348.876 5  95971463.74641  23437200.242    23437200.2644   23437207.4764
        35.300          10.5004
 116245469.964 7  90580900.46046  22120776.063    22120775.3974   22120786.9584
        45.600          40.0004
 109817491.934 6  85572068.40942  20897577.037    20897576.0094   20897577.7884
        40.100          17.1004
 111781115.407 6  87102183.74644  21271241.358    21271240.8174   21271245.8304
        40.200          29.0004
 105233065.776 8  81999791.81447  20025175.347    20025175.0264   20025178.0534
        50.600          42.0004
 128757460.065 5 100330630.3114   24501725.579    24501725.0564   24501759.2144
        32.100           4.6004
 110241243.187 6                  20680978.083    20680975.828
        38.900
 139123783.623 6                  26474376.704
        41.200
 107164243.119 8  83504600.85048  20392683.734    20392683.2074   20392686.2234
        49.600          50.9004
 122794615.184 8                  23367020.886
        50.200
 103656718.602 8  80621923.976 8  19363948.339    19363947.822    19363955.039
        50.900          48.800
 104730098.394 8  81456757.796 8  19612571.189    19612571.961    19612575.413
        49.500          49.900




 198904004.425 7                  37850181.130
        42.600
 128864204.880 5 100413732.05241  24522053.579    24522053.5084   24522056.9304
        32.800           9.9004
 128499115.233 7                  24452572.992
        42.200
 202041767.287 7                  38447289.514
        45.300
 113837188.136 6  88540099.597 7  21258300.412    21258299.091    21258308.621
        41.100          42.100
 129660268.194 5                  24673544.013
        33.400
 121018941.629 4  94125794.715 5  22654990.434    22654988.790    22654993.619
        29.000          34.700
 25  1  1 17 28 45.0000000  0 21E31G07G26G08G16G27G04R10E09G09E04R07
                                R09E21S35S31G31E06S33R08E19
 133281147.871 6                  25362562.852
        38.900
 121137095.782 7  94392482.00345  23051615.960    23051615.3084   23051614.3464
        45.700          34.4004
 123213157.046 6  96010275.15042  23446678.750    23446678.7194   23446683.3544
        36.400          13.0004
 116196527.722 7  90542763.71446  22111461.936    22111461.2974   22111473.0834
        42.200          38.9004
 109853363.549 6  85600020.35442  20904403.561    20904402.5914   20904403.4704
        39.900          16.7004
 111756359.468 6  87082893.45245  21266529.206    21266528.6484   21266533.0894
        41.200          31.2004
 105243420.032 8  82007860.02047  20027146.073    20027145.7524   20027148.1704
        50.100          42.0004
 110216182.262 6                  20676275.685    20676276.551
        38.400
 139086090.168 7                  26467204.287
        42.500
 107146940.371 8  83491118.16748  20389391.196    20389390.6554   20389393.9554
        48.800          50.4004
 122787564.223 8                  23365679.132
        50.100
 103669279.682 8  80631693.662 8  19366293.874    19366294.771    19366301.541
        50.500          48.300
 104743277.249 8  81467007.990 8  19615039.795    19615039.846    19615043.767
        50.100          50.100




 198903998.256 7                  37850191.764
        42.800
 128906683.071 5 100446831.06041  24530140.855    24530140.6014   24530139.7454
        34.700           9.5004
 128473187.642 6                  24447637.987
        41.500
 202041782.697 7                  38447292.577
        46.000
 113792338.438 6  88505216.532 7  21249921.730    21249920.764    21249934.613
        36.700          43.300
 129694676.911 5                  24680089.947
        30.200
 25  1  1 17 29  0.0000000  0 23E31G07G26G08G16G27G04R18R06R10E09G09
                                E04R07R09E21S35S31G31E06S33R08E19
 133248226.529 6                  25356295.935
        38.800
 121104345.228 7  94366962.11245  23045382.369    23045381.7794   23045381.4634
        45.000          34.7004
 123262983.117 5  96049100.48342  23456159.335    23456159.2104   23456163.7714
        35.000          12.1004
 116147658.005 7  90504683.52746  22102162.711    22102162.1214   22102173.1544
        42.400          37.5004
 109889328.888 6  85628045.16443  20911248.977    20911248.0304   20911247.5434
        39.500          18.1004
 111731748.945 7  87063716.44645  21261845.605    21261845.0474   21261849.8694
        44.400          34.2004
 105253914.314 8  82016037.34147  20029142.953    20029142.6584   20029145.0314
        51.700          42.5004
 123122150.373 6                  23064960.669    23064962.634
        38.500
 115431840.996 5                  21631876.818    21631877.185
        33.800
 110191211.188 6                  20671588.323    20671588.855
        37.300
 139048428.241 7                  26460037.379
        43.400
 107129771.240 8  83477739.60648  20386123.855    20386123.3144   20386127.1404
        49.500          50.4004
 122780600.204 8                  23364354.131
        49.700
 103682045.799 8  80641622.820 7  19368678.691    19368678.871    19368686.279
        50.100          47.300
 104756536.704 8  81477320.897 8  19617522.620    19617522.580    19617527.078
        50.200          50.300




 198903993.622 7                  37850187.735
        43.200
 128949174.485 5 100479940.46141  24538215.571    24538215.5134   24538227.8914
        35.900           9.8004
 128447323.034 6                  24442716.643
        41.100
 202041797.913 7                  38447293.351
        45.200
 113747626.351 6  88470440.400 7  21241576.068    21241571.887    21241585.168
        38.600          43.700
 129729147.454 5                  24686652.053
        31.600
 25  1  1 17 29 15.0000000  0 24E31G07G26G08G16G27G04R18R06R10E09G09
                                E04R07R09E21S35S31G31E06S33R08E19R16
 133215357.283 6                  25350041.599
        40.300
 121071601.269 7  94341447.38145  23039151.855    23039151.3324   23039149.2374
        42.600          34.4004
 123312823.373 5  96087936.92241  23465643.061    23465642.9414   23465647.6174
        30.500           8.3004
 116098857.760 6  90466657.43546  22092875.525    22092874.9174   22092886.6094
        41.400          36.5004
 109925384.357 6  85656140.21743  20918110.209    20918109.2934   20918110.0664
        37.500          19.5004
 111707280.591 7  87044650.19845  21257188.840    21257188.2774   21257194.6784
        43.800          35.2004
 105264545.142 8  82024321.06347  20031165.372    20031165.0684   20031167.9084
        51.000          42.2004
 123106629.707 5                  23062050.806    23062053.660
        31.700
 115493132.079 5                  21643362.000    21643362.673
        34.000
 110166326.548 6                  20666925.818    20666923.401
        36.500
 139010794.369 7                  26452876.567
        44.100
 107112732.404 7  83464462.56248  20382881.316    20382880.7894   20382885.1644
        47.200          50.2004
 122773719.668 8                  23363044.745
        48.600
 103695013.276 8  80651708.590 7  19371100.972    19371102.074    19371107.945
        50.900          46.900
 104769872.756 8  81487693.349 8  19620020.646    19620020.553    19620024.340
        51.600          50.300




 198903986.648 7                  37850189.103
        44.500
 128991675.791 5 100513057.9274   24546301.152    24546301.2364   24546317.5484
        31.500           5.1004
 128421518.142 6                  24437806.111
        41.500
 202041810.396 7                  38447293.776
        45.400
 113703048.620 7  88435768.731 7  21233253.309    21233252.447    21233260.644
        43.200          42.400
 129763676.070 5                  24693223.179
        31.800
 121160821.858 5                  22681560.878    22681559.967
        32.700
 25  1  1 17 29 30.0000000  0 25E31G07G26G08G16G27G04G03R18R06R10E09
                                G09E04R07R09E21S35S31G31E06S33R08E19
                                R16
 133182545.695 7                  25343799.959
        42.000
 121038869.355 7  94315942.04745  23032924.136    23032923.6984   23032920.0484
        43.600          34.2004
 123362683.128 5  96126788.29041  23475131.314    23475131.1944   23475135.5594
        30.800          10.1004
 116050132.966 7  90428690.21345  22083603.972    22083603.3514   22083614.5754
        42.000          34.1004
 109961535.201 6  85684309.47543  20924993.296    20924992.5144   20924991.4014
        36.700          19.8004
 111682960.289 7  87025699.29545  21252560.649    21252560.1044   21252567.8504
        42.600          35.5004
 105275318.091 8  82032715.51147  20033215.688    20033215.3894   20033218.0934
        50.600          42.2004


 123091282.905 5                  23059182.147    23059183.688
        35.900
 115554510.892 6                  21654864.844    21654865.926
        36.200
 110141533.473 6                  20662269.384    20662269.632
        39.400
 138973194.404 7                  26445721.720
        43.500
 107095829.636 8  83451291.55648  20379665.259    20379664.7504   20379668.6684
        48.100          50.3004
 122766928.296 7                  23361752.179
        46.200
 103708187.798 8  80661955.404 7  19373563.809    19373564.436    19373570.056
        51.000          47.900
 104783290.936 8  81498129.680 8  19622533.040    19622533.140    19622537.795
        51.000          50.800
 134910787.632 4                  25672672.467
        27.700


 198903981.718 7                  37850192.743
        45.000
 129034192.573 4 100546187.5834   24554390.214    24554390.2944   24554407.8894
        27.100           1.1004
 128395778.629 6                  24432908.556
        41.700
 202041827.262 7                  38447296.011
        46.100
 113658611.473 7  88401206.455 6  21224952.462    21224952.928    21224958.933
        42.300          39.200
 129798268.287 5                  24699808.256
        34.900
 121208123.001 5  94272962.034 5  22690405.249    22690407.747    22690414.696
        32.700          35.100
 25  1  1 17 29 45.0000000  0 25E31G07G26G08G16G27G04G03R18R06R10E09
                                G09E04R07R09E21S35S31G31E06S33R08E19
                                R16
 133149787.067 6                  25337563.047
        39.600
 121006144.840 7  94290442.46645  23026695.649    23026695.1714   23026694.7674
        42.700          34.2004


 116001479.209 6  90390778.25545  22074346.864    22074346.2304   22074356.1024
        39.000          34.1004
 109997776.461 6  85712549.31343  20931886.393    20931885.6154   20931888.2584
        40.100          20.0004
 111658783.456 6  87006860.23045  21247961.972    21247961.4364   21247968.5624
        41.300          35.7004
 105286228.334 8  82041216.94646  20035291.790    20035291.4954   20035294.7154
        50.800          41.5004
 129013906.367 5                  24550532.842
        35.300
 123076105.292 5  95726043.125 5  23056335.230    23056334.840    23056349.366
        34.500          32.500
 115615971.968 5                  21666381.189    21666380.681
        32.700
 110116827.610 6                  20657635.196    20657633.699
        39.600
 138935623.710 7                  26438573.348
        42.600
 107079058.383 8  83438223.01748  20376473.686    20376473.1684   20376476.7934
        48.400          50.5004
 122760221.450 7                  23360475.990
        46.800
 103721563.962 8  80672359.065 8  19376062.167    19376062.731    19376069.344
        51.300          48.700
 104796786.049 8  81508625.843 8  19625059.847    19625059.969    19625064.713
        50.600          50.600




 198903975.600 7                  37850180.397
        43.400
 129076719.769 5 100579324.77842  24562488.523    24562488.6924   24562500.7534
        32.700          14.5004
 128370099.872 7                  24428021.585
        42.600
 202041840.805 7                  38447301.807
        46.200
 113614310.527 7  88366750.252 5  21216679.592    21216681.490    21216682.515
        44.500          34.900
 129832919.293 6                  24706401.733
        38.100
 121255419.383 5  94309748.034 5  22699259.885    22699261.350    22699267.494
        33.300          33.400
 25  1  1 17 30  0.0000000  0 24E31G07G26G08G16G27G04G03R18R10E09G09
                                E04R07R09E21S35S31G31E06S33R08E19R16
 133117082.917 6                  25331340.342
        38.900
 120973429.244 6  94264949.84745  23020470.214    23020469.6564   23020471.1944
        41.300          32.7004


 115952898.381 4  90352923.15545  22065098.436    22065097.6814   22065112.1414
        29.100          30.9004
 110034109.329 7  85740860.53643  20938800.041    20938799.2594   20938802.8214
        42.100          20.8004
 111634751.798 6  86988134.25245  21243388.206    21243387.6484   21243396.4454
        41.300          35.4004
 105297277.323 8  82049826.50746  20037394.498    20037394.2354   20037396.9144
        50.900          40.9004
 129065158.763 5                  24560285.445
        31.800
 123061098.526 4  95714371.175 5  23053521.997    23053519.891    23053545.453
        25.000          30.200
 110092209.972 6                  20653016.496    20653016.691
        39.600
 138898083.844 6                  26431429.014
        39.700
 107062420.230 8  83425258.21148  20373307.915    20373307.4104   20373310.4234
        49.800          50.9004
 122753600.606 7                  23359215.709
        47.100
 103735143.603 8  80682920.984 8  19378599.058    19378599.107    19378606.928
        50.200          49.000
 104810359.462 8  81519182.942 8  19627601.699    19627602.230    19627607.412
        50.800          50.800




 198903969.615 7                  37850178.380
        42.800
 129119258.751 5 100612471.36242  24570590.124    24570590.4054   24570595.6374
        30.900          13.9004
 128344483.447 7                  24423147.017
        42.700
 202041854.611 7                  38447305.388
        46.200
 113570147.548 6  88332401.343 5  21208431.365    21208432.268    21208434.732
        41.100          35.400
 129867630.265 6                  24713005.971
        40.600
                                                  22708121.535

 25  1  1 17 30 15.0000000  0 24E31G07G26G08G16G27G04G03R18R10E09G09
                                E04R07R09E21S35S31G31E06S33R08E19R16
 133084435.737 6                  25325129.516
        39.400
 120940725.108 7  94239466.15745  23014246.903    23014246.3184   23014249.2174
        43.500          35.7004


 115904393.182 5  90315126.97744  22055870.850    22055870.1404   22055882.2074
        33.500          29.1004
 110070536.466 7  85769245.40643  20945731.121    20945730.3124   20945735.1024
        42.400          21.9004
 111610868.176 6  86969523.67045  21238842.222    21238841.7044   21238852.0284
        40.900          34.1004
 105308467.601 8  82058546.16646  20039523.720    20039523.4614   20039526.0014
        50.800          40.1004


 123046265.598 5                  23050753.090    23050748.281
        31.900
 110067683.279 6                  20648415.571    20648415.718
        39.300
 138860577.640 5                  26424291.674
        33.400
 107045917.944 8  83412399.27548  20370167.372    20370166.8494   20370169.9584
        50.200          51.5004
 122747068.445 7                  23357972.793
        46.800
 103748929.042 8  80693642.944 8  19381174.117    19381174.369    19381181.612
        50.000          48.600
 104824013.607 8  81529802.844 8  19630157.856    19630158.415    19630164.129
        50.300          50.900




 198903965.033 7                  37850180.535
        43.000
 129161812.067 4 100645629.23642  24578678.793    24578679.0164   24578693.6204
        29.300          13.3004
 128318932.216 7                  24418285.134
        42.300
 202041870.577 7                  38447308.125
        45.300
 113526125.769 6  88298162.189 6  21200213.386    21200213.703    21200217.696
        40.600          37.800
 129902403.680 6                  24719622.277
        40.900


 25  1  1 17 30 30.0000000  0 23E31G07G26G08G16G27G04G03R10E09G09E04
                                R07R09E21S35S31G31E06S33R08E19R16
 133051842.498 7                  25318926.033
        42.000
 120908029.261 7  94213988.90646  23008025.794    23008025.2134   23008028.5284
        46.100          37.9004


 115855961.035 5  90277387.79344  22046657.580    22046656.7094   22046665.7184
        33.200          24.3004
 110107053.533 6  85797700.25643  20952680.516    20952679.6764   20952683.9054
        41.100          21.4004
 111587129.717 6  86951026.22045  21234324.658    21234324.1134   21234334.7194
        41.300          33.4004
 105319795.951 8  82067373.40346  20041679.408    20041679.1364   20041681.3774
        49.500          38.3004


 110043243.939 6                  20643831.917    20643833.190
        40.500
 138823102.094 4                  26417157.373
        28.000
 107029548.550 8  83399643.88748  20367052.295    20367051.7724   20367054.6014
        50.100          51.1004
 122740621.891 7                  23356746.591
        46.300
 103762916.870 8  80704522.328 8  19383786.649    19383786.816    19383794.354
        48.600          48.000
 104837745.048 8  81540482.867 8  19632729.408    19632730.586    19632735.326
        50.800          50.800
 135047869.432 5                  25698756.707
        33.400


 198903959.565 7                  37850181.805
        43.700
 129204376.682 5 100678795.83342  24586777.850    24586778.1224   24586794.0054
        30.300          12.1004
 128293443.112 6                  24413434.589
        41.500
 202041886.574 7                  38447311.148
        45.000
 113482242.477 6  88264030.708 6  21192018.049    21192021.109    21192021.552
        40.500          38.700
 129937236.332 6                  24726251.290
        41.400


 25  1  1 17 30 45.0000000  0 25E31G07G26G08G16G27G04G03R18R06R10E09
                                G09E04R07R09E21S35S31G31E06S33R08E19
                                R16
 133019302.920 7                  25312734.595
        43.500
 120875341.445 7  94188517.89646  23001805.394    23001804.8314   23001808.1304
        47.700          38.4004




 110143660.081 6  85826224.86943  20959646.951    20959646.1154   20959649.3604
        41.700          21.2004
 111563536.394 6  86932641.85245  21229834.960    21229834.4194   21229844.3474
        41.800          31.2004
 105331262.149 8  82076308.06546  20043861.836    20043861.5504   20043862.7024
        48.600          37.2004


 123017302.228 5  95680151.125 5  23045289.327                    23045297.371
        32.800          33.200
 115862643.216 5                  21712610.479    21712611.436
        34.200
 110018892.279 6                  20639261.822    20639262.856
        40.900
 138785657.079 4                  26410032.397
        28.400
 107013312.019 8  83386992.02948  20363962.715    20363962.1974   20363964.6874
        50.800          51.7004
 122734260.813 7                  23355536.334
        47.200
 103777106.773 8  80715558.872 8  19386438.800    19386438.399    19386445.548
        48.800          48.100
 104851552.966 8  81551222.363 8  19635315.584    19635316.096    19635320.961
        51.000          50.400
 135082204.399 5                  25705290.853
        34.300


 198903952.970 6                  37850175.044
        41.600


 128268016.004 6                  24408596.075
        40.600
 202041899.121 7                  38447311.590
        46.500
 113438497.654 6  88230006.895 6  21183846.416    21183846.607    21183855.359
        40.200          39.500
 129972127.831 6                  24732890.351
        40.500
 121444578.027 6                  22734681.867    22734685.285
        36.500
 25  1  1 17 31  0.0000000  0 25E31G07G26G08G16G27G04G03R18R06R10E09
                                G09E04R07R09E21S35S31G31E06S33R08E19
                                R16
 132986821.602 7                  25306553.461
        42.700
 120842666.301 7  94163056.75246  22995587.372    22995586.8054   22995589.7044
        45.800          38.3004


 115759455.589 6  90202151.24544  22028271.720    22028271.4434   22028281.0584
        39.200          26.2004
 110180360.015 6  85854822.15943  20966629.789    20966628.9404   20966632.1344
        41.900          21.0004
 111540092.906 6  86914374.25045  21225373.854    21225373.2694   21225382.7194
        40.800          31.1004
 105342870.644 8  82085353.61946  20046070.686    20046070.3964   20046071.4244
        48.400          37.1004


 123002965.475 4  95669016.557 5  23042604.270    23042605.935    23042615.033
        29.400          34.000
 115924521.024 5                  21724209.226    21724207.802
        32.900
 109994632.216 6                  20634710.913    20634711.594
        39.300
 138748247.322 5                  26402911.802
        35.200
 106997213.008 8  83374447.33048  20360899.246    20360898.7414   20360901.3624
        49.600          52.1004
 122727989.810 7                  23354343.178
        46.700
 103791503.265 8  80726756.079 8  19389126.722    19389127.418    19389134.558
        50.100          48.100
 104865442.042 8  81562024.970 8  19637917.004    19637917.539    19637922.247
        51.800          50.100
 135116570.468 5                  25711830.885
        35.100


 198903949.829 6                  37850175.496
        41.700


 128242655.545 6                  24403769.792
        41.800
 202041916.144 7                  38447317.551
        46.000
 113394896.561 6  88196094.859 6  21175706.062    21175704.310    21175713.978
        38.000          39.600
 130007082.510 6                  24739540.998
        38.500


 25  1  1 17 31 15.0000000  0 25E31G07G26G08G16G27G04G03R18R06R10E09
                                G09E04R07R09E21S35S31G31E06S33R08E19
                                R16
 132954390.829 7                  25300381.675
        42.400
 120809995.995 7  94137599.36246  22989370.758    22989370.2134   22989372.6694
        44.200          36.6004


 115711245.238 6  90164584.94445  22019087.514    22019087.5854   22019101.2644
        41.500          33.9004
 110217145.468 6  85883486.08943  20973630.118    20973629.2644   20973630.9714
        40.600          21.0004
 111516791.827 6  86896217.65645  21220940.179    21220939.5944   21220948.5554
        40.400          30.3004
 105354613.702 8  82094504.01046  20048305.309    20048305.0234   20048305.9254
        48.100          37.6004


 122988817.600 5  95658012.859 5  23039960.752    23039958.971    23039965.489
        34.100          34.100
 115986475.521 4                  21735817.889    21735817.127
        29.600
 109970456.110 6                  20630174.551    20630172.938
        36.300
 138710865.196 6                  26395798.161
        36.700
 106981243.970 8  83362003.89348  20357860.971    20357860.4894   20357862.7474
        50.500          52.5004
 122721801.231 7                  23353165.613
        47.000
 103806098.206 8  80738107.641 8  19391854.063    19391854.759    19391860.826
        50.400          48.300
 104879404.052 8  81572884.320 8  19640532.649    19640533.836    19640536.492
        53.200          49.000
 135150959.723 6                  25718375.054
        37.300


 198903941.643 7                  37850180.813
        42.300


 128217354.259 6                  24398955.103
        41.500
 202041928.471 7                  38447312.409
        44.700
 113351431.893 6  88162288.949 6  21167584.841    21167585.516    21167596.454
        37.900          40.700
 130042092.478 6                  24746203.354
        36.200


 25  1  1 17 31 30.0000000  0 23E31G07G26G08G16G27G04G03R18R10E09G09
                                E04R07R09E21S35S31E06S33R08E19R16
 132922021.651 6                  25294221.644
        40.700
 120777341.561 6  94112154.33245  22983156.384    22983155.8664   22983158.9424
        41.800          34.4004


 115663117.084 7  90127082.63246  22009930.334    22009930.6824   22009940.4524
        42.100          36.2004
 110254027.410 6  85912225.26943  20980648.751    20980647.8934   20980649.3704
        41.200          22.7004
 111493644.360 6  86878180.79944  21216535.879    21216535.2494   21216542.4734
        38.400          29.3004
 105366502.263 8  82103767.76346  20050567.555    20050567.2834   20050569.6304
        48.200          39.1004


 122974849.217 4  95647148.628 5  23037349.068    23037346.542    23037349.411
        28.800          32.400
 109946374.973 5                  20625657.387    20625652.440
        30.400
 138673521.853 6                  26388693.119
        38.000
 106965416.108 8  83349670.47048  20354848.555    20354848.0734   20354851.0474
        50.700          52.5004
 122715706.127 7                  23352005.562
        47.700
 103820902.602 8  80749622.136 8  19394620.219    19394619.617    19394626.565
        49.800          48.600
 104893449.924 8  81583808.910 8  19643162.552    19643162.770    19643166.374
        52.100          48.900
 135185383.417 6                  25724926.253
        40.000


 198903940.141 7                  37850176.717
        43.700
 128192123.223 6                  24394153.936
        41.100
 202041947.479 7                  38447319.890
        46.000
 113308115.101 6  88128598.090 6  21159505.711    21159502.356    21159505.241
        40.700          39.000
 130077168.740 5                  24752879.251
        34.600


 25  1  1 17 31 45.0000000  0 23E31G07G26G08G16G27G04R18R10E09G09E04
                                R07R09E21S35S31G31E06S33R08E19R16
 132889702.285 7                  25288071.043
        42.400
 120744691.377 7  94086712.61045  22976943.468    22976942.9594   22976944.4424
        42.300          32.9004


 115615059.591 7  90089635.39246  22000786.868    22000787.3374   22000794.4684
        45.500          38.6004
 110290993.549 6  85941030.11543  20987684.532    20987683.6784   20987684.2654
        38.500          21.7004
 111470639.018 6  86860254.70244  21212159.743    21212159.1094   21212161.5004
        38.800          27.7004
 105378524.519 8  82113135.70846  20052854.870    20052854.5984   20052858.9044
        48.200          40.1004
                  95636414.828 4                                  23034766.096
                        29.800
 109922376.482 5                  20621162.693    20621154.314
        32.200
 138636205.733 6                  26381593.143
        38.700
 106949717.799 8  83337438.01248  20351861.011    20351860.5244   20351864.0214
        50.800          52.4004
 122709692.867 7                  23350861.215
        47.500
 103835904.404 8  80761290.155 8  19397422.026    19397421.379    19397429.454
        49.900          48.500
 104907567.559 8  81594789.280 8  19645806.270    19645806.326    19645810.596
        51.200          49.200
 135219829.067 6                  25731481.163
        38.500


 198903933.429 7                  37850174.602
        43.500


 128166950.877 7                  24389364.412
        42.200
 202041960.489 7                  38447325.739
        45.300
 113264934.392 7  88095013.048 6  21151439.215    21151440.182    21151440.518
        43.600          39.200
 130112299.234 6                  24759564.103
        36.700
 121633676.969 5                  22770098.930
        33.200
 25  1  1 17 32  0.0000000  0 24E31G07G26G08G16G27G04G03R06R10E09G09
                                E04R07R09E21S35S31G31E06S33R08E19R16
 132857439.812 7                  25281931.783
        43.200
 120712052.496 7  94061279.69945  22970732.749    22970732.2444   22970732.2184
        44.800          33.6004


 115567080.174 7  90052248.97946  21991656.274    21991656.6804   21991663.8274
        47.200          39.7004
 110328050.330 6  85969905.51443  20994736.976    20994736.1454   20994736.5194
        39.900          22.7004
 111447783.069 6  86842444.98345  21207809.511    21207808.8814   21207809.3994
        41.500          30.2004
 105390687.492 7  82122613.31546  20055169.918    20055169.6464   20055173.7694
        47.200          39.9004


 116172884.360 5                  21770745.105    21770741.998
        32.700
 109898467.907 6                  20616668.314    20616668.575
        36.300
 138598924.048 6                  26374498.941
        39.400
 106934156.258 8  83325312.13348  20348899.689    20348899.2024   20348902.7654
        51.000          52.3004
 122703768.538 7                  23349733.468
        47.600
 103851110.684 8  80773117.236 7  19400262.517    19400261.517    19400269.784
        49.700          47.800
 104921763.924 8  81605830.924 8  19648463.990    19648464.433    19648469.503
        50.400          49.000
 135254303.915 6                  25738040.569
        36.100


 198903927.865 7                  37850180.661
        43.300
 129460075.844 5 100878050.24441  24635431.935    24635431.7434   24635451.4074
        30.400          11.4004
 128141844.362 7                  24384586.586
        43.100
 202041975.285 7                  38447329.821
        44.500
 113221897.943 7  88061540.294 6  21143403.656    21143407.319    21143404.417
        45.500          40.700
 130147490.950 6                  24766260.483
        37.400


 25  1  1 17 32 15.0000000  0 24E31G07G26G08G16G27G04G03R06R10E09G09
                                E04R07R09E21S35S31G31E06S33R08E19R16
 132825227.021 7                  25275803.374
        44.700
 120679417.517 7  94035849.87445  22964521.829    22964521.2974   22964519.5654
        46.500          33.4004
 123912123.696 5  96554924.87142  23579696.018    23579695.6614   23579696.1944
        32.900          17.4004
 115519171.991 7  90014918.05846  21982539.357    21982539.7104   21982547.8834
        47.000          40.0004
 110365190.584 7  85998846.00043  21001803.012    21001802.2174   21001804.6214
        42.200          23.6004
 111425069.475 6  86824746.16145  21203486.895    21203486.2344   21203487.8894
        38.200          31.4004
 105402983.910 7  82132194.90046  20057510.827    20057510.5554   20057513.3054
        46.000          38.9004


 116235156.183 5                  21782412.306    21782411.367
        30.500
 109874642.030 6                  20612200.919    20612200.785
        41.700
 138561669.734 6                  26367410.600
        39.700
 106918724.446 8  83313287.34348  20345963.179    20345962.6974   20345966.2954
        51.200          52.4004
 122697926.035 7                  23348621.730
        47.300
 103866514.056 8  80785097.570 7  19403139.763    19403139.686    19403146.048
        50.500          46.900
 104936031.085 8  81616927.602 8  19651135.999    19651136.970    19651141.427
        50.800          49.100
 135288800.140 5                  25744606.144
        35.800


 198903916.959 6                  37850179.950
        41.900
 129502719.744 4 100911279.7954   24643548.336    24643548.1084   24643564.0614
        29.500           2.0004
 128116796.669 7                  24379820.684
        42.800
 202041985.033 7                  38447328.864
        45.600
 113178998.522 7  88028174.264 6  21135388.646    21135390.777    21135394.226
        45.700          40.500
 130182736.406 6                  24772968.688
        38.200


 25  1  1 17 32 30.0000000  0 24E31G07G26G08G16G27G04G03R18R06R10E09
                                G09E04R07R09E21S35S31E06S33R08E19R16
 132793071.151 7                  25269683.430
        44.000
 120646793.720 7  94010428.75545  22958313.093    22958312.5354   22958311.0844
        45.800          34.4004
 123962159.297 5  96593913.59042  23589216.146    23589215.2524   23589216.3994
        30.900          15.7004
 115471342.617 7  89977648.51946  21973437.332    21973437.5604   21973447.1384
        45.000          39.1004
 110402420.828 7  86027856.61444  21008887.953    21008887.1264   21008889.5134
        44.100          24.1004
 111402505.768 6  86807164.09345  21199192.086    21199191.5014   21199197.4484
        37.100          30.6004
 105415420.942 7  82141886.04746  20059877.828    20059877.5564   20059879.7284
        46.300          38.5004


                  95605071.867 4                                  23027209.698
                        29.500
                                                  21794096.844

 109850905.565 7                  20607747.399    20607746.722
        42.000
 138524450.077 6                  26360328.452
        41.200
 106903429.766 8  83301369.41248  20343053.006    20343052.5504   20343055.9984
        51.200          52.4004
 122692172.618 7                  23347526.795
        47.500
 103882121.518 8  80797236.638 7  19406056.263    19406056.136    19406061.774
        50.900          46.700
 104950376.545 8  81628085.177 8  19653821.068    19653822.126    19653827.934
        49.000          48.500
 135323324.891 6                  25751176.805
        36.100


 198903907.974 7                  37850179.011
        42.600
 128091815.172 7                  24375066.832
        44.100
 202041995.498 7                  38447331.248
        44.900
 113136243.962 7  87994920.687 6  21127405.016    21127406.414    21127406.593
        44.200          37.300
 130218042.801 6                  24779687.338
        38.600


 25  1  1 17 32 45.0000000  0 22E31G07G26G08G16G27G04G03R18R10E09G09
                                E04R07R09E21S35S31E06S33R08E19
 132760974.667 6                  25263575.535
        41.200
 120614183.679 7  93985018.37645  22952107.999    22952107.4144   22952107.4274
        43.600          34.2004
 124012212.686 4  96632916.19741  23598738.545    23598737.7814   23598740.9334
        26.900          10.8004
 115423594.895 7  89940442.60146  21964351.552    21964351.7174   21964360.8684
        44.300          39.1004
 110439743.369 6  86056939.12543  21015990.510    21015989.7014   21015992.6194
        41.600          22.5004
 111380094.652 5  86789700.87945  21194926.364    21194925.9174   21194935.0524
        33.200          30.2004
 105428001.027 7  82151688.66646  20062270.822    20062270.5324   20062273.2044
        47.600          38.3004




 109827261.702 6                  20603311.452    20603310.859
        41.700
 138487267.842 6                  26353252.319
        40.600
 106888274.840 8  83289560.35248  20340168.766    20340168.3104   20340172.1594
        51.800          52.2004
 122686510.900 7                  23346449.759
        47.600
 103897935.585 8  80809536.469 7  19409009.676    19409009.410    19409016.426
        49.000          45.700
 104964802.465 7  81639305.340 7  19656522.975    19656523.482    19656529.192
        47.900          47.900
 135357880.622 5                  25757754.251
        32.800


 198903902.028 6                  37850177.428
        41.900
 128066902.507 7                  24370325.920
        42.600
 202042010.419 7                  38447330.921
        45.300
 113093637.251 7  87961782.127 6  21119447.850    21119449.971    21119451.666
        45.700          37.800
 130253412.641 6                  24786418.501
        39.400
 25  1  1 17 33  0.0000000  0 22E31G07G26G08G16G27G04G03R10E09G09E04
                                R07R09E21S35S31E06S33R08E19R16
 132728932.548 6                  25257476.862
        39.000
 120581582.166 7  93959614.65945  22945904.486    22945903.9054   22945903.1494
        42.000          31.6004


 115375924.016 7  89903296.55146  21955279.157    21955279.2864   21955289.4984
        45.800          40.2004
 110477152.366 7  86086088.93643  21023108.977    21023108.1554   21023112.0724
        42.800          19.4004
 111357830.824 5  86772352.68244  21190702.649    21190702.1224   21190698.8294
        35.300          26.0004
 105440718.947 8  82161598.69346  20064690.023    20064689.7464   20064692.9024
        48.100          38.3004


 109803704.616 6                  20598892.275    20598891.751
        41.700
 138450117.878 7                  26346182.755
        42.100
 106873254.623 8  83277856.28548  20337310.667    20337310.2164   20337313.6884
        51.000          52.0004
 122680935.659 8                  23345389.026
        48.100
 103913950.763 8  80821992.704 7  19412000.576    19412000.877    19412008.062
        50.300          46.100
 104979302.971 8  81650583.444 7  19659239.576    19659239.483    19659244.312
        48.200          47.800
 135392461.560 5                  25764334.804
        34.000


 198903895.319 6                  37850162.229
        40.600
 128042053.536 7                  24365597.522
        42.100
 202042023.632 7                  38447343.603
        44.800
 113051173.532 7  87928754.913 6  21111521.089    21111522.620    21111522.004
        43.200          38.200
 130288840.344 6                  24793160.093
        40.800


 25  1  1 17 33 15.0000000  0 24E31G07G26G08G16G27G04G03R18R06R10E09
                                G09E04R07R09E21S35S31E06S33R08E19R16
 132696949.995 7                  25251391.605
        43.000
 120548994.459 6  93934221.65345  22939701.533    22939701.0104   22939702.3414
        38.600          30.1004


 115328335.678 7  89866214.86346  21946224.252    21946224.3544   21946233.4744
        46.900          40.5004
 110514653.150 7  86115310.23642  21030245.126    21030244.2634   21030248.2014
        43.500          12.1004
 111335751.674 4  86755132.23143  21186492.459    21186492.2584   21186488.6984
        27.900          21.1004
 105453580.001 7  82171620.25046  20067137.728    20067137.4474   20067140.2434
        46.500          37.9004
 129729839.560 5                  24686766.543
        31.600
 122881943.328 5  95574878.162 4  23019923.188                    23019932.119
        31.000          29.600
 116485041.288 5                  21829245.760
        33.400
 109780239.782 6                  20594490.605    20594489.801
        41.200
 138413005.839 6                  26339118.862
        41.800
 106858374.670 8  83266261.50148  20334479.406    20334478.9554   20334482.1854
        49.900          51.4004
 122675452.405 8                  23344345.603
        49.500
 103930172.368 8  80834609.441 7  19415032.730    19415033.607    19415038.373
        50.900          44.400
 104993883.609 8  81661923.870 7  19661970.328    19661970.137    19661974.228
        48.800          46.200
 135427073.253 5                  25770924.181
        30.500


 198903893.361 7                  37850171.655
        42.800
 128017273.814 7                  24360881.774
        42.900
 202042041.914 7                  38447339.645
        44.400
 113008858.745 7  87895843.391 6  21103626.999    21103626.947    21103619.869
        45.700          36.900
 130324331.267 6                  24799913.156
        41.600


 25  1  1 17 33 30.0000000  0 24E31G07G26G08G16G27G04G03R18R06R10E09
                                G09E04R07R09E21S35S31E06S33R08E19R16
 132665020.769 6                  25245315.399
        41.200
 120516414.315 6  93908834.54645  22933502.724    22933502.2644   22933503.5284
        41.500          33.2004


 115280823.937 7  89829192.85746  21937182.153    21937182.2244   21937191.7104
        43.000          37.9004
 110552238.665 6  86144597.73441  21037396.391    21037395.4884   21037400.5614
        40.800           7.1004


 105466577.733 7  82181748.35446  20069611.087    20069610.7834   20069613.8114
        45.600          37.6004
 129780815.872 5                  24696464.795
        30.700
 122869307.078 6                  23017565.090    23017564.728
        36.400
 116547708.434 5                  21840984.828    21840985.455
        32.000
 109756860.583 7                  20590106.260    20590105.174
        43.000
 138375925.352 7                  26332063.138
        43.000
 106843628.775 8  83254771.18248  20331673.222    20331672.7714   20331676.3094
        50.700          52.0004
 122670054.853 8                  23343318.581
        49.800
 103946593.427 8  80847381.352 7  19418098.859    19418099.808    19418105.982
        49.100          43.000
 105008537.666 8  81673321.484 7  19664713.210    19664713.572    19664718.280
        48.500          44.900
 135461708.941 5                  25777517.946
        32.100


 198903888.256 6                  37850169.178
        41.500
 127992557.150 7                  24356178.262
        44.700
 202042056.826 7                  38447342.708
        46.100
 112966686.865 6  87863043.046 5  21095749.411    21095750.175    21095745.435
        40.300          35.300
 130359878.680 7                  24806678.272
        42.800
 121964495.395 4                  22831997.178
        28.500
 25  1  1 17 33 45.0000000  0 24E31G07G26G08G16G27G04G03R18R06R10E09
                                G09E04R07R09E21S35S31E06S33R08E19R16
 132633146.716 6                  25239249.449
        38.100
 120483843.698 7  93883454.90845  22927304.284    22927303.8914   22927305.3724
        42.700          33.7004


 115233391.102 6  89792232.30545  21928164.523    21928164.6754   21928165.8524
        37.600          34.1004
 110589910.470 6  86173952.31042  21044566.273    21044565.4284   21044569.4044
        41.400          15.2004
 111291945.037 6  86720993.38245  21178152.812    21178152.8204   21178154.8334
        41.400          32.7004
 105479713.960 8  82191984.39446  20072111.286    20072110.9874   20072113.8234
        48.900          39.2004


 122856936.731 5                  23015244.537    23015241.457
        33.500
 116610451.587 5                  21852743.757    21852741.839
        31.200
 109733568.595 7                  20585735.947    20585735.849
        42.100
 138338878.554 6                  26325013.504
        38.600
 106829018.968 8  83243386.92548  20328893.475    20328893.0194   20328896.5114
        51.500          52.4004
 122664744.947 8                  23342308.051
        50.100
 103963216.050 8  80860310.009 7  19421202.585    19421204.281    19421211.712
        48.900          45.700
 105023266.971 8  81684777.644 7  19667472.388    19667472.473    19667476.645
        48.800          45.000




 198903882.876 7                  37850180.374
        43.500
 127967905.610 7                  24351487.925
        46.200
 202042071.816 6                  38447341.716
        38.800
                  87830355.565 5                                  21087898.037
                        34.900
 130395484.654 6                  24813453.472
        41.500
 122011669.862 5                  22840838.228    22840837.700
        30.500
 25  1  1 17 34  0.0000000  0 23E31G07G26G08G16G27G04G03R06R10E09G09
                                E04R07R09E21S35S31G31E06S33R08E19
 132601327.091 6                  25233195.319
        40.300
 120451281.713 7  93858081.94946  22921108.303    22921107.9594   22921109.8404
        45.000          36.4004


 115185857.547 6  89755245.69244  21919143.497    21919143.5814   21919150.6234
        40.300          28.9004
 110627667.614 6  86203373.44143  21051749.517    21051748.6684   21051754.0134
        41.800          18.4004
 111270279.349 6  86704111.03146  21174030.299    21174029.8934   21174034.4114
        41.900          38.3004
 105492988.000 8  82202327.78346  20074637.738    20074637.4574   20074640.2324
        48.500          40.2004


 116673268.984 5                  21864514.932    21864515.245
        32.800
 109710363.161 6                  20581381.677    20581381.902
        41.500
 138301864.966 7                  26317972.577
        45.000
 106814544.622 8  83232108.19048  20326139.035    20326138.5624   20326141.4244
        53.100          52.5004
 122659521.960 8                  23341314.147
        49.400
 103980039.100 7  80873394.591 7  19424346.922    19424346.750    19424353.792
        46.300          45.300
 105038070.156 8  81696291.187 7  19670244.361    19670244.361    19670249.248
        49.900          47.500
 135531071.694 5                  25790708.852
        33.600


 198903876.472 7                  37850168.341
        43.300
 129801567.903 5                  24700418.902
        32.400
 127943318.494 8                  24346807.890
        48.500
 202042085.602 6                  38447333.188
        37.800
 112882778.128 7  87797764.502 5  21080074.106    21080074.316    21080075.765
        43.300          34.400
 130431148.157 7                  24820240.566
        42.000
 25  1  1 17 34 15.0000000  0 24E31G07G26G08G16G27G04G03R06R10E09G09
                                E04R07R09E21S35S31G31E06S33R08E19R16
 132569564.043 7                  25227149.922
        42.200
 120418730.711 6  93832717.53045  22914913.397    22914913.0624   22914915.7534
        39.200          32.0004


 115138583.856 6  89718409.27445  21910147.855    21910147.5924   21910157.7254
        37.600          30.2004
 110665511.918 6  86232862.43742  21058952.362    21058951.5844   21058955.6024
        37.000          12.8004
 111248764.581 7  86687346.37347  21169936.972    21169936.5884   21169941.9834
        44.100          42.4004
 105506401.760 8  82212779.98246  20077191.045    20077190.7554   20077192.3084
        50.500          40.2004


 116736162.565 3                  21876299.004    21876298.436
        23.300
 109687246.301 7                  20577047.030    20577046.261
        43.100
 138264886.599 7                  26310933.316
        42.500
 106800208.064 8  83220936.85948  20323410.666    20323410.1884   20323412.6344
        51.700          52.9004
 122654388.090 8                  23340337.238
        49.400
 103997064.588 8  80886636.558 7  19427527.281    19427527.741    19427534.828
        49.500          42.500
 105052949.071 7  81707863.725 7  19673030.560    19673030.642    19673034.706
        47.500          47.100




 198903870.846 7                  37850172.147
        46.200
 129844312.327 5                  24708557.013
        31.300
 127918798.110 7                  24342142.013
        45.600
 202042099.391 6                  38447339.216
        40.200
 112841043.748 7  87765304.315 6  21072278.135    21072278.789    21072281.486
        42.600          36.100
 130466870.933 6                  24827037.998
        41.200
 122106121.403 5                  22858522.430    22858519.270
        33.100
 25  1  1 17 34 30.0000000  0 25E31G07G26G08G16G27G04R19G03R06R10E09
                                G09E04R07R09E21S35S31G31E06S33R08E19
                                R16
 132537856.739 6                  25221116.521
        39.800
 120386189.646 7  93807360.90945  22908722.931    22908722.6104   22908722.3644
        43.100          33.1004


 115091390.640 7  89681635.37445  21901169.508    21901169.3704   21901178.6444
        43.900          33.6004
 110703441.755 5  86262418.08241  21066167.453    21066166.8594   21066173.6014
        35.300           7.3004
 111227400.010 7  86670698.68047  21165871.171    21165870.6934   21165877.0004
        44.900          44.1004
 105519954.380 8  82223340.44546  20079769.567    20079769.2774   20079771.4954
        50.900          41.8004




 116799130.989 4                  21888101.410    21888100.139
        29.400
 109664217.111 6                  20572725.068    20572723.848
        39.800
 138227942.999 7                  26303903.789
        44.400
 106786008.551 8  83209872.30948  20320708.451    20320707.9824   20320710.4284
        51.500          52.7004
 122649342.571 8                  23339377.219
        48.500
 104014291.450 8  80900035.212 7  19430746.872    19430746.876    19430754.615
        49.600          44.800
 105067902.979 8  81719494.457 7  19675831.276    19675831.134    19675834.591
        50.200          44.900




 198903865.031 7                  37850173.332
        44.300
 129887068.619 5 101210782.46841  24716691.313    24716691.7244   24716707.3584
        32.700           7.4004
 127894343.748 7                  24337488.648
        42.300
 202042113.629 6                  38447339.713
        39.800
 112799456.307 7  87732958.606 6  21064512.273    21064512.806    21064516.057
        44.300          36.200
 130502652.251 6                  24833846.418
        40.800


 25  1  1 17 34 45.0000000  0 24E31G07G26G08G16G27G04R19G03R06R10E09
                                G09E04R07R09E21S35S31E06S33R08E19R16
 132506205.262 6                  25215093.495
        36.700
 120353658.614 6  93782012.10245  22902532.834    22902532.5354   22902530.6294
        39.400          32.1004


 115044278.247 7  89644924.55145  21892201.222    21892200.9054   21892212.0354
        43.400          33.5004
 110741502.245 6                  21073405.651
        39.700
 111206186.065 7  86654168.39747  21161832.906    21161832.4154   21161840.2484
        44.900          44.0004
 105533645.920 8  82234009.13146  20082374.718    20082374.4374   20082376.9084
        50.400          41.4004




 116862173.909 5                  21899916.307    21899913.168
        30.800
 109641275.430 6                  20568421.489    20568420.322
        39.000
 138191034.360 7                  26296880.110
        42.800
 106771946.369 8  83198914.77048  20318032.636    20318032.1804   20318034.9984
        52.400          53.7004
 122644385.616 8                  23338433.602
        48.700
 104031719.581 8  80913590.422 7  19434002.333    19434002.821    19434008.669
        49.900          43.500
 105082931.278 8  81731183.173 7  19678646.119    19678647.023    19678648.744
        52.000          44.400


 200837546.676 6                  38218112.423
        36.100
 198903859.140 7                  37850168.292
        42.900
 127869955.650 7                  24332848.105
        43.500
 202042128.645 6                  38447345.280
        38.900
 112758016.371 7  87700727.500 6  21056774.100    21056776.899    21056778.934
        46.900          37.900
 130538491.999 6                  24840667.769
        41.800


 25  1  1 17 35  0.0000000  0 23E31G07G26G08G27G04R19G03R10E09G09E04
                                R07R09E21S35S31E06S33R08R11E19R16
 132474609.662 5                  25209080.353
        35.000
 120321137.668 7  93756671.13145  22896342.837    22896342.5294   22896341.1254
        43.800          32.2004


 114997247.189 7  89608277.11546  21883252.925    21883252.6174   21883262.0424
        42.800          36.5004
 111185123.047 7  86637755.66447  21157824.719    21157824.2284   21157831.4344
        43.400          42.0004
 105547476.448 8  82244786.14546  20085006.240    20085005.9724   20085009.2854
        50.300          41.4004




 109618421.581 7                  20564133.137    20564132.470
        42.200
 138154160.957 6                  26289861.569
        40.400
 106758021.794 8  83188064.45348  20315382.546    20315382.0904   20315385.4014
        52.100          52.6004
 122639517.357 8                  23337507.488
        48.400
 104049348.985 8  80927302.160 7  19437295.443    19437295.952    19437301.836
        49.700          42.900
 105098034.193 8  81742929.818 7  19681474.481    19681475.355    19681478.167
        52.400          46.300
 135670044.033 5                  25817154.535
        33.500


 198903853.520 7                  37850175.317
        43.600
 127845634.061 7                  24328219.205
        45.500
 202042142.715 7                  38447355.703
        42.100
 112716724.480 7  87668611.579 6  21049064.267    21049064.696    21049067.777
        47.300          38.400
 130831169.131 4                  24483265.401
        26.600
 130574390.146 6                  24847499.630
        39.400


 25  1  1 17 35 15.0000000  0 22E31G07G26G08G16G27G04G03R18R10E09G09
                                E04R07R09E21S35S31E06S33R08E19
 132443069.874 5                  25203079.951
        33.400
 120288626.480 7  93731337.77145  22890155.879    22890155.5134   22890153.8084
        42.400          32.5004


 114950297.121 7  89571692.81345  21874318.625    21874318.3214   21874327.4274
        42.900          34.5004
 110817788.308 4                  21087918.911
        27.500
 111164210.583 6  86621460.30147  21153845.652    21153845.1114   21153851.3864
        40.700          44.1004
 105561445.275 8  82255670.89546  20087664.100    20087663.8284   20087667.8304
        49.100          40.2004
 130136967.612 4                  24764238.483
        28.400
 122786187.102 5                  23001988.497    23001989.159
        33.900
 109595654.685 5                  20559860.359    20559857.617
        35.700
 138117322.253 7                  26282852.887
        44.000
 106744234.338 8  83177320.97148  20312759.139    20312758.6834   20312761.7884
        52.000          53.0004
 122634737.264 8                  23336597.461
        49.400
 104067178.712 7  80941169.639 7  19440625.915    19440625.781    19440631.424
        47.600          42.000
 105113211.036 8  81754734.023 7  19684316.434    19684317.179    19684320.496
        50.800          46.900
 135704858.207 4                  25823778.081
        27.500


 198903847.202 7                  37850168.610
        44.100
 127821378.601 7                  24323604.161
        43.600
 202042156.287 6                  38447358.681
        40.400
 112675580.636 7  87636610.823 6  21041378.494    21041378.214    21041381.800
        47.300          40.100
 130610345.896 6                  24854342.229
        39.600
 25  1  1 17 35 30.0000000  0 21E31G07G08G16G27G04G03R18R10E09G09E04
                                R07R09E21S35S31E06S33R08E19
 132411585.416 6                  25197087.406
        37.000
 120256125.091 7  93706012.11245  22883971.619    22883971.2574   22883968.5924
        45.100          33.0004
 114903428.970 7  89535172.33445  21865400.115    21865399.7624   21865408.6374
        46.200          35.9004
 110856058.220 6  86381365.11341  21095204.913    21095204.4354   21095211.5804
        38.600          11.5004
 111143449.143 7  86605282.63347  21149894.627    21149894.0864   21149900.8194
        47.400          47.1004
 105575552.697 7  82266663.63846  20090349.331    20090349.0544   20090352.2754
        47.800          39.7004


 122775014.534 5                  22999894.312    22999895.738
        34.900
 109572975.073 6                  20555610.337    20555608.686
        36.500
 138080518.810 7                  26275850.932
        44.100
 106730584.534 8  83166684.72348  20310161.711    20310161.2514   20310164.4644
        52.600          53.3004
 122630045.778 8                  23335704.848
        48.900
 104085208.969 8  80955193.117 6  19443995.013    19443994.147    19443999.092
        48.800          40.400
 105128461.757 8  81766595.717 8  19687172.707    19687173.597    19687177.917
        50.700          48.100
 135739697.156 5                  25830409.591
        35.300


 198903840.885 6                  37850155.409
        41.700
 127797189.646 7                  24319001.083
        44.600
 202042170.226 7                  38447372.695
        43.600
 112634585.339 7  87604725.606 6  21033722.380    21033721.213    21033726.955
        46.500          38.000
 130646359.625 6                  24861195.569
        40.900
 25  1  1 17 35 45.0000000  0 22E31G07G26G08G16G27G04G03R18R10E09G09
                                E04R07R09E21S35S31E06S33R08E19
 132380157.670 6                  25191108.536
        38.500
 120223634.613 7  93680694.89745  22877788.448    22877788.1004   22877787.6254
        43.800          35.0004
 124613906.141 4                  23713228.512
        27.600
 114856643.789 7  89498716.55046  21856496.649    21856496.2654   21856506.3304
        45.900          37.3004
 110894412.629 6  86411251.74043  21102502.616    21102501.9904   21102507.3014
        40.000          18.0004
 111122839.853 7  86589223.52448  21145973.287    21145972.7644   21145978.6784
        46.900          48.1004
 105589799.468 7  82277764.99246  20093060.289    20093060.0214   20093063.5184
        47.300          39.5004


 122764019.806 6                  22997844.141    22997842.168
        37.700
 109550383.340 6                  20551371.275    20551370.406
        37.900
 138043751.635 7                  26268854.739
        42.700
 106717073.403 8  83156156.55448  20307590.387    20307589.9274   20307593.4254
        50.200          53.0004
 122625443.838 8                  23334829.255
        49.000
 104103440.981 8  80969373.537 6  19447401.671    19447400.258    19447405.762
        48.200          40.800
 105143786.798 8  81778515.165 8  19690042.971    19690042.997    19690046.798
        49.800          48.200
 135774561.487 5                  25837045.992
        35.300


 198903834.508 7                  37850162.573
        43.000
 127773068.270 7                  24314410.590
        44.600
 202042184.338 7                  38447371.094
        46.100
 112593740.185 7  87572957.045 6  21026096.680    21026095.652    21026103.796
        46.200          37.600
 130682431.828 6                  24868059.199
        41.500
 25  1  1 17 36  0.0000000  0 23E31G07G26G08G16G27G04G03R10E09G09E04
                                R07R09E21S35S31G31E06S33R08E19R16
 132348785.280 6                  25185137.063
        41.500
 120191153.770 7  93655385.18646  22871608.084    22871607.7364   22871609.4844
        44.700          36.9004


 114809940.728 7  89462324.72646  21847609.470    21847609.0774   21847618.4394
        46.700          38.1004
 110932850.151 6  86441203.04842  21109817.022    21109816.6834   21109821.5794
        38.900          17.4004
 111102381.649 8  86573282.15947  21142079.828    21142079.3234   21142084.5174
        48.200          46.9004
 105604184.295 7  82288973.93346  20095797.972    20095797.7044   20095800.9474
        47.600          39.1004


 109527878.493 7                  20547152.285    20547152.159
        42.900
 138007019.705 6                  26261863.637
        39.800
 106703699.798 8  83145735.54548  20305045.613    20305045.1624   20305048.5264
        51.900          52.7004
 122620930.216 8                  23333970.558
        50.300
 104121872.179 8  80983708.854 6  19450844.173    19450844.494    19450848.438
        49.300          40.700
 105159184.773 8  81790491.359 8  19692925.754    19692925.991    19692930.659
        49.100          48.600
 135809449.742 5                  25843684.699
        33.900


 198903828.119 7                  37850170.184
        42.900
 130143933.353 4                  24765562.143
        29.200
 127749013.303 6                  24309832.745
        41.400
 202042197.296 7                  38447371.005
        45.500
 112553044.301 7  87541304.802 5  21018495.443    21018496.474    21018491.945
        46.400          30.400
 130718561.268 6                  24874934.054
        40.100
                                                  22920360.553

 25  1  1 17 36 15.0000000  0 23E31G07G26G08G16G27G04G03R18R10E09G09
                                E04R07R09E21S35S31G31E06S33R08E19
 132317470.949 7                  25179178.303
        43.400
 120158685.246 7  93630085.06346  22865429.903    22865429.5414   22865431.9734
        46.400          40.4004


 114763322.839 7  89425999.26946  21838738.487    21838738.0904   21838746.8694
        42.300          36.5004
 110971373.178 6  86471221.01042  21117146.865    21117146.3744   21117151.8074
        41.000          16.0004
 111082077.400 7  86557460.73147  21138216.377    21138215.8594   21138219.8634
        47.500          45.6004
 105618709.796 7  82300292.49546  20098562.098    20098561.8264   20098565.0414
        47.400          40.1004


 122742562.844 5                  22993818.049    22993816.903
        32.700
 109505462.613 6                  20542943.543    20542944.188
        41.600
 137970325.732 6                  26254880.815
        41.600
 106690466.521 8  83135423.93448  20302527.290    20302526.8524   20302530.6134
        51.400          52.7004
 122616507.684 8                  23333128.434
        48.700
 104140506.053 8  80998201.806 7  19454324.904    19454325.044    19454332.368
        48.700          45.900
 105174657.964 8  81802526.116 8  19695821.595    19695822.123    19695828.194
        49.400          48.300
 135844364.347 6                  25850328.132
        36.500


 198903823.068 6                  37850168.086
        41.800
 130186772.539 4 101444281.47341  24773713.060    24773712.5694   24773728.7914
        25.200           7.0004
 127725027.656 7                  24305269.043
        43.300
 202042212.929 6                  38447365.956
        40.700
 112512500.601 7  87509770.817 7  21010924.389    21010926.303    21010929.336
        46.400          44.300
 130754750.303 6                  24881821.678
        39.400
 25  1  1 17 36 30.0000000  0 23E31G07G26G08G16G27G04G03R18R10E09G09
                                E04R07R09E21S35S31E06S33R08E19R16
 132286212.689 6                  25173230.377
        41.600
 120126226.995 8  93604792.93446  22859253.395    22859253.0384   22859256.1084
        49.100          41.0004


 114716788.396 6  89389738.81445  21829883.036    21829882.5894   21829891.9434
        37.400          35.5004
 111009979.116 7  86501303.41942  21124493.738    21124493.3274   21124497.3634
        42.100          16.1004
 111061925.232 7  86541757.84547  21134382.066    21134381.5254   21134385.3624
        46.500          46.3004
 105633373.752 8  82311718.91346  20101352.476    20101352.2134   20101355.3424
        49.100          40.9004


 122732101.327 6  95458360.146 5  22991859.442    22991859.669    22991867.135
        38.300          32.800
 109483133.829 6                  20538752.919    20538752.162
        41.700
 137933667.808 7                  26247905.721
        43.000
 106677371.622 8  83125220.11648  20300035.607    20300035.1694   20300038.8604
        50.600          52.7004
 122612174.144 8                  23332303.608
        49.600
 104159339.437 7  81012849.975 7  19457841.756    19457841.368    19457850.462
        46.500          46.300
 105190204.122 8  81814617.485 7  19698734.409    19698735.058    19698738.724
        50.100          46.600
 135879303.166 5                  25856980.055
        33.500
 200837189.492 4                  38218060.512
        29.800
 198903818.290 6                  37850163.503
        40.500
 127701109.274 7                  24300717.409
        42.900
 202042228.130 6                  38447371.895
        39.600
 112472107.406 7  87478353.949 6  21003382.707    21003379.899    21003386.021
        42.900          40.400
 130790996.802 6                  24888719.287
        41.300
 122530793.696 5                  22938018.058
        34.900
