     2.11           OBSERVATION DATA    M (MIXED)           RINEX VERSION / TYPE
teqc  2019Feb25                         20260317 16:18:01UTCPGM / RUN BY / DATE
Linux 2.4.21-27.ELsmp|Opteron|gcc -static|Linux 64|=+       COMMENT
BIT 2 OF LLI FLAGS DATA COLLECTED UNDER A/S CONDITION       COMMENT
-Unknown-                                                   MARKER NAME
-Unknown-           -Unknown-                               OBSERVER / AGENCY
-Unknown-           -Unknown-           -Unknown-           REC # / TYPE / VERS
-Unknown-           -Unknown-                               ANT # / TYPE
        0.0000        0.0000        0.0000                  APPROX POSITION XYZ
        0.0000        0.0000        0.0000                  ANTENNA: DELTA H/E/N
     1     1                                                WAVELENGTH FACT L1/2
     7    L1    L2    C1    P1    P2    S1    S2            # / TYPES OF OBSERV
 SNR is mapped to RINEX snr flag value [0-9]                COMMENT
  L1 & L2: min(max(int(snr_dBHz/6), 0), 9)                  COMMENT
  2025     1     1     7     0    0.0000000     GPS         TIME OF FIRST OBS
    18                                                      LEAP SECONDS
                                                            END OF HEADER
 25  1  1  7  0  0.0000000  0 22G18R01G23G15E03G05G29R03E15E26R18S35
                                R17R02S31G13S33E07E08E21E13R24
 111274622.830 7  86707520.07545  21174855.768    21174855.4874   21174855.3414
        47.700          34.4004
 110526233.398 7  85964876.119 7  20676218.907    20676217.609    20676223.160
        44.100          42.000
 115630340.485 6  90101561.27644  22003723.053    22003722.7494   22003723.0884
        40.000          25.8004
 105011484.717 7  81827119.33847  19983003.025    19983002.7124   19983003.0524
        44.600          44.5004
 138820665.501 6                  26416687.908
        36.100
 117071586.184 5  91224609.87242  22277964.967    22277965.1864   22277967.8574
        31.200          14.5004
 110870460.819 7  86392528.92247  21097949.223    21097948.6514   21097949.5984
        44.800          42.7004
 117748985.243 6  91582565.035 6  21996489.531    21996487.152    21996493.412
        37.200          39.400
 135706685.147 5                  25824116.803
        31.000
 134490711.644 6                  25592693.753
        40.600
 120708303.437 7  93884252.267 6  22612733.378    22612731.633    22612737.690
        43.700          37.600
 200875408.461 5                  38225304.796
        34.100
 104227867.071 8  81066167.944 8  19477475.322    19477476.515    19477479.365
        49.600          48.000
 102420448.101 8  79660379.088 7  19193543.342    19193543.391    19193548.669
        50.800          46.600
 198899769.163 7                  37849375.397
        42.700
 110837016.506 8  86366522.56145  21091587.127    21091586.8284   21091586.1834
        49.200          30.7004
 202035308.949 7                  38446051.997
        44.500
 133117482.764 7                  25331400.816
        44.000
 125702476.928 8                  23920381.437
        48.800


 123172192.168 8                  23438872.712
        48.700
 108540746.810 7  84420588.336 7  20297667.569    20297668.079    20297673.962
        46.800          42.800
 25  1  1  7  0 15.0000000  0 21G18R01G23G15E03G29R03E15E26R18S35R17
                                R02S31G13S33E07E08E21E13R24
 111247272.681 7  86686208.28045  21169650.828    21169650.5564   21169650.1714
        46.900          33.6004
 110573062.254 7  86001298.582 6  20684978.782    20684977.629    20684984.079
        42.900          41.200
 115600034.738 7  90077946.43744  21997957.078    21997956.7524   21997956.6444
        46.100          28.1004
 104999677.952 7  81817919.26347  19980755.576    19980755.2814   19980756.4874
        46.100          46.4004
 138852893.248 6                  26422820.907
        37.100
 110902980.202 7  86417868.69647  21104138.695    21104138.1014   21104139.2044
        44.300          43.1004
 117693267.586 7  91539229.013 6  21986085.112    21986082.831    21986084.195
        44.800          40.100
 135732975.268 5                  25829118.391
        30.700
 134460821.811 6                  25587005.500
        39.000
 120652068.256 7  93840513.826 6  22602200.920    22602199.549    22602201.921
        47.300          36.700
 200875407.698 5                  38225306.790
        31.900
 104202217.121 7  81046217.971 8  19472680.595    19472682.256    19472686.456
        47.400          48.000
 102412256.753 8  79654008.055 7  19192009.127    19192009.195    19192014.420
        52.200          47.100
 198899758.429 6                  37849373.551
        41.200
 110853870.322 8  86379655.39245  21094794.157    21094793.8584   21094792.9894
        48.900          30.7004
 202035275.416 7                  38446042.276
        44.000
 133076637.416 7                  25323628.857
        43.500
 125697394.128 8                  23919414.385
        49.500


 123169563.379 8                  23438372.246
        48.800
 108573349.777 7  84445946.193 7  20303764.205    20303764.859    20303770.205
        46.400          42.400
 25  1  1  7  0 30.0000000  0 23G18R01G23G15G26E03G05G29R03E15E26R18
                                S35R17R02S31G13S33E07E08E21E13R24
 111219988.275 7  86664947.71345  21164459.149    21164458.8774   21164457.9384
        46.200          32.6004
 110619993.284 6  86037800.574 6  20693758.196    20693753.698    20693762.970
        37.000          40.800
 115569793.122 6  90054381.57644  21992202.853    21992202.5184   21992201.9884
        41.900          27.6004
 104988036.160 7  81808847.75347  19978540.575    19978540.2854   19978540.8564
        47.700          47.4004


 138885195.898 5                  26428966.298
        35.800
 117149174.225 6  91285072.40343  22292750.082    22292750.4754   22292745.2144
        36.200          18.6004
 110935632.408 7  86443311.98847  21110351.842    21110351.2124   21110352.9314
        46.700          43.9004
 117637644.608 7  91495966.722 6  21975693.788    21975693.759    21975694.397
        47.200          40.600
 135759310.402 4                  25834175.588
        28.500
 134430946.689 7                  25581322.542
        42.200
 120595852.120 7  93796790.171 6  22591668.733    22591668.260    22591672.041
        46.300          36.100
 200875414.559 5                  38225310.094
        35.300
 104176697.560 6  81026369.389 8  19467908.007    19467908.749    19467917.113
        40.600          48.300
 102404249.952 8  79647780.533 7  19190508.509    19190508.563    19190513.922
        52.100          46.700
 198899754.602 7                  37849370.309
        43.100
 110870887.308 8  86392915.35744  21098032.802    21098032.5034   21098030.0464
        48.800          29.7004
 202035248.372 6                  38446038.551
        41.900
 133035851.388 7                  25315867.662
        43.900
 125692425.838 8                  23918469.077
        49.700


 123166985.589 8                  23437881.872
        49.200
 108606090.774 6  84471411.532 7  20309886.398    20309883.331    20309893.185
        38.100          42.500
 25  1  1  7  0 45.0000000  0 23G18R01G23G15G26E03G05G29R03E15E26R18
                                S35R17R02S31G13S33E07E08E21E13R24
 111192757.452 7  86643728.88045  21159277.670    21159277.3894   21159275.7614
        46.500          32.2004
 110667013.551 7  86074371.905 6  20702553.907    20702553.082    20702558.893
        44.500          40.000
 115539603.351 7  90030857.16544  21986459.097    21986458.7984   21986455.8994
        42.300          27.5004
 104976546.816 8  81799895.03648  19976354.193    19976353.9074   19976354.3314
        49.500          48.1004




 117188050.028 6  91315365.20943  22300147.328    22300147.5964   22300144.0464
        40.300          22.6004
 110968404.763 7  86468848.87947  21116587.253    21116586.6414   21116589.2434
        45.400          44.2004
 117582103.790 7  91452768.373 7  21965316.925    21965315.659    21965320.135
        44.400          43.900


 134401074.200 6                  25575637.505
        40.600
 120539643.080 7  93753072.030 6  22581136.987    22581135.711    22581143.056
        43.200          37.700
 200875417.134 6                  38225307.496
        38.900
 104151296.120 6  81006612.715 8  19463163.136    19463161.179    19463171.179
        39.500          48.400
 102396414.985 8  79641686.670 7  19189040.144    19189040.275    19189045.298
        51.500          46.400
 198899746.363 6                  37849364.554
        39.900
 110888055.033 8  86406292.77645  21101299.833    21101299.5614   21101296.8974
        50.400          30.6004
 202035218.366 7                  38446034.204
        44.300
 132995112.503 7                  25308115.024
        43.800
 125687559.698 8                  23917543.115
        49.500
 146430678.934 6                  27864832.748
        37.500
 123164446.676 8                  23437398.798
        48.800
 108638957.658 7  84496974.558 6  20316032.316    20316030.260    20316038.983
        43.200          41.500
 25  1  1  7  1  0.0000000  0 24G18R01G23G15G26G10E03G05G29R03E15E26
                                R18S35R17R02S31G13S33E07E08E21E13R24
 111165587.852 7  86622557.76645  21154107.676    21154107.4044   21154105.6804
        45.100          31.6004
 110714130.062 7  86111018.069 6  20711366.803    20711367.303    20711373.373
        46.700          39.500
 115509472.797 7  90007378.84544  21980726.087    21980725.7574   21980720.5294
        45.400          27.9004
 104965217.370 8  81791066.91147  19974198.283    19974198.0114   19974198.5034
        49.900          47.3004






 117226956.449 6  91345681.92444  22307549.697    22307549.7014   22307550.5204
        40.200          24.5004
 111001304.440 7  86494484.98047  21122847.664    21122847.0794   21122850.1364
        47.600          45.2004
 117526653.421 7  91409640.373 6  21954955.884    21954954.570    21954960.794
        42.200          41.400
 135812186.123 5                  25844188.694
        30.900
 134371211.541 6                  25569956.128
        41.800
 120483449.110 7  93709365.654 6  22570610.933    22570609.677    22570616.915
        42.900          39.200
 200875421.866 6                  38225321.868
        38.500
 104126020.682 7  80986953.961 8  19458444.276    19458443.393    19458448.086
        46.100          48.900
 102388759.348 8  79635732.288 7  19187606.145    19187605.859    19187611.021
        52.400          46.900
 198899741.138 7                  37849376.390
        42.200
 110905380.689 8  86419793.26745  21104596.651    21104596.3434   21104594.4864
        49.000          31.3004
 202035190.570 7                  38446026.603
        42.100
 132954428.341 7                  25300372.807
        43.400
 125682803.117 8                  23916638.088
        49.100
 146467793.385 5                  27871894.064
        31.600
 123161954.005 8                  23436924.214
        48.800
 108671957.417 7  84522641.067 6  20322204.975    20322205.446    20322208.740
        47.300          40.300
 25  1  1  7  1 15.0000000  0 24G18R01G23G15G26G10E03G05G29R03E15E26
                                R18S35R17R02S31G13S33E07E08E21E13R24
 111138476.384 7  86601431.97945  21148949.449    21148949.1904   21148946.9214
        44.800          30.2004
 110761338.882 7  86147736.017 6  20720198.256    20720199.142    20720204.774
        46.600          39.100
 115479398.195 7  89983944.12245  21975001.176    21975000.8104   21974998.2834
        46.300          30.3004
 104954044.603 8  81782360.86647  19972072.285    19972072.0044   19972072.1264
        50.900          47.4004






 117265890.310 6  91376019.91544  22314959.472    22314959.3614   22314963.0264
        40.200          28.0004
 111034327.860 7  86520217.50047  21129131.159    21129130.6014   21129134.1704
        47.300          44.6004
 117471290.167 7  91366580.085 6  21944615.512    21944613.415    21944618.405
        42.200          38.900
 135838629.208 5                  25849219.215
        32.200
 134341355.742 7                  25564275.036
        42.200
 120427266.990 6  93665668.446 6  22560084.410    22560081.863    22560091.118
        38.900          38.200
 200875427.118 5                  38225317.947
        32.300
 104100868.274 8  80967390.958 8  19453741.467    19453743.807    19453747.789
        48.200          49.300
 102381279.515 8  79629914.601 7  19186203.869    19186204.166    19186209.163
        52.100          47.100
 198899735.541 6                  37849374.365
        41.900
 110922860.803 7  86433414.10645  21107923.307    21107923.0124   21107922.5944
        45.400          31.7004
 202035161.557 7                  38446028.226
        44.000
 132913795.764 7                  25292640.715
        42.400
 125678152.838 8                  23915753.303
        49.800
 146504918.311 5                  27878961.465
        33.600
 123159504.509 8                  23436458.334
        49.700
 108705086.981 8  84548408.430 6  20328400.149    20328400.275    20328403.556
        49.600          38.900
 25  1  1  7  1 30.0000000  0 24G18R01G23G15G26G10E03G05G29R03E15E26
                                R18S35R17R02S31G13S33E07E08E21E13R24
 111111424.311 7  86580352.45744  21143800.211    21143799.9614   21143798.7964
        42.600          29.1004
 110808640.878 8  86184526.398 6  20729047.554    20729048.962    20729054.759
        48.700          40.300
 115449380.520 7  89960553.73645  21969287.931    21969287.5744   21969287.8154
        44.100          30.2004
 104943029.630 8  81773777.76047  19969975.917    19969975.6404   19969975.4414
        51.700          47.2004
 134051310.091 5                  25509111.670
        30.500




 117304852.705 6  91406380.19344  22322373.637    22322373.4904   22322379.4084
        41.900          25.6004
 111067475.706 7  86546046.95547  21135439.396    21135438.8384   21135440.6924
        46.300          42.2004
 117416015.599 7  91323588.762 6  21934291.410    21934289.745    21934293.308
        44.500          39.700


 134311507.716 6                  25558594.262
        41.000
 120371098.176 7  93621981.522 6  22549563.820    22549566.338    22549567.883
        45.300          39.200
 200875390.669 5                  38225318.210
        34.800
 104075840.460 7  80947924.882 8  19449062.474    19449063.128    19449069.868
        47.600          48.100
 102373976.424 8  79624234.458 7  19184835.486    19184835.505    19184840.672
        51.800          47.800
 198899729.691 6                  37849371.713
        41.400
 110940495.993 7  86447155.78645  21111278.949    21111278.6414   21111279.2984
        45.500          31.3004
 202035133.414 7                  38446016.103
        43.100
 132873216.036 7                  25284918.662
        44.200
 125673609.818 8                  23914888.065
        48.300
 146542054.488 4                  27886026.352
        28.300
 123157099.183 8                  23436000.420
        49.100
 108738347.158 8  84574277.412 6  20334619.881    20334620.723    20334623.069
        50.700          40.300
 25  1  1  7  1 45.0000000  0 25G18R01G23G15G26G16G10E03G05G29R03E15
                                E26R18S35R17R02S31G13S33E07E08E21E13
                                R24
 111084431.711 7  86559319.25045  21138663.969    21138663.6794   21138662.4264
        45.800          30.4004
 110856035.258 7  86221388.737 6  20737914.118    20737914.857    20737920.918
        47.400          40.000
 115419419.766 6  89937207.67144  21963587.426    21963587.0604   21963587.8924
        39.500          28.9004
 104932172.454 8  81765317.60747  19967910.042    19967909.7704   19967909.3054
        50.600          46.6004
 134078055.068 5                  25514199.726
        35.200
 131037020.815 5                  24935516.272
        31.500
 134247378.598 5 104608372.22941  25546423.606    25546423.5574   25546434.3484
        30.600           8.0004


 117343843.181 6  91436762.19343  22329794.880    22329794.7424   22329797.3524
        38.200          20.7004
 111100747.809 7  86571973.23846  21141770.473    21141769.9064   21141770.6904
        43.400          39.7004
 117360829.668 7  91280666.424 6  21923981.316    21923980.271    21923982.412
        47.300          38.500


 134281667.680 6                  25552915.835
        40.300
 120314943.136 6  93578305.456 6  22539045.065    22539046.103    22539048.301
        39.300          37.400


 104050937.480 8  80928555.905 7  19444410.717    19444410.454    19444415.222
        49.400          45.600
 102366849.836 8  79618691.580 7  19183499.604    19183499.747    19183505.195
        51.600          47.900
 198899725.077 6                  37849365.408
        39.300
 110958286.100 7  86461018.18945  21114664.237    21114663.9294   21114664.0714
        47.400          32.0004
 202035105.939 7                  38446016.859
        43.800
 132832689.395 7                  25277206.389
        43.600
 125669174.100 8                  23914043.876
        48.000


 123154738.141 8                  23435550.996
        48.700
 108771737.670 8  84600247.846 6  20340863.753    20340863.126    20340866.505
        48.200          40.300
 25  1  1  7  2  0.0000000  0 25G18R01G23G15G26G16G10E03G05G29R03E15
                                E26R18S35R17R02S31G13S33E07E08E21E13
                                R24
 111057497.710 7  86538331.70745  21133538.442    21133538.1434   21133536.7224
        47.300          32.8004
 110903520.539 7  86258321.699 6  20746796.248    20746796.729    20746801.994
        47.000          39.100
 115389514.757 7  89913905.09744  21957897.282    21957897.0014   21957897.7124
        42.200          28.9004
 104921471.795 8  81756979.45047  19965873.705    19965873.4194   19965873.0274
        49.900          45.3004
 134104863.508 5                  25519299.017
        30.800
 131044142.943 5 102112325.8834   24936873.035    24936873.1114   24936873.4064
        30.900           5.6004
 134206922.161 5 104576847.65841  25538726.210    25538726.1794   25538733.7624
        31.900          11.0004


 117382860.501 7  91467165.28443  22337219.563    22337219.4874   22337220.7644
        42.100          18.6004
 111134142.637 7  86597995.16246  21148126.701    21148126.1384   21148125.8494
        45.200          39.6004
 117305731.763 7  91237812.494 6  21913689.612    21913690.495    21913690.428
        46.400          40.400


 134251834.417 5                  25547238.475
        35.500
 120258800.591 4  93534639.033 6  22528522.829    22528522.417    22528531.644
        29.200          38.600


 104026158.506 8  80909283.356 7  19439781.901    19439781.931    19439785.563
        50.900          45.900
 102359898.776 8  79613285.181 8  19182197.930    19182198.299    19182203.278
        51.900          48.300
 198899719.397 7                  37849372.401
        43.200
 110976230.181 7  86475000.56345  21118077.843    21118077.5354   21118077.6634
        46.300          30.0004
 202035077.267 7                  38446012.374
        44.500
 132792214.655 6                  25269503.802
        40.800
 125664844.405 7                  23913219.850
        45.200


 123152420.332 8                  23435109.623
        48.400
 108805257.465 8  84626318.730 7  20347132.299    20347132.922    20347136.967
        51.500          42.600
 25  1  1  7  2 15.0000000  0 25G18R01G23G15G26G16G10E03G05G29R03E15
                                E26R18S35R17R02S31G13S33E07E08E21E13
                                R24
 111030620.793 8  86517388.66646  21128423.701    21128423.4024   21128422.8714
        48.700          36.5004
 110951094.483 7  86295323.590 6  20755697.428    20755698.003    20755701.721
        47.800          37.800
 115359663.831 7  89890644.61044  21952214.980    21952214.7124   21952217.8264
        42.800          28.4004
 104910926.302 8  81748762.18147  19963866.854    19963866.5554   19963866.0064
        49.300          45.3004


 131051390.616 6 102117973.31341  24938251.415    24938251.6434   24938251.8194
        36.200           8.2004
 134166485.892 4 104545338.79041  25531028.786    25531028.9734   25531038.7984
        27.100           7.0004


 117421902.700 7  91497587.77443  22344648.114    22344648.1274   22344647.9864
        43.000          21.3004
 111167658.380 7  86624111.36046  21154504.964    21154504.3834   21154505.0394
        44.000          40.9004
 117250720.562 7  91195026.024 6  21903406.994    21903407.293    21903414.795
        42.300          40.200
 135944625.359 5                  25869408.215
        35.600
 134222006.416 5                  25541562.045
        35.600
                  93490981.518 6                                  22518015.537
                        37.200
 200875403.376 5                  38225319.941
        34.200
 104001502.412 8  80890106.422 7  19435173.844    19435174.308    19435176.801
        51.100          45.100
 102353121.381 8  79608013.898 8  19180927.218    19180927.415    19180933.252
        50.500          48.700
 198899711.471 6                  37849360.297
        41.700
 110994326.202 7  86489101.34745  21121522.010    21121521.6894   21121520.8884
        45.700          30.3004
 202035046.428 7                  38446000.166
        44.000
 132751790.484 6                  25261811.934
        40.700
 125660619.118 7                  23912416.218
        44.600
 146653544.440 5                  27907242.332
        33.800
 123150144.156 8                  23434676.408
        48.300
 108838904.338 8  84652488.482 7  20353423.551    20353424.030    20353430.221
        50.200          43.900
 25  1  1  7  2 30.0000000  0 25G18R01G23G15G26G16G10E03G05G29R03E15
                                E26R18S35R17R02S31G13S33E07E08E21E13
                                R24
 111003804.469 8  86496492.80846  21123321.390    21123321.0954   21123320.8084
        48.600          37.8004
 110998759.841 7  86332396.586 6  20764613.923    20764614.195    20764618.870
        46.900          37.900
 115329870.289 7  89867428.82944  21946546.029    21946545.7884   21946548.6404
        42.900          28.2004
 104900539.230 8  81740668.35547  19961890.202    19961889.8984   19961889.5094
        49.700          45.3004


 131058767.124 5 102123721.14941  24939653.902    24939653.9284   24939655.4664
        34.500           9.9004




 117460972.923 7  91528032.07043  22352082.737    22352082.7414   22352080.6454
        42.500          20.3004
 111201297.955 7  86650324.05347  21160905.399    21160904.8364   21160907.2224
        47.800          43.6004
 117195799.421 6  91152309.583 6  21893148.756    21893148.926    21893156.987
        41.600          40.500
 135971252.897 5                  25874471.598
        32.700
 134192187.051 4                  25535887.263
        28.600
 120146529.393 7  93447335.730 6  22507502.633    22507504.123    22507504.313
        44.300          38.900
 200875407.025 5                  38225336.486
        31.900
 103976972.679 8  80871027.804 7  19430589.182    19430589.437    19430593.016
        51.200          45.800
 102346520.735 8  79602880.068 8  19179690.200    19179690.541    19179696.084
        50.400          48.700
 198899704.263 7                  37849357.828
        42.500
 111012577.347 7  86503323.00845  21124995.281    21124994.9554   21124993.8594
        46.300          30.6004
 202035016.645 7                  38446000.283
        45.500
 132711420.404 6                  25254129.914
        39.600
 125656501.558 7                  23911632.539
        44.900
 146690719.049 5                  27914312.446
        31.100
 123147913.091 8                  23434252.064
        48.200
 108872681.957 8  84678759.916 7  20359741.443    20359741.091    20359748.365
        50.500          45.000
 25  1  1  7  2 45.0000000  0 25G18R01G23G15G26G16G10E03G05G29R03E15
                                E26R18S35R17R02S31G13S33E07E08E21E13
                                R24
 110977048.689 7  86475644.13246  21118229.451    21118229.1834   21118230.2244
        45.800          36.9004
 111046516.003 7  86369540.259 6  20773548.031    20773548.162    20773553.561
        45.900          39.600
 115300133.848 7  89844257.56244  21940886.643    21940886.4024   21940890.2984
        42.900          26.9004
 104890310.320 8  81732697.77047  19959943.267    19959942.9724   19959943.0614
        48.100          44.6004


 131066271.981 5 102129569.03741  24941082.963    24941082.8744   24941083.9754
        32.300          10.1004




 117500070.408 7  91558497.57542  22359521.781    22359521.8434   22359515.8364
        42.000          16.0004
 111235060.679 7  86676632.66347  21167329.046    21167328.4884   21167331.5444
        46.000          43.0004
 117140968.529 7  91109663.366 6  21882907.745    21882908.865    21882910.479
        44.400          38.900
 135997918.329 5                  25879546.661
        30.600
 134162375.991 5                  25530214.883
        34.800
 120090428.372 7  93403701.607 6  22496994.609    22496995.617    22496993.930
        45.200          38.100
 200875411.515 5                  38225328.750
        32.900
 103952569.534 8  80852047.604 7  19426027.834    19426027.645    19426032.932
        50.800          46.200
 102340096.773 8  79597883.652 8  19178486.619    19178486.906    19178491.943
        51.200          48.100
 198899698.232 7                  37849355.476
        43.300
 111030983.007 7  86517665.06845  21128498.051    21128497.7214   21128495.9534
        46.900          31.3004
 202034987.409 7                  38445988.952
        45.100
 132671104.379 6                  25246458.008
        39.700
 125652491.395 7                  23910869.154
        42.800
 146727903.643 4                  27921390.723
        27.900
 123145726.915 8                  23433836.200
        48.800
 108906589.779 8  84705132.652 7  20366080.785    20366081.069    20366088.169
        49.200          44.000
 25  1  1  7  3  0.0000000  0 24G18R01G23G15G26G10E03G05G29R03E15E26
                                R18S35R17R02S31G13S33E07E08E21E13R24
 110950353.585 7  86454842.72745  21113150.739    21113150.4714   21113151.1894
        42.300          33.9004
 111094362.299 7  86406754.028 6  20782499.366    20782497.976    20782503.585
        44.100          40.000
 115270454.379 6  89821130.74943  21935238.581    21935238.3984   21935240.2154
        41.400          23.2004
 104880239.571 7  81724850.42947  19958026.583    19958026.2794   19958026.8764
        47.300          43.6004






 117539195.733 6  91588984.87442  22366968.522    22366968.5754   22366958.1054
        40.100          12.9004
 111268946.541 7  86703037.21747  21173778.493    21173777.9614   21173779.2574
        45.200          42.7004
 117086228.250 7  91067087.631 6  21872681.225    21872685.413    21872683.181
        45.900          37.300
 136024621.448 4                  25884626.614
        27.000
 134132573.365 6                  25524543.400
        36.900
 120034342.511 7  93360079.148 5  22486490.157    22486490.488    22486485.800
        43.500          35.800
 200875416.112 5                  38225336.714
        34.900
 103928293.116 8  80833165.923 7  19421491.874    19421491.957    19421496.998
        51.400          47.200
 102333849.228 8  79593024.459 7  19177316.056    19177316.334    19177320.244
        51.800          47.200
 198899692.301 7                  37849355.378
        43.300
 111049542.798 7  86532127.23145  21132029.570    21132029.2354   21132027.7394
        47.400          31.8004
 202034958.531 7                  38445980.697
        44.400
 132630842.373 6                  25238796.308
        40.500
 125648588.522 7                  23910126.808
        44.100
 146765097.760 4                  27928467.429
        24.500
 123143585.591 8                  23433429.358
        49.500
 108940627.769 8  84731606.611 7  20372446.026    20372446.335    20372452.687
        49.000          42.600
 25  1  1  7  3 15.0000000  0 24G18R01G23G15G26G16E03G05G29R03E15E26
                                R18S35R17R02S31G13S33E07E08E21E13R24
 110923716.696 6  86434086.67444  21108080.195    21108079.9184   21108082.2654
        37.600          28.5004
 111142295.707 6  86444035.590 6  20791466.396    20791461.871    20791470.964
        39.800          41.000
 115240829.247 6  89798046.28843  21929601.643    21929601.4604   21929598.0074
        41.200          18.3004
 104870324.276 7  81717124.22247  19956139.529    19956139.2034   19956140.1564
        46.700          43.0004
 134239817.044 5                  25544985.330
        34.900
 131081662.915 4                  24944008.625
        24.400


 117578345.853 6  91619491.45642  22374420.270    22374420.2124   22374407.4034
        41.200          15.5004
 111302952.513 7  86729535.37247  21180250.071    21180249.5624   21180249.5474
        46.400          43.0004
 117031575.852 7  91024580.254 6  21862471.752    21862471.511    21862475.817
        45.000          39.000
 136051359.662 5                  25889715.021
        30.700
 134102776.561 6                  25518873.736
        38.900
 119978269.754 4  93316467.078 5  22475968.704    22475967.871    22475978.207
        28.900          34.000
 200875418.782 5                  38225331.397
        34.000
 103904141.338 8  80814381.205 7  19416978.945    19416978.735    19416983.267
        50.400          47.100
 102327775.061 8  79588300.145 7  19176176.736    19176177.022    19176182.144
        51.500          47.200
 198899684.110 7                  37849354.332
        42.900
 111068253.819 7  86546707.22445  21135589.325    21135588.9774   21135588.8274
        46.900          32.0004
 202034926.938 7                  38445978.774
        44.600
 132590631.928 6                  25231144.239
        40.100
 125644790.265 7                  23909403.294
        43.800


 123141486.587 8                  23433029.874
        50.300
 108974792.865 8  84758179.440 6  20378836.359    20378836.131    20378841.683
        48.800          41.300
 25  1  1  7  3 30.0000000  0 23G18R01G23G15G26G10E03G05G29R03E15E26
                                S35R17R02S31G13S33E07E08E21E13R24
 110897144.612 6  86413381.12044  21103022.866    21103022.3934   21103024.6194
        37.700          25.9004
 111190322.212 6  86481389.627 6  20800446.599    20800443.930    20800455.670
        39.200          41.700
 115211264.914 6  89775009.22242  21923977.540    21923977.3214   21923969.9914
        37.700          15.6004
 104860570.880 7  81709524.18247  19954284.011    19954283.6764   19954283.9094
        44.700          42.1004
 134267005.233 5 104623625.65841  25550160.656    25550161.1524   25550159.5374
        32.100           6.1004




 117617526.961 7  91650022.17842  22381875.508    22381875.4824   22381865.8284
        42.100          17.5004
 111337084.800 7  86756131.97947  21186744.437    21186743.9324   21186743.7614
        47.900          43.6004
 116977018.663 6  90982146.930 6  21852277.864    21852276.775    21852284.372
        39.600          39.300
 136078139.456 5                  25894811.493
        35.500
 134072992.081 6                  25513205.155
        39.400
 200875425.945 5                  38225328.495
        34.400
 103880120.918 8  80795698.669 7  19412489.354    19412488.256    19412493.936
        48.400          46.600
 102321880.851 8  79583715.758 7  19175072.735    19175072.572    19175077.028
        51.800          47.000
 198899680.716 7                  37849355.852
        43.300
 111087122.638 7  86561410.18344  21139180.115    21139179.8164   21139179.9794
        43.700          29.8004
 202034901.029 7                  38445971.749
        44.600
 132550479.773 6                  25223503.138
        40.100
 125641103.071 7                  23908701.451
        42.700


 123139436.441 8                  23432639.667
        50.400
 109009091.734 8  84784856.312 6  20385249.890    20385249.838    20385255.502
        48.800          38.500
 25  1  1  7  3 45.0000000  0 24G18R01G23G15G26G10E03G05G29R03E15E26
                                R18S35R17R02S31G13S33E07E08E21E13R24
 110870629.186 7  86392719.74644  21097978.001    21097977.5544   21097977.1364
        43.800          28.9004
 111238432.988 7  86518809.070 7  20809447.719    20809448.382    20809456.509
        45.300          42.500
 115181752.959 7  89752012.95343  21918363.097    21918362.9014   21918354.8054
        42.100          18.8004
 104850971.164 7  81702043.89147  19952457.609    19952457.2924   19952456.7604
        46.900          42.2004
 134294251.169 5 104644856.26141  25555349.360    25555349.8334   25555347.0754
        30.600           9.6004
 133924352.565 5 104356680.5344   25484960.327    25484960.7874   25484974.5574
        34.900           5.6004


 117656730.187 7  91680570.09243  22389335.208    22389335.2164   22389329.9414
        44.400          21.0004
 111371334.625 8  86782820.16547  21193262.102    21193261.6244   21193261.1644
        48.500          43.9004
 116922548.053 6  90939780.870 6  21842102.037    21842103.888    21842108.707
        36.300          40.700
 136104952.478 5                  25899914.659
        35.600
 134043211.641 6                  25507538.878
        41.200
 119866337.159 6  93229283.399 6  22454982.745                    22454984.292
        37.400          41.400
 200875428.481 6                  38225334.425
        36.600
 103856223.741 7  80777111.997 7  19408023.676    19408021.610    19408028.708
        47.300          46.900
 102316158.087 8  79579264.724 7  19174000.461    19174000.192    19174005.050
        52.100          47.200
 198899672.665 7                  37849351.921
        42.300
 111106140.553 6  86576229.34644  21142799.212    21142798.9044   21142799.2974
        37.400          26.3004
 202034869.644 7                  38445961.943
        43.800
 132510377.729 5                  25215871.910
        32.600
 125637518.538 7                  23908019.747
        42.100


 123137426.871 8                  23432257.031
        49.900
 109043515.721 7  84811630.474 6  20391686.640    20391686.998    20391693.364
        47.800          37.200
 25  1  1  7  4  0.0000000  0 25G18R01G23G15G26G16G10E03G05G29R03E15
                                E26R18S35R17R02S31G13S33E07E08E21E13
                                R24
 110844174.025 8  86372105.38945  21092943.477    21092943.0574   21092941.5214
        48.100          31.8004
 111286630.565 7  86556296.088 6  20818465.152    20818465.727    20818471.891
        45.800          41.800
 115152296.740 7  89729060.10844  21912755.449    21912755.2714   21912754.2994
        43.000          24.1004
 104841528.445 7  81694685.91647  19950659.998    19950659.6814   19950659.9904
        47.700          43.7004
 134321557.986 4 104666134.30141  25560539.617    25560540.3814   25560544.5544
        28.000           9.0004
 131105713.200 6                  24948586.104
        36.000
 133884073.292 5 104325294.1954   25477295.457    25477296.2574   25477313.7424
        30.000           4.0004
 139344311.895 6                  26516341.631
        36.300
 117695959.106 7  91711138.04943  22396799.580    22396799.5884   22396797.8504
        43.400          23.9004
 111405705.168 8  86809602.38447  21199802.639    21199802.1614   21199802.6204
        48.000          44.2004
 116868167.724 5  90897485.066 6  21831945.823    21831939.782    21831950.066
        31.600          40.400
 136131802.042 6                  25905023.015
        37.000
 134013438.724 6                  25501873.653
        41.600
 119810311.415 7  93185707.696 7  22444488.520    22444487.764    22444490.034
        43.000          43.300
 200875430.887 6                  38225328.437
        37.800
 103832453.753 8  80758624.204 7  19403583.024    19403581.459    19403586.809
        49.200          46.700
 102310609.928 8  79574949.502 8  19172961.216    19172961.273    19172964.884
        52.800          48.100
 198899664.058 6                  37849350.526
        41.700
 111125310.660 6  86591167.07444  21146447.278    21146446.9794   21146447.2284
        37.000          26.0004
 202034838.258 7                  38445962.873
        44.200
 132470329.213 5                  25208252.272
        35.100
 125634040.038 7                  23907358.465
        43.500


 123135461.356 8                  23431882.964
        49.000
 109078067.977 7  84838504.259 5  20398147.899    20398148.577    20398149.729
        47.700          33.200
 25  1  1  7  4 15.0000000  0 25G18R01G23G15G26G16G10E03G05G29R03E15
                                E26R18S35R17R02S31G13S33E07E08E21E13
                                R24
 110817783.781 8  86351541.61745  21087921.990    21087921.5934   21087919.4784
        49.400          34.9004
 111334919.377 7  86593854.028 6  20827499.246    20827499.585    20827504.385
        47.300          40.800
 115122900.779 7  89706154.21144  21907161.216    21907161.0384   21907163.9934
        44.200          26.6004
 104832247.213 8  81687453.77547  19948894.563    19948894.2734   19948894.6654
        48.900          45.6004
 134348929.782 5 104687463.0054   25565759.007    25565759.8704   25565753.5834
        31.600           5.4004
 131113982.691 5                  24950159.065
        30.500
 133843820.390 5 104293928.14941  25469623.992    25469624.9224   25469652.2924
        30.800           9.7004
 139377596.420 5                  26522675.147
        34.800
 117735218.143 6  91741729.42844  22404271.694    22404271.7254   22404270.7054
        40.600          26.1004
 111440200.757 7  86836482.10147  21206368.039    21206367.5834   21206368.5194
        46.600          44.3004
 116813882.544 6  90855263.245 7  21821804.512    21821801.840    21821810.228
        39.400          42.200
 136158692.840 6                  25910139.568
        37.800
 133983677.925 6                  25496209.975
        41.500
 119754306.042 7  93142147.913 7  22433992.954    22433995.947    22433997.953
        43.600          44.200
 200875436.743 5                  38225331.473
        35.600
 103808815.892 8  80740239.140 7  19399165.843    19399166.005    19399169.181
        51.600          46.300
 102305240.783 8  79570773.497 8  19171954.145    19171954.805    19171959.059
        51.800          48.700
 198899659.679 7                  37849351.157
        42.600
 111144637.254 6  86606226.76944  21150126.685    21150126.4174   21150125.0934
        41.500          27.6004
 202034810.743 7                  38445953.425
        43.400
 132430338.928 6                  25200642.215
        36.400
 125630672.049 7                  23906718.086
        44.200


 123133544.458 8                  23431518.327
        49.300
 109112753.130 7  84865481.448 5  20404634.788    20404634.460    20404636.842
        45.800          33.300
 25  1  1  7  4 30.0000000  0 25G18R01G23G15G26G16G10E03G05G29R03E15
                                E26R18S35R17R02S31G13S33E07E08E21E13
                                R24
 110791454.686 8  86331025.46146  21082912.466    21082912.1044   21082910.6794
        49.700          37.2004
 111383294.769 7  86631479.370 6  20836549.248    20836549.018    20836554.658
        47.100          40.300
 115093561.094 6  89683292.13544  21901577.802    21901577.6064   21901582.1424
        41.700          26.5004
 104823123.770 8  81680344.59547  19947158.272    19947157.9914   19947158.9204
        49.600          46.4004
 134376362.148 5 104708839.1404   25570982.014    25570982.7924   25570974.9674
        31.700           4.7004
 131122378.717 5                  24951762.403
        33.500
 133803589.869 5 104262579.63541  25461971.315    25461972.3614   25461996.2434
        30.600          11.7004
 139410944.569 5                  26529021.168
        34.400
 117774502.755 6  91772340.81844  22411746.935    22411746.9704   22411747.9784
        40.700          25.7004
 111474816.954 7  86863455.78347  21212954.902    21212954.4604   21212955.9834
        47.100          43.9004
 116759689.294 7  90813112.924 6  21811681.838    21811680.121    21811685.907
        44.300          41.600
 136185620.734 6                  25915263.465
        38.000
 133953925.197 6                  25490547.946
        41.700
 119698317.440 7  93098601.263 7  22423510.398    22423513.659    22423508.175
        44.500          44.100
 200875442.122 5                  38225336.155
        35.700
 103785306.208 8  80721953.834 7  19394771.413    19394771.678    19394776.554
        50.700          46.900
 102300046.476 8  79566733.483 8  19170980.961    19170981.015    19170985.413
        50.900          49.100
 198899654.734 6                  37849353.670
        41.700
 111164116.199 7  86621405.16345  21153831.879    21153831.5984   21153831.8814
        44.600          30.2004
 202034782.640 7                  38445952.584
        43.100
 132390403.147 6                  25193040.590
        36.700
 125627410.544 7                  23906097.221
        45.500


 123131672.268 8                  23431162.004
        49.100
 109147566.921 7  84892558.896 5  20411144.814    20411145.760    20411151.509
        47.300          35.900
 25  1  1  7  4 45.0000000  0 25G18R01G23G15G26G16G10E03G05G29R03E15
                                E26R18S35R17R02S31G13S33E07E08E21E13
                                R24
 110765185.625 8  86310556.07246  21077913.793    21077913.4404   21077913.3954
        49.700          38.1004
 111431755.159 8  86669170.723 6  20845615.295    20845616.288    20845619.934
        48.700          39.300
 115064276.340 6  89660472.85243  21896004.400    21896004.0964   21896009.8484
        37.600          21.1004
 104814156.807 8  81673357.34547  19945452.360    19945452.0794   19945451.5924
        48.200          46.5004
 134403853.690 4 104730260.9594   25576222.610    25576223.2364   25576206.9044
        26.500           2.0004
 131130899.545 4                  24953376.599
        29.100
 133763380.412 5 104231247.53241  25454322.090    25454323.0464   25454344.0234
        34.000           8.9004
 139444354.914 5                  26535380.285
        32.000
 117813811.764 6  91802971.19344  22419227.182    22419227.1654   22419230.0184
        41.300          24.8004
 111509552.109 7  86890522.11247  21219564.721    21219564.2884   21219565.0954
        47.600          43.6004
 116705586.538 7  90771033.041 6  21801573.820    21801573.879    21801578.860
        46.500          40.300
 136212584.487 6                  25920393.222
        36.900
 133924179.351 7                  25484888.223
        43.300
 119642344.292 6  93055066.535 7  22413018.093    22413020.487    22413022.349
        41.200          44.200
 200875447.152 5                  38225333.231
        33.600
 103761923.838 8  80703767.523 7  19390401.238    19390400.860    19390407.050
        48.300          46.800
 102295025.784 8  79562828.483 8  19170039.490    19170039.917    19170044.861
        50.800          49.800
 198899648.409 7                  37849349.847
        42.100
 111183745.707 7  86636700.87345  21157567.169    21157566.8924   21157567.6534
        45.100          31.5004
 202034752.363 7                  38445941.271
        43.500
 132350520.774 6                  25185451.432
        36.200
 125624254.169 7                  23905496.551
        46.200


 123129843.589 8                  23430814.075
        48.500
 109182507.665 7  84919734.983 6  20417678.952    20417679.713    20417685.448
        47.400          38.200
 25  1  1  7  5  0.0000000  0 25G18R01G23G15G26G16G10E03G05G29R03E15
                                E26R18S35R17R02S31G13S33E07E08E21E13
                                R24
 110738977.321 8  86290134.00846  21072926.200    21072925.8564   21072927.1474
        48.500          38.4004
 111480300.372 7  86706928.120 6  20854696.428    20854697.326    20854700.785
        47.800          38.300
 115035046.990 6  89637696.70943  21890441.788    21890441.5604   21890446.8724
        38.200          19.9004
 104805346.652 8  81666492.30647  19943775.798    19943775.4994   19943774.7744
        48.300          46.7004


 131139545.490 4                  24955026.410
        28.200
 133723192.522 6 104199932.32641  25446675.790    25446676.6934   25446695.1694
        36.600          10.4004
 139477827.530 4                  26541746.698
        28.700
 117853145.460 6  91833620.82943  22426709.666    22426709.5644   22426717.7104
        36.700          20.3004
 111544406.565 7  86917681.39547  21226196.877    21226196.4444   21226196.2704
        46.300          42.7004
 116651574.817 7  90729023.934 6  21791485.869    21791484.378    21791488.429
        46.800          39.300
 136239584.569 6                  25925531.897
        37.500
 133894441.037 7                  25479228.227
        43.300
 119586387.568 6  93011544.712 7  22402550.717                    22402539.390
        39.800          43.300
 200875450.400 5                  38225342.201
        32.500
 103738669.700 7  80685680.943 7  19386054.280    19386054.841    19386061.514
        47.200          46.800
 102290178.884 8  79559058.665 8  19169131.963    19169132.107    19169136.527
        51.400          49.500
 198899640.915 6                  37849346.359
        41.800
 111203526.426 7  86652114.40745  21161330.264    21161329.9434   21161332.3304
        45.800          32.3004
 202034721.662 7                  38445940.935
        44.400
 132310692.451 6                  25177872.785
        37.400
 125621203.442 7                  23904916.413
        45.900


 123128058.995 7                  23430474.441
        47.200
 109217576.104 7  84947010.418 6  20424236.447    20424238.174    20424244.174
        46.500          40.300
 25  1  1  7  5 15.0000000  0 24G18R01G23G15G16G10E03G05G29R03E15E26
                                R18S35R17R02S31G13S33E07E08E21E13R24
 110712830.307 8  86269759.67846  21067950.539    21067950.1824   21067951.7114
        48.500          37.1004
 111528930.411 7  86744751.438 6  20863793.813    20863793.630    20863798.779
        45.700          38.600
 115005873.319 6  89614964.00243  21884892.335    21884892.2514   21884893.0324
        38.100          19.0004
 104796693.656 8  81659749.72547  19942128.470    19942128.1754   19942128.4524
        49.100          47.4004
 131148316.872 5                  24956697.796
        30.100
 133683026.708 6 104168634.41542  25439033.829    25439034.7004   25439049.0704
        36.100          15.7004
 139511362.700 4                  26548129.224
        28.100
 117892503.881 5  91864289.78242  22434201.200    22434201.0624   22434209.2564
        34.800          17.6004
 111579380.179 7  86944933.51147  21232852.163    21232851.6944   21232851.2614
        47.500          42.6004
 116597655.183 8  90687086.515 6  21781413.073    21781412.670    21781416.094
        48.300          39.000
 136266621.371 6                  25930677.334
        36.000
 133864710.619 7                  25473571.209
        42.800
                  92968036.360 7                                  22392061.556
                        44.300
 200875453.123 6                  38225338.780
        37.600
 103715544.530 7  80667694.718 7  19381733.279    19381732.870    19381739.574
        46.300          46.100
 102285506.227 8  79555424.371 8  19168256.327    19168256.313    19168260.572
        51.800          48.700
 198899632.988 6                  37849345.648
        41.500
 111223458.461 7  86667645.86045  21165124.408    21165124.0604   21165125.1114
        46.300          33.2004
 202034690.889 7                  38445929.685
        44.000
 132270918.710 6                  25170305.495
        39.800
 125618258.693 7                  23904356.527
        46.600


 123126318.944 7                  23430143.337
        47.200
 109252772.383 7  84974385.272 6  20430815.777    20430816.937    20430826.773
        42.500          41.100
 25  1  1  7  5 30.0000000  0 24G18R01G23G15G16G10E03G05G29R03E15E26
                                R18S35R17R02S31G13S33E07E08E21E13R24
 110686750.902 8  86249438.04546  21062987.657    21062987.2954   21062988.8004
        48.900          36.9004
 111577650.852 7  86782645.111 6  20872907.267    20872906.685    20872912.876
        44.000          38.500
 114976761.679 6  89592279.54243  21879353.451    21879353.4254   21879351.2704
        41.200          22.2004
 104788203.926 7  81653134.35247  19940512.573    19940512.2744   19940513.1954
        47.000          46.8004
 131157219.627 5                  24958388.694
        31.300
 133642889.110 4 104137358.34642  25431391.393    25431392.1444   25431407.7834
        29.300          14.2004
 139544966.363 4                  26554518.418
        25.800
 117931893.430 5  91894983.02242  22441697.573    22441697.5424   22441706.6384
        33.700          16.5004
 111614478.816 7  86972283.03346  21239530.834    21239530.3564   21239531.0604
        46.600          41.7004
 116543834.068 7  90645225.706 5  21771354.092    21771355.208    21771359.679
        44.500          34.400
 136293701.048 6                  25935831.521
        38.000
 133834994.347 7                  25467916.394
        42.100
 119474532.661 4  92924546.439 7  22381575.675    22381573.729    22381586.333
        29.500          43.000
 200875461.222 6                  38225345.223
        37.000
 103692554.918 7  80649813.876 7  19377438.514    19377438.798    19377442.958
        47.200          45.500
 102281013.834 8  79551930.301 8  19167414.217    19167414.709    19167418.373
        52.600          48.200
 198899630.258 6                  37849352.284
        41.500
 111243547.623 7  86683299.76245  21168948.839    21168948.4504   21168947.6644
        47.700          34.8004
 202034665.276 7                  38445925.428
        43.800
 132231205.802 6                  25162747.318
        40.200
 125615425.948 7                  23903816.866
        46.300
 147137477.481 5                  27999330.994
        33.600
 123124629.653 7                  23429821.148
        45.200
 109288102.512 7  85001864.254 6  20437426.077    20437426.210    20437433.238
        45.000          41.500
 25  1  1  7  5 45.0000000  0 24G18R01G23G15G26G10E03G05G29R03E15E26
                                R18S35R17R02S31G13S33E07E08E21E13R24
 110660728.201 7  86229160.64546  21058035.211    21058034.8674   21058036.7914
        47.900          37.3004
 111626449.851 7  86820599.919 6  20882036.042    20882035.552    20882042.114
        44.600          37.500
 114947700.690 6  89569634.52243  21873826.311    21873826.2764   21873820.5124
        41.700          23.9004
 104779866.526 7  81646637.69847  19938927.282    19938926.9874   19938926.6904
        46.200          47.3004


 133602768.439 5 104106095.57541  25423758.702    25423759.4844   25423771.7454
        32.100           8.7004
 139578627.094 4                  26560924.028
        26.600
 117971302.455 6  91925691.33142  22449196.626    22449196.6434   22449207.3554
        38.000          13.8004
 111649691.376 7  86999721.34947  21246231.861    21246231.3834   21246232.1354
        47.900          42.5004
 116490100.281 7  90603432.825 6  21761319.368    21761317.086    21761324.737
        43.200          36.900
 136320812.421 6                  25940990.030
        40.100
 133805281.047 6                  25462262.800
        40.300
 119418629.863 5  92881066.481 7  22371104.370    22371103.206    22371112.885
        34.800          42.100
 200875463.900 6                  38225335.234
        40.000
 103669689.911 7  80632029.999 7  19373165.832    19373165.536    19373170.667
        47.600          45.800
 102276689.982 8  79548567.345 8  19166603.473    19166603.234    19166608.786
        51.300          48.600
 198899621.914 6                  37849345.625
        41.300
 111263782.710 8  86699067.37745  21172798.477    21172798.0934   21172797.3024
        49.200          34.7004
 202034633.437 7                  38445920.053
        43.600
 132191542.767 6                  25155200.040
        39.900
 125612694.090 7                  23903296.176
        44.600
 147174752.550 5                  28006421.366
        33.900
 123122980.053 7                  23429507.092
        45.700
 109323555.212 7  85029438.492 7  20444056.978    20444056.499    20444063.840
        46.800          42.900
 25  1  1  7  6  0.0000000  0 24G18R01G23G15G26G10E03G05G29R03E15E26
                                R18S35R17R02S31G13S33E07E08E21E13R24
 110634769.824 7  86208933.34345  21053095.130    21053094.7954   21053096.0114
        47.300          33.8004
 111675334.669 7  86858621.407 6  20891181.400    20891181.612    20891184.597
        45.500          37.800


 104771688.916 7  81640265.53847  19937370.974    19937370.6754   19937370.5654
        46.400          46.3004






 118010738.277 5  91956420.87441  22456702.345    22456702.3854   22456714.1184
        31.000           6.6004
 111685024.913 7  87027253.97346  21252955.947    21252955.4474   21252955.6714
        45.700          40.7004
 116436461.739 6  90561713.995 5  21751298.577    21751295.344    21751302.400
        41.800          35.600
 136347962.988 7                  25946157.935
        42.000
 133775578.351 7                  25456610.264
        44.800
 119362580.764 6  92837602.510 6  22360639.884    22360640.119    22360641.615
        40.200          39.200
 200875467.548 6                  38225327.918
        41.100
 103646957.417 8  80614349.178 7  19368917.375    19368917.987    19368923.354
        48.700          46.500
 102272542.513 8  79545341.516 7  19165826.263    19165826.209    19165830.849
        51.700          47.400
 198899615.272 6                  37849345.455
        41.000
 111284170.782 8  86714954.18045  21176677.750    21176677.3574   21176676.5644
        49.100          35.6004
 202034602.836 7                  38445910.381
        42.700
 132151937.352 7                  25147663.427
        42.700
 125610070.526 7                  23902797.257
        44.000
 147212035.269 6                  28013520.043
        36.800
 123121377.637 6                  23429201.961
        41.100
 109359137.706 7  85057113.773 7  20450710.650    20450710.310    20450717.257
        45.100          43.700
 25  1  1  7  6 15.0000000  0 22G18R01G23G15G10E03G29R03E15E26R18S35
                                R17R02S31G13S33E07E08E21E13R24
 110608877.211 7  86188757.30845  21048168.500    21048168.1614   21048166.8874
        45.200          30.7004
 111724306.108 7  86896710.287 6  20900343.076    20900342.661    20900347.354
        45.900          38.900


 104763672.195 7  81634018.75047  19935844.771    19935844.4724   19935844.6694
        46.400          45.4004
 133522664.125 5                  25408521.540
        31.800


 111720480.445 8  87054881.69746  21259702.896    21259702.3914   21259702.0534
        48.100          40.2004
 116382920.209 7  90520070.555 6  21741296.761    21741295.450    21741304.652
        44.100          39.000
 136375154.004 7                  25951332.365
        43.800
 133745887.533 7                  25450960.579
        46.000
 119306720.966 6  92794156.076 6  22350176.474    22350175.901    22350179.695
        40.400          40.000
 200875474.971 6                  38225330.566
        38.600
 103624358.998 8  80596772.607 7  19364692.877    19364693.547    19364700.269
        48.700          46.000
 102268572.391 8  79542253.666 7  19165082.636    19165082.427    19165086.891
        51.900          47.500
 198899611.292 7                  37849342.075
        42.600
 111304712.888 7  86730961.00246  21180586.859    21180586.4754   21180585.8224
        47.800          36.1004
 202034575.795 7                  38445909.500
        43.800
 132112390.920 7                  25140137.656
        42.400
 125607556.505 7                  23902318.566
        44.100
 147249326.717 5                  28020613.846
        33.200
 123119823.818 6                  23428906.796
        41.600
 109394851.339 7  85084891.006 7  20457388.074    20457388.982    20457397.168
        44.900          44.200
 25  1  1  7  6 30.0000000  0 23G18R01G23G15G26G10E03G29R03E15E26R18
                                S35R17R02S31G13S33E07E08E21E13R24
 110583047.964 7  86168630.66145  21043254.006    21043253.6674   21043251.5014
        45.200          30.6004
 111773360.952 7  86934864.059 6  20909519.785    20909519.437    20909525.194
        47.600          40.800


 104755813.918 7  81627895.41047  19934349.416    19934349.1264   19934348.9294
        47.800          46.2004


 133482616.613 5                  25400900.745
        30.300


 111756054.969 8  87082602.10546  21266472.291    21266471.8134   21266470.7084
        49.100          40.5004
 116329473.034 7  90478500.525 5  21731311.327    21731311.752    21731316.881
        45.500          34.300
 136402382.861 7                  25956514.225
        43.000
 133716206.125 7                  25445312.699
        44.700
 119250880.830 7  92750724.846 6  22339715.877    22339716.413    22339717.471
        43.900          36.200
 200875482.113 6                  38225344.311
        39.500
 103601892.300 7  80579298.518 7  19360494.909    19360495.377    19360501.478
        47.600          44.600
 102264776.868 8  79539301.606 8  19164371.006    19164371.282    19164376.172
        51.700          48.400
 198899608.354 7                  37849343.354
        42.600
 111325406.234 7  86747085.66145  21184525.187    21184524.8254   21184524.1994
        47.100          35.4004
 202034549.252 7                  38445904.621
        43.700
 132072900.961 7                  25132623.084
        42.600
 125605149.302 7                  23901860.230
        44.800
 147286623.928 4                  28027711.704
        27.100
 123118316.037 7                  23428619.994
        42.300
 109430693.093 6  85112767.916 7  20464089.277    20464089.753    20464098.928
        41.000          43.000
 25  1  1  7  6 45.0000000  0 25G18R01G23G15G26G16G10E03G05G29R03E15
                                E26R18S35R17R02S31G13S33E07E08E21E13
                                R24
 110557276.423 7  86148548.93945  21038349.057    21038348.7044   21038348.1664
        45.500          31.6004
 111822492.685 7  86973077.578 6  20918710.841    20918710.039    20918717.401
        47.800          41.700


 104748108.235 8  81621890.98647  19932882.404    19932882.1414   19932882.7334
        48.100          46.6004


 131203603.013 5 102236590.95741  24967216.454    24967216.2944   24967217.8244
        35.000           8.2004
 133442586.729 5                  25393272.272
        30.400


 118129199.181 6  92048772.18842  22479241.539    22479241.9724   22479249.7594
        37.900          13.2004
 111791742.300 7  87110410.41046  21273263.637    21273263.1504   21273261.3904
        47.500          40.0004
 116276114.758 8  90436999.649 6  21721344.651    21721345.547    21721349.992
        48.300          38.200
 136429643.757 7                  25961701.734
        42.700
 133686528.353 7                  25439664.779
        42.600
 119195055.212 7  92707304.955 6  22329258.047    22329258.952    22329260.631
        45.600          37.200
 200875483.955 6                  38225344.879
        38.600
 103579552.049 8  80561922.742 7  19356321.910    19356322.021    19356327.196
        50.000          44.400
 102261149.737 8  79536480.500 8  19163691.384    19163690.639    19163696.740
        50.800          48.300
 198899599.031 7                  37849344.615
        43.100
 111346244.689 8  86763323.41445  21188489.982    21188489.6074   21188490.1584
        48.000          34.9004
 202034516.185 7                  38445901.245
        44.300
 132033462.010 6                  25125118.506
        41.800
 125602843.138 7                  23901421.466
        44.200


 123116848.575 7                  23428341.356
        43.600
 109466657.200 7  85140739.984 6  20470816.915    20470818.172    20470823.613
        44.600          41.800
 25  1  1  7  7  0.0000000  0 25G18R01G23G15G26G16G10E03G05G29R03E15
                                E26R18S35R17R02S31G13S33E07E08E21E13
                                R24
 110531571.882 7  86128519.44945  21033457.341    21033456.9754   21033457.3554
        45.900          32.5004
 111871710.294 8  87011357.911 7  20927918.643    20927917.981    20927925.254
        48.900          42.000


 104740564.201 7  81616012.53447  19931447.539    19931447.2624   19931447.8754
        44.800          46.0004


 131213254.941 5 102244111.7354   24969052.271    24969051.9904   24969054.7894
        33.800           3.0004
 133402583.156 5 103950149.66441  25385661.657    25385661.5684   25385684.0564
        34.200           6.5004
 139747866.455 6                  26593133.975
        36.100
 118168735.582 6  92079579.59142  22486764.301    22486764.9624   22486768.8014
        37.000          13.1004
 111827550.991 7  87138313.24246  21280078.031    21280077.5084   21280076.2104
        46.000          40.3004
 116222854.726 7  90395575.251 6  21711394.561    21711394.265    21711401.553
        46.100          38.600
 136456945.742 6                  25966896.401
        41.000
 133656863.284 6                  25434019.382
        36.400
 119139253.538 6  92663903.690 6  22318803.415    22318803.323    22318805.351
        41.600          37.000
 200875489.416 5                  38225342.031
        35.500
 103557347.525 8  80544652.610 7  19352171.437    19352172.167    19352176.305
        49.700          42.400
 102257700.379 8  79533797.664 8  19163045.780    19163046.023    19163050.152
        52.000          48.000
 198899593.473 7                  37849342.334
        43.500
 111367237.015 8  86779681.06945  21192484.823    21192484.4484   21192485.3204
        48.600          35.2004
 202034487.083 7                  38445894.743
        44.400
 131994083.205 7                  25117625.046
        43.300
 125600646.981 7                  23901003.949
        44.500


 123115430.541 7                  23428071.134
        45.100
 109502752.579 7  85168814.181 6  20477567.346    20477567.872    20477570.996
        44.700          36.400
 25  1  1  7  7 15.0000000  0 25G18R01G23G15G26G16G10E03G05G29R03E15
                                E26R18S35R17R02S31G13S33E07E08E21E13
                                R24
 110505928.993 7  86108537.95945  21028577.411    21028577.0634   21028578.2524
        44.200          33.5004
 111921007.573 8  87049700.241 7  20937139.978    20937140.028    20937147.028
        49.300          42.500
 114774567.881 6  89434734.46343  21840869.697    21840869.3314   21840870.7264
        37.800          21.5004
 104733176.303 7  81610255.73247  19930042.448    19930042.1534   19930042.5564
        45.400          45.2004


 131223029.457 5                  24970912.109
        33.800
 133362600.503 6 103918994.13842  25378046.572    25378046.5804   25378067.8544
        37.600          15.0004
 139781900.766 5                  26599608.438
        33.600
 118208294.382 5  92110404.51541  22494293.490    22494294.3484   22494293.3084
        35.300          11.6004
 111863475.359 8  87166306.20047  21286913.847    21286913.3114   21286913.1424
        48.100          42.7004
 116169687.916 8  90354223.300 6  21701464.007    21701463.108    21701470.186
        48.100          39.600
 136484283.343 6                  25972098.319
        38.300
 133627205.534 4                  25428373.101
        26.400
 119083470.537 6  92620516.977 5  22308351.986    22308351.907    22308353.587
        39.600          35.400
 200875493.058 6                  38225342.643
        38.100
 103535273.585 8  80527484.026 7  19348045.747    19348046.488    19348051.041
        48.700          42.200
 102254422.538 8  79531248.228 7  19162431.164    19162431.631    19162435.801
        52.700          47.900
 198899586.188 7                  37849334.133
        42.500
 111388377.609 8  86796154.26745  21196507.472    21196507.0974   21196508.0324
        49.600          34.4004
 202034456.436 7                  38445882.903
        43.800
 131954759.124 7                  25110141.906
        43.100
 125598555.312 7                  23900606.401
        46.100


 123114056.567 7                  23427809.666
        44.300
 109538973.460 8  85196985.910 5  20484342.646    20484343.319    20484343.202
        49.300          34.900
 25  1  1  7  7 30.0000000  0 25G18R01G23G15G26G16G10E03G05G29R03E15
                                E26R18S35R17R02S31G13S33E07E08E21E13
                                R24
 110480355.246 7  86088610.34445  21023711.105    21023710.7884   21023711.3604
        42.200          32.1004
 111970391.454 8  87088109.891 7  20946378.532    20946378.552    20946385.351
        48.900          42.800
 114745907.954 6  89412402.10443  21835415.900    21835415.5204   21835414.1844
        41.300          23.3004
 104725951.804 8  81604626.26747  19928667.129    19928666.8254   19928667.4604
        48.400          46.5004


 131232933.745 5                  24972796.604
        33.500
 133322645.898 5 103887860.72242  25370442.585    25370442.5894   25370460.2514
        35.900          16.7004
 139816001.575 5                  26606099.583
        31.200
 118247882.782 5  92141252.61442  22501826.849    22501827.6094   22501826.4634
        34.700          12.5004
 111899522.723 8  87194395.02947  21293773.168    21293772.6324   21293772.9204
        48.700          43.7004
 116116621.690 7  90312949.549 6  21691549.193    21691549.704    21691555.396
        47.500          38.900
 136511663.726 5                  25977308.197
        35.900
 133597562.393 4                  25422729.806
        26.400
 119027713.819 7  92577150.685 6  22297909.006    22297909.327    22297910.461
        42.500          39.100
 200875501.446 5                  38225363.088
        34.100
 103513337.910 8  80510422.965 7  19343947.388    19343947.830    19343951.771
        49.700          42.800
 102251323.924 8  79528838.210 7  19161850.625    19161851.045    19161854.830
        52.600          47.700
 198899583.836 7                  37849335.698
        42.300
 111409673.632 8  86812748.56045  21200560.182    21200559.8024   21200560.1854
        49.200          33.6004
 202034430.548 7                  38445880.716
        44.300
 131915497.283 7                  25102669.896
        43.500
 125596575.300 7                  23900229.375
        46.500


 123112733.906 7                  23427557.540
        43.500
 109575327.141 8  85225260.887 6  20491140.492    20491142.104    20491141.915
        49.600          37.400
 25  1  1  7  7 45.0000000  0 24G18R01G23G15G26G16G10E03G29R03E15E26
                                R18S35R17R02S31G13S33E07E08E21E13R24
 110454839.584 6  86068728.00245  21018855.151    21018854.8564   21018855.3754
        40.500          31.5004
 112019850.011 8  87126577.661 7  20955630.822    20955630.987    20955636.727
        48.700          42.000
 114717298.401 7  89390108.99244  21829971.688    21829971.1524   21829969.3224
        42.100          24.6004
 104718879.555 8  81599115.43448  19927321.015    19927320.7344   19927320.7824
        49.400          48.1004


 131242956.248 5 102267243.17941  24974704.204    24974703.5834   24974705.1364
        34.300           9.5004
 133282708.246 4 103856740.45041  25362841.390    25362841.5954   25362855.0284
        27.700          11.4004
 139850157.651 5                  26612598.520
        33.700
 111935681.365 7  87222570.57747  21300653.455    21300652.9414   21300653.6914
        47.800          44.6004
 116063645.128 8  90271745.541 6  21681654.062    21681654.505    21681660.787
        48.600          40.600
 136539075.789 4                  25982525.698
        29.700
 133567922.625 6                  25417093.618
        38.400
 118971972.530 7  92533796.355 7  22287464.030    22287464.551    22287469.973
        42.200          42.700
 200875503.999 5                  38225353.827
        34.600
 103491529.519 8  80493460.931 7  19339871.987    19339872.737    19339877.376
        49.600          45.000
 102248392.993 8  79526558.598 8  19161301.655    19161301.849    19161306.166
        52.800          48.200
 198899575.643 7                  37849332.814
        42.100
 111431113.227 8  86829454.72745  21204640.178    21204639.7764   21204640.2414
        48.200          33.4004
 202034398.635 7                  38445876.727
        44.300
 131876286.569 7                  25095208.914
        43.200
 125594695.747 7                  23899871.552
        45.800


 123111451.550 7                  23427313.194
        42.700
 109611801.903 7  85253630.107 6  20497960.603    20497961.284    20497966.724
        47.200          39.900
 25  1  1  7  8  0.0000000  0 25G18R01G23G15G16G24G10E03G05G29R03E15
                                E26R18S35R17R02S31G13S33E07E08E21E13
                                R24
 110429391.810 7  86048898.58745  21014012.333    21014012.0474   21014012.8364
        43.200          33.2004
 112069392.414 7  87165110.675 6  20964898.151    20964898.273    20964904.460
        47.600          41.600
 114688748.789 7  89367862.56844  21824538.993    21824538.4614   21824537.7094
        43.500          25.4004
 104711968.990 8  81593730.59048  19926006.262    19926005.9904   19926005.0474
        49.800          48.3004
 131253106.485 5 102275152.34241  24976635.426    24976634.8814   24976637.3114
        34.200          10.9004
 131222578.068 5                  24970826.252
        32.700


 139884378.187 5                  26619109.783
        30.400
 118327123.067 5  92202998.22641  22516908.056    22516908.2164   22516905.9774
        31.100           9.0004
 111971960.469 7  87250839.99147  21307557.854    21307557.3494   21307558.1004
        47.400          45.6004
 116010767.955 8  90230618.830 7  21671777.000    21671777.880    21671783.572
        49.600          42.600
 136566529.083 5                  25987750.173
        33.900
 133538295.998 6                  25411455.189
        41.500
 118916256.426 7  92490461.594 7  22277026.009    22277026.729    22277033.104
        42.500          44.200
 200875510.541 5                  38225356.358
        35.200
 103469858.305 8  80476605.511 7  19335821.806    19335822.860    19335827.432
        48.300          46.100
 102245638.846 8  79524416.483 8  19160785.142    19160785.703    19160790.186
        52.500          48.400
 198899570.683 7                  37849329.353
        42.200
 111452705.847 8  86846280.13945  21208749.696    21208749.2764   21208749.6934
        48.800          33.2004
 202034370.122 7                  38445872.238
        43.700
 131837136.787 7                  25087758.518
        43.100
 125592926.161 7                  23899534.229
        45.000


 123110218.983 7                  23427078.899
        43.700
 109648407.633 7  85282101.198 6  20504805.146    20504806.292    20504812.510
        46.100          41.900
 25  1  1  7  8 15.0000000  0 25G18R01G23G15G16G24G10E03G05G29R03E15
                                E26R18S35R17R02S31G13S33E07E08E21E13
                                R24
 110404006.279 7  86029117.64945  21009182.055    21009181.7564   21009182.7464
        44.200          35.0004
 112119012.407 7  87203704.054 6  20974179.841    20974179.501    20974186.211
        45.700          40.000
 114660253.303 6  89345658.30143  21819116.204    21819115.6544   21819116.2834
        41.500          23.1004
 104705214.239 8  81588467.16548  19924720.892    19924720.6204   19924719.3314
        50.700          48.4004
 131263378.492 5 102283156.40341  24978589.756    24978589.1264   24978591.5134
        31.900           9.6004
 131173733.919 5                  24961532.716
        31.400


 139918657.161 5                  26625632.702
        32.700
 118366778.902 6  92233898.85742  22524452.815    22524452.6324   22524451.5814
        36.900          12.7004
 112008354.052 7  87279198.62347  21314483.883    21314483.3654   21314483.9594
        47.400          45.5004
 115957984.555 8  90189565.088 7  21661914.004    21661915.059    21661922.173
        48.300          43.100
 136594017.741 5                  25992981.107
        31.800
 133508676.805 7                  25405819.612
        42.800
 118860560.081 6  92447142.130 7  22266592.593    22266591.460    22266599.404
        40.600          44.700
 200875514.284 5                  38225346.958
        34.900
 103448318.933 7  80459852.645 7  19331795.904    19331796.987    19331802.587
        46.700          46.800
 102243055.843 8  79522407.474 8  19160300.923    19160301.699    19160305.475
        52.300          48.100
 198899564.268 7                  37849328.687
        43.000
 111474445.782 8  86863220.34045  21212886.227    21212885.7984   21212886.9334
        48.000          31.8004
 202034340.122 7                  38445860.670
        44.000
 131798042.250 7                  25080318.893
        44.400
 125591260.664 7                  23899217.302
        45.000


 123109030.631 7                  23426852.935
        44.300
 109685138.031 7  85310669.306 7  20511674.081    20511672.092    20511682.443
        43.000          43.700
 25  1  1  7  8 30.0000000  0 25G18R01G23G15G16G24G10E03G05G29R03E15
                                E26R18S35R17R02S31G13S33E07E08E21E13
                                R24
 110378686.050 7  86009387.58246  21004364.369    21004364.0884   21004365.1674
        44.700          37.1004
 112168712.219 7  87242359.465 6  20983478.027    20983477.945    20983482.723
        47.300          38.500
 114631814.874 5  89323498.44743  21813705.342    21813704.7394   21813703.7994
        34.400          20.0004
 104698618.322 8  81583327.49948  19923465.817    19923465.5544   19923464.3434
        50.300          49.2004
 131273774.857 5 102291257.41741  24980568.321    24980567.9954   24980569.1014
        34.800           6.8004
 131124869.162 4 102175236.64641  24952232.303    24952232.4634   24952236.5184
        27.700           8.5004


 139952997.343 5                  26632166.020
        33.100
 118406458.956 5  92264818.34042  22532003.192    22532002.9114   22532001.8304
        34.800          17.1004
 112044864.472 7  87307648.24847  21321430.945    21321430.4314   21321431.4264
        47.900          45.5004
 115905298.331 7  90148586.953 6  21652072.033    21652071.372    21652078.182
        46.400          41.000
 136621544.678 5                  25998219.027
        34.200
 133479067.936 7                  25400186.492
        43.100
 118804886.889 6  92403840.724 7  22256164.337    22256162.728    22256169.429
        40.200          44.700
 200875519.061 5                  38225366.227
        33.800
 103426914.578 7  80443204.828 7  19327798.419    19327796.588    19327803.347
        45.500          46.800
 102240646.551 8  79520533.582 7  19159849.009    19159849.274    19159853.935
        51.000          47.900
 198899557.339 7                  37849328.906
        43.400
 111496335.619 7  86880277.36144  21217051.756    21217051.3054   21217051.8384
        45.100          28.7004
 202034309.447 7                  38445857.888
        44.600
 131759006.056 7                  25072890.867
        44.900
 125589702.146 7                  23898920.652
        44.300
 147585157.045 5                  28084520.251
        32.600
 123107889.407 7                  23426635.858
        45.700
 109721995.969 7  85339336.589 7  20518565.835    20518565.425    20518574.926
        45.100          43.800
 25  1  1  7  8 45.0000000  0 25G18R01G23G15G16G24G10E03G05G29R03E15
                                E26R18S35R17R02S31G13S33E07E08E21E13
                                R24
 110353428.266 7  85989706.15946  20999558.129    20999557.8524   20999559.2244
        46.400          38.1004
 112218488.386 7  87281074.203 6  20992789.819    20992789.997    20992793.165
        47.400          36.400
 114603430.195 5  89301380.54243  21808301.418    21808300.8194   21808301.0784
        35.100          18.8004
 104692178.068 8  81578309.12748  19922240.280    19922239.9944   19922239.4724
        51.400          49.5004
 131284292.408 5 102299452.7224   24982578.407    24982578.0104   24982569.8754
        35.500           3.0004
 131075981.142 4 102137142.1564   24942933.129    24942933.3484   24942935.2934
        28.600           4.9004


 139987395.175 4                  26638710.773
        28.200
 118446160.339 4  92295754.44642  22539557.893    22539557.6884   22539556.5524
        27.000          15.3004
 112081488.640 7  87336186.54147  21328399.867    21328399.3494   21328400.1454
        46.000          44.3004
 115852706.158 7  90107681.887 6  21642250.045    21642248.268    21642251.729
        46.700          38.300
 136649106.826 6                  26003463.942
        36.100
 133449466.353 7                  25394552.835
        42.000
 118749234.006 6  92360555.166 7  22245737.887    22245736.818    22245744.047
        40.800          45.000
 200875521.223 5                  38225354.050
        34.400
 103405642.398 8  80426659.735 7  19323823.771    19323823.664    19323826.880
        48.100          46.100
 102238407.688 8  79518792.239 8  19159429.814    19159429.661    19159434.770
        51.200          48.100
 198899548.558 7                  37849325.423
        42.600
 111518371.825 7  86897448.45544  21221243.966    21221243.5514   21221244.3774
        43.400          25.3004
 202034276.895 7                  38445847.545
        43.600
 131720025.234 7                  25065472.400
        43.900
 125588247.429 7                  23898643.649
        44.800
 147622486.984 5                  28091621.916
        30.600
 123106792.276 7                  23426427.393
        46.500
 109758978.051 8  85368100.358 7  20525482.232    20525482.963    20525489.199
        48.600          43.200
 25  1  1  7  9  0.0000000  0 25G18R01G23G15G26G16G24G10E03G29R03E15
                                E26R18S35R17R02S31G13S33E07E08E21E13
                                R24
 110328241.995 7  85970080.46646  20994764.734    20994764.4534   20994766.6464
        46.000          37.9004
 112268349.542 7  87319855.070 6  21002116.994    21002117.072    21002121.770
        47.600          36.100
 114575108.279 7  89279311.52943  21802912.824    21802912.1454   21802910.3444
        42.100          20.9004
 104685902.230 8  81573418.86748  19921045.988    19921045.7024   19921045.8124
        50.500          49.6004


 131294939.583 4 102307749.0734   24984592.414    24984591.9904   24984595.5164
        29.400           3.8004


 133083303.980 5 103701327.58142  25324911.462    25324911.7574   25324922.5844
        33.400          17.9004


 112118234.996 7  87364820.04847  21335394.041    21335393.5144   21335392.4134
        45.300          44.0004
 115800217.472 7  90066857.425 6  21632443.933    21632443.315    21632446.095
        46.800          37.700
 136676713.044 5                  26008716.940
        34.900
 133419881.082 6                  25388922.949
        41.100
 118693610.758 7  92317292.627 7  22235319.217    22235319.548    22235324.254
        43.900          44.600
 200875529.593 6                  38225356.957
        36.300
 103384511.892 8  80410224.848 7  19319874.959    19319876.236    19319878.326
        49.600          44.900
 102236348.330 8  79517190.514 8  19159044.607    19159044.579    19159048.806
        52.500          48.000
 198899546.091 7                  37849323.956
        42.300
 111540563.139 7  86914740.44643  21225466.045    21225465.6214   21225466.9984
        42.400          22.2004
 202034250.558 7                  38445846.495
        44.000
 131681108.848 7                  25058068.019
        42.100
 125586905.327 7                  23898388.289
        43.900
 147659826.180 5                  28098727.981
        30.700
 123105748.225 7                  23426228.642
        47.000
 109796093.319 8  85396967.718 7  20532423.825    20532425.067    20532428.594
        49.600          42.200
 25  1  1  7  9 15.0000000  0 25G18R01G23G15G26G16G24G10E03G29R03E15
                                E26R18S35R17R02S31G13S33E07E08E21E13
                                R24
 110303116.446 7  85950502.09846  20989983.334    20989983.0444   20989985.3284
        46.300          37.4004
 112318284.024 7  87358692.955 6  21011458.237    21011457.836    21011464.107
        46.900          37.400
 114546838.061 7  89257282.80143  21797531.906    21797531.1914   21797529.9584
        43.300          23.5004
 104679779.923 8  81568648.23848  19919881.123    19919880.8424   19919881.0264
        50.100          49.2004


 131305705.293 5 102316137.8804   24986646.124    24986645.7534   24986644.3104
        33.800           5.7004


 133043505.517 6 103670315.75843  25317339.890    25317340.2924   25317340.5104
        36.300          21.1004


 112155092.213 7  87393539.92447  21342408.572    21342408.0314   21342406.1484
        46.600          44.5004
 115747821.513 7  90026105.094 6  21622653.526    21622654.074    21622661.658
        46.700          39.000
 136704352.357 5                  26013977.200
        34.700
 133390301.186 6                  25383294.757
        40.200
 118638006.331 7  92274044.743 7  22224901.660    22224903.006    22224907.310
        43.600          44.300
 200875533.157 6                  38225361.563
        36.400
 103363512.022 8  80393891.612 7  19315948.422    19315950.022    19315953.391
        48.100          44.400
 102234456.860 8  79515719.369 7  19158689.483    19158689.688    19158694.377
        52.400          47.900
 198899538.368 7                  37849329.921
        43.300
 111562898.299 7  86932144.50143  21229717.741    21229717.3214   21229717.1454
        43.100          22.2004
 202034219.602 7                  38445842.506
        43.800
 131642246.122 7                  25050673.426
        42.200
 125585664.873 7                  23898151.852
        42.600
 147697163.428 5                  28105833.878
        32.700
 123104746.361 7                  23426037.996
        47.100
 109833330.311 8  85425929.776 7  20539388.116    20539388.721    20539393.356
        50.200          42.900
 25  1  1  7  9 30.0000000  0 26G18R01G23G15G26G16G24G10E03G05G29R03
                                E15E26R18S35R17R02S31G13S33E07E08E21
                                E13R24
 110278061.417 7  85930978.67446  20985216.662    20985216.3814   20985216.7494
        46.500          36.9004
 112368301.041 7  87397595.076 6  21020814.995    21020814.626    21020821.103
        46.600          39.500
 114518629.204 7  89235301.89144  21792165.321    21792164.6604   21792161.9864
        44.500          24.9004
 104673820.980 8  81564004.90948  19918747.204    19918746.9234   19918747.3724
        49.000          48.3004


 131316598.995 5 102324626.52541  24988718.354    24988717.8454   24988717.3014
        34.400           7.8004


 133003735.012 5 103639325.81643  25309776.178    25309776.2044   25309770.8004
        35.800          18.8004




 112192069.506 8  87422353.34347  21349444.450    21349443.8964   21349442.6224
        49.000          45.6004
 115695528.253 7  89985432.595 7  21612884.753    21612883.105    21612894.945
        44.000          42.100
 136732034.426 6                  26019245.587
        37.500
 133360736.323 6                  25377668.052
        40.700
 118582430.864 7  92230819.415 7  22214492.155    22214493.104    22214495.347
        43.600          43.500
 200875541.558 6                  38225342.236
        36.700
 103342653.187 7  80377668.076 7  19312049.391    19312049.627    19312055.808
        46.200          43.100
 102232743.082 8  79514386.442 7  19158368.588    19158368.872    19158373.641
        52.500          47.800
 198899536.755 7                  37849325.253
        43.100
 111585386.276 7  86949667.60343  21233997.864    21233997.4624   21233996.2914
        44.100          22.5004
 202034193.390 7                  38445833.044
        44.200
 131603446.837 7                  25043289.275
        45.500
 125584535.597 7                  23897937.150
        44.800
 147734508.183 5                  28112941.267
        33.200
 123103796.364 7                  23425857.072
        47.100
 109870698.631 8  85454993.960 7  20546376.267    20546377.487    20546382.480
        50.900          44.000
 25  1  1  7  9 45.0000000  0 26G18R01G23G15G26G16G24G10E03G05G29R03
                                E15E26R18S35R17R02S31G13S33E07E08E21
                                E13R24
 110253067.688 7  85911503.05946  20980459.358    20980459.0814   20980459.6184
        47.400          36.3004
 112418390.530 7  87436553.556 6  21030185.964    21030184.660    21030192.577
        46.700          41.300
 114490472.127 7  89213361.36044  21786806.890    21786806.1804   21786804.5394
        44.500          24.7004
 104668015.889 7  81559481.46147  19917642.183    19917641.9154   19917643.0734
        47.500          47.2004


 131327610.968 5 102333207.2444   24990813.912    24990813.1974   24990812.5204
        33.600           5.1004


 132963983.086 5 103608350.34842  25302211.311    25302211.5704   25302205.0744
        33.300          13.3004




 112229157.280 8  87451252.86247  21356500.743    21356500.1984   21356500.4434
        49.100          45.8004
 115643328.520 7  89944832.760 6  21603133.167    21603132.495    21603142.524
        43.900          41.900
 136759749.678 6                  26024518.789
        37.500
 133331177.131 6                  25372043.498
        41.000
 118526874.932 6  92187609.268 7  22204080.863    22204081.960    22204086.331
        40.500          42.000
 200875545.738 6                  38225363.119
        36.000
 103321925.975 8  80361546.891 7  19308178.899    19308177.546    19308180.776
        48.100          42.200
 102231197.111 8  79513184.040 7  19158078.656    19158078.762    19158083.526
        52.200          46.700
 198899529.979 7                  37849328.280
        43.800
 111608017.975 7  86967302.66043  21238304.305    21238303.9344   21238303.7384
        46.300          22.4004
 202034162.113 7                  38445830.549
        44.200
 131564701.666 7                  25035916.004
        44.600
 125583507.957 7                  23897741.698
        44.100
 147771850.536 6                  28120046.489
        36.600
 123102888.851 7                  23425684.713
        46.700
 109908188.781 8  85484152.918 7  20553387.187    20553388.986    20553392.558
        51.100          44.500
 25  1  1  7 10  0.0000000  0 26G18R01G23G15G26G16G24G10E03G05G29R03
                                E15E26R18S35R17R02S31G13S33E07E08E21
                                E13R24
 110228140.681 8  85892079.42646  20975716.270    20975716.0074   20975715.6604
        48.900          37.0004
 112468557.319 7  87475572.193 7  21039570.662    21039569.796    21039577.963
        47.600          42.200
 114462372.119 7  89191465.30144  21781459.178    21781458.4454   21781459.5914
        44.800          25.8004
 104662369.659 7  81555081.79347  19916567.741    19916567.4874   19916568.7084
        47.500          46.0004


 131338746.342 5 102341884.20341  24992931.594    24992930.7854   24992931.1844
        34.400           8.9004


 132924254.947 5 103577393.63441  25294667.478    25294667.8494   25294642.7784
        34.100          10.0004
 140160280.540 5                  26671615.333
        34.300
 118645059.740 6  92450698.47043  22577402.620    22577402.3664   22577403.4714
        36.600          19.5004
 112266360.228 8  87480242.13647  21363580.536    21363580.0224   21363579.9924
        48.800          45.3004
 115591227.745 6  89904309.948 6  21593401.131    21593398.515    21593407.838
        39.700          41.300
 136787503.463 6                  26029800.695
        38.900
 133301628.956 6                  25366420.603
        41.100
 118471344.513 6  92144418.975 7  22193677.982    22193677.129    22193684.062
        38.000          42.800
 200875550.537 5                  38225358.012
        35.400
 103301336.076 8  80345532.542 7  19304331.767    19304331.861    19304333.790
        51.800          43.200
 102229824.171 8  79512116.214 7  19157821.982    19157822.037    19157826.261
        52.500          46.500
 198899523.391 7                  37849322.418
        43.100
 111630798.372 7  86985053.57043  21242638.103    21242637.7324   21242638.8514
        46.400          21.4004
 202034132.296 7                  38445824.289
        44.100
 131526016.137 7                  25028554.972
        46.600
 125582587.202 7                  23897566.792
        45.100
 147809195.527 6                  28127152.165
        37.100
 123102029.175 7                  23425521.273
        47.100
 109945805.782 8  85513410.561 7  20560421.274    20560422.710    20560428.795
        50.400          45.800
 25  1  1  7 10 15.0000000  0 26G18R01G23G15G26G16G24G10E03G05G29R03
                                E15E26R18S35R17R02S31G13S33E07E08E21
                                E13R24
 110203278.747 8  85872706.49146  20970985.205    20970984.9464   20970984.5724
        50.000          38.3004
 112518798.977 7  87514649.031 7  21048968.023    21048967.693    21048977.358
        47.300          43.300
 114434327.279 7  89169612.19844  21776122.639    21776121.8754   21776125.3164
        43.600          26.4004
 104656880.540 8  81550804.54247  19915523.167    19915522.9264   19915523.6324
        48.200          45.7004


 131350003.060 5 102350655.74041  24995073.577    24995072.7644   24995073.0914
        34.600           9.0004


 132884549.061 4 103546453.88441  25287094.056    25287094.2484   25287086.5724
        27.700           8.3004
 140195037.472 5                  26678227.914
        33.500
 118684900.671 6  92481743.28043  22584982.980    22584982.9364   22584983.6404
        39.400          22.5004
 112303676.416 7  87509319.60147  21370681.180    21370680.6714   21370681.1844
        47.700          44.2004
 115539224.265 7  89863862.755 6  21583689.089    21583686.513    21583692.554
        43.300          40.900
 136815293.926 5                  26035088.256
        35.900
 133272090.001 7                  25360799.201
        42.900
 118415837.842 5  92101247.200 7  22183275.931    22183275.620    22183286.659
        32.800          43.700
 200875554.147 5                  38225357.480
        33.600
 103280881.787 8  80329623.636 7  19300508.591    19300509.608    19300512.628
        52.700          45.000
 102228622.226 8  79511181.387 7  19157595.891    19157596.144    19157601.132
        51.700          46.200
 198899516.101 7                  37849324.077
        43.200
 111653725.103 7  87002918.51443  21247001.413    21247001.0294   21247001.4784
        46.700          22.7004
 202034100.756 7                  38445819.897
        44.500
 131487388.515 7                  25021204.627
        45.900
 125581771.415 7                  23897411.635
        46.600
 147846541.089 6                  28134258.168
        36.100
 123101215.553 7                  23425366.605
        47.000
 109983547.562 8  85542765.222 7  20567478.698    20567479.257    20567485.936
        49.800          44.800
 25  1  1  7 10 30.0000000  0 26G18R01G23G15G26G16G24G10E03G05G29R03
                                E15E26R18S35R17R02S31G13S33E07E08E21
                                E13R24
 110178486.498 8  85853387.84846  20966267.549    20966267.2954   20966267.0464
        50.200          39.3004
 112569119.699 8  87553787.342 7  21058381.684    21058382.238    21058390.352
        48.300          42.900
 114406342.003 7  89147805.48644  21770797.217    21770796.4354   21770801.1304
        43.000          26.7004
 104651552.720 8  81546652.99247  19914508.874    19914508.6114   19914509.1724
        48.100          45.2004


 131361385.124 4 102359524.7754   24997241.041    24997240.0714   24997238.9354
        28.800           5.1004


 132844869.157 4 103515534.73541  25279560.187    25279560.4194   25279535.8304
        29.800          10.3004
 140229856.427 4                  26684853.942
        29.700
 118724767.809 7  92512808.53944  22592570.575    22592571.0264   22592569.4264
        42.600          24.9004
 112341109.813 7  87538488.42747  21377804.518    21377804.0184   21377804.6484
        47.500          43.2004
 115487322.848 7  89823495.048 6  21573991.192    21573991.893    21573995.858
        44.900          39.500
 136843125.515 4                  26040383.486
        29.100
 133242564.742 7                  25355180.569
        44.500
 118360359.845 6  92058097.561 7  22172887.332    22172886.838    22172894.854
        39.200          44.800
 200875560.862 5                  38225368.297
        35.300
 103260568.126 8  80313824.110 7  19296710.691    19296712.055    19296717.405
        51.600          46.700
 102227595.590 8  79510382.912 7  19157402.895    19157403.136    19157408.598
        51.000          46.000
 198899512.024 7                  37849324.658
        42.900
 111676802.452 7  87020900.81844  21251393.085    21251392.6884   21251393.4704
        45.200          24.2004
 202034072.799 7                  38445813.092
        43.700
 131448823.191 7                  25013865.758
        45.000
 125581064.958 7                  23897277.377
        47.700
 147883891.266 6                  28141368.275
        36.100
 123100452.465 7                  23425221.534
        47.500
 110021418.321 8  85572220.221 7  20574560.453    20574561.104    20574566.411
        49.300          43.000
 25  1  1  7 10 45.0000000  0 26G18R01G23G15G26G16G24G10E03G05G29R03
                                E15E26R18S35R17R02S31G13S33E07E08E21
                                E13R24
 110153759.167 8  85834119.79146  20961562.023    20961561.7734   20961562.3534
        50.100          39.9004
 112619513.939 8  87592982.880 6  21067809.362    21067809.805    21067815.973
        48.400          41.500
 114378411.329 7  89126041.32144  21765482.848    21765482.1204   21765485.6274
        43.000          26.6004
 104646380.777 8  81542622.91747  19913524.950    19913524.6464   19913525.2194
        48.300          45.5004


 131372887.415 5 102368487.54141  24999430.629    24999429.5254   24999427.6644
        32.900           7.0004




 140264732.255 5                  26691496.960
        30.300
 118764656.159 6  92543890.30144  22600160.393    22600160.8534   22600159.2994
        40.400          24.2004
 112378655.269 7  87567744.59847  21384948.809    21384948.3094   21384949.1654
        45.500          42.3004
 115435518.565 7  89783202.886 6  21564316.710    21564315.538    21564319.558
        44.300          41.300
 136870993.125 5                  26045684.998
        30.300
 133213048.309 7                  25349563.221
        44.600
 118304906.040 6  92014966.835 7  22162500.157    22162499.957    22162506.792
        39.900          45.100
 200875566.563 6                  38225352.700
        36.800
 103240390.360 8  80298130.290 7  19292940.313    19292940.801    19292947.300
        51.000          47.600
 102226738.993 8  79509716.664 7  19157243.194    19157243.266    19157247.816
        51.500          45.800
 198899506.107 6                  37849321.076
        41.700
 111700025.219 7  87038996.45344  21255813.009    21255812.6074   21255813.2804
        44.500          24.1004
 202034043.053 7                  38445804.372
        43.800
 131410315.683 7                  25006538.026
        44.500
 125580462.819 8                  23897163.105
        49.200
 147921240.883 5                  28148475.471
        34.300
 123099735.088 7                  23425084.642
        47.100
 110059413.113 8  85601771.685 7  20581665.294    20581666.535    20581671.577
        49.600          42.900
 25  1  1  7 11  0.0000000  0 26G18R01G23G15G26G16G24G10E03G05G29R03
                                E15E26R18S35R17R02S31G13S33E07E08E21
                                E13R24
 110129097.854 8  85814903.18946  20956868.963    20956868.7184   20956870.0794
        49.500          39.7004
 112669982.209 8  87632235.984 6  21077250.980    21077251.542    21077256.445
        48.700          40.500
 114350536.106 6  89104320.35644  21760178.356    21760177.6864   21760181.0174
        41.700          26.3004
 104641366.560 8  81538715.76247  19912570.987    19912570.6834   19912571.6364
        49.000          46.6004


 131384510.745 6 102377544.62341  25001644.817    25001643.7224   25001639.0204
        36.200           6.8004




 140299665.658 5                  26698142.325
        32.800
 118804566.028 6  92574988.84243  22607757.078    22607757.5514   22607753.4334
        36.700          23.8004
 112416313.494 7  87597088.64946  21392114.755    21392114.2554   21392115.4374
        43.700          40.3004
 115383812.931 7  89742987.371 6  21554658.148    21554656.454    21554661.251
        46.000          41.700
 136898897.815 4                  26050996.357
        24.200
 133183541.649 7                  25343948.468
        44.100
 118249477.263 6  91971855.509 7  22152118.571    22152117.350    22152123.649
        41.000          45.700
 200875570.703 5                  38225366.549
        33.000
 103220349.822 8  80282543.181 7  19289195.066    19289195.137    19289202.217
        50.700          47.700
 102226053.227 8  79509183.284 7  19157115.795    19157115.821    19157119.346
        52.800          46.200
 198899499.211 7                  37849318.662
        42.700
 111723393.969 7  87057205.84944  21260259.543    21260259.1014   21260259.7324
        44.800          25.1004
 202034012.012 7                  38445797.673
        44.100
 131371866.913 7                  24999220.332
        43.400
 125579965.848 8                  23897068.390
        49.700
 147958590.438 4                  28155581.116
        27.600
 123099064.331 7                  23424957.724
        46.700
 110097532.554 8  85631420.054 7  20588794.720    20588795.728    20588800.444
        49.200          42.900
 25  1  1  7 11 15.0000000  0 26G18R01G23G15G26G16G24G10E03G05G29R03
                                E15E26R18S35R17R02S31G13S33E07E08E21
                                E13R24
 110104505.820 7  85795740.55046  20952189.579    20952189.3564   20952190.3784
        46.800          37.4004
 112720526.890 7  87671548.488 6  21086705.894    21086706.511    21086712.210
        47.500          40.400
 114322719.421 6  89082645.00244  21754884.613    21754883.9294   21754887.8914
        38.200          24.9004
 104636513.050 8  81534933.82247  19911647.610    19911647.3154   19911648.1534
        49.700          47.2004


 131396257.972 4 102386698.09641  25003878.606    25003877.4304   25003874.4294
        27.900           6.0004




 140334659.524 5                  26704797.811
        30.700
 118844500.359 5  92606106.47443  22615356.341    22615356.7654   22615351.3994
        33.000          22.1004
 112454087.135 6  87626522.65346  21399303.258    21399302.7084   21399303.8164
        39.700          38.4004
 115332209.367 7  89702851.245 7  21545019.495    21545020.925    21545020.960
        44.500          42.700


 133154048.002 7                  25338335.503
        43.400
 118194077.194 7  91928766.519 7  22141740.525    22141740.954    22141745.263
        43.100          45.000
 200875577.079 5                  38225363.459
        34.300
 103200449.859 8  80267065.400 7  19285477.589    19285477.377    19285481.962
        51.500          46.200
 102225541.079 8  79508784.944 7  19157019.375    19157019.417    19157022.558
        52.600          45.500
 198899494.886 7                  37849316.734
        42.100
 111746911.566 7  87075531.24744  21264734.771    21264734.3114   21264735.1284
        46.100          26.6004
 202033983.133 7                  38445796.135
        43.700
 131333479.989 7                  24991915.971
        42.800
 125579577.065 8                  23896994.298
        50.100
 147995942.921 4                  28162690.654
        27.200
 123098443.469 7                  23424839.102
        42.000
 110135779.456 7  85661167.591 7  20595945.640    20595945.562    20595953.882
        45.400          43.900
 25  1  1  7 11 30.0000000  0 25G18R01G23G15G26G24G10E03G05G29R03E15
                                E26R18S35R17R02S31G13S33E07E08E21E13
                                R24
 110079980.974 7  85776630.26345  20947523.015    20947522.7924   20947523.2074
        46.400          35.6004
 112771145.082 7  87710918.167 6  21096175.138    21096174.241    21096182.936
        46.200          40.400
 114294958.838 6  89061013.38443  21749603.386    21749602.7164   21749603.8684
        40.600          23.6004
 104631817.676 8  81531275.09847  19910754.129    19910753.8394   19910754.4324
        49.900          47.5004






 140369711.234 5                  26711471.774
        30.800
 118884456.553 6  92637241.16443  22622960.460    22622960.8354   22622955.2244
        37.000          23.7004
 112491973.537 6  87656044.53946  21406514.049    21406513.4554   21406513.0474
        40.300          37.4004
 115280705.337 6  89662792.557 6  21535392.488    21535392.739    21535397.684
        39.400          40.700


 133124565.049 7                  25332725.235
        42.400
 118138703.771 7  91885698.275 7  22131366.436    22131366.419    22131372.364
        43.500          44.300
 200875583.489 5                  38225361.737
        30.600
 103180688.364 8  80251695.350 7  19281783.958    19281784.518    19281788.379
        51.800          45.900
 102225200.197 8  79508519.797 7  19156955.134    19156955.406    19156958.672
        52.100          45.700
 198899490.168 7                  37849323.889
        42.100
 111770575.382 7  87093970.58244  21269237.343    21269236.8784   21269238.3924
        44.700          27.4004
 202033954.682 7                  38445795.245
        44.700
 131295152.946 6                  24984621.956
        41.200
 125579294.084 8                  23896940.348
        49.500


 123097870.180 6                  23424731.358
        40.600
 110174151.722 7  85691012.608 7  20603123.536    20603122.051    20603129.325
        46.000          44.200
 25  1  1  7 11 45.0000000  0 24G18R01G23G15G24G10E03G05G29R03E15E26
                                R18S35R17R02S31G13S33E07E08E21E13R24
 110055521.812 7  85757571.16845  20942868.002    20942867.7744   20942868.5394
        46.000          34.6004
 112821834.903 7  87750343.555 6  21105658.028    21105657.126    21105665.012
        46.000          39.200
 114267252.691 7  89039424.18744  21744330.110    21744329.4264   21744329.1294
        42.400          24.1004
 104627278.584 8  81527738.16547  19909890.460    19909890.1654   19909890.1574
        49.900          47.5004




 140404818.674 4                  26718149.919
        24.700
 118924432.902 6  92668391.53044  22630566.520    22630566.8774   22630563.9754
        36.800          26.4004
 112529970.588 6  87685652.63145  21413743.953    21413743.2924   21413743.5264
        38.700          35.6004
 115229299.466 6  89622810.280 6  21525795.856    21525797.608    21525793.413
        41.500          39.600


 133095091.142 6                  25327116.168
        41.500
 118083355.782 7  91842649.848 7  22120998.930    22120997.992    22121003.378
        44.300          43.300


 103161064.131 8  80236432.050 7  19278116.894    19278117.077    19278121.336
        51.000          45.800
 102225028.708 8  79508386.411 7  19156922.803    19156923.206    19156926.897
        52.200          46.300
 198899483.086 7                  37849317.937
        42.700
 111794383.524 7  87112522.37444  21273768.364    21273767.9264   21273768.8444
        42.800          25.7004
 202033923.203 7                  38445789.696
        44.100
 131256884.116 6                  24977340.156
        39.300
 125579115.154 8                  23896906.382
        49.800


 123097342.913 6                  23424629.948
        37.800
 110212647.094 7  85720953.412 7  20610320.796    20610320.214    20610327.895
        47.000          43.500
 25  1  1  7 12  0.0000000  0 24G18R01G23G15G24G10E03G05G29R03E15E26
                                R18S35R17R02S31G13S33E07E08E21E13R24
 110031133.016 7  85738566.90545  20938226.230    20938226.0024   20938226.6864
        45.800          32.2004
 112872600.468 7  87789827.900 6  21115154.828    21115155.282    21115161.746
        47.600          38.600
 114239605.480 7  89017880.93644  21739068.819    21739068.2024   21739065.5104
        42.200          24.0004
 104622900.292 8  81524326.49447  19909056.094    19909055.7994   19909056.4184
        49.100          46.9004






 118964433.669 6  92699560.92944  22638178.345    22638178.7114   22638176.2734
        36.800          27.0004
 112568082.442 6  87715350.10546  21420997.181    21420996.4534   21420995.0544
        40.600          36.4004
 115177996.942 6  89582908.282 6  21516203.800    21516204.676    21516210.824
        40.200          40.200


 133065630.933 6                  25321510.379
        39.500
 118028038.049 7  91799624.956 6  22110636.647    22110635.928    22110639.592
        44.900          41.900


 103141582.024 8  80221279.315 7  19274476.268    19274476.546    19274481.569
        51.000          46.700
 102225030.954 8  79508388.177 7  19156923.555    19156924.029    19156927.103
        52.400          46.300
 198899479.103 6                  37849317.977
        41.600
 111818340.236 7  87131189.93744  21278326.065    21278325.6234   21278328.2264
        44.600          26.0004
 202033895.190 7                  38445781.052
        43.900
 131218678.181 6                  24970069.507
        41.900
 125579044.757 8                  23896892.918
        49.100
 148107977.180 5                  28184009.766
        33.000
 123096866.113 6                  23424538.519
        38.700
 110251270.267 8  85750993.560 7  20617545.510    20617547.027    20617550.308
        49.200          42.900
 25  1  1  7 12 15.0000000  0 24G18R01G23G15G24G10E03G05G29R03E15E26
                                R18S35R17R02S31G13S33E07E08E21E13R24
 110006811.332 7  85719614.94645  20933598.314    20933598.0864   20933597.2334
        47.200          32.3004
 112923437.608 8  87829367.875 6  21124664.868    21124665.896    21124671.366
        48.000          37.400
 114212013.705 6  88996380.85543  21733818.496    21733817.8844   21733815.3074
        40.500          22.9004
 104618679.313 7  81521037.42447  19908253.187    19908252.8834   19908253.1314
        47.700          46.5004


 132567720.947 6 103299479.05642  25226804.417    25226804.9354   25226791.8354
        37.400          14.1004


 119004455.041 6  92730746.38444  22645791.434    22645791.8724   22645792.5514
        38.400          26.7004
 112606305.559 7  87745134.33746  21428271.027    21428270.2494   21428268.3184
        43.600          38.3004
 115126794.037 6  89543083.857 6  21506643.444    21506638.789    21506646.318
        36.800          40.900
 137039038.914 6                  26077664.731
        37.700
 133036181.047 6                  25315906.870
        40.800
 117972747.421 7  91756621.171 6  22100278.135    22100278.608    22100281.249
        44.000          41.500
 200875610.346 5                  38225351.426
        31.200
 103122238.742 8  80206234.562 7  19270862.071    19270862.196    19270866.213
        51.100          46.800
 102225203.144 8  79508522.119 7  19156956.219    19156956.385    19156959.482
        52.400          45.800
 198899474.272 7                  37849317.302
        43.000
 111842441.729 7  87149970.31144  21282911.253    21282910.8114   21282915.1594
        42.200          25.6004
 202033866.372 7                  38445777.207
        45.500
 131180531.869 6                  24962810.525
        41.600
 125579079.317 8                  23896899.768
        49.200
 148145329.561 5                  28191119.638
        31.700
 123096436.555 6                  23424455.521
        41.400
 110290017.085 8  85781129.950 6  20624791.440    20624792.370    20624794.077
        48.600          40.700
 25  1  1  7 12 30.0000000  0 24G18R01G23G15G24G10E03G05G29R03E15E26
                                R18S35R17R02S31G13S33E07E08E21E13R24
 109982557.882 8  85700716.17645  20928983.211    20928982.9754   20928981.1774
        48.500          33.2004
 112974346.982 7  87868964.038 6  21134188.645    21134188.748    21134194.402
        46.900          37.600
 114184478.206 6  88974924.63943  21728580.522    21728579.8474   21728578.1204
        38.600          20.2004
 104614616.505 8  81517871.60847  19907480.830    19907480.5134   19907480.3324
        48.100          47.0004


 132528226.820 6 103268704.47643  25219289.818    25219290.6724   25219284.3254
        40.600          21.1004


 119044498.297 6  92761948.88444  22653412.248    22653412.6544   22653413.4484
        36.200          26.2004
 112644640.387 7  87775005.57646  21435565.471    21435564.6674   21435564.3074
        43.400          39.6004
 115075692.601 6  89503338.249 6  21497098.254    21497095.363    21497101.045
        41.100          41.200
 137067173.244 5                  26083020.487
        34.500
 133006742.407 7                  25310305.382
        42.500
 117917485.275 7  91713639.558 7  22089925.892    22089926.207    22089929.563
        45.300          42.300
 200875616.236 5                  38225368.749
        33.100
 103103035.658 8  80191298.850 7  19267272.357    19267273.920    19267276.095
        51.000          45.500
 102225545.988 8  79508788.787 7  19157020.106    19157020.334    19157023.109
        52.000          45.300
 198899469.550 7                  37849310.581
        42.700
 111866688.853 6  87168864.18343  21287525.397    21287524.8974   21287529.4934
        40.800          21.8004
 202033837.287 7                  38445769.247
        44.500
 131142446.421 6                  24955562.859
        40.900
 125579219.743 8                  23896925.878
        48.300
 148182681.365 4                  28198227.223
        28.100
 123096055.142 7                  23424383.097
        43.600
 110328888.701 8  85811363.346 7  20632060.879    20632061.641    20632064.443
        48.400          43.100
 25  1  1  7 12 45.0000000  0 23G18R01G23G15G10E03G05G29R03E15E26R18
                                S35R17R02S31G13S33E07E08E21E13R24
 109958372.115 8  85681870.14045  20924381.293    20924381.0484   20924379.2334
        49.800          35.6004
 113025327.123 7  87908615.222 6  21143726.784    21143726.062    21143730.204
        46.800          37.500
 114156998.298 5  88953511.77843  21723348.902    21723348.1834   21723350.5524
        32.500          18.2004
 104610711.125 8  81514828.44647  19906736.938    19906736.6174   19906737.2344
        49.000          47.3004
 132488755.372 6 103237947.55543  25211777.336    25211778.0784   25211776.7254
        37.200          18.3004


 119084562.440 6  92793167.69044  22661038.595    22661038.9124   22661038.0704
        38.500          28.6004
 112683085.947 6  87804963.10546  21442882.878    21442882.0334   21442881.3704
        41.900          39.0004
 115024691.487 6  89463670.694 6  21487565.304    21487565.821    21487573.037
        38.300          40.500
 137095344.800 4                  26088383.643
        29.400
 132977314.395 7                  25304705.441
        42.900
 117862250.925 7  91670679.400 7  22079576.816    22079576.619    22079582.904
        44.000          42.300
 200875622.034 5                  38225379.995
        30.400
 103083972.148 8  80176471.681 7  19263710.638    19263711.325    19263713.907
        50.200          45.600
 102226058.587 8  79509187.476 7  19157115.733    19157116.331    19157119.790
        51.100          46.000
 198899463.707 6                  37849311.811
        41.500
 111891080.367 6  87187870.54842  21292167.519    21292166.9164   21292170.1704
        36.100          17.9004
 202033807.098 7                  38445771.152
        44.300
 131104421.151 6                  24948327.571
        41.000
 125579465.231 8                  23896973.423
        48.300
 148220031.627 5                  28205335.837
        30.300
 123095721.262 7                  23424319.494
        43.500
 110367884.012 7  85841692.974 7  20639350.298    20639350.203    20639358.880
        42.400          44.500
 25  1  1  7 13  0.0000000  0 24G18R01G23G15G24G10E03G05G29R03E15E26
                                R18S35R17R02S31G13S33E07E08E21E13R24
 109934255.079 8  85663077.62746  20919791.850    20919791.6144   20919790.7724
        51.000          36.9004
 113076378.582 7  87948321.901 6  21153276.144    21153276.115    21153280.870
        47.800          37.700
 114129574.756 5  88932142.80442  21718131.369    21718130.6324   21718132.2804
        33.000          14.7004
 104606963.981 8  81511908.57248  19906023.851    19906023.5564   19906024.1354
        49.400          48.0004


 132449307.536 5 103207208.99642  25204270.255    25204270.7334   25204272.1674
        33.400          15.9004
 140581245.455 5                  26751723.294
        33.800
 119124648.069 6  92824403.23645  22668667.738    22668667.9884   22668666.3454
        39.500          30.5004
 112721642.743 7  87835007.31546  21450219.590    21450218.7594   21450219.2674
        45.200          41.3004
 114973792.091 7  89424082.237 6  21478066.258    21478064.414    21478062.084
        44.100          37.100
 137123554.566 3                  26093754.984
        23.000
 132947897.966 7                  25299107.584
        43.000
 117807045.877 7  91627742.123 7  22069235.117    22069234.462    22069242.098
        44.200          42.500
 200875627.586 5                  38225376.377
        32.900
 103065049.832 8  80161754.341 7  19260174.188    19260174.991    19260178.360
        50.700          45.900
 102226741.741 8  79509718.862 7  19157242.875    19157243.124    19157248.156
        48.600          46.100
 198899458.312 6                  37849314.767
        40.600
 111915617.034 6  87206990.01643  21296836.869    21296836.3194   21296838.0254
        40.000          19.4004
 202033777.134 7                  38445758.770
        44.200
 131066457.182 7                  24941104.601
        44.200
 125579816.591 7                  23897040.099
        47.500
 148257380.933 4                  28212441.791
        24.800
 123095435.877 6                  23424265.223
        41.900
 110407003.641 6  85872119.384 7  20646667.914    20646664.927    20646673.793
        40.800          44.400
 25  1  1  7 13 15.0000000  0 25G18R01G23G15G16G24G10E03G05G29R03E15
                                E26R18S35R17R02S31G13S33E07E08E21E13
                                R24
 109910204.124 8  85644336.62346  20915214.746    20915214.5054   20915214.9614
        50.500          37.6004
 113127497.957 7  87988081.381 6  21162839.347    21162838.899    21162844.625
        47.700          39.400
 114102204.808 5  88910815.62741  21712924.242    21712923.5944   21712923.7484
        31.600          11.3004
 104603371.909 8  81509109.55848  19905340.436    19905340.1284   19905340.9434
        49.600          49.8004
 131494618.878 5 102463317.64041  25022590.185    25022590.3864   25022590.7374
        35.100           7.1004


 132409880.248 6 103176486.44943  25196767.284    25196767.5384   25196770.9444
        37.600          19.3004


 119164752.269 6  92855653.24845  22676299.375    22676299.5584   22676297.1024
        41.900          33.0004
 112760307.654 7  87865135.82547  21457576.681    21457575.8864   21457577.5104
        47.500          42.9004
 114922991.735 6  89384570.813 5  21468566.755    21468568.696    21468569.719
        39.800          35.500


 132918490.360 7                  25293511.561
        44.500
 117751867.709 7  91584825.788 7  22058897.711    22058897.645    22058905.669
        44.200          42.200


 103046265.863 8  80147144.563 7  19256663.983    19256665.023    19256667.931
        50.100          46.300
 102227592.261 7  79510380.372 7  19157401.707    19157401.066    19157407.637
        46.700          46.500
 198899450.250 6                  37849309.276
        41.600
 111940295.693 6  87226220.15543  21301533.308    21301532.7454   21301532.9114
        36.900          19.4004
 202033744.845 7                  38445752.139
        44.500
 131028551.659 7                  24933891.529
        44.300
 125580270.909 7                  23897125.925
        45.600
 148294726.107 4                  28219551.293
        29.600
 123095196.180 6                  23424219.562
        40.900
 110446245.218 7  85902640.552 7  20654005.775    20654007.435    20654013.304
        45.200          44.900
 25  1  1  7 13 30.0000000  0 25G18R01G23G15G16G24G10E03G05G29R03E15
                                E26R18S35R17R02S31G13S33E07E08E21E13
                                R24
 109886225.067 8  85625651.64746  20910652.321    20910652.0764   20910652.8104
        50.700          39.8004
 113178690.515 7  88027897.808 6  21172415.238    21172415.339    21172422.688
        46.800          40.400


 104599940.835 8  81506435.99348  19904688.416    19904688.1174   19904688.3454
        50.500          50.8004
 131507451.348 5 102473317.2074   25025031.170    25025030.9784   25025032.4534
        31.800           2.6004


 132370479.228 6 103145784.31344  25189269.764    25189270.0094   25189275.1904
        39.100          26.3004
 140652201.067 4                  26765226.066
        29.700
 119204880.329 7  92886921.85845  22683933.887    22683934.0654   22683933.1404
        42.300          33.4004
 112799085.834 7  87895352.57147  21464955.265    21464954.4654   21464956.8454
        46.800          42.4004
 114872296.610 7  89345141.328 6  21459102.056    21459102.799    21459102.351
        42.700          38.400
 137180098.839 5                  26104497.776
        30.900
 132889097.159 7                  25287918.091
        44.800
 117696722.138 7  91541934.713 6  22048569.614    22048568.331    22048574.974
        46.000          40.900


 103027626.341 8  80132647.165 7  19253179.518    19253180.524    19253185.641
        48.700          47.400
 102228615.772 8  79511176.401 7  19157595.407    19157595.568    19157599.729
        49.300          47.400
 198899444.552 6                  37849310.935
        41.100
 111965121.641 6  87245565.08043  21306259.870    21306259.3034   21306257.1004
        40.000          19.3004
 202033714.937 7                  38445748.691
        44.900
 130990710.289 7                  24926689.917
        42.300
 125580833.653 7                  23897233.087
        45.800


 123095007.902 6                  23424182.926
        39.000
 110485613.361 6  85933260.192 7  20661365.077    20661364.931    20661375.102
        40.300          44.600
 25  1  1  7 13 45.0000000  0 24G18R01G23G15G24G10E03G05G29R03E15E26
                                R18S35R17R02S31G13S33E07E08E21E13R24
 109862313.221 8  85607019.05346  20906102.129    20906101.8754   20906103.0734
        48.900          39.1004
 113229950.738 7  88067766.892 6  21182004.698    21182005.056    21182011.130
        46.700          39.800


 104596665.875 8  81503884.08748  19904064.906    19904064.6024   19904064.9974
        50.600          51.0004


 132331099.565 6 103115098.82844  25181775.987    25181776.2194   25181782.9194
        38.100          28.3004


 119245027.201 6  92918205.15345  22691572.304    22691572.4564   22691572.7554
        39.600          30.4004
 112837972.212 7  87925653.63146  21472355.268    21472354.4904   21472355.7134
        46.200          41.3004
 114821701.526 6  89305789.590 6  21449649.269    21449648.241    21449652.417
        40.000          38.300
 137208420.654 5                  26109890.727
        34.000
 132859713.622 7                  25282326.425
        44.900
 117641604.880 7  91499065.668 6  22038244.137    22038244.030    22038247.305
        46.500          37.000
 200875690.974 5                  38225371.798
        30.900
 103009126.504 7  80118258.370 7  19249722.309    19249721.966    19249729.435
        46.100          47.900
 102229806.895 8  79512102.827 7  19157818.463    19157818.997    19157823.471
        50.500          47.600
 198899437.455 7                  37849309.365
        42.100
 111990089.753 7  87265020.79543  21311011.187    21311010.6064   21311009.3484
        42.400          20.0004
 202033683.097 7                  38445741.702
        44.200
 130952928.437 7                  24919500.192
        42.200
 125581499.973 7                  23897359.487
        44.000


 123094866.157 6                  23424156.133
        40.900
 110525069.290 6  85963974.656 7  20668747.888    20668748.796    20668759.866
        38.700          43.300
 25  1  1  7 14  0.0000000  0 24G18R01G23G15G24G10E03G05G29R03E15E26
                                R18S35R17R02S31G13S33E07E08E21E13R24
 109838474.134 7  85588443.15346  20901565.660    20901565.3884   20901566.5044
        47.800          37.4004
 113281283.442 7  88107692.347 6  21191608.531    21191608.388    21191614.548
        46.600          39.500


 104593552.217 8  81501457.87448  19903472.525    19903472.2214   19903471.5814
        52.400          50.1004


 132291746.622 6 103084434.15544  25174290.068    25174290.2514   25174294.5164
        38.500          28.6004


 119285198.180 6  92949507.22144  22699217.421    22699217.6264   22699216.3234
        38.800          26.9004
 112876971.631 7  87956042.80546  21479776.386    21479775.6314   21479777.1134
        44.300          40.3004
 114771212.551 6  89266520.456 6  21440221.491    21440218.985    21440220.374
        38.000          39.000
 137236783.872 5                  26115280.851
        33.400
 132830345.214 7                  25276738.143
        44.700
 117586521.305 7  91456222.861 5  22027923.800    22027924.173    22027930.914
        45.700          34.700
 200875698.549 5                  38225381.269
        35.400
 102990772.151 8  80103982.730 7  19246293.840    19246295.008    19246299.262
        50.000          47.100
 102231171.097 8  79513163.885 7  19158073.524    19158073.960    19158078.890
        50.200          47.500
 198899432.961 6                  37849306.602
        41.800
 112015204.782 6  87284590.96943  21315789.401    21315788.7754   21315789.8484
        39.100          19.3004
 202033654.172 7                  38445734.235
        43.800
 130915211.582 6                  24912324.792
        41.000
 125582275.090 7                  23897507.301
        43.800


 123094776.416 7                  23424141.408
        44.100
 110564686.475 7  85994787.932 7  20676168.493    20676173.004    20676168.853
        46.900          42.300
 25  1  1  7 14 15.0000000  0 24G18R01G23G15G24G10E03G05G29R03E15E26
                                R18S35R17R02S31G13S33E07E08E21E13R24
 109814703.349 7  85569920.47245  20897042.919    20897042.6474   20897042.2514
        44.100          35.5004
 113332683.641 7  88147670.284 6  21201222.662    21201221.800    21201229.507
        44.600          38.500
 113993261.628 6  88825948.83042  21692196.848    21692196.9684   21692201.3684
        38.900          13.3004
 104590595.174 8  81499153.70648  19902909.556    19902909.2264   19902908.5144
        51.000          50.4004


 132252415.726 6 103053786.68944  25166804.299    25166804.3574   25166809.1054
        37.400          28.0004


 119325388.172 6  92980824.05243  22706864.570    22706864.7174   22706862.6454
        38.700          23.4004
 112916078.995 7  87986516.04546  21487217.373    21487216.6274   21487219.3334
        44.100          39.3004
                  89227330.117 6                                  21430808.892
                        40.300
 137265183.687 6                  26120689.397
        36.100
 132800987.306 7                  25271151.275
        44.900
 117531467.351 7  91413403.108 5  22017609.148    22017610.282    22017624.267
        43.900          31.300
 200875703.983 5                  38225380.952
        34.300
 102972559.112 8  80089817.021 7  19242889.621    19242890.641    19242895.664
        49.900          46.300
 102232703.139 8  79514355.490 7  19158360.656    19158360.319    19158365.436
        49.300          47.200
 198899427.260 7                  37849308.345
        42.400
 112040462.253 6  87304272.14543  21320597.558    21320596.9734   21320595.6804
        40.700          18.3004
 202033624.329 7                  38445730.264
        44.300
 130877555.293 6                  24905156.332
        37.100
 125583154.309 7                  23897674.376
        45.200


 123094734.175 7                  23424132.657
        44.200
 110604425.615 8  86025696.116 6  20683595.920    20683597.834    20683599.961
        48.400          40.700
 25  1  1  7 14 30.0000000  0 24G18R01G23G15G24G10E03G05G29R03E15E26
                                R18S35R17R02S31G13S33E07E08E21E13R24
 109791002.654 7  85551452.40345  20892532.530    20892532.2674   20892531.1224
        44.800          33.8004
 113384152.336 7  88187701.471 6  21210850.463    21210850.496    21210856.168
        45.700          36.400
 113966175.501 6  88804842.80042  21687050.967    21687050.5614   21687044.5014
        40.700          16.0004
 104587796.260 8  81496972.74348  19902377.618    19902377.2884   19902376.0294
        52.500          50.5004


 132213108.439 6 103023157.63044  25159323.691    25159323.6954   25159327.4144
        38.000          26.8004


 119365598.860 6  93012157.06243  22714517.238    22714517.3454   22714511.6424
        40.500          21.1004
 112955295.831 7  88017074.62846  21494678.944    21494678.2254   21494682.3284
        43.400          37.0004
                  89188220.189 6                                  21421417.081
                        41.300
 137293621.778 5                  26126100.211
        35.000
 132771641.573 7                  25265566.802
        45.400
 117476444.890 7                  22007303.707    22007302.745
        42.300
 200875709.392 5                  38225376.605
        35.200
 102954489.010 8  80075762.477 7  19239513.674    19239513.940    19239518.279
        50.300          44.600
 102234404.719 8  79515678.942 7  19158679.768    19158679.772    19158684.004
        50.100          47.200
 198899422.095 6                  37849302.027
        40.200
 112065863.558 7  87324065.33743  21325429.403    21325428.8224   21325428.1984
        44.300          18.8004
 202033593.631 7                  38445722.640
        43.500
 130839961.417 6                  24898002.122
        36.700
 125584139.130 7                  23897862.552
        46.200


 123094741.008 7                  23424133.185
        44.000
 110644288.473 7  86056700.438 6  20691048.820    20691049.582    20691053.073
        46.400          37.700
 25  1  1  7 14 45.0000000  0 24G18R01G23G15G24G10E03G05G29R03E15E26
                                R18S35R17R02S31G13S33E07E08E21E13R24
 109767371.917 7  85533038.84145  20888035.096    20888034.8104   20888033.8454
        44.600          33.7004
 113435689.071 7  88227785.538 5  21220491.870    21220491.301    21220495.967
        45.400          34.600
 113939145.547 5  88783780.48842  21681898.799    21681898.0894   21681900.3644
        35.200          14.6004
 104585155.176 8  81494914.76448  19901874.699    19901874.3784   19901874.0584
        52.400          51.2004


 132173824.448 6 102992546.71644  25151847.499    25151847.4914   25151852.1054
        41.400          28.8004


 119405830.148 6  93043506.09343  22722174.198    22722174.1904   22722165.7814
        41.300          21.7004
 112994621.506 7  88047718.05346  21502163.941    21502163.2174   21502165.2664
        43.600          36.7004
 114620359.606 5  89149190.524 6  21412030.437    21412031.293    21412039.722
        35.000          39.200
 137322097.821 5                  26131519.526
        34.900
 132742307.793 7                  25259984.837
        46.300
 117421454.027 7                  21997003.970    21997002.076
        42.800
 200875715.447 6                  38225377.254
        37.600
 102936561.859 8  80061819.112 7  19236162.438    19236163.456    19236168.403
        50.100          43.100
 102236275.213 8  79517133.764 7  19159030.154    19159030.722    19159034.691
        50.300          47.800
 198899416.078 7                  37849306.150
        42.100
 112091407.945 7  87343970.02543  21330290.194    21330289.6534   21330287.1934
        45.400          18.6004
 202033564.178 7                  38445714.193
        44.200
 130802429.661 6                  24890859.766
        40.300
 125585229.205 7                  23898070.222
        47.300


 123094796.711 7                  23424144.270
        44.400
 110684274.203 7  86087800.317 6  20698524.818    20698524.606    20698529.671
        46.400          38.200
 25  1  1  7 15  0.0000000  0 24G18R01G23G15G24G10E03G05G29R03E15E26
                                R18S35R17R02S31G13S33E07E08E21E13R24
 109743813.201 7  85514681.39545  20883551.990    20883551.6914   20883551.1154
        45.600          34.5004
 113487294.923 7  88267923.413 5  21230145.458    21230145.257    21230149.967
        46.100          34.900
 113912173.436 4  88762763.28942  21676764.898    21676763.8394   21676766.7534
        26.400          12.2004
 104582673.464 8  81492980.95948  19901401.936    19901401.6194   19901402.3384
        52.200          50.1004


 132134565.658 6 102961955.43045  25144376.013    25144375.9914   25144382.6884
        41.900          30.7004


 119446083.617 6  93074872.40343  22729834.386    22729834.3104   22729826.6004
        40.400          22.0004
 113034057.432 7  88078447.28346  21509669.964    21509669.2364   21509669.5344
        46.300          39.2004
 114570284.193 6  89110243.007 6  21402680.547    21402679.619    21402683.200
        38.200          37.200
 137350613.621 6                  26136948.168
        39.200
 132712987.876 7                  25254405.188
        46.100
 117366497.077 7  91285085.309 5  21986709.123    21986708.043    21986711.699
        42.300          35.400
 200875722.273 5                  38225373.033
        35.800
 102918780.153 8  80047988.910 7  19232839.760    19232840.522    19232845.049
        50.100          43.000
 102238316.434 8  79518721.418 8  19159412.412    19159412.970    19159417.363
        50.200          48.100
 198899411.710 6                  37849301.106
        41.700
 112117096.941 7  87363987.45443  21335179.070    21335178.5564   21335174.4134
        44.700          19.1004
 202033535.023 7                  38445708.724
        44.300
 130764962.013 6                  24883730.039
        40.200
 125586426.290 7                  23898298.161
        47.800
 148556136.125 5                  28269292.730
        33.400
 123094903.237 7                  23424163.409
        43.600
 110724384.874 8  86118997.440 7  20706026.772    20706027.126    20706035.205
        48.800          42.700
 25  1  1  7 15 15.0000000  0 24G18R01G23G15G24G10E03G05G29R03E15E26
                                R18S35R17R02S31G13S33E07E08E21E13R24
 109720325.933 7  85496379.61646  20879082.356    20879082.0524   20879082.4444
        47.700          36.7004
 113538968.776 7  88308114.147 6  21239812.360    21239813.182    21239818.156
        47.300          36.300
 113885258.349 6  88741790.47142  21671646.872    21671646.0994   21671644.3934
        36.200          14.8004
 104580350.573 8  81491170.90248  19900959.541    19900959.2154   19900960.1754
        51.000          48.9004


 132095331.236 6 102931383.12445  25136912.006    25136912.0194   25136917.6684
        40.700          30.8004


 119486358.073 6  93106255.07743  22737498.962    22737498.8374   22737492.2134
        37.300          21.3004
 113073602.675 7  88109261.70746  21517194.479    21517193.7464   21517195.0604
        47.300          40.7004
 114520313.709 6  89071377.112 6  21393343.270    21393343.811    21393350.316
        38.800          38.000
 137379168.486 6                  26142381.905
        39.800
 132683681.154 7                  25248828.647
        46.900
 117311573.415 6  91242366.898 6  21976415.829    21976417.310    21976423.184
        40.100          38.100
 200875730.739 5                  38225376.722
        35.800
 102901143.199 8  80034271.288 7  19229544.507    19229544.945    19229550.013
        50.600          43.000
 102240526.979 8  79520440.723 8  19159827.143    19159827.923    19159831.360
        50.200          48.100
 198899409.075 6                  37849300.180
        41.900
 112142929.567 7  87384116.77143  21340094.636    21340094.1404   21340091.1724
        43.600          19.0004
 202033507.830 7                  38445704.561
        43.800
 130727557.903 6                  24876612.743
        37.800
 125587729.550 8                  23898546.441
        48.400
 148593466.543 4                  28276394.900
        28.500
 123095059.850 7                  23424194.571
        44.300
 110764619.259 8  86150290.819 7  20713551.084    20713552.174    20713560.149
        49.600          44.600
 25  1  1  7 15 30.0000000  0 25G18R01G23G15G16G24G10E03G05G29R03E15
                                E26R18S35R17R02S31G13S33E07E08E21E13
                                R24
 109696904.700 8  85478129.29846  20874625.611    20874625.3254   20874626.1814
        50.200          39.1004
 113590704.381 8  88348352.924 6  21249491.576    21249492.456    21249497.520
        48.200          37.900
 113858394.631 6  88720857.68343  21666530.945    21666530.1234   21666532.4034
        39.200          19.1004
 104578180.743 8  81489480.11748  19900547.065    19900546.7444   19900546.3224
        50.800          48.2004
 131614374.545 6                  25045381.314
        36.800


 132056115.594 6 102900825.48344  25129454.673    25129454.7444   25129454.7624
        39.800          28.1004


 119526647.810 6  93137649.67143  22745166.301    22745166.2084   22745160.6044
        38.100          20.3004
 113113251.361 7  88140156.77146  21524738.754    21524738.0394   21524740.5524
        46.300          40.7004
 114470442.657 7  89032588.436 6  21384031.094    21384030.963    21384036.387
        43.500          40.800
 137407756.786 6                  26147820.997
        40.200
 132654382.086 7                  25243253.178
        46.100
 117256678.108 6  91199670.504 6  21966129.644    21966128.532    21966138.112
        36.400          38.300
 200875734.337 5                  38225388.607
        32.900
 102883645.634 8  80020662.060 7  19226275.201    19226274.709    19226280.390
        50.400          43.600
 102242901.301 8  79522287.403 8  19160272.435    19160272.591    19160276.577
        50.400          48.400
 198899400.661 7                  37849302.188
        42.900
 112168899.875 6  87404353.35842  21345036.211    21345035.7204   21345034.9894
        39.100          17.4004
 202033475.092 7                  38445699.275
        43.900
 130690211.856 6                  24869507.291
        38.500
 125589133.281 8                  23898813.786
        48.700


 123095261.074 7                  23424233.143
        46.100
 110804971.745 8  86181676.069 7  20721097.539    20721097.589    20721105.717
        48.100          46.000
 25  1  1  7 15 45.0000000  0 25G18R01G23G15G16G24G10E03G27G29R03E15
                                E26R18S35R17R02S31G13S33E07E08E21E13
                                R24
 109673555.591 8  85459935.17846  20870181.764    20870181.4834   20870183.2184
        50.700          40.2004
 113642507.255 8  88388644.044 6  21259183.377    21259183.517    21259188.613
        48.300          38.900
 113831588.219 6  88699969.59243  21661431.684    21661430.8844   21661431.1904
        40.400          22.7004
 104576169.742 8  81487913.09848  19900164.552    19900164.2354   19900162.6304
        50.300          48.0004
 131628274.083 6                  25048023.822
        36.600


 132016924.674 6 102870287.12244  25121991.888    25121991.8044   25121994.7504
        38.800          25.0004


 133128924.304 4                  25333588.891
        28.500
 113153008.802 7  88171136.58646  21532304.598    21532303.9324   21532307.3564
        43.900          39.5004
 114420677.469 7  88993882.193 6  21374732.177    21374734.559    21374740.760
        42.300          40.600
 137436384.409 6                  26153266.914
        37.800
 132625096.709 7                  25237680.028
        45.700
 117201816.979 6  91157000.672 6  21955855.807    21955854.880    21955860.150
        38.500          39.400
 200875738.444 5                  38225390.221
        34.300
 102866293.932 8  80007166.282 7  19223032.351    19223032.018    19223037.994
        50.000          44.400
 102245445.268 8  79524266.053 8  19160748.840    19160748.751    19160753.596
        50.000          48.600
 198899393.943 7                  37849301.347
        43.400
 112195013.517 6  87424701.63942  21350006.821    21350006.4194   21350005.6544
        37.600          15.4004
 202033443.057 7                  38445691.624
        44.300
 130652929.990 6                  24862412.656
        38.500
 125590643.377 8                  23899100.913
        48.900


 123095512.909 7                  23424280.935
        46.200
 110845447.747 7  86213157.432 7  20728666.117    20728662.761    20728673.715
        43.300          44.600
 25  1  1  7 16  0.0000000  0 25G18R01G23G15G16G24G10E03G27G29R03E15
                                E26R18S35R17R02S31G13S33E07E08E21E13
                                R24
 109650280.236 8  85441798.53946  20865753.384    20865753.1254   20865753.8214
        49.400          39.9004
 113694378.380 7  88428988.242 6  21268885.141    21268884.940    21268890.692
        45.500          38.600
 113804840.487 7  88679127.24344  21656343.861    21656343.1284   21656341.2674
        42.900          25.5004
 104574319.160 8  81486471.08648  19899812.146    19899811.8334   19899810.2754
        51.200          48.3004
 131642293.698 5                  25050692.545
        35.300


 131977759.965 4 102839769.11843  25114537.382    25114537.2444   25114539.5404
        29.800          22.4004


 133079648.811 5 103698428.67241  25324211.627    25324211.3374   25324216.7714
        31.200          10.0004
 113192876.117 7  88202201.97646  21539891.067    21539890.4064   21539893.4774
        44.100          37.7004
 114371019.153 5  88955259.061 6  21365454.301    21365455.222    21365462.398
        35.100          38.200
 137465052.748 6                  26158723.452
        39.000
 132595826.451 7                  25232110.193
        45.000
 117146992.226 7  91114359.115 6  21945588.017    21945586.099    21945588.838
        43.300          37.200
 200875745.442 5                  38225387.422
        33.600
 102849089.707 8  79993785.209 7  19219817.414    19219817.583    19219822.767
        50.400          44.100
 102248159.815 8  79526377.362 8  19161257.352    19161256.844    19161262.892
        49.600          49.100
 198899389.698 7                  37849298.360
        42.700
 112221271.583 5  87445162.38642  21355001.270    21355000.7744   21355003.6854
        32.600          12.2004
 202033414.186 7                  38445690.225
        44.900
 130615713.831 6                  24855330.627
        40.600
 125592261.145 8                  23899408.637
        49.100


 123095816.808 7                  23424338.613
        46.100
 110886048.761 7  86244735.991 7  20736254.917    20736257.240    20736264.822
        43.700          42.000
 25  1  1  7 16 15.0000000  0 25G18R01G23G15G16G24G10E03G27G29R03E15
                                E26R18S35R17R02S31G13S33E07E08E21E13
                                R24
 109627074.045 8  85423715.80246  20861338.077    20861337.8094   20861337.6734
        49.200          40.0004
 113746312.574 7  88469381.505 6  21278600.277    21278600.407    21278606.683
        45.400          38.800
 113778146.607 7  88658326.85944  21651264.558    21651263.8434   21651261.1374
        43.700          26.7004
 104572624.053 8  81485150.22948  19899489.610    19899489.2934   19899488.3454
        50.600          48.8004
 131656428.543 4                  25053380.645
        28.400


 131938616.374 4 102809267.64143  25107088.892    25107088.8344   25107090.9444
        28.700          21.0004


 133030430.401 4 103660076.69141  25314847.852    25314847.6424   25314850.3454
        27.900          10.3004
 113232848.231 7  88233348.99946  21547498.440    21547497.7794   21547497.6904
        43.000          36.7004
 114321463.973 5  88916716.050 5  21356201.932    21356198.047    21356201.037
        32.200          34.700
 137493756.963 6                  26164185.180
        37.700
 132566566.640 7                  25226542.311
        45.800
 117092199.158 7  91071742.266 6  21935322.919    21935321.248    21935324.179
        44.000          37.400
 200875750.014 5                  38225373.010
        34.000
 102832028.373 8  79980515.299 7  19216630.268    19216630.264    19216633.897
        50.800          43.600
 102251039.837 8  79528617.391 8  19161796.566    19161796.600    19161802.876
        50.300          49.600
 198899383.122 7                  37849297.627
        43.100
 112247668.969 6  87465731.68341  21360027.048    21360026.4854   21360027.1104
        36.700           9.1004
 202033382.664 7                  38445676.913
        44.200
 130578558.820 7                  24848260.396
        43.600
 125593981.725 8                  23899735.495
        48.900


 123096168.059 7                  23424405.870
        46.500
 110926769.817 7  86276407.815 6  20743878.038    20743878.119    20743877.889
        46.000          39.600
 25  1  1  7 16 30.0000000  0 26G18R01G23G15G16G24G10E03G27G05G29R03
                                E15E26R18S35R17R02S31G13S33E07E08E21
                                E13R24
 109603938.846 7  85405688.38046  20856935.660    20856935.3884   20856935.1244
        47.700          38.9004
 113798310.899 7  88509824.608 6  21288328.721    21288329.656    21288333.826
        46.000          38.700
 113751508.159 7  88637569.66344  21646195.212    21646194.5064   21646191.1854
        46.100          26.7004
 104571085.711 8  81483951.51948  19899197.312    19899196.9914   19899196.3394
        51.300          49.2004
 131670679.861 4                  25056094.409
        29.000


 131899495.793 5 102778783.99743  25099644.203    25099644.0024   25099647.3564
        33.000          23.2004


 132981270.930 4 103621770.73141  25305492.439    25305492.2254   25305495.7514
        28.700           7.3004
 119687842.875 6  93263356.03643  22775867.475    22775867.2704   22775864.6244
        36.200          19.3004
 113272926.473 7  88264578.75246  21555126.791    21555126.1254   21555123.5554
        42.900          38.0004
 114272013.365 6  88878254.454 6  21346978.175    21346968.519    21346967.477
        39.500          38.600
 137522498.709 6                  26169655.351
        38.600
 132537318.953 7                  25220976.801
        46.900
 117037439.795 7  91029151.651 6  21925065.143    21925063.958    21925064.207
        43.800          37.000
 200875754.347 5                  38225394.080
        34.400
 102815111.910 8  79967358.057 7  19213467.625    19213468.653    19213472.344
        50.300          43.100
 102254087.078 8  79530987.453 8  19162368.878    19162369.245    19162373.750
        52.400          49.300
 198899375.651 7                  37849294.524
        42.300
 112274207.129 6  87486410.67141  21365076.893    21365076.2944   21365076.6724
        39.200           7.1004
 202033350.559 7                  38445677.749
        44.900
 130541466.692 7                  24841200.717
        44.700
 125595806.639 7                  23900082.677
        47.600


 123096568.361 7                  23424482.111
        47.300
 110967612.131 7  86308173.994 6  20751512.668    20751514.273    20751516.395
        46.700          39.300
 25  1  1  7 16 45.0000000  0 25G18R01G23G15G24G10E03G27G05G29R03E15
                                E26R18S35R17R02S31G13S33E07E08E21E13
                                R24
 109580873.594 8  85387715.43446  20852546.745    20852546.4824   20852545.7434
        49.900          39.0004
 113850371.603 7  88550316.240 6  21298068.242    21298068.783    21298072.300
        47.300          38.100
 113724923.923 7  88616854.70344  21641135.893    21641135.1834   21641132.5774
        45.700          28.4004
 104569703.235 8  81482874.25148  19898934.247    19898933.9394   19898933.5294
        52.400          50.3004


 131860396.834 5 102748317.21843  25092205.355    25092205.1504   25092207.5684
        34.800          23.2004




 119728229.936 6  93294826.42143  22783559.195    22783558.9364   22783552.9264
        36.400          23.3004
 113313109.197 7  88295889.94746  21562773.088    21562772.4094   21562770.9514
        42.800          38.9004
 114222666.275 5  88839873.351 6  21337745.288    21337742.538    21337748.520
        34.800          40.000
 137551276.685 6                  26175132.450
        37.800
 132508082.251 7                  25215413.054
        45.400
 116982713.352 7  90986586.650 6  21914812.278    21914810.881    21914813.866
        43.300          39.100
 200875756.010 5                  38225389.873
        31.400
 102798339.313 8  79954312.694 7  19210332.825    19210333.254    19210338.072
        49.400          43.200
 102257299.895 8  79533486.309 8  19162969.782    19162970.325    19162975.067
        51.900          48.400
 198899366.418 6                  37849297.493
        41.800
 112300884.401 6  87507198.20342  21370153.198    21370152.6714   21370152.6614
        41.000          13.3004
 202033316.314 7                  38445674.731
        46.300
 130504436.308 7                  24834153.797
        44.000
 125597734.598 7                  23900449.796
        46.800


 123097016.582 7                  23424566.966
        46.600
 111008574.536 7  86340033.559 6  20759172.687    20759174.229    20759177.202
        46.600          38.700
 25  1  1  7 17  0.0000000  0 25G18R01G23G15G24G10E03G27G05G29R03E15
                                E26R18S35R17R02S31G13S33E07E08E21E13
                                R24
 109557882.884 7  85369800.62946  20848170.852    20848170.5664   20848170.4664
        47.900          38.2004
 113902498.672 7  88590859.542 6  21307820.239    21307819.827    21307825.892
        45.300          40.200
 113698398.200 7  88596185.30244  21636087.112    21636086.4244   21636085.6624
        45.500          26.7004
 104568480.887 8  81481921.77148  19898701.261    19898700.9534   19898701.1704
        51.100          50.6004


 131821324.002 5 102717870.82743  25084768.439    25084768.1944   25084771.8014
        32.300          21.9004




 119768638.666 6  93326313.67044  22791248.296    22791247.6624   22791243.7734
        40.300          27.1004
 113353400.475 7  88327285.70546  21570438.812    21570438.1154   21570437.8394
        44.200          38.3004
 114173427.469 6  88801576.586 6  21328546.739    21328548.167    21328549.941
        41.500          38.500
 137580095.320 6                  26180615.770
        37.700
 132478860.991 7                  25209852.786
        45.100
 116928024.529 6  90944050.911 6  21904564.312    21904563.483    21904567.841
        40.200          40.000
 200875760.841 6                  38225376.722
        37.000
 102781715.652 8  79941383.204 7  19207226.132    19207226.854    19207230.866
        50.000          42.400
 102260682.541 8  79536117.247 7  19163604.616    19163604.576    19163608.294
        51.800          47.300
 198899359.497 6                  37849292.234
        39.000
 112327705.165 6  87528097.47643  21375256.659    21375256.2084   21375255.3014
        40.700          18.0004
 202033284.589 7                  38445667.066
        44.700
 130467472.258 6                  24827120.512
        37.700
 125599769.936 7                  23900836.890
        45.400


 123097517.164 7                  23424662.510
        45.100
 111049660.978 7  86371989.616 6  20766857.217    20766859.951    20766858.997
        45.600          37.000
 25  1  1  7 17 15.0000000  0 25G18R01G23G15G24G10E03G27G05G29R03E15
                                E26R18S35R17R02S31G13S33E07E08E21E13
                                R24
 109534971.241 8  85351947.39446  20843810.613    20843810.3454   20843810.3174
        48.000          37.1004
 113954696.172 6  88631457.684 6  21317583.978    21317581.947    21317591.317
        40.900          40.300
 113671935.380 7  88575564.91544  21631051.511    21631050.8724   21631049.2654
        43.500          25.4004
 104567422.674 8  81481097.20248  19898500.211    19898499.8984   19898500.1614
        52.200          50.9004


 131782281.515 6 102687448.17343  25077338.777    25077338.5414   25077341.6994
        37.100          19.4004
 141191408.089 4                  26867833.392
        29.100


 119809073.662 5  93357821.44044  22798942.009    22798941.6704   22798940.0434
        35.200          25.1004
 113393804.392 7  88358769.27346  21578127.402    21578126.7144   21578128.0414
        44.800          40.8004
                  88763367.548 6                  21319362.788    21319372.146
                        38.300
 137608958.981 6                  26186108.294
        40.200
 132449659.644 7                  25204296.287
        46.300
 116873378.296 7  90901548.334 6  21894326.689    21894326.114    21894331.787
        42.400          39.000
 200875771.607 6                  38225374.763
        39.100
 102765245.462 8  79928573.052 7  19204148.037    19204149.036    19204154.403
        50.400          42.700
 102264239.216 8  79538883.558 7  19164271.031    19164271.505    19164274.463
        52.100          47.100
 198899359.313 6                  37849291.018
        40.400
 112354673.145 6  87549111.51043  21380387.969    21380387.5854   21380388.0674
        37.500          18.0004
 202033258.976 7                  38445662.890
        44.900
 130430579.098 7                  24820099.727
        43.100
 125601916.949 7                  23901245.370
        45.200


 123098074.582 7                  23424769.006
        45.300
 111090875.942 7  86404045.572 5  20774562.021    20774562.563    20774565.329
        42.800          30.000
 25  1  1  7 17 30.0000000  0 25G18R01G23G15G24G10E03G27G05G29R03E15
                                E26R18S35R17R02S31G13S33E07E08E21E13
                                R24
 109512129.657 7  85334148.74846  20839462.881    20839462.6184   20839463.9764
        45.600          36.0004
 114006954.244 6  88672102.820 6  21327360.459    21327358.430    21327364.616
        41.900          37.600
 113645526.024 6  88554986.22444  21626025.220    21626024.6174   21626022.3834
        41.900          24.2004
 104566519.173 8  81480393.17948  19898328.354    19898328.0334   19898328.3664
        51.600          50.6004


 131743259.977 6 102657041.75042  25069913.798    25069913.5794   25069913.3684
        38.500          16.3004






 113434311.284 7  88390333.09646  21585834.434    21585833.7644   21585837.3784
        44.000          39.5004
 114075279.435 6  88725239.331 6  21310210.359    21310213.866    21310214.902
        40.500          39.100
 137637858.371 6                  26191608.952
        40.000
 132420468.952 7                  25198740.988
        46.100
 116818765.478 6  90859071.702 7  21884099.592    21884098.972    21884102.789
        40.600          42.400


 102748919.540 8  79915875.099 7  19201098.050    19201098.298    19201101.663
        50.100          43.100
 102267960.130 8  79541777.592 7  19164968.033    19164968.680    19164972.013
        52.000          46.900
 198899356.977 7                  37849294.130
        43.900
 112381778.783 5  87570232.70941  21385550.421    21385549.8314   21385546.3834
        34.100          11.8004
 202033232.248 7                  38445657.935
        45.700
 130393747.519 6                  24813090.079
        41.400
 125604166.204 7                  23901672.954
        44.800


 123098679.537 7                  23424883.934
        45.500
 111132209.812 7  86436194.073 4  20782292.529    20782292.330    20782290.969
        46.000          29.100
 25  1  1  7 17 45.0000000  0 25G18R01G23G15G24G10E03G27G05G29R03E15
                                E26R18S35R17R02S31G13S33E07E08E21E13
                                R24
 109489359.477 7  85316405.75546  20835130.511    20835130.2484   20835130.9694
        46.900          36.0004
 114059273.528 6  88712795.633 6  21337145.649    21337143.941    21337152.081
        41.000          38.400
 113619171.409 7  88534450.15144  21621009.454    21621008.8284   21621008.1244
        42.300          24.0004
 104565771.953 8  81479810.94748  19898185.929    19898185.6084   19898185.9764
        51.300          49.8004


 131704260.948 6 102626653.02043  25062492.056    25062491.8964   25062490.3324
        39.900          18.1004




 119890208.263 6  93420929.95244  22814347.061    22814346.4404   22814344.2114
        38.200          24.5004
 113474922.028 7  88421977.84346  21593561.997    21593561.3274   21593564.6684
        44.100          39.0004
 114026362.541 7  88687192.888 6  21301091.518    21301083.912    21301077.705
        42.700          36.800
 137666794.675 6                  26197115.010
        36.200
 132391290.297 7                  25193188.481
        42.800
 116764187.614 6  90816622.290 7  21873871.688    21873873.928    21873878.151
        36.600          43.500


 102732739.636 8  79903290.739 6  19198075.403    19198075.687    19198077.634
        51.200          41.200
 102271846.324 8  79544800.201 7  19165697.014    19165696.996    19165700.508
        51.500          47.000
 198899352.481 7                  37849295.946
        44.300
 112409023.215 5  87591461.97242  21390732.468    21390731.9864   21390731.1764
        33.000          13.5004
 202033202.811 7                  38445650.986
        45.100
 130356979.050 7                  24806093.274
        42.900
 125606518.891 7                  23902121.041
        46.500


 123099333.480 7                  23425008.066
        46.600
 111173663.340 7  86468435.624 6  20790044.820    20790044.899    20790050.509
        47.200          38.500
 25  1  1  7 18  0.0000000  0 24G18R01G23G15G24G10E03G27G05G29R03E15
                                E26R18S35R17R02S31S33E07E08E21E13R24
 109466663.787 7  85298720.81346  20830812.456    20830812.1754   20830812.5444
        47.700          37.4004
 114111656.549 7  88753537.972 6  21346945.211    21346946.663    21346951.870
        43.300          39.300
 113592874.510 6  88513959.05143  21616005.608    21616004.9874   21616005.9444
        37.900          21.6004
 104565183.804 8  81479352.67548  19898074.160    19898073.8394   19898073.5694
        50.400          49.4004


 131665287.072 6 102596283.79443  25055076.571    25055076.3574   25055076.6194
        39.500          21.6004




 119930697.819 6  93452480.23644  22822050.524    22822049.6484   22822046.9744
        37.100          26.0004
 113515639.233 7  88453705.52946  21601310.451    21601309.7764   21601311.0034
        44.300          38.3004
 113977554.217 6  88649230.935 6  21291948.396    21291954.867    21291959.186
        39.300          37.300
 137695770.764 5                  26202627.886
        34.800
 132362126.626 6                  25187639.304
        41.100
 116709648.186 5  90774202.714 7  21863655.069    21863657.589    21863661.938
        34.200          45.200
 200875665.807 5                  38225399.361
        35.700
 102716708.905 8  79890822.392 6  19195077.821    19195078.623    19195081.638
        50.500          41.300
 102275900.561 8  79547953.478 7  19166455.752    19166456.174    19166460.187
        50.900          46.600
 198899350.126 7                  37849296.876
        43.500
 202033175.531 7                  38445645.133
        43.400
 130320276.650 7                  24799108.963
        42.700
 125608977.823 7                  23902588.369
        44.300


 123100039.294 7                  23425141.989
        46.300
 111215239.453 7  86500772.562 6  20797821.225    20797820.259    20797825.664
        45.100          40.300
 25  1  1  7 18 15.0000000  0 25G18R01G23G15G24G10E03G27G05G29R03E15
                                E26R18S35R17R02S31G13S33E07E08E21E13
                                R24
 109444038.874 8  85281091.00946  20826507.010    20826506.7334   20826507.7184
        48.200          38.0004
 114164098.983 7  88794326.533 6  21356756.479    21356756.441    21356762.543
        44.600          39.500
 113566631.103 6  88493509.60243  21611013.897    21611013.2804   21611012.6574
        40.400          21.8004
 104564750.466 8  81479015.01948  19897991.566    19897991.2454   19897990.6964
        51.000          50.1004


 131626334.411 6 102565931.05244  25047665.476    25047665.2264   25047666.0714
        38.000          24.1004


 132638875.837 5                  25240338.317
        30.200
 119971203.447 6  93484043.14244  22829757.111    22829756.3874   22829754.1564
        38.100          25.7004
 113556458.350 6  88485512.56645  21609079.977    21609079.3474   21609077.4024
        41.300          35.9004
 113928850.300 6  88611350.322 6  21282853.698    21282856.416    21282859.474
        38.000          38.500
 137724782.717 6                  26208151.022
        38.100
 132332974.008 7                  25182091.694
        43.500
 116655143.537 5  90731810.154 7  21853459.220    21853457.818    21853450.501
        30.200          44.200
 200875672.504 6                  38225388.129
        39.900
 102700823.473 8  79878467.036 6  19192110.191    19192109.868    19192113.871
        49.800          41.800
 102280118.821 8  79551234.342 7  19167246.768    19167246.967    19167250.565
        51.400          46.500
 198899345.205 7                  37849298.566
        44.200
 112463992.586 4                  21401186.353
        28.400
 202033144.853 7                  38445637.174
        45.500
 130283636.605 6                  24792137.067
        41.900
 125611538.939 7                  23903076.427
        45.000


 123100793.109 7                  23425285.846
        46.200
 111256933.789 7  86533201.513 7  20805616.622    20805616.202    20805623.368
        45.700          42.800
 25  1  1  7 18 30.0000000  0 25G18R01G23G15G16G24G10E03G27G05G29R03
                                E15E26S35R17R02S31G13S33E07E08E21E13
                                R24
 109421487.858 7  85263518.78546  20822214.815    20822214.5344   20822216.6504
        45.000          36.9004
 114216603.110 7  88835163.076 6  21366577.569    21366577.632    21366583.831
        42.900          38.300
 113540444.210 7  88473104.24144  21606031.048    21606030.4364   21606030.0004
        43.300          26.4004
 104564474.771 8  81478800.22348  19897938.995    19897938.6874   19897938.7234
        50.400          51.3004
 131788906.096 5                  25078595.459
        35.500


 131587406.016 6 102535597.23444  25040257.481    25040257.2364   25040257.8364
        40.400          24.8004






 113597382.263 7  88517401.26246  21616865.849    21616865.1924   21616866.4414
        44.800          38.9004
 113880254.582 7  88573553.412 7  21273776.665    21273776.192    21273782.250
        44.700          42.300
 137753833.413 6                  26213677.331
        36.800
 132303835.530 7                  25176546.020
        44.500


 102685086.880 8  79866227.420 7  19189170.132    19189170.527    19189173.569
        51.100          42.500
 102284503.313 8  79554644.513 7  19168068.373    19168068.521    19168072.887
        49.400          46.700
 198899340.293 7                  37849295.713
        43.500
 112491683.347 4                  21406450.162
        29.800
 202033115.593 7                  38445634.942
        45.600
 130247061.993 6                  24785177.922
        41.600
 125614205.168 7                  23903583.911
        45.700


 123101597.965 7                  23425439.132
        46.600
 111298749.488 7  86565724.795 6  20813435.094    20813435.961    20813440.914
        47.200          41.200
 25  1  1  7 18 45.0000000  0 24G18R01G23G15G24G10E03G27G05G29R03E15
                                E26S35R17R02S31G13S33E07E08E21E13R24
 109399010.075 8  85246003.60646  20817937.669    20817937.3974   20817939.0514
        48.300          37.9004
 114269167.636 7  88876046.570 6  21376413.467    21376413.301    21376418.172
        44.100          38.600
 113514313.033 7  88452742.25044  21601057.428    21601056.8074   21601056.2904
        45.900          27.2004
 104564355.833 8  81478707.54248  19897916.490    19897916.1954   19897916.6464
        51.400          51.6004


 131548500.874 6 102505281.56444  25032853.414    25032853.1604   25032854.6184
        37.500          24.4004




 120052341.605 5                  22845189.799
        30.900
 113638409.730 7  88549370.69046  21624673.811    21624673.1814   21624674.4844
        46.000          39.4004
 113831765.860 6  88535840.020 7  21264726.421    21264729.179    21264726.920
        41.900          44.300


 132274710.385 7                  25171003.658
        44.500
 200875833.091 6                  38225395.878
        40.100
 102669498.288 8  79854102.947 7  19186257.287    19186257.766    19186261.184
        51.200          45.800
 102289053.467 8  79558183.510 7  19168920.875    19168921.608    19168925.782
        50.200          46.500
 198899335.439 7                  37849298.181
        43.600
 112519441.273 4  87677443.27641  21411736.942    21411737.1384   21411727.0984
        25.800           8.9004
 202033085.434 7                  38445621.143
        44.200
 130210552.127 6                  24778230.290
        40.900
 125616975.431 7                  23904111.425
        46.200


 123102453.014 7                  23425601.285
        47.500
 111340685.077 7  86598341.356 6  20821277.500    20821279.746    20821283.286
        44.900          40.100
 25  1  1  7 19  0.0000000  0 25G18R01G23G15G24G10E03G27G05G29R03E15
                                E26R18S35R17R02S31G13S33E07E08E21E13
                                R24
 109376605.111 7  85228545.18246  20813673.226    20813672.9584   20813675.2124
        46.300          36.5004
 114321791.467 7  88916976.246 6  21386256.413    21386255.758    21386261.797
        43.700          38.100
 113488236.774 7  88432423.10444  21596094.779    21596094.1624   21596093.5764
        45.500          29.1004
 104564393.083 8  81478736.57648  19897923.685    19897923.3904   19897923.8324
        50.400          51.1004








 120092879.101 5                  22852915.408
        32.900
 113679539.574 7  88581419.96746  21632500.580    21632499.9954   21632501.1564
        47.000          39.8004
 113783384.070 6  88498209.573 7  21255677.898    21255679.715    21255687.964
        36.900          44.400


 132245598.115 6                  25165463.844
        40.900
 116491905.394 6  90604808.847 7  21822860.517                    21822862.317
        41.800          43.700
 200875838.329 6                  38225391.809
        39.000
 102654057.708 8  79842093.586 7  19183371.533    19183371.933    19183376.661
        50.600          46.400
 102293768.108 8  79561850.477 7  19169804.339    19169804.552    19169808.709
        50.400          46.400
 198899329.685 6                  37849292.757
        41.800
 112547380.292 5  87699213.88541  21417052.870    21417053.2764   21417045.5614
        35.900           9.5004
 202033053.938 7                  38445624.335
        46.300
 130174106.439 5                  24771295.092
        33.600
 125619849.148 7                  23904657.860
        43.200


 123103357.776 7                  23425774.110
        47.900
 111382739.921 7  86631050.620 7  20829143.885    20829144.936    20829150.542
        47.800          44.400
 25  1  1  7 19 15.0000000  0 24G18R01G23G15G24G10E03G05G29R03E15E26
                                R18S35R17R02S31G13S33E07E08E21E13R24
 109354273.799 7  85211144.14645  20809424.600    20809424.3284   20809425.0114
        45.300          35.5004
 114374474.708 6  88957952.134 6  21396111.250    21396109.796    21396117.069
        40.900          37.100
 113462216.066 7  88412147.24245  21591143.148    21591142.5454   21591142.4444
        45.900          30.0004
 104564587.060 8  81478887.71648  19897959.582    19897959.2784   19897960.6744
        48.200          49.9004
 129008808.978 5                  24549553.476
        30.100






 113720772.344 7  88613549.37146  21640345.939    21640345.3724   21640348.8674
        47.400          38.7004
 113735109.598 5  88460662.899 7  21246663.987    21246663.627    21246671.067
        35.100          44.900
 137841184.605 5                  26230309.486
        31.000
 132216499.357 7                  25159926.905
        43.800
 116437552.120 6  90562534.025 7  21812675.919    21812674.112    21812678.997
        40.700          43.100
 200875843.692 5                  38225392.135
        35.000
 102638765.821 8  79830199.868 7  19180512.681    19180513.059    19180518.359
        48.800          46.300
 102298647.732 8  79565645.794 7  19170718.687    19170718.896    19170723.115
        49.900          46.300
 198899322.631 7                  37849295.405
        43.500
 112575457.408 6  87721092.10641  21422394.514    21422394.9164   21422389.0034
        38.800          11.3004
 202033022.478 7                  38445617.270
        45.800
 130137725.795 6                  24764371.604
        36.600
 125622826.861 7                  23905224.654
        42.700


 123104312.977 7                  23425955.833
        47.700
 111424914.462 8  86663852.971 7  20837032.123    20837032.163    20837038.100
        49.000          43.200
 25  1  1  7 19 30.0000000  0 24G18R01G23G15G16G24G10E03G29R03E15E26
                                R18S35R17R02S31G13S33E07E08E21E13R24
 109332018.336 7  85193802.21246  20805189.876    20805189.6134   20805189.1724
        46.900          36.1004
 114427219.367 7  88998975.718 5  21405978.352    21405977.974    21405984.219
        43.400          35.400
 113436252.886 7  88391916.19945  21586203.154    21586202.5734   21586202.1684
        46.300          30.0004
 104564939.613 8  81479162.43348  19898027.905    19898027.6154   19898027.4314
        49.400          50.3004
 131850776.056 5                  25090365.832
        30.100
 128959371.898 5 100487794.91942  24540149.816    24540149.6334   24540148.0554
        30.600          15.6004
 131431958.421 5 102414589.36441  25010692.447    25010692.7774   25010686.9744
        33.200           7.0004
 141520705.363 5                  26930496.752
        33.100
 113762109.663 6  88645760.25445  21648211.421    21648210.8454   21648215.1984
        38.600          31.7004
 113686945.354 6  88423201.758 7  21237667.409    21237665.823    21237673.599
        40.700          45.400
 137870387.862 5                  26235869.567
        33.500
 132187416.141 7                  25154393.064
        44.400
 116383239.413 7  90520290.853 6  21802502.738    21802501.524    21802504.165
        44.600          40.800


 102623625.083 7  79818423.725 7  19177683.030    19177682.956    19177689.289
        47.200          46.800
 102303694.196 8  79569570.831 7  19171664.168    19171663.978    19171668.166
        48.900          44.300
 198899317.802 7                  37849292.574
        43.400
 112603674.244 6  87743079.29442  21427764.597    21427764.8424   21427759.5384
        38.700          13.2004
 202032992.157 7                  38445611.855
        42.900
 130101412.379 6                  24757459.169
        36.300
 125625910.404 7                  23905811.750
        43.000


 123105320.689 7                  23426147.090
        47.000
 111467210.512 7  86696749.824 7  20844942.379    20844942.678    20844947.443
        46.600          43.400
 25  1  1  7 19 45.0000000  0 23G18R01G23G15G16G24G10E03G29R03E15E26
                                R18S35R17R02S31G13S33E07E08E13R24
 109309838.239 7  85176518.98246  20800969.438    20800969.1704   20800968.4704
        47.000          38.1004
 114480023.898 7  89040045.858 5  21415857.025    21415856.875    21415860.745
        43.200          33.900
 113410346.561 7  88371729.43045  21581272.133    21581271.5704   21581273.2954
        46.700          31.8004
 104565450.033 8  81479560.16248  19898124.748    19898124.4534   19898123.9554
        49.900          50.5004
 131866533.242 5                  25093364.396
        33.800
 128909931.164 5 100449269.58642  24530740.667    24530740.4624   24530741.1074
        33.400          17.1004
 131393106.218 4                  25003284.319
        29.600
 141557552.447 5                  26937510.491
        34.100
 113803550.442 6  88678051.71044  21656099.578    21656098.9974   21656097.7574
        40.500          25.9004
 113638890.663 6  88385825.841 7  21228694.504    21228695.896    21228695.573
        40.800          42.600
 137899630.793 5                  26241430.355
        35.200
 132158348.045 7                  25148860.554
        44.400
 116328967.350 7  90478079.190 6  21792333.668    21792334.320    21792336.053
        43.800          40.500


 102608635.065 8  79806764.857 7  19174881.888    19174882.066    19174888.014
        48.300          47.400
 102308906.528 8  79573624.889 7  19172642.462    19172642.110    19172645.063
        51.300          44.000
 198899314.005 7                  37849291.711
        42.400
 112632029.682 6  87765174.41242  21433155.836    21433155.9294   21433156.3174
        36.500          16.3004
 202032962.879 7                  38445603.185
        43.800
 130065165.563 6                  24750564.429
        39.500
 125629099.114 7                  23906418.441
        44.000
 123106380.337 7                  23426349.259
        47.200
 111509627.059 7  86729740.510 6  20852871.779    20852870.610    20852877.835
        42.600          41.600
 25  1  1  7 20  0.0000000  0 23G18R01G23G15G16G24G10E03G29R03E15E26
                                R18S35R17R02S31G13S33E07E08E13R24
 109287730.733 8  85159292.32546  20796762.530    20796762.2894   20796761.5504
        50.800          39.1004
 114532884.975 7  89081160.033 5  21425747.362    21425748.332    21425748.607
        46.300          33.100
 113384493.990 7  88351584.65045  21576353.060    21576352.5064   21576353.7334
        43.600          30.2004
 104566115.111 8  81480078.43848  19898250.780    19898250.4904   19898250.4534
        49.500          49.7004
 131882402.243 5                  25096385.836
        33.000




 141594448.096 5                  26944530.529
        32.500
 113845091.605 7  88710421.48744  21664006.161    21664005.6164   21664001.3814
        43.300          29.0004
 113590942.697 6  88348533.038 7  21219730.200    21219730.396    21219737.702
        39.900          42.900
 137928909.786 5                  26247002.847
        33.000
 132129292.008 7                  25143331.768
        44.600
 116274733.021 5  90435897.008 7  21782172.277    21782170.134    21782177.546
        35.900          42.000
 200875820.802 6                  38225389.515
        37.900
 102593793.041 8  79795221.020 7  19172108.296    19172108.493    19172114.370
        48.800          46.500
 102314281.529 8  79577805.473 7  19173648.855    19173648.905    19173652.547
        50.400          44.800
 198899307.125 6                  37849280.201
        40.500
 112660520.686 5  87787375.14141  21438580.190    21438580.2974   21438578.6294
        35.000          11.9004
 202032931.222 7                  38445597.126
        42.800
 130028982.656 6                  24743678.350
        40.500
 125632389.866 7                  23907044.651
        43.600
 123107488.946 8                  23426560.122
        48.400
                  86762822.420 6                  20860821.745    20860830.142
                        41.700
 25  1  1  7 20 15.0000000  0 25G18R01G23G15G16G24G10E03G05G29R03E15
                                E26R18S35R17R02S31G13S33E07E08E21E13
                                R24
 109265700.120 8  85142125.61846  20792570.324    20792570.0924   20792569.1534
        50.800          40.2004
 114585806.192 7  89122320.916 5  21435647.355    21435648.509    21435648.502
        44.500          33.900
 113358699.326 7  88331484.98144  21571444.672    21571444.1454   21571443.5824
        45.300          27.2004
 104566938.949 8  81480720.39648  19898407.763    19898407.4824   19898406.6344
        49.300          49.5004
 131898386.756 4 102777971.6754   25099425.676    25099425.8504   25099428.0194
        26.800           2.2004




 141631396.384 4                  26951559.042
        29.200
 120295910.378 5  93737051.68241  22891545.018    22891544.5134   22891543.1484
        31.100           8.6004
 113886736.648 7  88742872.03244  21671928.366    21671927.8124   21671924.1934
        42.700          26.4004
 113543105.666 7  88311326.505 7  21210798.582    21210795.437    21210799.554
        42.900          42.600
 137958229.114 5                  26252578.020
        34.000
 132100252.323 7                  25137806.046
        43.600
 116220540.920 7  90393747.574 7  21772020.002    21772019.801    21772028.376
        42.100          43.600
 200875828.028 5                  38225398.235
        34.300
 102579103.335 8  79783795.663 7  19169363.365    19169363.185    19169368.530
        48.400          46.200
 102319823.058 8  79582115.549 7  19174686.867    19174687.113    19174691.439
        49.000          46.100
 198899302.966 7                  37849290.723
        43.300
 112689150.902 5  87809684.31842  21444027.069    21444027.2074   21444026.8314
        35.800          14.1004
 202032901.069 7                  38445593.039
        44.400
 129992867.791 6                  24736804.162
        36.600
 125635786.667 7                  23907690.690
        43.400


 123108650.727 8                  23426781.092
        48.500
 111594816.369 7  86795998.804 7  20868809.952    20868812.012    20868808.500
        44.900          43.100
 25  1  1  7 20 30.0000000  0 25G18R01G23G15G24G10E03G27G05G29R03E15
                                E26R18S35R17R02S31G13S33E07E08E21E13
                                R24
 109243743.142 8  85125016.29246  20788392.103    20788391.8754   20788390.5794
        50.900          40.0004
 114638783.476 6  89163525.472 5  21445556.602    21445557.263    21445559.523
        40.800          32.400
 113332959.118 7  88311427.69844  21566546.155    21566545.6464   21566544.4334
        44.300          26.6004
 104567918.023 8  81481483.31248  19898594.257    19898593.9764   19898592.5954
        50.100          49.6004




 141668393.293 4                  26958602.401
        27.000


 120336578.969 5  93768741.64442  22899282.010    22899281.6534   22899279.2744
        35.900          14.9004
 113928481.746 7  88775400.61845  21679872.723    21679872.1914   21679870.6424
        43.000          32.6004
 113495376.467 7  88274203.823 6  21201881.267    21201882.473    21201882.558
        44.100          41.700
 137987585.276 5                  26258162.436
        33.500
 132071225.585 7                  25132282.351
        45.500
 116166388.057 6  90351628.663 7  21761874.653    21761874.011    21761883.480
        41.300          43.800
 200875833.486 6                  38225412.070
        36.200
 102564562.915 8  79772486.443 7  19166646.055    19166646.316    19166650.575
        49.200          45.200
 102325527.258 8  79586552.168 7  19175756.457    19175757.159    19175761.369
        50.200          47.000
 198899296.984 7                  37849285.281
        43.400
 112717916.529 6  87832099.12442  21449502.235    21449502.4364   21449501.1084
        37.500          16.2004
 202032870.049 7                  38445585.137
        44.500
 129956817.687 6                  24729945.391
        37.400
 125639286.028 7                  23908356.698
        44.900


 123109862.315 8                  23427012.017
        49.700
 111637589.265 7  86829266.576 7  20876801.005    20876801.867    20876808.555
        44.200          43.000
 25  1  1  7 20 45.0000000  0 25G18R01G23G15G24G10E03G27G05G29R03E15
                                E26R18S35R17R02S31G13S33E07E08E21E13
                                R24
 109221864.947 8  85107968.36346  20784228.696    20784228.4684   20784227.6414
        51.300          40.5004
 114691821.857 6  89204777.550 5  21455477.109    21455476.211    21455483.578
        38.100          35.100
 113307278.178 6  88291416.58244  21561659.955    21561659.4684   21561657.6964
        40.800          26.0004
 104569057.143 8  81482370.93348  19898811.501    19898811.2154   19898809.4384
        50.000          49.8004




 141705443.575 4                  26965657.296
        27.800


 120377268.557 5  93800447.77542  22907023.304    22907023.0234   22907021.4064
        35.200          17.4004
 113970331.350 7  88808010.65845  21687837.871    21687837.3084   21687837.2354
        42.800          34.5004
 113447760.226 6  88237169.024 7  21192985.441    21192985.313    21192989.752
        41.600          42.300
 138016983.111 5                  26263756.340
        34.000
 132042216.806 7                  25126761.969
        45.100
 116112279.856 7  90309544.457 7  21751740.423    21751740.103    21751747.479
        44.100          43.500
 200875842.692 5                  38225411.551
        33.400
 102550177.251 8  79761297.553 7  19163958.958    19163958.978    19163962.428
        51.300          44.500
 102331398.921 8  79591118.997 7  19176856.897    19176857.867    19176861.196
        50.400          47.500
 198899293.767 7                  37849279.830
        42.900
 112746822.223 6  87854623.07043  21455003.960    21455004.1704   21455002.7424
        40.700          19.2004
 202032841.626 7                  38445578.099
        43.900
 129920837.429 6                  24723099.105
        36.700
 125642892.767 7                  23909042.854
        43.800


 123111128.731 8                  23427253.421
        51.200
 111680484.634 7  86862629.608 7  20884823.911    20884822.978    20884829.166
        43.100          42.000
 25  1  1  7 21  0.0000000  0 25G18R01G23G15G24G10E03G27G05G29R03E15
                                E26R18S35R17R02S31G13S33E07E08E21E13
                                R24
 109200058.023 8  85090975.97146  20780078.973    20780078.7454   20780078.4544
        50.800          41.1004
 114744912.538 6  89246070.273 6  21465409.009    21465408.566    21465416.854
        41.700          38.100
 113281648.862 6  88271445.69444  21556781.325    21556780.8744   21556781.6244
        36.900          25.2004
 104570348.426 8  81483377.11048  19899057.488    19899057.2114   19899055.4484
        50.500          50.4004




 141742539.619 5                  26972718.301
        31.800


 120417971.291 6  93832164.12643  22914769.876    22914769.6134   22914765.2094
        40.300          19.2004
 114012277.671 7  88840696.09146  21695822.033    21695821.4704   21695820.8214
        44.600          36.3004
 113400249.644 6  88200216.389 7  21184110.301    21184108.306    21184114.060
        39.300          42.700
 138046414.976 6                  26269359.005
        36.300
 132013218.423 7                  25121243.603
        45.500
 116058208.830 7  90267489.220 7  21741610.772    21741610.483    21741617.787
        42.700          42.300
 200875847.449 6                  38225401.213
        36.200
 102535938.391 8  79750222.889 7  19161298.494    19161298.649    19161302.653
        52.700          45.900
 102337430.310 8  79595810.058 7  19177985.488    19177985.829    19177991.720
        49.800          47.800
 198899286.958 7                  37849277.930
        42.100
 112775860.216 7  87877250.12943  21460529.234    21460529.3414   21460530.0034
        43.000          19.9004
 202032809.421 7                  38445573.252
        44.100
 129884919.488 6                  24716263.934
        39.700
 125646599.107 7                  23909749.100
        44.300


 123112442.375 8                  23427503.364
        51.300
 111723494.438 7  86896081.592 6  20892865.993    20892866.086    20892872.416
        42.500          41.000
 25  1  1  7 21 15.0000000  0 25G18R01G23G15G24G10E03G27G05G29R03E15
                                E26R18S35R17R02S31G13S33E07E08E21E13
                                R24
 109178327.651 8  85074043.21546  20775943.987    20775943.7554   20775943.7504
        51.500          41.6004
 114798060.525 6  89287407.574 6  21475352.222    21475351.746    21475358.295
        40.100          39.300
 113256076.072 6  88251518.80944  21551916.847    21551916.4274   21551916.3064
        41.900          29.1004
 104571797.092 8  81484505.91448  19899332.554    19899332.2684   19899331.6614
        48.800          49.3004








 120458692.144 6  93863894.61744  22922518.186    22922517.9054   22922515.6674
        40.700          24.2004
 114054325.455 7  88873460.53745  21703821.328    21703820.7204   21703823.2234
        42.400          34.5004
 113352849.712 7  88163349.675 6  21175256.588    21175256.868    21175256.827
        42.700          41.500
 138075885.837 6                  26274966.618
        36.100
 131984235.549 7                  25115727.912
        45.100
 116004180.537 7  90225467.213 6  21731491.512    21731490.297    21731495.138
        45.500          41.700


 102521852.186 8  79739266.912 7  19158665.588    19158666.201    19158670.254
        52.700          46.100
 102343625.663 8  79600628.636 7  19179148.804    19179148.925    19179151.807
        52.600          46.600
 198899280.907 6                  37849271.133
        39.900
 112805035.211 7  87899983.86443  21466079.847    21466079.8784   21466080.6414
        42.200          18.7004
 202032776.901 7                  38445568.619
        43.300
 129849069.044 6                  24709442.153
        40.500
 125650409.989 6                  23910472.010
        39.900


 123113808.386 8                  23427763.089
        51.400
 111766623.426 7  86929626.254 6  20900933.123    20900933.792    20900935.302
        43.500          38.800
 25  1  1  7 21 30.0000000  0 24G18R01G23G15G24G10E03G27G05G29R03E15
                                E26R18S35R17R02S31G13S33E07E08E13R24
 109156675.682 8  85057171.53146  20771822.591    20771822.3554   20771824.1524
        49.500          41.6004
 114851266.843 7  89328790.294 6  21485305.522    21485305.918    21485313.670
        43.000          40.300
 113230561.544 6  88231637.37045  21547060.539    21547060.1194   21547062.2574
        41.900          30.9004
 104573404.525 8  81485758.45648  19899639.085    19899638.8084   19899638.0474
        48.400          48.8004


 131122124.859 6 102173121.36844  24951714.285    24951714.0624   24951718.2704
        37.600          26.0004




 120499432.498 6  93895640.33543  22930270.538    22930270.2794   22930269.1164
        41.800          22.7004
 114096475.922 6  88906305.07645  21711840.764    21711840.2144   21711843.8834
        41.800          34.1004
 113305562.337 6  88126570.694 7  21166419.799    21166419.318    21166425.090
        38.500          42.400
 138105397.528 6                  26280582.838
        37.800
 131955269.914 7                  25110216.008
        46.500
 115950197.001 7  90183480.000 6  21721375.623    21721376.198    21721379.885
        42.700          36.900
 200875839.229 6                  38225403.104
        38.100
 102507920.291 8  79728431.034 7  19156060.770    19156061.212    19156067.640
        51.400          47.100
 102349986.713 8  79605576.140 7  19180340.046    19180340.201    19180344.764
        51.700          47.600
 198899276.609 6                  37849276.060
        39.800
 112834348.503 7  87922825.40442  21471658.375    21471658.3224   21471656.2494
        42.900          17.4004
 202032748.143 7                  38445550.223
        43.000
 129813287.923 7                  24702633.125
        42.500
 125654327.056 7                  23911218.851
        42.900
 123115228.411 8                  23428033.218
        50.300
 111809873.060 7  86963264.783 6  20909021.651    20909021.969    20909024.190
        45.600          39.200
 25  1  1  7 21 45.0000000  0 23G18R01G23G15G24G10E03G05G29R03E15E26
                                R18S35R17R02S31G13S33E07E08E13R24
 109135099.500 8  85040358.92546  20767717.131    20767716.8954   20767718.7734
        48.300          40.2004
 114904528.215 7  89370215.774 6  21495269.933    21495270.764    21495277.106
        44.400          39.900
 113205102.308 6  88211799.00544  21542214.526    21542214.1514   21542217.5634
        38.200          28.3004
 104575167.934 8  81487132.52248  19899973.962    19899973.6764   19899973.8174
        49.400          48.6004


 131083505.740 5 102143028.58144  24944367.638    24944367.4784   24944366.9354
        33.600          24.2004
 141854180.990 5                  26993953.463
        34.100
 120540189.490 6  93927399.04044  22938026.737    22938026.4874   22938026.6754
        40.700          24.8004
 114138725.958 6  88939227.19245  21719881.393    21719880.8754   21719884.6844
        38.500          34.4004
 113258385.217 6  88089877.358 6  21157605.975    21157606.707    21157612.712
        39.200          41.800
 138134947.084 6                  26286206.852
        38.700
 131926318.826 7                  25104706.759
        45.700
 115896255.803 7  90141525.744 6  21711269.587    21711269.889    21711276.509
        42.400          38.100
 200875846.440 6                  38225403.234
        37.500
 102494140.353 8  79717713.279 7  19153485.949    19153485.947    19153492.437
        50.900          46.800
 102356510.658 8  79610650.299 7  19181562.279    19181563.078    19181566.881
        51.800          46.500
 198899272.133 6                  37849287.459
        41.000
 112863796.912 7  87945772.19243  21477262.706    21477262.6714   21477259.7074
        42.800          19.6004
 202032718.029 7                  38445559.864
        45.400
 129777573.310 6                  24695836.575
        41.100
 125658347.342 7                  23911982.882
        42.100
 123116699.845 8                  23428313.331
        50.500
 111853240.392 6  86996994.843 6  20917129.610    20917127.728    20917134.515
        41.100          38.600
 25  1  1  7 22  0.0000000  0 23G18R01G23G15G24G10E03G05G29R03E15E26
                                R18S35R17R02S31G13S33E07E08E13R24
 109113599.891 8  85023605.97246  20763625.807    20763625.5714   20763627.4934
        48.800          40.5004
 114957845.057 7  89411684.432 6  21505244.414    21505245.693    21505250.676
        45.200          39.200
 113179699.055 7  88192004.22945  21537381.849    21537381.5364   21537383.2694
        44.700          30.6004
 104577087.791 7  81488628.50648  19900339.399    19900339.1094   19900338.9704
        47.700          48.5004


 131044910.684 5 102112954.54142  24937017.391    24937017.0654   24937021.3304
        31.000          17.8004
 141891477.117 4                  27001048.005
        28.400
 120580963.413 6  93959170.83944  22945786.437    22945786.2014   22945785.6514
        40.100          24.1004
 114181075.812 7  88972227.13945  21727939.917    21727939.3994   21727943.1474
        43.700          33.0004
 113211318.799 6  88053270.178 6  21148827.777    21148827.360    21148816.691
        40.300          40.200
 138164535.148 6                  26291836.914
        40.500
 131897382.964 7                  25099201.221
        46.100
 115842357.825 6  90099605.138 6  21701173.955    21701172.777    21701179.165
        40.100          39.600
 200875853.795 6                  38225399.178
        39.400
 102480513.114 8  79707114.313 7  19150940.054    19150939.407    19150944.985
        50.300          45.500
 102363197.636 8  79615851.278 7  19182815.147    19182815.079    19182819.731
        50.500          46.800
 198899267.450 7                  37849288.912
        42.300
 112893380.754 7  87968824.53643  21482891.696    21482891.6344   21482890.7274
        42.700          21.1004
 202032687.596 7                  38445554.207
        42.700
 129741926.183 6                  24689052.177
        40.100
 125662471.297 7                  23912767.194
        42.000
 123118223.234 8                  23428603.186
        48.900
 111896725.615 6  87030816.794 6  20925259.848    20925255.542    20925267.842
        39.400          39.200
 25  1  1  7 22 15.0000000  0 23G18R01G23G15G24G10E03G05G29R03E15E26
                                R18S35R17R02S31G13S33E07E08E13R24
 109092177.714 8  85006913.37246  20759549.581    20759549.3404   20759550.6084
        49.200          41.3004
 115011217.251 6  89453196.132 6  21515228.064    21515228.849    21515233.520
        41.700          38.500
 113154352.300 7  88172253.57145  21532557.126    21532556.8274   21532559.7124
        42.600          30.7004
 104579164.544 8  81490246.76648  19900735.130    19900734.8444   19900734.3334
        48.100          49.0004
 128415314.691 5 100063894.37041  24436620.676    24436620.6144   24436625.0654
        30.700          11.5004
 131006340.230 5 102082899.65142  24929681.503    24929681.1104   24929681.1614
        30.200          17.6004
 141928822.766 5                  27008154.649
        33.300
 120621754.974 6  93990956.40344  22953548.882    22953548.6234   22953547.7044
        38.800          26.2004
 114223525.524 6  89005304.80244  21736017.053    21736016.5034   21736018.9864
        39.800          29.5004
                  88016749.827 7                                  21140047.620
                        42.300
 138194162.281 6                  26297474.735
        41.200
 131868463.018 8                  25093697.585
        48.000
 115788504.231 7  90057718.982 5  21691087.547    21691086.947    21691089.029
        46.500          35.600
 200875861.562 6                  38225408.922
        41.200
 102467039.686 8  79696634.987 7  19148422.029    19148421.928    19148426.187
        50.500          45.500
 102370047.873 8  79621179.227 7  19184099.246    19184099.856    19184103.355
        50.700          46.900
 198899263.687 6                  37849276.686
        41.400
 112923100.273 7  87991982.60943  21488548.433    21488548.3574   21488547.0884
        42.600          21.5004
 202032658.336 7                  38445535.520
        42.600
 129706347.141 6                  24682281.903
        37.200
 125666699.588 6                  23913572.534
        41.400
 123119799.388 8                  23428903.282
        50.000
 111940329.655 7  87064730.827 6  20933414.105    20933415.676    20933421.796
        44.300          39.700
 25  1  1  7 22 30.0000000  0 24G18R01G23G15G24G10E03G05G29R03E15E26
                                R18S35R17R02S31G13S33E07E08E21E13R24
 109070833.400 8  84990281.42547  20755488.258    20755488.0304   20755488.6444
        51.300          43.5004
 115064644.770 6  89494750.888 6  21525222.302    21525220.565    21525228.678
        38.300          38.900
 113129062.327 7  88152547.13145  21527746.014    21527745.7374   21527746.0954
        44.500          30.7004
 104581398.362 8  81491987.40148  19901159.976    19901159.6684   19901159.7184
        48.200          48.3004
 128365848.703 4 100025349.40741  24427207.437    24427207.3664   24427208.7584
        29.800           7.4004
 130967794.395 5 102052863.91843  24922345.252    24922344.7964   24922347.6424
        33.900          20.5004
 141966217.850 4                  27015268.889
        28.000
 120662564.463 6  94022755.95344  22961313.075    22961312.7624   22961313.8934
        40.100          24.8004
 114266075.257 6  89038460.37745  21744116.738    21744116.1354   21744113.7774
        39.000          30.6004
 113117504.767 5  87980316.860 7  21131296.610                    21131299.149
        30.800          44.900
 138223828.740 6                  26303119.509
        36.300
 131839559.388 7                  25088197.946
        47.800
 115734695.535 8  90015867.807 6  21681006.438    21681007.937    21681009.147
        48.800          39.000
 200875870.262 6                  38225405.859
        40.800
 102453720.347 8  79686275.539 7  19145932.792    19145932.876    19145937.738
        50.800          46.000
 102377061.483 8  79626634.238 7  19185413.394    19185413.686    19185417.856
        50.200          46.900
 198899260.931 7                  37849279.566
        42.900
 112952955.528 7  88015246.45243  21494229.036    21494228.9564   21494228.6924
        44.000          22.3004
 202032629.999 7                  38445537.868
        43.400
 129670836.673 6                  24675525.223
        40.700
 125671032.270 7                  23914398.549
        42.100


 123121428.636 8                  23429212.838
        48.600
 111984052.177 7  87098737.127 6  20941592.142    20941592.400    20941596.844
        45.800          36.900
 25  1  1  7 22 45.0000000  0 24G18R01G23G15G24G10E03G05G29R03E15E26
                                R18S35R17R02S31G13S33E07E08E21E13R24
 109049560.657 8  84973705.27547  20751440.078    20751439.8554   20751440.3994
        50.800          43.8004
 115118120.519 6  89536343.113 6  21535228.364    21535226.504    21535232.078
        41.700          38.000
 113103822.643 7  88132879.84845  21522944.305    21522943.9924   21522942.0664
        43.000          30.7004
 104583782.693 8  81493845.31748  19901613.627    19901613.3284   19901613.2574
        48.400          48.2004
 128316377.089 4  99986800.29041  24417793.817    24417794.0854   24417794.2894
        24.300           7.8004
 130929267.028 5 102022842.52943  24915011.459    24915010.8924   24915017.7054
        33.900          22.2004


 120703385.140 6  94054564.17944  22969082.107    22969081.8084   22969082.3314
        36.600          24.6004
 114308717.955 6  89071688.39345  21752231.055    21752230.5054   21752228.8604
        41.000          32.8004
                  87943966.234 7                                  21122567.059
                        43.700
 138253528.011 5                  26308770.273
        35.600
 131810665.652 7                  25082699.975
        47.100
 115680925.601 7  89974046.792 6  21670932.710    21670931.592    21670934.832
        43.600          39.000


 102440548.960 8  79676031.135 7  19143472.261    19143472.066    19143475.882
        50.700          44.900
 102384231.782 8  79632211.132 7  19186756.969    19186757.610    19186761.999
        50.900          47.400
 198899252.320 6                  37849277.889
        41.600
 112982939.616 6  88038610.67043  21499934.532    21499934.4394   21499933.9504
        40.600          22.0004
 202032595.444 7                  38445534.116
        44.300
 129635388.383 6                  24668780.095
        38.000
 125675462.865 7                  23915240.926
        44.100


 123123104.563 7                  23429531.412
        47.800
 112027886.232 8  87132830.115 6  20949790.504    20949791.093    20949795.139
        52.100          40.800
 25  1  1  7 23  0.0000000  0 26G18R01G23G15G16G24G10E03G27G05G29R03
                                E15E26R18S35R17R02S31G13S33E07E08E21
                                E13R24
 109028370.171 8  84957193.21147  20747408.079    20747407.8514   20747407.8324
        50.100          42.7004
 115171654.608 6  89577980.800 6  21545238.483    21545237.774    21545248.137
        39.400          38.500
 113078643.560 6  88113259.83145  21518152.870    21518152.5664   21518150.6154
        41.600          31.1004
 104586327.970 7  81495828.64747  19902097.238    19902096.9394   19902097.2164
        46.700          46.9004
 132081633.837 5                  25134301.179
        34.500


 130890768.297 5 101992843.52844  24907688.273    24907687.7014   24907693.5494
        33.800          24.8004




 120744227.185 4  94086389.16643  22976848.355    22976848.2084   22976854.8784
        29.700          19.2004
 114351463.859 6  89104996.84545  21760364.513    21760363.9414   21760364.1684
        41.100          34.8004
 113024175.141 6  87907706.265 7  21113852.820    21113851.125    21113856.799
        36.400          43.300
 138283270.566 5                  26314429.580
        30.200
 131781792.361 7                  25077205.332
        47.300
 115627205.478 7  89932264.505 6  21660871.739    21660870.419    21660872.179
        44.300          39.400
 200875879.340 5                  38225409.342
        32.500
 102427536.435 8  79665910.295 7  19141040.105    19141040.983    19141043.091
        51.100          44.000
 102391569.099 8  79637917.936 7  19188131.888    19188131.624    19188136.580
        49.400          47.400
 198899248.242 7                  37849278.730
        42.600
 113013062.849 5  88062083.28543  21505666.213    21505666.1244   21505665.9844
        32.400          18.9004
 202032566.370 7                  38445521.256
        44.000
 129600012.936 7                  24662048.016
        42.800
 125680001.711 7                  23916105.005
        44.600


 123124837.692 7                  23429861.317
        47.900
 112071842.433 8  87167018.206 6  20958009.096    20958009.466    20958014.629
        51.700          41.300
 25  1  1  7 23 15.0000000  0 26G18R01G23G15G16G24G10E03G27G05G29R03
                                E15E26R18S35R17R02S31G13S33E07E08E21
                                E13R24
 109007254.720 8  84940739.60747  20743389.830    20743389.5894   20743389.4754
        50.400          42.0004
 115225239.346 7  89619657.826 6  21555264.717    21555265.884    21555272.410
        42.600          37.800
 113053517.727 6  88093681.29044  21513370.477    21513370.1334   21513370.5354
        36.800          28.8004
 104589026.563 7  81497931.43247  19902611.092    19902610.8064   19902610.1744
        47.000          46.5004
 132098961.664 4                  25137594.344
        25.000


 130852290.886 5 101962861.15144  24900366.428    24900365.7624   24900370.0694
        31.600          24.3004




 120785083.019 5  94118224.97643  22984626.964    22984626.7364   22984630.3774
        35.900          21.0004
 114394305.316 6  89138379.79145  21768515.584    21768515.0174   21768517.4434
        39.700          33.6004
 112977664.550 7  87871531.398 7  21105165.526    21105165.043    21105168.472
        43.300          42.600
 138313049.047 5                  26320100.416
        30.200
 131752932.213 7                  25071713.269
        45.300
 115573527.913 7  89890515.282 7  21650815.299    21650816.042    21650818.066
        44.700          42.100
 200875885.215 6                  38225413.210
        40.100
 102414675.557 8  79655907.391 7  19138636.840    19138636.882    19138640.868
        49.900          44.700
 102399065.263 8  79643748.291 8  19189537.324    19189537.113    19189542.324
        50.900          48.400
 198899242.386 6                  37849273.270
        41.800
 113043317.415 5  88085658.27442  21511426.821    21511426.7054   21511423.4134
        34.900          12.1004
 202032534.132 7                  38445527.163
        43.300
 129564703.037 7                  24655329.115
        44.500
 125684641.250 7                  23916988.610
        44.900


 123126620.667 8                  23430200.591
        48.400
 112115913.094 8  87201295.310 7  20966251.326    20966251.087    20966256.594
        50.400          42.900
 25  1  1  7 23 30.0000000  0 24G18R01G23G15G24G10E03G27G05G29R03E15
                                E26R18S35R17R02S31G13S33E07E08E13R24
 108986219.223 8  84924348.30446  20739387.029    20739386.7704   20739386.1934
        49.200          41.7004
 115278878.683 7  89661377.294 6  21565299.992    21565299.463    21565304.187
        43.100          36.000
 113028449.847 6  88074147.87344  21508601.094    21508600.7194   21508600.9284
        39.200          29.1004
 104591883.251 8  81500157.41747  19903154.381    19903154.1224   19903153.7674
        48.000          46.8004


 130813839.568 5 101932899.09944  24893048.986    24893048.3874   24893052.6524
        33.900          25.1004




 120825957.409 6  94150075.18744  22992410.126    22992409.9034   22992408.7694
        38.000          26.9004
 114437246.549 6  89171840.41344  21776686.335    21776685.7454   21776688.7924
        36.000          28.2004
 112931268.562 7  87835445.607 7  21096500.321    21096499.052    21096501.421
        46.200          42.700


 131724089.949 7                  25066225.013
        44.000
 115519898.263 7  89848803.333 7  21640768.701    21640770.001    21640773.112
        43.600          45.400
 200875892.811 6                  38225418.504
        37.400
 102401971.314 8  79646026.322 7  19136262.876    19136264.266    19136267.394
        51.000          45.400
 102406725.057 8  79649705.927 8  19190972.661    19190972.750    19190977.813
        51.300          48.300
 198899238.329 6                  37849271.593
        41.900
 113073707.672 5  88109339.01342  21517213.190    21517212.9674   21517206.6794
        35.000          12.5004
 202032503.957 7                  38445514.016
        43.800
 129529463.606 7                  24648623.565
        45.400
 125689386.171 7                  23917891.249
        44.300
 123128458.324 7                  23430549.892
        46.900
 112160102.740 8  87235665.010 7  20974515.275    20974515.115    20974521.495
        49.900          43.800
 25  1  1  7 23 45.0000000  0 24G18R01G23G15G24G10E03G27G05G29R03E15
                                E26R18S35R17R02S31G13S33E07E08E13R24
 108965263.043 8  84908018.80447  20735398.922    20735398.6684   20735398.2744
        50.700          42.2004
 115332571.311 6  89703138.212 5  21575343.146    21575341.189    21575346.186
        38.500          32.600
 113003438.904 6  88054658.81544  21503840.346    21503839.9134   21503841.6114
        36.000          27.6004
 104594896.753 8  81502505.58847  19903727.223    19903726.9644   19903727.4944
        48.700          47.7004


 130775413.328 5 101902956.58444  24885736.491    24885735.9774   24885738.6654
        35.600          25.1004




 120866849.315 6  94181939.02444  23000192.401    23000192.1604   23000190.7694
        41.000          28.5004
 114480286.645 5  89205378.10844  21784885.236    21784884.6514   21784878.1624
        33.300          25.0004
 112884986.098 8  87799448.131 6  21087855.405    21087857.516    21087854.636
        48.800          41.800


 131695264.930 7                  25060739.418
        43.200
 115466315.933 6  89807128.228 7  21630731.699    21630731.888    21630735.513
        41.200          46.100
 200875901.383 6                  38225419.551
        37.800
 102389423.266 8  79636266.685 7  19133917.397    19133917.224    19133922.998
        49.100          46.000
 102414547.407 8  79655789.961 8  19192439.089    19192438.919    19192443.124
        51.500          48.100
 198899235.005 6                  37849272.930
        41.300
 113104232.333 5  88133124.44342  21523015.611    21523015.3034   21523015.6074
        34.500          14.4004
 202032475.887 7                  38445510.810
        43.800
 129494293.891 7                  24641930.617
        44.300
 125694235.478 7                  23918814.325
        45.000
 123130349.886 7                  23430910.745
        46.700
 112204410.157 7  87270126.323 7  20982800.018    20982798.201    20982806.056
        44.000          43.200
 25  1  1  7 24  0.0000000  0 25G18R01G23G15G16G24G10E03G27G05G29R03
                                E15E26R18S35R17R02S31G13S33E07E08E13
                                R24
 108944382.079 8  84891747.90846  20731425.255    20731425.0104   20731425.0454
        50.700          41.7004
 115386312.784 6  89744937.022 5  21585396.044    21585394.778    21585400.951
        41.300          33.900
 112978480.694 6  88035210.86044  21499091.997    21499091.4974   21499091.3974
        39.300          26.5004
 104598062.639 8  81504972.49947  19904329.840    19904329.5904   19904330.3184
        48.100          47.7004
 132151631.889 5                  25147619.215
        33.900


 130737007.990 5 101873030.36543  24878425.758    24878425.2134   24878428.8864
        33.600          23.2004




 120907754.502 6  94213813.15544  23007974.074    23007973.8244   23007974.4204
        41.600          29.9004
 114523420.532 6  89238988.90644  21793089.618    21793089.0064   21793085.8834
        38.300          29.4004
 112838813.343 7  87763536.073 7  21079221.398    21079223.162    21079231.407
        43.200          42.600


 131666452.900 6                  25055256.545
        40.800
 115412777.104 6  89765486.920 7  21620697.666    21620699.012    21620704.957
        36.300          45.900
 200875907.276 6                  38225425.878
        36.200
 102377027.134 8  79626625.256 7  19131601.390    19131601.388    19131605.544
        49.600          44.900
 102422527.570 8  79661996.774 7  19193933.939    19193934.006    19193938.189
        51.200          47.800
 198899228.808 6                  37849270.453
        41.700
 113134886.954 5  88157011.10642  21528849.324    21528849.1554   21528849.1304
        33.100          12.7004
 202032444.090 7                  38445501.343
        44.300
 129459189.721 7                  24635249.927
        42.400
 125699184.822 7                  23919755.427
        43.900
 123132291.135 8                  23431280.505
        48.200
 112248830.873 6  87304675.777 7  20991103.890    20991103.954    20991113.696
        41.400          42.600
 25  1  1  7 24 15.0000000  0 26G18R01G23G15G16G24G10E03G27G05G29R03
                                E15E26R18S35R17R02S31G13S33E07E08E21
                                E13R24
 108923580.150 8  84875538.59446  20727466.719    20727466.4784   20727466.9534
        48.100          40.1004
 115440106.411 7  89786776.459 5  21595458.595    21595458.840    21595466.100
        42.700          35.700
 112953578.761 6  88015806.76144  21494352.753    21494352.2034   21494352.3634
        41.100          24.7004
 104601384.781 8  81507561.19748  19904962.983    19904962.7294   19904962.9144
        48.100          48.4004
 132169400.552 5 102989146.6204   25151002.038    25151001.8644   25150999.9224
        33.600           1.8004


 130698627.205 5 101843123.25743  24871126.865    24871126.2534   24871123.3054
        30.100          18.0004




 120948676.201 6  94245700.15745  23015760.276    23015760.0264   23015761.4784
        41.900          30.5004
 114566651.646 6  89272675.46445  21801314.675    21801314.1084   21801313.2974
        41.000          33.2004
 112792753.748 7  87727711.923 7  21070622.092    21070621.097    21070627.893
        43.500          42.500


 131637657.533 7                  25049776.886
        42.800
 115359285.693 5  89723882.484 7  21610675.116    21610675.333    21610684.337
        34.400          46.800
 200875913.478 6                  38225426.840
        38.100
 102364786.998 8  79617105.106 7  19129314.681    19129315.200    19129317.607
        51.100          44.100
 102430669.056 8  79668329.059 7  19195458.574    19195458.579    19195464.224
        50.000          47.800
 198899223.475 7                  37849279.204
        43.000
 113165674.980 6  88181001.73642  21534715.036    21534714.8134   21534708.2394
        38.300          12.8004
 202032411.772 7                  38445503.311
        46.000
 129424154.897 6                  24628583.966
        40.300
 125704237.702 7                  23920715.843
        42.300


 123134285.743 8                  23431659.944
        49.600
 112293368.283 6  87339315.986 7  20999431.427    20999432.785    20999442.142
        41.700          43.400
 25  1  1  7 24 30.0000000  0 25G18R01G23G15G16G24G10E03G05G29R03E15
                                E26R18S35R17R02S31G13S33E07E08E21E13
                                R24
 108902856.578 7  84859390.35946  20723523.819    20723523.5604   20723523.8454
        46.200          38.5004
 115493950.209 7  89828654.956 5  21605529.345    21605531.116    21605539.377
        42.000          35.000
 112928732.203 6  87996445.84343  21489624.315    21489623.8154   21489623.6714
        36.800          21.4004
 104604862.195 8  81510270.87348  19905624.610    19905624.3514   19905625.2694
        49.500          48.9004
 132187278.259 4                  25154412.615
        26.500


 130660269.760 5 101813234.42943  24863826.740    24863826.1064   24863824.0214
        35.300          20.4004


 120989613.364 6  94277599.14644  23023550.242    23023549.9884   23023551.1034
        41.200          29.8004
 114609978.892 7  89306436.89645  21809559.975    21809559.4034   21809559.3454
        43.100          35.3004
 112746807.037 7  87691975.624 6  21062040.695    21062038.537    21062046.232
        45.600          41.400


 131608878.079 7                  25044300.397
        44.600
 115305841.462 5  89682314.630 7  21600667.365    21600666.916    21600672.025
        33.700          46.200
 200875919.345 5                  38225409.516
        35.900
 102352702.262 8  79607705.854 7  19127056.161    19127056.641    19127059.397
        49.500          44.400
 102438970.764 8  79674785.925 7  19197015.178    19197015.638    19197019.316
        52.300          46.700
 198899217.083 6                  37849263.227
        41.000
 113196595.163 4  88205095.41741  21540595.263    21540594.8924   21540592.3534
        28.900           7.8004
 202032380.443 7                  38445491.850
        44.700
 129389188.584 6                  24621928.627
        40.000
 125709393.069 7                  23921697.393
        44.500


 123136332.955 8                  23432049.257
        49.700
 112338021.246 7  87374046.015 7  21007788.440    21007789.134    21007793.380
        46.700          44.900
 25  1  1  7 24 45.0000000  0 24G18R01G23G15G24G10E03G27G05G29R03E15
                                E26R18S35R17R02S31S33E07E08E21E13R24
 108882214.383 7  84843305.53846  20719596.242    20719595.9614   20719596.1104
        44.800          37.6004
 115547847.119 7  89870574.758 5  21615614.239    21615614.902    21615622.600
        43.600          35.100
 112903943.781 7  87977130.21744  21484907.601    21484907.0604   21484906.6324
        43.500          25.9004
 104608497.313 8  81513103.45048  19906316.379    19906316.1204   19906316.5914
        50.300          48.5004


 130621938.820 6 101783366.23844  24856531.372    24856530.7244   24856532.8124
        40.400          24.6004




 121030568.786 6  94309512.41444  23031342.512    23031342.3164   23031344.2604
        39.900          27.6004
 114653404.491 7  89340274.98945  21817822.320    21817821.7174   21817822.9304
        42.800          34.9004
 112700976.341 7  87656329.578 7  21053475.558    21053476.780    21053483.518
        44.400          42.500


 131580117.417 7                  25038827.504
        46.200
 115252396.211 6  89640785.740 7  21590664.613    21590666.799    21590669.426
        37.900          46.100
 200875927.641 6                  38225406.910
        38.400
 102340775.951 8  79598429.846 7  19124826.446    19124827.515    19124830.222
        48.500          43.800
 102447435.088 8  79681369.289 7  19198601.461    19198602.076    19198606.133
        53.000          47.300
 198899213.527 6                  37849262.578
        40.900
 202032351.157 7                  38445489.766
        43.000
 129354293.786 6                  24615288.065
        37.000
 125714653.717 7                  23922698.724
        44.400


 123138435.625 8                  23432449.550
        50.600
 112382792.457 7  87408868.058 7  21016160.257    21016160.262    21016166.064
        46.700          46.400
 25  1  1  7 25  0.0000000  0 23G18R01G23G15G24G10E03G05G29R03E15E26
                                R18S35R17R02S31S33E07E08E21E13R24
 108861655.199 7  84827285.38346  20715682.935    20715682.6584   20715683.2534
        47.700          38.2004
 115601797.853 7  89912536.442 6  21625706.774    21625707.565    21625714.855
        42.300          36.100
 112879214.847 6  87957860.95644  21480201.716    21480201.1984   21480200.7734
        40.300          24.7004
 104612291.510 8  81516060.01747  19907038.591    19907038.3324   19907036.8354
        51.300          47.7004


 130583635.748 6 101753519.73444  24849242.243    24849241.5644   24849243.3884
        39.600          24.6004
 142342745.399 4                  27086921.931
        29.400
 121071543.805 6  94341440.94644  23039141.858    23039141.6894   23039141.6564
        39.200          27.0004
 114696929.901 7  89374190.97745  21826104.090    21826103.4914   21826103.7364
        43.400          33.5004
 112655263.141 7  87620774.835 6  21044936.194    21044936.459    21044940.747
        42.800          40.700
 138522600.282 5                  26359973.421
        33.900
 131551377.095 7                  25033356.366
        43.600
 115199054.122 7  89599297.395 7  21580680.646    21580682.269    21580675.399
        42.500          44.700
 200875939.737 6                  38225432.612
        39.700
 102329009.792 7  79589278.394 7  19122627.506    19122627.799    19122631.257
        47.800          43.400
 102456063.373 9  79688080.150 7  19200219.317    19200219.287    19200223.823
        54.000          47.400
 198899213.903 7                  37849272.523
        42.800
 202032325.019 7                  38445479.522
        43.500
 129319472.170 6                  24608663.111
        38.000
 125720020.969 7                  23923720.542
        46.900


 123140595.302 8                  23432860.232
        49.600
 112427683.220 7  87443783.080 7  21024554.278    21024554.790    21024560.203
        47.600          46.600
 25  1  1  7 25 15.0000000  0 23G18R01G23G15G24G10E03G05G29R03E15E26
                                R18S35R17R02S31S33E07E08E21E13R24
 108841169.310 8  84811322.37446  20711784.454    20711784.1824   20711783.8464
        48.300          36.4004
 115655792.225 7  89954532.052 6  21635808.571    21635808.473    21635815.339
        42.300          36.600
 112854535.605 6  87938630.39244  21475505.958    21475505.4584   21475504.6974
        40.200          24.8004
 104616234.854 8  81519132.74447  19907789.008    19907788.7454   19907786.1134
        52.500          47.3004


 130545350.567 6 101723687.09543  24841957.347    24841956.6904   24841957.4334
        36.200          23.8004
 142380658.487 5                  27094138.938
        30.500
 121112528.518 5  94373377.03443  23046939.706    23046939.5774   23046939.7054
        32.700          19.8004
 114740544.243 7  89408176.15046  21834403.972    21834403.3914   21834403.1394
        46.100          36.4004
 112609657.234 7  87585303.574 6  21036417.802    21036417.137    21036422.887
        42.900          41.100
 138552687.019 5                  26365698.001
        35.500
 131522647.320 7                  25027891.348
        45.000
 115145754.303 6  89557842.011 7  21570687.911    21570689.328    21570690.422
        41.900          43.200
 200875946.201 5                  38225425.950
        34.200
 102317394.102 8  79580243.939 7  19120457.112    19120458.123    19120461.125
        48.200          45.000
 102464845.062 9  79694910.364 7  19201864.431    19201864.710    19201869.564
        54.200          47.600
 198899207.680 6                  37849268.740
        40.600
 202032293.569 7                  38445473.092
        44.200
 129284713.848 6                  24602048.256
        39.500
 125725484.817 7                  23924760.011
        46.800


 123142802.150 8                  23433280.370
        49.100
 112472683.064 7  87478782.918 7  21032970.746    21032970.585    21032975.332
        46.500          46.100
 25  1  1  7 25 30.0000000  0 23G18R01G23G15G24G10E03G29R03E15E26R18
                                S35R17R02S31G13S33E07E08E21E13R24
 108820762.755 8  84795421.18446  20707901.826    20707901.5634   20707899.9654
        49.700          38.0004
 115709835.521 6  89996565.737 5  21645918.618    21645918.552    21645922.967
        41.400          34.100
 112829911.697 6  87919442.94644  21470820.658    21470820.2204   21470819.3854
        39.800          25.6004
 104620332.858 8  81522325.99447  19908568.804    19908568.5364   19908565.5314
        52.600          46.9004


 130507088.992 5 101693872.87843  24834677.115    24834676.5344   24834673.7554
        34.700          22.1004
 142418617.541 5                  27101359.024
        30.100
 114784253.384 7  89442235.11945  21842720.511    21842719.9084   21842720.7374
        44.200          34.2004
 112564165.168 7  87549920.923 6  21027919.742    21027920.782    21027921.497
        42.800          38.700
 138582811.942 5                  26371432.414
        34.400
 131493933.959 7                  25022426.972
        42.900
 115092503.187 7  89516424.505 7  21560713.771    21560714.909    21560715.994
        45.000          42.100
 200875952.068 5                  38225422.583
        34.500
 102305934.990 8  79571331.304 7  19118316.523    19118316.806    19118321.454
        48.900          46.900
 102473785.914 9  79701864.365 7  19203539.909    19203539.986    19203544.916
        54.100          47.100
 198899201.373 6                  37849262.874
        41.800
 113321576.052 5  88302530.15541  21564379.993    21564379.8824   21564379.7804
        33.900          11.0004
 202032261.246 7                  38445469.966
        43.200
 129250024.894 6                  24595445.558
        37.300
 125731050.961 7                  23925818.800
        46.800


 123145062.026 8                  23433710.122
        48.200


 25  1  1  7 25 45.0000000  0 24G18R01G23G15G24G10E03G27G29R03E15E26
                                R18S35R17R02S31G13S33E07E08E21E13R24
 108800437.916 8  84779583.65446  20704034.077    20704033.8094   20704032.8294
        49.800          39.9004
 115763929.615 7  90038638.877 5  21656037.798    21656037.981    21656042.410
        42.300          33.900
 112805345.359 6  87900300.38544  21466145.412    21466144.9394   21466145.5914
        39.700          24.6004
 104624587.937 8  81525641.65747  19909378.694    19909378.4354   19909376.0174
        52.800          47.1004


 130468853.329 6 101664078.91243  24827400.304    24827399.7814   24827399.6554
        38.100          23.9004
 142456624.265 4                  27108590.861
        26.100


 114828059.075 7  89476369.39145  21851057.959    21851057.3474   21851057.9574
        42.700          34.8004
 112518789.343 7  87514628.739 6  21019443.023    21019442.375    21019447.593
        43.100          39.100
 138612977.231 4                  26377171.641
        28.400
 131465239.355 6                  25016966.827
        41.400
 115039303.568 7  89475047.128 6  21550745.881    21550746.370    21550750.254
        43.600          40.600
 200875959.741 6                  38225425.042
        37.600
 102294634.996 8  79562542.379 7  19116206.429    19116206.764    19116208.871
        50.200          46.200
 102482888.052 9  79708943.798 7  19205246.040    19205246.268    19205250.361
        54.000          46.500
 198899197.702 6                  37849258.764
        40.200
 113353155.703 6  88327137.68442  21570392.717    21570392.5794   21570391.4694
        39.400          12.8004
 202032231.322 7                  38445462.253
        42.500
 129215407.574 6                  24588860.429
        38.700
 125736721.531 7                  23926898.295
        46.800


 123147377.265 8                  23434150.719
        48.000
 112563242.768 6  87549052.021 7  21049883.676    21049878.796    21049870.508
        37.800          46.100
 25  1  1  7 26  0.0000000  0 24G18R01G23G15G24G10E03G27G29R03E15E26
                                R18S35R17R02S31G13S33E07E08E21E13R24
 108780191.810 8  84763807.46646  20700181.449    20700181.1814   20700180.9254
        50.000          41.2004
 115818070.758 7  90080748.651 5  21666167.628    21666167.128    21666171.659
        42.400          34.800
 112780833.379 6  87881200.14044  21461480.558    21461480.0044   21461481.3624
        40.600          26.1004
 104628996.620 8  81529077.00147  19910217.447    19910217.1884   19910215.5424
        53.400          47.9004


 130430640.258 6 101634302.56544  24820131.066    24820130.5844   24820130.9204
        39.000          26.0004




 114871957.811 6  89510576.15945  21859411.215    21859410.6034   21859411.1494
        41.000          32.5004
 112473526.366 7  87479424.195 6  21010988.856    21010988.035    21010993.691
        43.700          39.900


 131436560.375 6                  25011509.359
        40.900
 114986152.360 6  89433707.413 6  21540792.326    21540792.865    21540792.648
        40.300          39.500
 200875965.981 5                  38225431.584
        33.300
 102283491.242 8  79553875.032 7  19114121.574    19114121.932    19114126.128
        48.200          45.500
 102492147.806 8  79716145.823 7  19206980.934    19206980.815    19206985.516
        53.100          46.600
 198899191.941 6                  37849265.333
        41.000
 113384864.752 6  88351846.02142  21576430.284    21576429.8554   21576426.3854
        38.900          12.7004
 202032199.337 7                  38445459.069
        42.800
 129180858.851 6                  24582285.205
        37.800
 125742493.197 7                  23927996.596
        47.600


 123149744.702 8                  23434601.450
        48.200
 112608587.598 5  87584320.154 7  21058363.621    21058363.579    21058349.617
        35.500          45.500
 25  1  1  7 26 15.0000000  0 25G18R01G23G15G24G10E03G27G05G29R03E15
                                E26R18S35R17R02S31G13S33E07E08E21E13
                                R24
 108760026.694 8  84748094.37247  20696344.016    20696343.7484   20696344.4564
        50.300          42.3004
 115872260.560 7  90122896.232 5  21676306.130    21676304.841    21676308.555
        42.300          34.800
 112756377.729 7  87862143.78044  21456826.265    21456825.7294   21456826.9004
        42.700          26.6004
 104633560.752 8  81532633.45748  19911085.873    19911085.6144   19911084.3294
        53.000          48.1004


 130392451.987 5 101604545.46144  24812861.905    24812861.5124   24812868.4554
        33.400          25.9004




 121276899.144 6  94501195.63243  23078167.631    23078167.3994   23078161.3924
        37.600          22.4004
 114915951.240 7  89544856.74445  21867781.766    21867781.1674   21867781.5124
        42.800          30.2004
 112428379.057 7  87444309.578 6  21002555.922    21002557.055    21002560.649
        46.100          39.800


 131407899.166 7                  25006054.694
        42.200
 114933052.082 6  89392407.305 6  21530846.564    21530845.978    21530844.916
        39.200          40.500
 200875973.074 6                  38225440.084
        36.700
 102272505.877 7  79545330.847 7  19112068.024    19112069.086    19112074.016
        47.200          45.500
 102501566.726 8  79723471.660 7  19208745.730    19208745.236    19208750.439
        51.700          45.400
 198899186.936 6                  37849271.839
        40.800
 113416704.875 5  88376656.55441  21582480.979    21582480.5144   21582484.1684
        34.900          11.3004
 202032168.619 7                  38445456.104
        42.900
 129146380.933 5                  24575725.276
        33.100
 125748367.940 8                  23929114.240
        48.400


 123152166.512 8                  23435062.384
        48.000
 112654047.606 6  87619677.879 7  21066833.716    21066833.713    21066851.719
        36.000          45.400
 25  1  1  7 26 30.0000000  0 25G18R01G23G15G24G10E03G27G05G29R03E15
                                E26R18S35R17R02S31G13S33E07E08E21E13
                                R24
 108739943.296 8  84732444.96747  20692521.995    20692521.7454   20692523.1594
        50.000          42.3004
 115926499.187 6  90165081.885 5  21686451.866    21686448.140    21686455.619
        37.900          34.200
 112731978.889 7  87843131.68244  21452182.912    21452182.4074   21452182.8874
        42.600          27.4004
 104638280.770 8  81536311.36848  19911984.073    19911983.8144   19911982.8164
        52.700          49.0004








 121317962.902 6  94533193.32844  23085979.468    23085978.9324   23085979.3634
        39.100          24.8004
 114960039.563 6  89579211.23844  21876169.552    21876168.9094   21876171.5644
        41.300          28.6004
 112383348.114 7  87409285.529 6  20994138.485    20994141.202    20994146.446
        42.300          39.400


 131379256.407 7                  25000603.894
        44.900
 114880003.641 6  89351147.579 6  21520913.490    21520912.899    21520907.710
        40.000          41.200
 200875981.779 5                  38225435.081
        34.800
 102261679.891 8  79536910.612 7  19110045.561    19110046.428    19110050.678
        48.100          44.800
 102511145.448 8  79730921.813 7  19210540.403    19210540.499    19210545.192
        51.700          45.200
 198899183.432 7                  37849267.292
        43.100
 113448676.377 5  88401569.31842  21588567.364    21588566.7924   21588567.3234
        35.200          12.6004
 202032138.511 7                  38445446.857
        43.000
 129111974.507 6                  24569177.188
        36.200
 125754346.163 8                  23930251.810
        48.500


 123154643.275 7                  23435533.535
        47.600
 112699622.950 7  87655125.314 7  21075369.646    21075370.823    21075373.898
        45.000          44.100
 25  1  1  7 26 45.0000000  0 25G18R01G23G15G24G10E03G27G05G29R03E15
                                E26R18S35R17R02S31G13S33E07E08E21E13
                                R24
 108719938.517 8  84716856.81747  20688715.579    20688715.3344   20688716.3644
        49.900          42.3004
 115980782.891 6  90207302.526 5  21696605.533    21696603.392    21696610.191
        41.500          34.000
 112707633.559 6  87824161.27744  21447549.370    21447548.9144   21447550.1704
        40.700          26.0004
 104643153.210 8  81540108.06048  19912911.178    19912910.9244   19912910.6654
        52.200          49.6004








 121359039.407 6  94565200.98143  23093796.049    23093795.1954   23093798.0264
        38.700          23.3004
 115004219.205 6  89613636.98644  21884578.380    21884577.7464   21884580.1914
        40.600          28.5004
 112338430.005 6  87374349.275 6  20985749.173    20985749.285    20985752.960
        40.600          36.200


 131350628.794 7                  24995156.252
        44.700
 114827004.138 6  89309925.943 7  21510980.522    21510983.191    21510979.317
        39.300          42.000
 200875988.212 5                  38225440.152
        35.000
 102251009.950 7  79528611.752 7  19108053.506    19108052.608    19108056.518
        47.800          44.100
 102520880.154 8  79738493.226 7  19212364.676    19212364.443    19212370.056
        51.000          45.300
 198899177.509 7                  37849261.152
        42.300
 113480775.527 5  88426581.59442  21594676.219    21594675.7414   21594675.4924
        32.500          12.7004
 202032106.674 7                  38445440.874
        43.700
 129077636.341 6                  24562641.481
        37.400
 125760424.483 8                  23931408.762
        48.700


 123157171.761 7                  23436014.895
        46.200
 112745310.160 7  87690659.712 7  21083911.627    21083912.391    21083917.586
        43.600          43.300
 25  1  1  7 27  0.0000000  0 25G18R01G23G15G24G10E03G27G05G29R03E15
                                E26R18S35R17R02S31G13S33E07E08E21E13
                                R24
 108700017.348 8  84701333.83346  20684924.083    20684923.8244   20684924.9694
        50.400          41.8004
 116035115.922 7  90249561.508 5  21706769.087    21706768.338    21706774.520
        42.100          35.000
 112683346.539 6  87805236.30643  21442928.490    21442928.0084   21442928.7704
        36.200          23.7004
 104648182.849 8  81544027.25048  19913868.305    19913868.0514   19913868.3974
        51.600          50.1004








 121400133.454 5  94597222.28143  23101615.857    23101614.7984   23101619.3724
        35.900          22.2004
 115048494.298 6  89648137.01845  21893004.757    21893004.1404   21893006.4814
        41.800          31.5004
 112293629.972 6  87339504.790 5  20977383.084    20977380.165    20977381.363
        37.500          33.800


 131322021.285 7                  24989713.493
        45.400
 114774058.995 6  89268746.449 6  21501066.048    21501065.007    21501060.382
        39.000          41.600
 200875996.973 5                  38225442.159
        34.600
 102240501.447 8  79520438.430 7  19106089.427    19106090.031    19106092.635
        50.000          44.500
 102530775.692 8  79746189.733 7  19214219.736    19214219.374    19214223.969
        51.300          45.200
 198899174.176 7                  37849261.908
        42.100
 113513006.727 6  88451696.75142  21600808.790    21600808.5094   21600808.8104
        36.000          14.5004
 202032077.095 7                  38445434.296
        43.700
 129043371.358 6                  24556120.615
        36.500
 125766607.544 7                  23932585.472
        47.400


 123159756.868 7                  23436507.342
        45.800
 112791113.913 6  87726284.825 7  21092477.834    21092475.535    21092484.271
        38.300          43.000
 25  1  1  7 27 15.0000000  0 25G18R01G23G15G24G10E03G27G05G29R03E15
                                E26R18S35R17R02S31G13S33E07E08E21E13
                                R24
 108680174.826 8  84685872.12146  20681148.413    20681148.1594   20681148.1384
        48.300          39.9004
 116089492.828 7  90291854.659 5  21716940.820    21716941.651    21716947.408
        43.200          35.000
 112659112.491 6  87786352.61943  21438316.793    21438316.3154   21438317.1554
        36.800          23.5004
 104653364.264 8  81548064.71648  19914854.335    19914854.0854   19914854.9894
        51.100          50.5004


 130239950.258 5 101485705.88143  24783838.346    24783838.1504   24783845.0094
        33.700          19.0004




 121441239.670 6  94629253.02743  23109439.358    23109438.3304   23109440.5804
        39.500          20.9004
 115092859.615 7  89682707.38245  21901447.490    21901446.9364   21901449.4004
        42.600          35.6004
 112248942.997 6  87304748.217 5  20969048.919    20969035.018    20969035.504
        40.600          34.200


 131293428.753 7                  24984272.671
        45.000
 114721163.228 5  89227605.376 6  21491158.924    21491161.222    21491151.297
        35.500          40.800
 200876003.466 5                  38225439.530
        33.100
 102230149.276 8  79512386.751 7  19104153.773    19104154.579    19104158.739
        49.900          45.700
 102540826.125 8  79754006.743 7  19216102.326    19216102.558    19216107.470
        51.000          45.200
 198899168.530 6                  37849258.008
        41.900
 113545364.406 6  88476910.49142  21606968.918    21606968.6324   21606966.1944
        39.000          15.6004
 202032045.220 7                  38445428.456
        43.700
 129009174.570 6                  24549614.284
        38.500
 125772890.087 7                  23933780.953
        47.000


 123162393.450 7                  23437008.785
        46.200
 112837028.722 7  87761996.260 6  21101064.493    21101064.690    21101070.256
        42.300          41.400
 25  1  1  7 27 30.0000000  0 25G18R01G23G15G24G10E03G27G05G29R03E15
                                E26R18S35R17R02S31G13S33E07E08E21E13
                                R24
 108660417.404 7  84670476.72446  20677389.339    20677389.0854   20677387.1644
        47.600          37.8004
 116143919.488 7  90334186.479 6  21727122.664    21727123.911    21727130.133
        44.400          37.000
 112634937.699 6  87767515.12044  21433715.087    21433714.6274   21433716.2854
        40.300          24.5004
 104658703.516 8  81552225.17448  19915869.963    19915869.7094   19915871.7334
        51.600          50.5004
 127377034.398 5  99254827.13542  24239040.954    24239041.5934   24239042.7424
        35.100          13.0004
 130201884.876 5 101456044.60443  24776593.567    24776592.6424   24776598.4634
        30.000          19.6004




 121482364.444 7  94661298.20243  23117264.918    23117263.9084   23117262.1994
        42.300          21.7004
 115137320.772 7  89717352.34546  21909908.192    21909907.6924   21909909.1114
        43.000          37.0004
 112204375.611 7  87270084.785 5  20960710.528    20960713.091    20960708.601
        44.200          31.700


 131264857.607 7                  24978836.591
        45.000
 114668323.658 5  89186507.960 6  21481249.114    21481251.959    21481252.399
        32.500          40.300
 200876013.152 5                  38225453.155
        33.100
 102219960.258 8  79504461.948 7  19102249.903    19102250.656    19102255.156
        50.900          46.700
 102551037.595 8  79761948.996 7  19218016.503    19218016.976    19218021.374
        50.300          45.100
 198899166.790 7                  37849255.419
        42.000
 113577854.601 5  88502227.46442  21613148.788    21613148.5114   21613149.0534
        35.400          13.0004
 202032016.908 7                  38445422.670
        45.200
 128975052.279 6                  24543123.276
        40.200
 125779278.245 7                  23934996.877
        46.200


 123165087.875 7                  23437520.943
        45.200
 112883060.670 6  87797798.764 6  21109671.101    21109670.596    21109677.705
        41.200          38.900
 25  1  1  7 27 45.0000000  0 25G18R01G23G15G24G10E03G27G05G29R03E15
                                E26R18S35R17R02S31G13S33E07E08E21E13
                                R24
 108640738.979 7  84655142.88546  20673644.274    20673644.0154   20673641.9254
        46.700          37.2004
 116198389.128 7  90376551.768 6  21737312.824    21737314.716    21737319.575
        45.600          36.400
 112610815.863 6  87748718.90744  21429124.363    21429123.8814   21429125.8114
        40.300          26.1004
 104664194.334 8  81556503.73148  19916914.683    19916914.4334   19916916.3804
        50.300          49.6004
 127327646.753 5  99216343.23942  24229638.321    24229639.0234   24229644.4604
        33.500          13.2004
 130163840.941 5 101426399.96643  24769356.930    24769355.5934   24769360.0914
        34.800          22.7004




 121523501.355 6  94693352.84843  23125090.018    23125089.0624   23125088.1654
        40.400          22.6004
 115181871.495 7  89752067.17046  21918386.510    21918386.0324   21918385.9754
        44.400          39.2004
 112159921.292 7  87235509.270 5  20952403.954    20952405.156    20952405.790
        46.300          35.500


 131236301.640 7                  24973402.107
        45.400
                  89145449.577 6                                  21471362.767
                        40.000
 200876021.042 5                  38225441.551
        33.600
 102209927.946 8  79496659.007 7  19100375.119    19100376.067    19100379.900
        51.200          47.000
 102561403.476 8  79770011.348 7  19219959.087    19219959.225    19219963.788
        49.200          45.800
 198899162.038 7                  37849255.706
        42.200
 113610470.650 5  88527642.47741  21619359.649    21619359.2744   21619355.5854
        34.100          11.3004
 202031985.046 7                  38445420.121
        44.900
 128940998.383 6                  24536642.183
        40.200
 125785765.652 7                  23936231.086
        45.800


 123167833.947 7                  23438043.505
        44.200
 112929203.037 6  87833687.233 5  21118301.870    21118296.790    21118304.421
        36.200          34.600
 25  1  1  7 28  0.0000000  0 24G18R01G23G15G16G24G10E03G27G05G29R03
                                E15E26R18S35R17R02S31S33E07E08E13R24
 108621144.647 7  84639874.56246  20669915.909    20669915.6504   20669913.9164
        47.200          38.0004
 116252905.860 7  90418953.639 5  21747511.315    21747511.858    21747517.083
        44.700          35.800
 112586751.832 6  87729967.75444  21424545.870    21424545.3924   21424546.4714
        41.900          27.0004
 104669841.464 8  81560904.10648  19917989.857    19917989.6034   19917989.9864
        49.800          48.4004
 132448936.239 5                  25204192.086
        32.400
 127278269.524 5  99177867.35941  24220240.017    24220240.6474   24220246.5494
        31.400          11.6004
 130125823.324 5 101396775.87343  24762120.912    24762119.6074   24762127.3894
        35.500          20.1004




 121564655.096 6  94725420.66543  23132926.410    23132925.5214   23132920.3774
        41.600          23.4004
 115226515.962 7  89786855.02846  21926881.872    21926881.4074   21926881.4504
        43.500          39.1004
 112115585.560 7  87201025.971 6  20944121.934    20944123.613    20944127.722
        46.400          38.900
 138886252.309 5                  26429169.040
        32.900
 131207765.833 7                  24967971.800
        46.300
 114562956.654 5  89104434.514 6  21461496.735                    21461482.672
        34.300          38.300
 200876030.651 5                  38225446.989
        35.200
 102200057.655 8  79488982.085 7  19098530.581    19098531.545    19098535.714
        51.700          47.000
 102571928.382 7  79778197.416 7  19221930.462    19221931.028    19221937.429
        47.300          47.000
 198899159.538 7                  37849257.839
        42.200
 202031956.744 7                  38445417.286
        46.000
 128907017.922 6                  24530174.022
        39.800
 125792357.093 7                  23937484.896
        45.400
 123170636.656 7                  23438576.529
        43.700
 112975460.608 6  87869665.341 5  21126950.761    21126948.490    21126953.411
        39.300          34.100
 25  1  1  7 28 15.0000000  0 26G18R01G23G15G16G24G10E03G27G05G29R03
                                E15E26R18S35R17R02S31G13S33E07E08E21
                                E13R24
 108601628.728 7  84624667.34346  20666201.624    20666201.3924   20666201.3244
        47.600          38.6004
 116307463.508 7  90461387.333 5  21757716.759    21757716.910    21757722.743
        44.300          35.600
 112562739.660 7  87711257.01244  21419977.779    21419977.2884   21419977.1624
        43.100          28.2004
 104675638.451 8  81565421.26948  19919093.199    19919092.9364   19919092.7374
        50.500          48.4004
 132468423.552 4                  25207900.802
        27.000
 127228897.065 5  99139395.17642  24210844.824    24210845.2084   24210850.4184
        35.500          16.0004
 130087826.034 6 101367167.51143  24754891.168    24754890.1134   24754895.4974
        39.200          23.3004




 121605819.447 5  94757496.80443  23140762.570    23140761.5964   23140755.6704
        33.400          18.8004
 115271247.974 7  89821711.07446  21935393.836    21935393.4034   21935393.5104
        42.800          37.7004
 112071362.488 7  87166630.270 6  20935859.897    20935862.156    20935865.496
        45.400          39.500


 131179244.385 7                  24962543.911
        46.500
                  89063458.205 6                                  21451613.175
                        37.200
 200876036.454 5                  38225443.885
        34.000
 102190343.565 8  79481426.652 7  19096715.084    19096715.641    19096720.374
        52.100          47.500
 102582606.223 8  79786502.407 7  19223933.275    19223933.469    19223937.746
        48.800          46.800
 198899153.579 7                  37849261.514
        44.200
 113676314.839 5                  21631880.372
        34.000
 202031924.402 7                  38445406.880
        45.200
 128873105.154 6                  24523723.281
        40.000
 125799046.528 7                  23938757.437
        45.500


 123173490.101 7                  23439119.340
        43.200
 113021827.171 6  87905728.235 5  21135619.612    21135618.049    21135624.728
        40.900          35.000
 25  1  1  7 28 30.0000000  0 24G18R01G23G15G16G24G10E03G27G05G29R03
                                E15E26S35R17R02S31S33E07E08E21E13R24
 108582196.616 8  84609525.44146  20662502.843    20662502.6204   20662504.3704
        49.000          38.6004
 116362067.222 7  90503856.926 5  21767930.732    21767931.102    21767937.476
        42.600          34.600
 112538784.531 7  87692590.68644  21415420.079    21415419.5884   21415418.9514
        43.200          29.8004
 104681590.784 8  81570059.46848  19920225.692    19920225.4334   19920225.6764
        51.000          48.6004
 132488017.510 4 103237399.0724   25211630.054    25211630.5194   25211626.5354
        26.500           3.4004
 127179534.989 5  99100931.17143  24201449.348    24201449.4244   24201456.7514
        35.800          19.0004
 130049854.400 7 101337579.17244  24747666.133    24747665.1864   24747669.5654
        42.000          25.6004






 115316072.307 6  89856639.10145  21943920.610    21943920.1544   21943923.3044
        38.100          32.8004
 112027257.735 7  87132326.642 6  20927616.198    20927618.747    20927626.111
        44.100          38.000


 131150742.625 7                  24957120.098
        47.200


 102180791.431 8  79473997.192 7  19094930.252    19094930.865    19094935.226
        52.400          47.300
 102593442.095 8  79794930.325 7  19225962.585    19225962.987    19225967.510
        48.000          46.600
 198899149.384 7                  37849260.763
        43.700
 202031893.231 7                  38445403.545
        46.600
 128839265.347 6                  24517283.625
        40.700
 125805839.093 7                  23940050.551
        43.900


 123176399.670 6                  23439672.708
        40.100
 113068307.882 7  87941879.903 6  21144314.422    21144314.009    21144319.472
        44.900          39.800
 25  1  1  7 28 45.0000000  0 25G18R01G23G15G16G24G10E03G27G05G29R03
                                E15E26R18S35R17R02S31S33E07E08E21E13
                                R24
 108562849.645 8  84594449.87846  20658821.598    20658821.3844   20658823.0444
        48.200          39.0004
 116416717.406 7  90546362.613 5  21778155.909    21778154.895    21778160.482
        42.500          33.800
 112514887.575 7  87673969.68745  21410872.803    21410872.3034   21410872.3934
        43.000          30.6004
 104687699.354 8  81574819.38147  19921387.983    19921387.7204   19921388.1244
        50.200          47.7004
 132507718.929 5 103252750.8334   25215383.206    25215383.6444   25215376.5984
        33.200           3.6004
 127130185.062 4  99062476.66242  24192057.987    24192058.0764   24192065.3564
        29.500          16.9004
 130011909.381 6 101308011.63144  24740444.641    24740443.7204   24740449.4334
        39.300          28.7004


 130652455.025 5                  24862333.908
        31.700
 121687853.682 5  94821698.89444  23156431.118    23156431.4354   23156427.7554
        35.200          27.4004
 115360989.965 5  89891639.83744  21952468.906    21952468.4824   21952471.0214
        30.700          29.0004
 111983272.515 7                  20919401.933    20919404.796
        46.500


 131122261.744 7                  24951700.311
        46.800
 114404977.194 6  88981636.894 6  21431904.866    21431904.071    21431907.776
        40.100          38.900


 102171402.549 8  79466694.728 7  19093175.782    19093176.325    19093180.275
        51.800          46.900
 102604436.580 8  79803481.565 7  19228023.228    19228023.797    19228028.257
        49.600          46.900
 198899147.342 7                  37849256.712
        43.300
 202031865.187 7                  38445404.045
        45.100
 128805499.907 6                  24510857.090
        41.600
 125812735.741 7                  23941363.702
        45.100


 123179366.479 6                  23440237.551
        39.600
 113114903.352 7  87978120.923 7  21153027.065    21153028.034    21153034.208
        47.200          44.000
 25  1  1  7 29  0.0000000  0 25G18R01G23G15G16G24G10E03G27G05G29E15
                                E26R18S35R17R02S31G13S33E07E08E21E13
                                R24
 108543586.170 8  84579439.37646  20655156.147    20655155.9284   20655156.6894
        50.000          39.7004
 116471411.765 7  90588902.526 5  21788387.379    21788387.979    21788396.934
        46.100          35.000
 112491046.855 7  87655392.49745  21406336.346    21406335.8194   21406335.6774
        45.600          31.4004
 104693962.522 8  81579699.74647  19922579.732    19922579.4694   19922579.1144
        50.700          47.1004
 132527525.671 4                  25219148.695
        28.000


 129973989.140 5 101278463.33944  24733228.712    24733227.8814   24733232.8244
        35.100          25.0004


 130606705.473 5 101771504.35841  24853630.289    24853629.4134   24853640.8154
        33.300          10.4004
 121729065.626 6  94853811.99845  23164274.828    23164275.2614   23164274.2054
        41.000          31.2004
 115405998.650 4  89926711.50344  21961036.235    21961035.8064   21961036.3744
        28.000          26.8004
 139008659.541 5                  26452465.322
        35.300
 131093800.025 7                  24946284.579
        46.300
 114352461.994 7  88940791.727 6  21422065.758    21422066.211    21422069.827
        42.400          37.500


 102162175.260 8  79459517.987 7  19091451.099    19091450.574    19091454.922
        50.100          45.700
 102615587.526 8  79812154.548 7  19230112.810    19230112.912    19230117.672
        49.100          46.900
 198899146.024 7                  37849251.297
        42.500
 113775496.063 5  88656218.38641  21650759.410    21650759.0304   21650753.4674
        31.400           7.3004
 202031837.681 7                  38445391.096
        44.700
 128771807.023 6                  24504445.171
        36.400
 125819734.571 7                  23942695.441
        45.000


 123182388.784 6                  23440813.521
        40.600
 113161611.545 7  88014449.527 7  21161762.299    21161761.189    21161768.079
        45.100          44.400
 25  1  1  7 29 15.0000000  0 25G18R01G23G15G24G10E03G27G05G29R03E15
                                E26R18S35R17R02S31G13S33E07E08E21E13
                                R24
 108524400.682 8  84564489.65246  20651505.386    20651505.1634   20651505.4714
        49.800          40.3004
 116526144.317 7  90631472.335 6  21798626.362    21798626.135    21798635.080
        44.500          36.000
 112467256.663 7  87636854.66145  21401807.511    21401806.9444   21401808.9684
        43.100          30.1004
 104700374.294 8  81584695.93047  19923800.239    19923799.9804   19923798.8024
        50.200          46.9004
 127031445.095 6  98985558.79243  24173283.629    24173283.3124   24173287.2194
        39.100          19.2004
 129936088.069 6 101248930.01644  24726019.796    24726019.0144   24726020.3614
        36.500          27.5004
 142993418.934 5                  27210741.973
        33.100
 130561027.634 5 101735911.12441  24844935.874    24844935.4144   24844946.5904
        30.200           9.5004
 121770286.666 6  94885932.19245  23172119.108    23172119.4654   23172119.0854
        37.800          30.2004
 115451092.386 6  89961849.65442  21969648.814    21969648.2604   21969616.8764
        36.200          15.5004
 111895649.976 7                  20903035.454    20903035.045
        42.600
 139039361.963 5                  26458304.023
        33.600
 131065351.866 7                  24940870.914
        45.500
 114299997.052 6  88899985.641 5  21412238.568    21412234.624    21412240.208
        38.300          35.100


 102153104.163 8  79452462.697 7  19089755.654    19089755.825    19089759.672
        50.800          45.300
 102626888.728 8  79820944.379 7  19232231.465    19232230.892    19232235.361
        49.500          47.300
 198899140.258 7                  37849258.326
        44.500
 113808875.411 6  88682228.25941  21657110.188    21657110.1884   21657105.9664
        38.600          11.4004
 202031804.779 7                  38445385.873
        45.400
 128738181.143 5                  24498048.104
        31.900
 125826829.726 7                  23944045.366
        45.100


 123185461.020 6                  23441397.093
        41.200
 113208426.570 7  88050861.286 7  21170514.227    21170514.484    21170523.721
        47.300          46.000
 25  1  1  7 29 30.0000000  0 25G18R01G23G15G24G10E03G27G05G29R03E15
                                E26R18S35R17R02S31G13S33E07E08E21E13
                                R24
 108505296.597 8  84549603.35546  20647870.585    20647870.3664   20647869.8414
        50.400          40.5004
 116580917.595 7  90674073.739 5  21808872.911    21808873.113    21808881.540
        44.400          35.800
 112443520.118 6  87618358.64244  21397291.198    21397290.6624   21397291.0464
        41.500          28.1004
 104706937.620 8  81589810.17747  19925049.559    19925049.2964   19925047.6824
        49.900          46.4004
 126982119.570 5  98947123.28043  24163898.543    24163897.8864   24163903.4574
        33.600          21.5004
 129898209.263 6 101219414.06044  24718811.157    24718810.3794   24718812.5164
        37.400          28.1004
 143032084.592 5                  27218098.477
        34.900


 121811519.988 6  94918062.01745  23179967.700    23179967.8604   23179965.9424
        37.800          31.3004
 115496274.152 6  89997056.15344  21978207.767    21978206.9404   21978214.4434
        41.100          29.1004
 111852010.290 7  86996022.954 5  20894884.649    20894881.676    20894900.340
        42.500          34.200
 139070101.105 5                  26464154.915
        35.700
 131036920.577 7                  24935460.714
        45.300
 114247586.339 6  88859221.705 5  21402421.494    21402417.991    21402425.054
        41.200          35.600
 200876132.306 6                  38225457.855
        36.700
 102144192.556 8  79445531.448 7  19088090.599    19088090.905    19088095.267
        51.200          46.100
 102638343.436 8  79829853.586 7  19234377.978    19234378.084    19234382.165
        50.800          47.900
 198899132.280 7                  37849252.817
        43.500
 113842379.445 6  88708335.16041  21663485.151    21663484.7854   21663482.5544
        36.600          11.6004
 202031770.983 7                  38445374.823
        44.200
 128704625.625 5                  24491663.464
        35.300
 125834024.348 7                  23945414.524
        44.600


 123188586.369 6                  23441991.704
        39.800
 113255351.418 8  88087358.410 7  21179289.627    21179290.536    21179298.941
        48.300          44.900
 25  1  1  7 29 45.0000000  0 26G18R01G23G15G16G24G10E03G27G05G29R03
                                E15E26R18S35R17R02S31G13S33E07E08E21
                                E13R24
 108486276.980 8  84534782.86746  20644251.018    20644250.7904   20644250.2504
        50.200          40.3004
 116635734.230 7  90716708.896 6  21819126.977    21819127.268    21819135.516
        43.100          36.300
 112419840.134 6  87599906.68744  21392784.856    21392784.3514   21392783.9244
        41.800          27.6004
 104713655.265 8  81595044.68847  19926327.882    19926327.6104   19926325.6904
        48.200          45.9004
 132587581.247 5 103314984.39841  25230573.959    25230573.8614   25230573.2654
        31.000           6.4004
 126932806.012 4  98908697.10843  24154511.981    24154511.6154   24154519.8284
        29.400          22.0004
 129860355.609 6 101189917.67844  24711607.786    24711607.0584   24711609.3764
        38.600          27.5004
 143070793.704 5                  27225464.040
        33.300


 121852768.328 6  94950203.55644  23187817.057    23187817.0084   23187815.9294
        38.300          29.7004
 115541545.992 6  90032332.90145  21986831.555    21986830.7464   21986829.5154
        41.600          32.6004
 111808489.474 7  86962173.399 6  20886757.152    20886757.301    20886772.987
        43.900          37.500
 139100879.912 5                  26470010.968
        35.900
 131008509.111 7                  24930053.959
        45.800
 114195232.964 7  88818502.411 5  21392614.445    21392613.480    21392614.547
        42.100          35.100
 200876137.479 5                  38225469.208
        32.700
 102135443.680 8  79438726.758 7  19086455.611    19086456.040    19086460.164
        51.400          46.300
 102649954.076 8  79838884.067 8  19236554.371    19236554.700    19236558.427
        51.100          48.100
 198899125.485 7                  37849251.578
        42.700
 113876010.600 5  88734541.12242  21669886.991    21669886.6254   21669882.7024
        34.800          14.0004
 202031737.075 7                  38445369.869
        45.000
 128671143.419 6                  24485291.628
        39.300
 125841321.158 7                  23946802.952
        45.400


 123191767.895 7                  23442598.841
        43.700
 113302388.727 8  88123942.964 7  21188088.081    21188088.730    21188093.956
        50.000          43.100
 25  1  1  7 30  0.0000000  0 26G18R01G23G15G16G24G10E03G27G05G29R03
                                E15E26R18S35R17R02S31G13S33E07E08E21
                                E13R24
 108467343.173 8  84520029.24746  20640647.852    20640647.6244   20640647.2894
        50.300          40.5004
 116690594.909 7  90759378.293 6  21829390.178    21829391.676    21829398.502
        43.900          37.300
 112396217.753 6  87581499.65644  21388290.574    21388290.0564   21388288.5524
        39.800          26.1004
 104720528.173 8  81600400.19147  19927635.884    19927635.6214   19927633.4424
        49.100          46.2004
 132607800.128 5                  25234421.074
        30.400
 126883505.888 5  98870281.42643  24145131.518    24145131.2904   24145138.0294
        32.500          19.6004
 129822528.307 5 101160441.86943  24704410.632    24704409.9534   24704409.9614
        34.100          22.1004
 143109547.313 5                  27232838.268
        34.500


 121894032.574 6  94982357.44444  23195667.203    23195667.1274   23195668.3134
        36.600          24.4004
 115586908.918 6  90067680.57844  21995457.991    21995457.1424   21995461.0894
        37.600          29.2004
 111765088.895 7  86928417.289 5  20878642.517    20878643.614    20878668.100
        43.200          35.300
 139131699.385 5                  26475875.046
        32.100
 130980118.731 7                  24924651.017
        46.200
 114142938.506 6  88777828.966 5  21382816.769    21382817.970    21382814.762
        41.300          32.100
 200876145.287 5                  38225465.349
        32.000
 102126858.962 8  79432049.743 7  19084850.769    19084851.041    19084856.676
        50.800          46.400
 102661721.579 8  79848036.555 8  19238759.086    19238759.456    19238763.447
        50.600          48.000
 198899120.940 7                  37849250.188
        43.300
 113909769.641 6  88760846.77842  21676313.061    21676312.6814   21676307.2664
        38.800          14.2004
 202031706.015 7                  38445364.919
        45.300
 128637735.757 6                  24478932.895
        39.800
 125848721.180 7                  23948210.317
        43.200


 123195006.722 7                  23443215.111
        44.500
 113349539.303 8  88160615.651 7  21196904.794    21196904.302    21196910.230
        48.500          42.100
 25  1  1  7 30 15.0000000  0 26G18R01G23G15G16G24G10E03G27G05G29R03
                                E15E26R18S35R17R02S31G13S33E07E08E21
                                E13R24
 108448494.800 8  84505342.20646  20637060.726    20637060.5074   20637060.9364
        50.000          40.6004
 116745498.676 6  90802081.261 6  21839661.417    21839662.305    21839668.969
        41.700          36.700
 112372652.396 7  87563137.06044  21383805.686    21383805.1414   21383803.8064
        43.800          27.5004
 104727555.487 8  81605875.98648  19928972.311    19928972.0484   19928971.4824
        51.100          48.2004
 132628123.871 5                  25238284.462
        30.200


 129784726.567 5 101130986.08442  24697232.802    24697232.1054   24697213.8734
        34.800          12.2004
 143148344.500 5                  27240220.986
        34.100


 121935311.924 5  95014523.14743  23203519.475    23203519.4174   23203522.8084
        35.900          22.8004
 115632361.849 6  90103098.41145  22004111.359    22004110.5724   22004110.8124
        39.700          30.8004
 111721807.633 7  86894754.233 4  20870557.319    20870558.196    20870585.387
        42.700          29.700
 139162558.871 4                  26481746.475
        26.900
 130951748.887 7                  24919252.287
        46.700
 114090702.707 6  88737201.148 5  21373023.180    21373022.783    21373033.352
        36.500          34.000
 200876154.747 6                  38225456.737
        36.800
 102118438.158 8  79425500.226 7  19083278.199    19083278.845    19083282.907
        52.100          47.000
 102673644.911 8  79857310.264 7  19240993.741    19240994.664    19240997.796
        51.300          47.300
 198899118.177 7                  37849251.565
        44.100
 113943655.660 6  88787251.30242  21682767.245    21682766.8304   21682756.3924
        40.500          16.5004
 202031677.126 7                  38445359.338
        44.600


 125856223.700 6                  23949638.992
        41.300


 123198302.364 7                  23443841.421
        44.600
 113396802.268 8  88197375.725 7  21205744.424    21205743.295    21205749.836
        48.300          42.100
 25  1  1  7 30 30.0000000  0 26G18R01G23G15G16G24G10E03G27G05G29R03
                                E15E26R18S35R17R02S31G13S33E07E08E21
                                E13R24
 108429731.629 8  84490721.55146  20633489.682    20633489.4684   20633491.0704
        49.100          40.7004
 116800444.496 6  90844816.849 6  21849939.049    21849940.651    21849947.338
        38.800          36.200
 112349143.588 7  87544818.53444  21379331.565    21379331.0384   21379330.7304
        44.800          28.7004
 104734736.429 8  81611471.53048  19930338.223    19930337.9604   19930338.8414
        51.000          48.9004
 132648551.641 5                  25242171.540
        32.200


 129746950.230 4 101101549.92141  24690046.577    24690045.6304   24690024.2064
        29.800          11.6004
 143187184.706 5                  27247611.330
        31.800
 130333818.181 5 101558841.88341  24801697.389    24801697.7604   24801707.9584
        34.100           9.0004


 115677904.094 6  90138585.79945  22012776.239    22012775.4614   22012777.2734
        41.400          31.7004
 111678646.090 7  86861184.249 6  20862497.483    20862496.182    20862500.980
        42.200          36.700
 139193457.999 4                  26487629.684
        27.800
 130923399.304 7                  24913857.308
        47.200
 114038525.709 6  88696618.926 5  21363261.276    21363257.493    21363264.046
        38.700          33.500
 200876165.239 5                  38225459.424
        34.700
 102110180.999 8  79419077.971 7  19081735.149    19081735.876    19081739.638
        51.700          46.500
 102685723.605 8  79866704.783 7  19243256.261    19243257.269    19243261.238
        50.400          47.000
 198899116.316 7                  37849251.757
        43.200
 113977667.732 6  88813754.15142  21689226.955    21689226.4144   21689229.4864
        40.600          16.9004
 202031647.952 7                  38445352.613
        44.000
 128571142.715 5                  24466260.932
        33.000
 125863828.236 7                  23951085.843
        42.100


 123201654.467 7                  23444479.752
        46.100
 113444177.103 8  88234222.763 6  21214604.402    21214603.762    21214608.728
        48.600          41.700
 25  1  1  7 30 45.0000000  0 26G18R01G23G15G16G24G10E03G27G05G29R03
                                E15E26R18S35R17R02S31G13S33E07E08E21
                                E13R24
 108411051.860 7  84476165.87846  20629935.197    20629934.9874   20629936.8504
        47.700          40.7004
 116855430.013 6  90887583.403 5  21860224.743    21860226.474    21860233.903
        38.500          35.200
 112325689.222 7  87526542.42845  21374868.491    21374867.9554   21374868.3904
        46.000          30.1004
 104742069.393 8  81617185.54448  19931733.930    19931733.6764   19931734.5694
        49.400          48.8004
 132669081.075 6                  25246081.880
        36.200
 126735803.554 5                  24117020.552
        32.700
 129709196.956 5 101072131.74742  24682837.146    24682836.3014   24682839.4354
        31.600          14.1004
 143226065.649 5                  27255010.413
        30.000
 130288610.540 5 101523615.14141  24793093.794    24793094.1654   24793110.5844
        32.700           9.8004


 115723533.225 6  90174140.92245  22021459.363    22021458.5724   22021460.8154
        41.100          32.9004
 111635602.238 7  86827705.659 6  20854455.320    20854455.217    20854463.636
        43.900          40.800
 139224394.743 5                  26493516.377
        33.300
 130895068.048 7                  24908466.844
        46.800
 113986405.780 7  88656081.078 5  21353494.082    21353493.682    21353501.394
        43.300          33.300
 200876175.059 5                  38225446.059
        33.400
 102102085.508 8  79412781.469 7  19080222.154    19080222.862    19080226.531
        51.300          45.300
 102697955.221 8  79876218.256 7  19245548.693    19245548.547    19245553.508
        49.300          46.700
 198899113.696 7                  37849245.452
        42.800
 114011803.709 6  88840353.64042  21695724.549    21695724.0084   21695726.3604
        39.500          17.1004
 202031618.991 7                  38445341.586
        43.600
 128537955.132 5                  24459943.685
        33.700
 125871532.586 7                  23952551.747
        43.000


 123205061.095 7                  23445128.027
        46.900
 113491661.318 7  88271154.889 6  21223483.025    21223482.665    21223488.074
        47.000          40.500
 25  1  1  7 31  0.0000000  0 26G18R01G23G15G16G24G10E03G27G05G29R03
                                E15E26R18S35R17R02S31G13S33E07E08E21
                                E13R24
 108392456.682 7  84461676.10946  20626397.214    20626396.9914   20626398.7104
        47.100          40.7004
 116910456.073 6  90930381.482 5  21870518.097    21870518.790    21870527.677
        36.100          34.000
 112302290.346 7  87508309.55045  21370415.537    21370414.9964   21370416.5104
        45.400          31.0004
 104749555.002 8  81623018.50948  19933158.766    19933158.5164   19933158.9424
        49.300          48.3004
 132689712.941 5                  25250006.261
        31.600
 126686554.745 4                  24107641.641
        27.900
 129671467.900 5 101042732.51641  24675662.667    24675661.7964   24675659.3644
        31.300          11.9004
 143264988.121 4                  27262417.552
        29.200
 130243481.992 5 101488449.97542  24784507.337    24784507.8464   24784524.4034
        31.900          12.4004


 115769249.965 6  90209764.31946  22030159.761    22030159.0734   22030161.6004
        41.100          36.0004
 111592676.973 7  86794319.294 6  20846437.300    20846438.510    20846445.543
        43.900          41.200
 139255370.042 5                  26499411.477
        33.100
 130866756.293 7                  24903079.598
        47.000
 113934344.380 7  88615588.799 5  21343738.397    21343738.923    21343750.319
        43.800          33.800
 200876184.845 5                  38225461.696
        35.500
 102094153.200 8  79406611.889 7  19078740.103    19078740.716    19078744.116
        50.900          44.400
 102710340.299 8  79885851.086 7  19247869.969    19247869.999    19247875.103
        49.700          47.100
 198899111.397 7                  37849246.771
        42.800
 114046064.349 6  88867050.21242  21702243.757    21702243.3014   21702246.6074
        37.000          14.2004
 202031589.866 7                  38445337.069
        43.000
 128504840.602 6                  24453642.356
        38.700
 125879337.735 7                  23954036.766
        43.900


 123208523.369 7                  23445786.776
        47.400
 113539255.782 7  88308172.725 6  21232384.452    21232383.796    21232388.289
        47.300          39.100
 25  1  1  7 31 15.0000000  0 25G18R01G23G15G24G10E03G27G05G29R03E15
                                E26R18S35R17R02S31G13S33E07E08E21E13
                                R24
 108373945.003 7  84447251.41646  20622874.819    20622874.5784   20622876.2834
        46.200          40.5004
 116965520.538 6  90973209.387 5  21880819.423    21880820.219    21880824.715
        39.200          31.100
 112278945.608 7  87490118.85645  21365973.760    21365973.2464   21365974.4324
        43.400          30.2004
 104757191.501 7  81628969.03747  19934611.303    19934611.0314   19934611.9424
        46.400          47.2004
 126637317.812 4  98678356.72041  24098266.124    24098266.1244   24098262.0234
        29.600           8.9004


 143303950.456 4                  27269835.911
        26.800
 130198431.515 5 101453346.19041  24775935.569    24775936.3064   24775951.2344
        33.700          11.6004
 122100548.452 6  95143333.06143  23234973.013    23234972.9604   23234973.7194
        36.500          21.7004
 115815052.633 6  90245454.68946  22038875.379    22038874.7134   22038878.4964
        40.900          37.2004
 111549869.335 5  86761024.591 6  20838440.874    20838435.812    20838447.116
        33.600          39.600
 139286382.693 5                  26505315.697
        30.100
 130838462.795 7                  24897695.091
        46.200
 113882340.594 7  88575141.437 5  21333997.582    21333998.490    21334010.656
        45.900          34.800
 200876193.072 6                  38225461.852
        39.600
 102086382.892 8  79400568.310 7  19077287.273    19077288.356    19077291.850
        50.200          43.700
 102722877.341 8  79895602.123 7  19250218.241    19250218.468    19250225.057
        49.900          46.800
 198899107.271 7                  37849252.947
        44.900
 114080447.848 4  88893842.6324   21708783.619    21708783.1774   21708789.7314
        26.200           2.4004
 202031558.693 7                  38445336.010
        44.800
 128471798.072 7                  24447355.310
        43.400
 125887242.201 7                  23955541.140
        44.100


 123212040.034 7                  23446455.969
        46.900
 113586958.713 7  88345274.926 6  21241303.814    21241302.881    21241308.071
        46.700          37.300
 25  1  1  7 31 30.0000000  0 24G18R01G23G15G24G10E03G27G05G29R03E15
                                E26R18S35R17R02S31S33E07E08E21E13R24
 108355515.244 8  84432890.54946  20619367.486    20619367.2364   20619369.2084
        48.400          41.7004
 117020621.361 6  91016065.461 4  21891129.364    21891130.484    21891129.623
        41.200          28.800
 112255653.080 7  87471968.83144  21361540.916    21361540.4114   21361541.9454
        43.700          29.1004
 104764977.389 7  81635035.96347  19936093.293    19936093.0164   19936093.5294
        47.100          46.3004
 126588091.665 5  98640075.1864   24088900.730    24088900.7434   24088914.4854
        34.500           5.6004
 129596076.362 5 100983985.98441  24661316.747    24661316.1934   24661312.2084
        32.600           9.9004
 143342950.857 4                  27277255.069
        29.300
 130153457.649 6 101418301.49941  24767377.524    24767377.9084   24767393.1964
        36.600           7.9004
 122141890.885 5  95175547.93743  23242833.986    23242833.7364   23242840.6494
        34.800          22.3004
 115860938.871 6  90281210.12645  22047607.152    22047606.5314   22047610.7124
        39.800          34.3004
 111507178.092 7  86727820.271 6  20830468.767    20830466.429    20830472.223
        44.100          41.400
 139317430.599 5                  26511222.631
        30.500
 130810185.838 7                  24892314.275
        46.200
 113830392.921 7  88534737.854 5  21324265.403    21324266.120    21324288.033
        44.300          30.800
 200876198.486 5                  38225481.568
        30.000
 102078773.039 8  79394649.505 7  19075864.269    19075865.248    19075867.772
        48.800          42.100
 102735564.096 8  79905469.603 7  19252596.375    19252596.700    19252602.569
        51.100          46.000
 198899100.800 7                  37849252.280
        43.100
 202031525.406 7                  38445327.442
        45.500
 128438825.845 7                  24441081.286
        43.200
 125895244.077 7                  23957064.396
        46.200


 123215609.359 7                  23447135.469
        46.700
 113634768.303 7  88382460.097 6  21250246.568    21250243.318    21250251.755
        43.600          38.000
 25  1  1  7 31 45.0000000  0 24G18R01G23G15G24G10E03G27G05G29R03E15
                                E26R18S35R17R02S31S33E07E08E21E13R24
 108337172.223 8  84418597.25647  20615877.417    20615877.1894   20615878.8434
        50.100          43.2004
 117075762.737 7                  21901446.602    21901447.277
        42.300
 112232417.543 6  87453863.18544  21357118.741    21357118.1874   21357120.2214
        36.100          26.1004
 104772916.990 7  81641222.65047  19937604.272    19937604.0184   19937605.0454
        47.800          47.2004
 126538881.081 4  98601729.17241  24079535.131    24079534.9174   24079551.6864
        29.000           6.6004


 143381993.657 4                  27284685.403
        28.600
 130108565.495 4 101383320.4264   24758834.396    24758834.6104   24758850.1614
        26.900           4.0004
 122183248.159 6  95207774.32144  23250706.071    23250705.4954   23250710.4194
        37.700          26.1004
 115906913.109 5  90317034.17945  22056356.562    22056355.9634   22056359.2274
        31.800          31.9004
 111464607.417 7  86694709.750 6  20822514.721    20822515.065    20822517.788
        47.700          41.700
 139348518.755 5                  26517137.126
        33.100
 130781930.245 7                  24886936.925
        44.900
 113778506.698 6                  21314542.690    21314540.269
        37.100
 200876149.258 6                  38225463.954
        41.200
 102071328.381 7  79388859.181 6  19074473.248    19074473.232    19074476.471
        47.000          40.300
 102748405.082 8  79915457.015 7  19255002.280    19255002.429    19255006.581
        50.300          44.400
 198899095.681 6                  37849246.320
        40.800
 202031493.737 7                  38445320.144
        42.300
 128405928.620 7                  24434820.695
        45.300
 125903347.921 7                  23958605.960
        47.000


 123219236.153 7                  23447824.887
        45.600
 113682689.054 7  88419731.838 6  21259205.980    21259205.246    21259211.040
        43.300          36.700
 25  1  1  7 32  0.0000000  0 22G18R01G23G15G24G10E03G05G29R03E15E26
                                S35R17R02S31S33E07E08E21E13R24
 108318916.322 8  84404371.86547  20612403.298    20612403.0794   20612404.6694
        50.600          42.4004
 117130944.592 6                  21911766.634    21911768.323
        40.300
 112209239.046 7  87435802.00344  21352710.100    21352709.5824   21352709.4574
        42.100          28.5004
 104781010.441 7  81647529.23547  19939144.126    19939143.8984   19939145.4614
        47.600          47.3004




 143421078.809 5                  27292142.708
        30.700
 122224620.244 6  95240012.33744  23258578.065    23258577.8374   23258581.8964
        36.700          26.5004
 115952975.177 5  90352926.62145  22065120.803    22065120.2854   22065124.2424
        33.200          30.9004
 111422158.066 7  86661693.675 6  20814584.433    20814585.528    20814588.662
        47.000          41.000
 139379647.097 5                  26523058.352
        33.700
 130753696.218 6                  24881563.884
        41.900
 200876158.168 6                  38225461.088
        41.000
 102064049.740 8  79383198.029 7  19073115.090    19073114.646    19073117.541
        49.600          42.300
 102761400.068 8  79925564.245 7  19257437.776    19257438.113    19257441.858
        50.900          43.200
 198899092.234 7                  37849245.528
        42.400
 202031463.317 7                  38445312.806
        43.700
 128373106.667 7                  24428574.881
        44.400
 125911553.762 7                  23960166.983
        47.900


 123222920.542 7                  23448525.960
        46.700
 113730720.880 7  88457089.932 6  21268187.296    21268189.500    21268193.479
        42.600          38.600
 25  1  1  7 32 15.0000000  0 23G18G23G15G24G10E03G05G29R03E15E26R18
                                S35R17R02S31G13S33E07E08E21E13R24
 108300744.620 8  84390212.08946  20608945.334    20608945.1154   20608945.9414
        49.900          39.8004
 112186114.383 7  87417782.78345  21348308.218    21348307.7044   21348308.3394
        45.500          30.0004
 104789254.351 7  81653953.03947  19940712.930    19940712.6894   19940713.6144
        47.500          46.8004
 126440417.446 5  98525039.54743  24060811.912    24060811.7654   24060820.8814
        35.500          18.5004


 143460202.749 5                  27299577.625
        33.700
 122266003.876 4  95272259.30844  23266456.156    23266456.0184   23266456.0614
        29.200          24.6004
 115999121.475 6  90388884.76345  22073905.641    22073905.1234   22073905.9274
        36.000          30.0004
 111379826.732 7  86628769.361 6  20806676.141    20806676.570    20806681.157
        46.700          41.200
 139410812.389 5                  26528989.768
        30.600
 130725480.749 6                  24876194.630
        40.700
 113674917.274 7                  21295140.470    21295140.582
        47.200
 200876165.336 6                  38225468.385
        36.300
 102056933.694 8  79377663.346 7  19071784.432    19071784.616    19071789.862
        50.900          45.300
 102774545.649 8  79935788.598 7  19259900.848    19259901.159    19259906.053
        49.500          44.500
 198899087.026 7                  37849237.618
        42.800
 114219195.969 5                  21735191.341
        34.200
 202031431.492 7                  38445311.818
        44.400
 128340357.125 7                  24422343.980
        45.400
 125919858.305 8                  23961747.427
        48.200


 123226659.518 7                  23449237.416
        47.100
 113778859.748 6  88494531.416 6  21277190.228    21277188.699    21277199.255
        39.600          38.800
 25  1  1  7 32 30.0000000  0 25G18R01G23G15G24G10E03G27G05G29R03E15
                                E26R18S35R17R02S31G13S33E07E08E21E13
                                R24
 108282659.170 8  84376119.54446  20605504.065    20605503.8374   20605502.9704
        48.900          36.9004
 117241420.064 6  91187802.719 5  21932433.111    21932433.506    21932440.565
        40.000          34.900
 112163045.417 7  87399806.99045  21343917.671    21343917.2204   21343917.5094
        44.700          30.6004
 104797650.361 8  81660495.36547  19942311.053    19942310.8254   19942310.3324
        48.300          46.7004
 126391252.638 5  98486729.31743  24051457.533    24051456.9754   24051461.8784
        32.500          19.6004
 129445695.777 5                  24632694.687
        33.400
 143499367.276 5                  27307025.397
        32.400


 122307400.810 5  95304516.68544  23274336.805    23274336.5954   23274333.2724
        32.400          25.2004
 116045353.495 6  90424909.73844  22082700.523    22082699.9154   22082702.6694
        40.700          29.8004
 111337615.551 7  86595938.410 6  20798790.096    20798791.650    20798793.358
        46.000          39.000
 139442016.575 5                  26534928.786
        33.700
 130697285.778 7                  24870829.658
        42.800
 113623213.575 7  88373589.612 6  21285452.684    21285453.724    21285454.965
        46.000          36.100
 200876174.257 5                  38225473.657
        35.500
 102049982.580 8  79372256.908 7  19070485.647    19070486.057    19070491.402
        51.800          46.900
 102787843.413 8  79946131.286 7  19262393.341    19262393.060    19262397.936
        50.100          44.700
 198899082.906 7                  37849245.948
        43.400
 114254194.567 5                  21741851.481
        33.100
 202031399.986 7                  38445306.332
        44.100
 128307681.901 7                  24416125.991
        44.800
 125928263.339 8                  23963347.105
        49.200


 123230455.012 7                  23449959.997
        47.700
 113827108.218 7  88532058.042 5  21286211.157    21286212.576    21286216.787
        43.000          33.100
 25  1  1  7 32 45.0000000  0 25G18R01G23G15G24G10E03G27G05G29R03E15
                                E26R18S35R17R02S31G13S33E07E08E21E13
                                R24
 108264663.060 8  84362096.60046  20602079.188    20602078.9474   20602077.3094
        49.100          36.1004
 117296717.717 6  91230812.049 5  21942777.957    21942776.512    21942786.531
        38.900          35.700
 112140035.040 7  87381876.83845  21339539.238    21339538.8454   21339538.5574
        45.900          31.2004
 104806201.141 8  81667158.29647  19943938.336    19943938.1134   19943937.3814
        49.700          47.3004
 126342107.031 4  98448434.01242  24042107.583    24042107.1994   24042107.1904
        29.600          16.7004
 129408136.690 5                  24625541.634
        30.600
 143538575.132 5                  27314482.611
        31.700


 122348813.712 5  95336786.48944  23282214.209    23282213.9814   23282214.1314
        32.000          25.4004
 116091674.030 7  90461003.69545  22091515.202    22091514.5814   22091516.2374
        42.400          31.3004
 111295528.141 7  86563203.707 6  20790929.477    20790929.804    20790934.964
        46.000          39.100
 139473262.525 4                  26540874.719
        29.600
 130669114.344 7                  24865468.699
        43.200
 113571574.789 7  88333426.115 6  21275780.071    21275780.437    21275783.758
        45.000          39.500
 200876185.400 4                  38225481.943
        27.900
 102043199.754 8  79366981.362 7  19069218.254    19069218.405    19069223.115
        51.900          47.100
 102801295.959 8  79956594.348 7  19264914.632    19264915.019    19264919.797
        51.700          45.300
 198899082.217 7                  37849241.709
        42.200
 114289318.688 5                  21748536.560
        34.400
 202031372.283 7                  38445304.467
        45.200
 128275084.013 7                  24409922.688
        43.400
 125936771.628 8                  23964966.140
        49.700


 123234310.010 8                  23450693.528
        48.400
                                                  21295258.731

 25  1  1  7 33  0.0000000  0 25G18R01G23G15G24G10E03G27G05G29R03E15
                                E26R18S35R17R02S31G13S33E07E08E21E13
                                R24
 108246748.044 8  84348136.87146  20598669.303    20598669.0674   20598668.1674
        49.100          36.1004
 117352047.239 6  91273846.104 6  21953130.055    21953129.146    21953136.455
        40.700          36.200
 112117074.688 7  87363985.69645  21335170.835    21335170.4694   21335169.6654
        44.500          31.5004
 104814898.182 8  81673935.22447  19945593.479    19945593.2604   19945592.6874
        50.100          47.5004
 126292972.183 4  98410147.09541  24032757.562    24032757.3704   24032755.2884
        29.400          10.3004
 129370596.357 5 100808165.66041  24618389.506    24618389.6404   24618384.1134
        33.500           6.9004
 143577817.521 4                  27321947.749
        29.600
 129885287.415 5 101209390.73642  24716345.737    24716345.6844   24716362.0474
        33.400          15.9004
 122390234.067 6  95369062.05844  23290095.259    23290095.0904   23290096.1934
        36.000          25.4004
 116138074.127 7  90497159.58545  22100345.536    22100344.9514   22100345.0984
        43.000          33.1004
 111253555.705 7  86530558.425 6  20783081.677    20783084.486    20783095.128
        45.100          39.300
 139504541.798 5                  26546828.712
        32.800
 130640958.092 7                  24860111.338
        44.800
 113519992.721 6  88293306.738 6  21266115.787    21266115.893    21266120.523
        40.100          40.900
 200876191.680 5                  38225485.480
        32.000
 102036576.413 8  79361829.841 7  19067980.261    19067980.830    19067985.285
        52.300          47.500
 102814894.365 8  79967170.885 7  19267462.910    19267463.120    19267468.908
        51.500          46.500
 198899075.422 7                  37849241.370
        42.500
 114324559.577 5                  21755241.838
        34.800
 202031338.921 7                  38445296.789
        44.800
 128242555.113 6                  24403732.612
        41.500
 125945374.556 8                  23966603.842
        49.600


 123238216.094 8                  23451437.051
        48.800
 113923931.376 7  88607484.597 5  21304320.568    21304322.330    21304339.455
        46.700          34.400
 25  1  1  7 33 15.0000000  0 24G18R01G23G15G24G10E03G27G05G29R03E15
                                E26R18S35R17R02S31S33E07E08E21E13R24
 108228919.802 8  84334244.74646  20595276.646    20595276.4184   20595276.1554
        50.200          38.2004
 117407413.493 6  91316908.737 5  21963486.191    21963485.969    21963493.640
        39.400          35.100
 112094169.890 7  87346137.83445  21330813.239    21330812.8954   21330811.0454
        44.200          31.1004
 104823746.859 8  81680830.30548  19947277.289    19947277.0704   19947276.6864
        50.300          48.0004




 143617099.686 5                  27329423.117
        32.700
 129840881.177 5 101174788.50442  24707898.793    24707898.9894   24707906.2804
        31.600          16.6004
 122431667.296 6  95401347.58344  23297983.377    23297983.2254   23297980.3034
        38.200          27.0004
 116184558.751 7  90533381.30045  22109191.770    22109191.2294   22109189.2254
        45.700          33.7004
 111211703.809 7  86498006.966 6  20775267.286    20775268.192    20775271.782
        46.200          38.700
 139535859.704 5                  26552786.806
        33.400
 130612822.623 7                  24854757.818
        46.000
 113468473.205 6  88253236.042 6  21256468.174    21256469.914    21256468.687
        40.000          40.200


 102030118.768 8  79356807.156 8  19066773.105    19066774.060    19066779.003
        51.200          48.000
 102828643.747 8  79977864.832 7  19270039.985    19270039.709    19270044.996
        52.400          46.700
 198899069.406 6                  37849234.461
        41.600
 202031305.995 7                  38445286.835
        44.000
 128210100.868 6                  24397557.129
        39.500
 125954077.540 8                  23968260.040
        50.500


 123242178.880 8                  23452191.016
        49.000
 113972502.630 6  88645262.387 6  21313401.961    21313400.243    21313410.946
        40.300          41.500
 25  1  1  7 33 30.0000000  0 25G18R01G23G15G24G10E03G27G05G29R03E15
                                E26R18S35R17R02S31G13S33E07E08E21E13
                                R24
 108211182.532 8  84320423.49446  20591901.768    20591901.5494   20591901.6364
        50.400          40.1004
 117462820.650 6  91360003.195 5  21973851.498    21973850.555    21973858.079
        39.800          33.700
 112071324.577 6  87328336.29044  21326465.804    21326465.5144   21326463.1574
        37.900          27.2004
 104832750.959 8  81687846.49448  19948990.705    19948990.5004   19948989.8684
        51.900          48.2004


 129295593.081 5 100749721.4514   24604114.476    24604114.9144   24604117.5444
        30.700           3.2004
 143656425.500 5                  27336905.161
        31.600
 129796561.578 5 101140253.76343  24699465.636    24699465.7474   24699470.2204
        35.100          20.1004
 122473117.113 6  95433646.06445  23305868.243    23305868.1234   23305867.6824
        40.600          30.1004
 116231131.562 7  90569671.76545  22118053.201    22118052.6294   22118051.9814
        44.000          34.2004
 111169976.667 7  86465552.547 6  20767470.961    20767472.786    20767477.221
        46.000          36.900
 139567220.353 5                  26558754.635
        33.800
 130584712.017 7                  24849408.129
        46.900
 113417020.900 6  88213217.607 6  21246831.791    21246832.629    21246829.036
        37.600          39.300


 102023830.928 8  79351916.597 7  19065598.065    19065598.529    19065603.883
        50.300          46.900
 102842548.315 8  79988679.483 7  19272645.653    19272645.829    19272651.295
        52.700          46.900
 198899068.618 7                  37849236.093
        42.000
 114395497.855 5                  21768731.940
        34.800
 202031276.820 7                  38445285.248
        44.100
 128177725.343 6                  24391395.607
        37.400
 125962884.457 8                  23969935.794
        50.800


 123246202.429 8                  23452956.480
        48.500
 114021185.895 6  88683127.218 7  21322502.866    21322503.653    21322517.907
        40.900          44.600
 25  1  1  7 33 45.0000000  0 25G18R01G23G15G24G10E03G27G05G29R03E15
                                E26R18S35R17R02S31G13S33E07E08E21E13
                                R24
 108193531.695 8  84306669.58346  20588543.026    20588542.8124   20588543.0764
        49.800          40.6004
 117518263.102 6  91403125.182 5  21984224.352    21984221.786    21984228.129
        38.500          31.300
 112048533.971 6  87310577.37943  21322131.358    21322131.1354   21322125.8174
        38.400          22.4004
 104841905.619 8  81694980.00648  19950732.376    19950732.1754   19950731.3994
        51.800          48.5004
 126145623.083 5  98295302.57942  24004718.975    24004718.6544   24004717.0794
        35.200          15.2004
 129258129.314 4                  24596985.886
        29.800
 143695789.883 4                  27344397.213
        28.800
 129752324.108 6 101105783.06643  24691047.358    24691047.1264   24691051.5284
        37.300          21.8004
 122514578.756 6  95465953.81645  23313758.865    23313758.7634   23313758.2894
        40.100          30.1004
 116277787.405 6  90606026.93945  22126931.494    22126930.9534   22126931.5864
        40.900          34.0004
 111128369.980 7  86433191.889 6  20759696.892    20759699.809    20759704.696
        45.000          37.600
 139598618.999 5                  26564730.185
        31.900
 130556621.641 7                  24844062.489
        46.500
 113365631.293 6  88173248.036 6  21237205.413    21237207.282    21237201.740
        37.600          38.100


 102017708.424 8  79347154.651 7  19064453.853    19064454.446    19064459.259
        50.000          46.100
 102856602.292 8  79999610.355 7  19275279.620    19275279.494    19275284.075
        52.700          46.400
 198899066.096 6                  37849237.327
        41.200
 114431106.581 5                  21775506.417
        30.400
 202031248.144 7                  38445277.499
        43.000
 128145423.955 6                  24385249.022
        38.600
 125971790.410 8                  23971631.139
        50.800


 123250282.079 8                  23453733.176
        48.000
 114069976.264 7  88721075.260 7  21331637.892    21331638.042    21331641.251
        44.900          44.800
 25  1  1  7 34  0.0000000  0 25G18R01G23G15G24G10E03G27G05G29R03E15
                                E26R18S35R17R02S31G13S33E07E08E21E13
                                R24
 108175967.222 8  84292982.97346  20585200.350    20585200.1224   20585200.8384
        49.700          41.7004
 117573740.077 5                  21994604.024    21994598.763
        35.000
 112025797.878 5  87292860.85042  21317797.999    21317797.5974   21317799.6484
        31.000          16.9004
 104851210.326 8  81702230.43848  19952503.137    19952502.9324   19952502.1804
        51.000          48.6004
 126096560.451 4  98257071.95742  23995382.729    23995382.6454   23995385.7734
        29.300          16.3004
 129220688.851 5 100691403.95941  24589885.264    24589885.5364   24589868.8714
        35.800          11.3004
 143735192.205 4                  27351894.211
        27.700
 129708168.759 6 101071376.33643  24682646.000    24682645.7234   24682649.4294
        37.600          22.8004
 122556051.986 6  95498270.58844  23321650.187    23321650.0944   23321651.4414
        38.200          27.1004
 116324525.559 6  90642446.21845  22135825.776    22135825.2854   22135827.8974
        36.700          31.9004
 111086883.729 7  86400924.868 6  20751947.631    20751949.714    20751951.743
        45.600          37.300
 139630055.294 4                  26570716.994
        29.200
 130528551.329 7                  24838720.416
        46.000
 113314304.455 5  88133327.367 6  21227592.653    21227592.681    21227586.866
        33.800          39.400


 102011751.085 8  79342521.173 7  19063341.383    19063341.826    19063344.980
        49.300          44.500
 102870805.508 8  80010657.323 7  19277941.493    19277941.442    19277945.571
        53.000          45.900
 198899063.182 6                  37849233.553
        40.500
 114466834.967 5  89194929.26941  21782302.458    21782302.8824   21782312.7944
        35.700          10.3004
 202031218.392 7                  38445271.896
        42.400
 128113196.581 6                  24379116.734
        39.300
 125980794.995 8                  23973344.546
        51.300


 123254417.606 8                  23454520.166
        49.100
 114118872.955 7  88759106.054 7  21340780.126    21340777.600    21340782.812
        43.000          43.500
 25  1  1  7 34 15.0000000  0 25G18R01G23G15G24G10E03G27G05G29R03E15
                                E26R18S35R17R02S31G13S33E07E08E21E13
                                R24
 108158487.636 8  84279362.50447  20581874.197    20581873.9744   20581874.6984
        50.100          42.2004
 117629249.602 5  91489447.874 5  22004984.116    22004982.108    22004988.715
        32.700          31.100
 112003114.222 6  87275185.37544  21313484.259    21313483.8444   21313484.2014
        36.600          24.1004
 104860663.166 8  81709596.29748  19954302.240    19954302.0354   19954301.1904
        51.400          48.8004
 126047513.677 4  98218853.70942  23986050.076    23986049.9744   23986053.1664
        26.300          14.4004
 129183269.853 5 100662246.45342  24582736.168    24582736.2754   24582746.9224
        31.800          16.5004
 143774630.847 5                  27359400.198
        32.200
 129664094.338 6 101037032.72143  24674259.067    24674258.8264   24674262.4544
        37.800          23.8004
 122597535.010 6  95530595.00544  23329544.806    23329544.7224   23329546.4124
        39.300          25.0004
 116371344.168 6  90678928.15244  22144736.174    22144735.7234   22144738.0394
        37.300          29.6004
 111045515.807 7  86368749.858 6  20744221.077    20744220.116    20744224.847
        42.500          38.800


 130500499.523 7                  24833382.185
        46.000
 113263039.558 6  88093454.635 6  21217989.456    21217987.256    21217982.237
        38.700          39.200
 200876271.545 6                  38225484.975
        38.700
 102005957.463 8  79338015.053 7  19062258.172    19062260.020    19062261.953
        49.900          43.200
 102885155.594 8  80021818.530 7  19280630.674    19280631.114    19280634.344
        52.900          45.800
 198899058.315 6                  37849242.966
        40.600
 114502681.098 6  89222861.25641  21789121.324    21789122.0434   21789131.0574
        36.900          11.0004
 202031185.270 7                  38445263.234
        42.700
 128081041.694 6                  24372997.053
        39.100
 125989896.457 8                  23975075.983
        50.500


 123258607.448 8                  23455317.009
        48.600
 114167873.859 5  88797217.963 7  21349931.656    21349932.831    21349945.346
        35.600          42.900
 25  1  1  7 34 30.0000000  0 25G18R01G23G15G24G10E03G27G05G29R03E15
                                E26R18S35R17R02S31G13S33E07E08E21E13
                                R24
 108141094.542 8  84265809.46047  20578564.538    20578564.2974   20578564.8704
        49.000          42.1004
 117684792.699 6  91532648.025 5  22015373.455    22015374.463    22015383.359
        36.700          33.400
 111980484.714 6  87257552.01944  21309178.403    21309178.0374   21309178.5614
        40.600          27.1004
 104870265.480 8  81717078.58448  19956129.115    19956128.9054   19956128.7464
        51.100          49.4004


 129145873.921 5 100633106.80643  24575628.748    24575628.9984   24575629.5574
        34.600          18.4004
 143814106.857 5                  27366911.592
        32.400
 129620102.406 6 101002753.33843  24665887.127    24665886.8554   24665888.5184
        36.700          22.4004
 122639029.045 6  95562927.98743  23337441.790    23337441.7194   23337442.2074
        36.800          22.6004
 116418244.144 4  90715473.52244  22153656.856    22153656.4054   22153661.0944
        26.400          29.0004
 111004268.199 7  86336668.361 6  20736516.267    20736515.153    20736520.862
        43.000          40.500


 130472467.734 7                  24828048.024
        45.000
 113211838.046 6  88053631.283 6  21208395.997    21208398.706    21208391.568
        38.600          39.500
 200876277.876 6                  38225476.738
        38.100
 102000329.158 7  79333637.508 7  19061205.363    19061206.237    19061210.907
        47.800          43.300
 102899653.981 8  80033095.048 7  19283347.037    19283347.075    19283351.070
        51.600          44.900
 198899051.896 7                  37849241.298
        42.100
 114538646.156 6  89250885.96941  21795966.845    21795967.5244   21795971.9244
        40.000          11.6004
 202031152.734 7                  38445256.384
        43.400
 128048960.818 6                  24366892.413
        39.900
 125999096.042 8                  23976826.687
        49.000


 123262853.075 8                  23456125.047
        48.400
 114216980.764 6  88835412.152 7  21359126.184    21359124.685    21359128.628
        41.900          42.300
 25  1  1  7 34 45.0000000  0 24G18R01G23G15G24G10E03G27G05G29R03E15
                                E26R18S35R17R02S31G13S33E07E08E13R24
 108123792.952 8  84252327.69247  20575272.517    20575272.2814   20575272.9604
        49.300          42.9004
 117740373.865 6  91575877.811 5  22025781.225    22025777.241    22025783.047
        39.200          34.400
 111957914.075 6  87239964.51144  21304882.323    21304882.0064   21304883.6254
        41.600          28.4004
 104880021.666 8  81724680.81648  19957985.494    19957985.2844   19957985.5164
        50.600          49.2004


 129108505.850 4 100603988.73742  24568522.933    24568522.8444   24568518.5904
        25.700          14.4004
 143853624.881 4                  27374430.385
        27.900
 129576198.124 4 100968542.22043  24657533.252    24657532.9174   24657532.9924
        27.700          19.3004
 122680538.892 5  95595273.32442  23345341.841    23345341.7124   23345338.6144
        34.400          15.5004
 116465230.268 7  90752086.10545  22162604.769    22162604.4744   22162601.4374
        43.000          31.8004
 110963145.796 6  86304684.337 6  20728833.094    20728832.297    20728836.701
        41.600          39.100


 130444460.899 7                  24822718.980
        47.100
 113160705.213 6  88013861.460 6  21198811.914    21198812.366    21198813.764
        37.600          41.200
 200876288.036 4                  38225484.023
        27.700
 101994871.276 7  79329392.470 7  19060185.946    19060187.289    19060191.346
        47.800          44.300
 102914305.134 8  80044490.366 7  19286092.971    19286092.803    19286096.722
        52.400          45.500
 198899049.009 6                  37849239.523
        41.700
 114574734.139 6  89279006.37341  21802832.803    21802833.2904   21802835.7984
        37.200          11.2004
 202031122.138 7                  38445260.891
        45.300
 128016958.874 6                  24360801.654
        38.900
 126008398.415 7                  23978596.517
        47.900
 123267159.362 8                  23456945.177
        49.600
                  88873691.959 6                  21368326.752    21368331.469
                        40.600
