     2.11           OBSERVATION DATA    M (MIXED)           RINEX VERSION / TYPE
teqc  2019Feb25                         20260317 16:18:01UTCPGM / RUN BY / DATE
Linux 2.4.21-27.ELsmp|Opteron|gcc -static|Linux 64|=+       COMMENT
BIT 2 OF LLI FLAGS DATA COLLECTED UNDER A/S CONDITION       COMMENT
-Unknown-                                                   MARKER NAME
-Unknown-           -Unknown-                               OBSERVER / AGENCY
-Unknown-           -Unknown-           -Unknown-           REC # / TYPE / VERS
-Unknown-           -Unknown-                               ANT # / TYPE
        0.0000        0.0000        0.0000                  APPROX POSITION XYZ
        0.0000        0.0000        0.0000                  ANTENNA: DELTA H/E/N
     1     1                                                WAVELENGTH FACT L1/2
     7    L1    L2    C1    P1    P2    S1    S2            # / TYPES OF OBSERV
 SNR is mapped to RINEX snr flag value [0-9]                COMMENT
  L1 & L2: min(max(int(snr_dBHz/6), 0), 9)                  COMMENT
  2025     1     1    21     0    0.0000000     GPS         TIME OF FIRST OBS
    18                                                      LEAP SECONDS
                                                            END OF HEADER
 25  1  1 21  0  0.0000000  0 26G21E31G07G02G30G08G17E33E24R10E09E04
                                R12E12G14S35S31E05E06S33R11R21R01R02
                                E26R22
 114227427.458 7  89008397.35743  21736757.858    21736756.6474   21736758.9934
        43.900          19.9004
 123985591.286 7                  23593664.049
        44.700
 109099734.370 8  85012725.80348  20760982.838    20760982.3024   20760984.1184
        50.400          48.6004
 114320806.513 7  89081174.97645  21754524.242    21754523.1564   21754524.8624
        46.800          30.4004
 106667149.824 8  83117258.88948  20298080.085    20298079.3834   20298083.4844
        52.000          53.2004
 120102822.106 5  93586636.43243  22854803.477    22854802.9634   22854811.3564
        34.400          20.8004
 114925662.476 6  89552486.59845  21869628.609    21869628.6624   21869629.8924
        40.300          32.6004
 132740835.109 6                  25259725.188
        40.900
 133169313.958 7                  25341280.460
        46.800
 113946874.766 7                  21376150.674    21376150.196
        44.700
 134325686.776 6                  25561342.260
        40.400
 145926461.236 5                  27768876.555
        31.500
 122008418.933 6  94895431.809 6  22840228.522    22840225.813    22840234.067
        36.800          36.700


 111214751.906 8  86660847.05946  21163464.892    21163464.5664   21163464.8364
        48.500          36.3004


 198897883.801 6                  37849026.593
        40.500
 128388152.373 6                  24431454.467
        41.000
 137813705.904 6                  26225073.420
        36.500
 202052353.749 7                  38449302.232
        46.000
 105499472.580 8  82055140.107 7  19742792.327    19742793.663    19742795.269
        51.800          45.200
 105900364.079 8  82367192.062 7  19789996.808    19789995.921    19790004.302
        48.100          47.200
 122765956.198 5  95484698.885 5  22965915.419                    22965931.635
        33.500          31.700
 121822998.748 7  94751256.277 6  22829575.442    22829574.125    22829584.506
        42.800          41.500
 140115130.222 4                  26663021.565
        28.000
 122348240.950 5                  22919951.391    22919951.953
        33.900
 25  1  1 21  0 15.0000000  0 29G21E31G07G02G30G08G13G19G17E33E24R10
                                E09E04R12E12G14S35S31E05E06S33R11R21
                                R01R20R02E26R22
 114236010.945 7  89015085.80143  21738390.948    21738389.7324   21738391.8064
        45.300          23.0004
 123991138.998 7                  23594719.943
        44.700
 109123157.891 8  85030977.89448  20765440.636    20765440.0954   20765441.9104
        49.600          48.9004
 114306658.832 7  89070150.84445  21751831.344    21751830.2674   21751832.7494
        44.600          30.2004
 106659432.088 8  83111245.05548  20296611.007    20296610.2834   20296614.4714
        52.000          52.7004
 120152572.870 5  93625403.20743  22864269.402    22864268.5394   22864279.8254
        34.400          21.6004
 119582451.064 4  93181176.90041  22755802.142    22755801.5704   22755793.0254
        28.800          10.6004
 130828422.735 4                  24895815.516
        28.100
 114886842.406 6  89522237.28445  21862242.183    21862242.2594   21862243.5184
        41.900          33.8004
 132717313.279 6                  25255249.191
        40.400
 133147350.105 7                  25337100.281
        44.400
 113977888.424 6                  21381968.850    21381965.903
        40.100
 134358885.278 7                  25567660.733
        44.400
 145971995.870 5                  27777542.099
        32.600
 121962724.807 5  94859891.890 6  22831672.644    22831672.323    22831683.457
        32.500          37.500


 111190354.540 7  86641836.12146  21158821.207    21158820.8814   21158823.3104
        46.100          36.1004


 198897879.614 6                  37849024.389
        40.600
 128384097.231 7                  24430682.627
        42.700
 137856238.482 5                  26233154.746
        33.800
 202052367.986 7                  38449301.471
        43.600
 105486993.309 8  82045434.033 7  19740454.165    19740455.210    19740461.230
        48.300          47.300
 105872788.446 8  82345744.353 7  19784843.840    19784844.357    19784850.753
        50.800          45.700
                  95519692.192 5                                  22974349.952
                        32.500


 121825325.088 7  94753065.541 6  22830013.452    22830012.595    22830019.099
        46.000          38.600


 122281072.803 5                  22907377.670
        33.100
 25  1  1 21  0 30.0000000  0 28G21E31G07G02G30G08G13G17E33E24R10E09
                                E04R12E12G14S35S31E05E06S33R11R21R01
                                R20R02E26R22
 114244751.086 7  89021896.32744  21740054.150    21740052.9254   21740055.5454
        44.400          25.5004
 123996714.487 7                  23595781.113
        45.100
 109146700.753 8  85049322.96948  20769920.692    20769920.1474   20769922.6414
        51.500          50.3004
 114292648.352 7  89059233.62145  21749165.208    21749164.1314   21749167.1474
        43.900          30.6004
 106651841.598 8  83105330.38548  20295166.525    20295165.7974   20295169.8954
        51.400          52.2004
 120202357.986 5  93664196.74342  22873743.790    22873742.2794   22873753.5384
        32.600          16.4004
 119566533.734 5  93168773.58442  22752753.381    22752753.1184   22752761.9724
        31.800          13.3004
 114848110.926 6  89492057.02645  21854872.182    21854872.2664   21854873.7484
        41.900          34.6004
 132693883.935 6                  25250790.272
        39.100
 133125405.791 7                  25332924.242
        44.200
 114008973.035 6                  21387801.694    21387800.731
        40.100
 134392150.119 7                  25573989.927
        44.800
 146017515.113 5                  27786204.502
        32.500
 121917026.763 6  94824348.887 6  22823123.314    22823124.562    22823128.841
        39.500          36.400


 111166000.798 7  86622859.16646  21154187.251    21154186.9164   21154190.0384
        44.900          36.3004


 198897875.515 6                  37849013.384
        40.800
 128380149.529 6                  24429930.667
        40.800
 137898796.783 5                  26241244.883
        30.300
 202052381.605 7                  38449303.309
        44.500
 105474589.318 8  82035786.445 8  19738135.788    19738135.538    19738141.236
        49.400          48.500
 105845404.109 8  82324445.441 7  19779726.301    19779726.558    19779732.297
        50.400          44.600
 122856028.044 5  95554754.268 5  22982766.117    22982764.291    22982785.163
        31.500          32.300
                  87410252.815 5                                  21016487.101
                        31.700
 121827836.481 7  94755018.855 6  22830482.564    22830482.021    22830488.324
        46.600          37.300


 122213990.197 6                  22894798.334
        36.200
 25  1  1 21  0 45.0000000  0 27G21E31G07G02G30G08G13G17E33E24R10E09
                                E04R12E12G14S35S31E05E06S33R11R21R01
                                R02E26R22
 114253642.570 7  89028824.77144  21741746.985    21741745.7964   21741748.8504
        42.600          26.4004
 124002312.416 7                  23596846.082
        44.800
 109170357.747 8  85067756.94548  20774422.496    20774421.9424   20774424.7204
        52.300          51.2004
 114278769.827 7  89048419.26144  21746523.923    21746522.8464   21746526.1224
        43.500          28.4004
 106644373.237 8  83099510.87348  20293745.450    20293744.7084   20293748.5994
        50.300          51.4004
 120252171.898 5  93703012.72742  22883225.198    22883223.4234   22883232.6454
        34.400          16.4004
 119550756.841 6  93156479.84543  22749756.763    22749756.4644   22749758.5084
        38.500          19.1004
 114809462.790 6  89461941.69045  21847517.775    21847517.8644   21847519.1094
        38.800          32.9004
 132670542.140 5                  25246350.202
        31.400
 133103475.707 7                  25328750.859
        45.700
 114040122.907 5                  21393642.312    21393639.548
        34.700
 134425475.845 7                  25580330.572
        42.800
 146063013.318 5                  27794864.941
        31.800
 121871319.444 5  94788798.658 5  22814563.561    22814563.940    22814572.485
        34.900          35.700


 111141685.456 7  86603912.14646  21149561.091    21149560.7964   21149563.3714
        45.300          36.3004


 198897867.483 7                  37849013.988
        42.200
 128376303.988 7                  24429199.709
        43.200
 137941375.452 5                  26249350.509
        35.600
 202052391.457 7                  38449306.757
        45.700
 105462255.309 8  82026193.286 7  19735828.527    19735827.559    19735832.148
        51.100          46.700
 105818206.011 8  82303291.405 7  19774644.016    19774643.718    19774647.695
        49.800          42.100
 122901190.796 5  95589880.753 4  22991231.221    22991220.640    22991230.984
        33.600          29.400
 121830527.220 7  94757111.628 6  22830988.794    22830987.310    22830994.507
        45.200          39.700


 122146882.501 5                  22882213.902    22882213.730
        30.300
 25  1  1 21  1  0.0000000  0 27G21E31G07G02G30G08G13G17E33E24R10E09
                                E04R12E12G14S35S31E05E06S33R11R21R01
                                R20R02E26
 114262693.249 7  89035877.24944  21743468.571    21743467.4044   21743471.4134
        42.600          26.8004
 124007940.491 7                  23597917.935
        45.300
 109194136.235 8  85086285.59148  20778947.366    20778946.8164   20778949.0814
        51.900          50.9004
 114265031.103 6  89037713.83544  21743910.453    21743909.3454   21743910.7464
        41.900          25.5004
 106637034.783 8  83093792.58648  20292349.319    20292348.5684   20292352.2194
        50.800          52.0004
 120302021.902 5  93741856.84642  22892711.695    22892709.9294   22892718.8884
        35.300          17.4004
 119535128.460 6  93144301.86343  22746783.015    22746782.8634   22746783.5204
        40.700          22.6004
 114770905.695 6  89431897.27445  21840181.074    21840181.0914   21840181.5524
        40.200          33.5004
 132647295.444 5                  25241925.657
        34.400
 133081567.486 7                  25324581.230
        45.900
 114071346.211 6                  21399500.359    21399498.845
        39.700
 134458869.787 6                  25586685.352
        41.400
 146108498.130 4                  27803535.624
        29.000
 121825610.645 5  94753247.365 6  22806003.033    22806003.806    22806020.632
        34.500          36.000


 111117416.208 7  86585001.04146  21144942.912    21144942.6354   21144944.7224
        45.600          36.2004


 198897861.856 7                  37849015.714
        42.300
 128372568.284 7                  24428486.973
        42.100
 137983981.872 6                  26257459.507
        37.400
 202052403.869 7                  38449308.492
        46.100
 105449999.315 8  82016660.854 7  19733533.657    19733533.630    19733535.872
        52.100          43.400
 105791202.300 8  82282288.597 6  19769596.280    19769597.412    19769601.393
        49.400          41.000
 122946443.282 5                  22999681.520    22999685.014
        34.400


 121833405.128 6  94759350.103 6  22831523.136    22831521.571    22831532.425
        39.800          38.300
 140168779.031 5                  26673231.931
        33.300
 25  1  1 21  1 15.0000000  0 28G21E31G07G02G30G08G13G17E33E24R10E09
                                E04R12E12G14S35S31E05E06S33R11R21R01
                                R20R02E26R22
 114271899.533 7  89043050.98644  21745221.177    21745220.0334   21745222.3124
        42.400          26.0004
 124013595.652 7                  23598994.423
        45.400
 109218033.157 8  85104906.51948  20783494.867    20783494.3314   20783496.0464
        51.100          49.6004
 114251429.470 6  89027115.20443  21741322.133    21741321.0424   21741322.1154
        37.100          23.0004
 106629823.498 8  83088173.38848  20290977.082    20290976.3184   20290980.5084
        51.300          52.4004
 120351904.812 5  93780726.58842  22902203.242    22902201.5254   22902211.4504
        35.200          16.0004
 119519645.498 6  93132237.17943  22743835.983    22743835.8234   22743836.4884
        39.000          23.9004
 114732436.833 6  89401921.63145  21832860.593    21832860.5404   21832861.3994
        40.600          33.3004
 132624141.284 6                  25237517.646
        37.200
 133059678.209 7                  25320415.797
        45.800
 114102639.576 7                  21405371.591    21405373.349
        42.800
 134492328.764 6                  25593052.393
        37.400
 146153966.354 4                  27812189.601
        27.300
 121779897.690 6  94717692.658 5  22797449.540    22797447.709    22797467.290
        38.100          33.600


 111093190.163 7  86566123.60645  21140332.626    21140332.3584   21140333.7994
        46.800          35.0004


 198897856.171 7                  37849020.673
        43.800
 128368939.456 6                  24427795.124
        38.900
 138026612.699 5                  26265571.716
        35.400
 202052416.420 7                  38449315.660
        46.200
 105437818.457 8  82007186.847 6  19731254.142    19731254.149    19731255.715
        52.000          41.600
 105764390.373 8  82261434.953 7  19764587.149    19764587.607    19764593.395
        48.900          42.100
 122991782.080 6                  23008165.324    23008165.764
        36.000
 112491749.420 5  87493612.867 5  21036525.083    21036526.152    21036535.322
        34.100          33.000
 121836467.278 5  94761731.821 6  22832095.267    22832092.570    22832107.932
        34.100          38.800
 140182453.835 5                  26675832.842
        34.400
 122012773.470 6                  22857090.496    22857091.605
        37.800
 25  1  1 21  1 30.0000000  0 29G21E31G07G02G30G08G13G19G17E33E24R10
                                E09E04R12E12G14S35S31E05E06S33R11R21
                                R01R20R02E26R22
 114281261.038 7  89050345.68144  21747001.782    21747000.6024   21747003.0784
        42.600          27.0004
 124019277.623 7                  23600075.779
        47.700
 109242048.177 8  85123619.46548  20788064.943    20788064.3934   20788065.6554
        50.200          48.8004
 114237964.690 6  89016623.19843  21738761.208    21738760.1084   21738760.1714
        38.900          22.3004
 106622739.139 8  83082653.10148  20289628.793    20289628.0204   20289632.6724
        51.500          52.6004
 120401819.935 6  93819621.38742  22911702.323    22911700.6784   22911709.1454
        36.500          15.2004
 119504307.972 7  93120285.82044  22740917.404    22740917.2614   22740918.2134
        42.200          26.4004
 130567679.384 5                  24846201.251
        30.400
 114694055.980 6  89372014.55245  21825557.713    21825557.6514   21825558.7564
        39.900          33.5004
 132601079.447 5                  25233128.064
        35.600
 133037807.429 7                  25316254.361
        44.500
 114134002.922 7                  21411258.438    21411259.064
        46.300
 134525852.232 6                  25599432.729
        38.500
 146199417.108 4                  27820834.265
        28.500
 121734180.101 7                  22788891.963    22788891.823
        42.200


 111069006.995 7  86547279.59045  21135730.437    21135730.1514   21135730.3934
        46.200          32.4004


 198897850.534 7                  37849019.819
        44.300
 128365417.181 6                  24427124.422
        37.100
 138069267.490 5                  26273689.324
        32.400
 202052428.518 7                  38449318.969
        45.200
 105425712.599 8  81997771.247 6  19728988.204    19728989.813    19728990.177
        53.300          41.000
 105737770.068 7  82240730.306 7  19759611.895    19759612.556    19759617.959
        47.500          42.900
 123037206.270 6                  23016661.687    23016663.470
        39.800
 112527842.155 5  87521684.902 5  21043275.846    21043276.187    21043281.176
        33.300          30.400
 121839713.045 6  94764256.324 6  22832702.813    22832701.418    22832717.477
        36.700          36.900
 140196233.135 5                  26678456.904
        31.800
 121945769.598 6  94846789.720 5  22844538.156    22844539.022    22844569.052
        39.100          32.300
 25  1  1 21  1 45.0000000  0 28G21E31G07G02G30G08G13G17E33E24R10E09
                                E04R12E12G14S35S31E05E06S33R11R21R01
                                R20R02E26R22
 114290778.907 7  89057762.22444  21748812.938    21748811.7544   21748814.2194
        43.000          29.2004
 124024987.420 8                  23601161.617
        48.500
 109266182.355 8  85142425.25848  20792657.688    20792657.1384   20792658.1144
        50.200          48.6004
 114224637.899 7  89006238.75543  21736223.889    21736222.7944   21736224.9264
        43.000          22.6004
 106615782.903 8  83077232.63848  20288305.504    20288304.7354   20288308.5304
        52.400          52.8004
 120451768.042 5  93858541.95042  22921206.008    22921204.5694   22921213.1094
        33.300          13.3004
 119489116.979 7  93108448.66444  22738025.946    22738025.8444   22738027.6134
        45.200          27.5004
 114655764.296 6  89342176.96645  21818275.480    21818275.4884   21818273.5044
        39.400          33.3004
 132578111.167 6                  25228758.811
        36.800
 133015956.273 7                  25312097.155
        45.000
 114165437.250 6                  21417153.142    21417152.569
        41.400
 134559440.998 6                  25605822.312
        39.500
 146244851.228 5                  27829477.478
        34.800
 121688459.220 6                  22780334.262    22780332.234
        40.300
 144025824.813 5                  27407201.457
        31.400
 111044867.828 7  86528469.86144  21131136.455    21131136.1164   21131134.6394
        45.200          29.8004


 198897845.289 7                  37849021.200
        43.200
 128362002.435 6                  24426475.322
        36.800
 138111947.007 5                  26281808.651
        34.000
 202052440.799 7                  38449314.207
        44.200
 105413683.228 8  81988415.081 7  19726737.722    19726738.074    19726740.486
        52.900          44.100
 105711342.520 7  82220175.567 7  19754669.726    19754670.237    19754679.334
        45.100          43.100
 123082716.076 6  95731110.260 5  23025173.489    23025174.524    23025193.003
        37.100          31.000
 112564105.118 5                  21050058.434    21050057.108
        33.600
 121843143.496 6  94766924.251 5  22833349.600    22833349.208    22833359.745
        38.700          34.600


 121878800.992 5                  22831989.096    22831987.831
        35.700
 25  1  1 21  2  0.0000000  0 28G21E31G07G02G30G08G13G17E33E24R10E09
                                E04R12E12G14S35S31E05E06S33R11R21R01
                                R20R02E26R22
 114300451.827 7  89065299.59244  21750653.384    21750652.2314   21750654.9724
        42.900          29.1004
 124030723.857 8                  23602253.186
        49.000
 109290434.322 8  85161322.80648  20797272.136    20797271.5864   20797273.4774
        48.700          48.1004
 114211448.171 6  88995961.07343  21733712.368    21733711.2554   21733715.2504
        41.000          22.8004
 106608953.773 8  83071911.23248  20287005.295    20287004.5314   20287008.5494
        51.400          52.4004
 120501747.737 5  93897487.17042  22930718.231    22930717.0064   22930722.5784
        34.700          13.2004
 119474071.379 7  93096724.79644  22735162.442    22735162.3084   22735163.8254
        44.400          26.6004
 114617560.772 6  89312408.11445  21811007.591    21811007.5294   21811003.7864
        38.200          31.9004
 132555235.433 6                  25224405.782
        36.900
 132994123.461 6                  25307942.181
        41.900
 114196941.253 6                  21423062.514    21423062.212
        41.400
 134593093.621 6                  25612226.863
        38.600
 146290267.634 5                  27838116.564
        31.900
 121642733.988 6                  22771772.646    22771771.339
        40.300
 143979535.375 4                  27398391.890
        29.900
 111020771.505 7  86509693.51644  21126551.011    21126550.6814   21126547.7294
        46.400          28.8004


 198897838.992 7                  37849017.462
        42.900
 128358694.158 5                  24425846.812
        35.100
 138154649.811 4                  26289932.828
        27.800
 202052452.799 7                  38449320.597
        45.700
 105401729.105 8  81979117.454 7  19724500.012    19724500.009    19724505.005
        52.500          46.800
 105685107.118 7  82199770.253 7  19749770.248    19749768.521    19749776.164
        45.000          43.800
 123128310.116 6                  23033701.682    23033701.966
        37.000
 112600536.327 6  87578317.682 5  21056874.051    21056872.884    21056891.516
        36.400          32.400
 121846756.999 6                  22834026.700    22834028.917
        41.700


 121811866.906 5  94742643.723 5  22819452.057    22819447.107    22819487.086
        30.800          34.700
 25  1  1 21  2 15.0000000  0 28G21E31G07G02G30G08G13G17E33E24R10E09
                                E04R12E12G14S35S31E05E06S33R11R21R01
                                R20R02E26R22
 114310282.857 6  89072960.18744  21752524.353    21752523.1954   21752525.5054
        40.600          28.0004
 124036489.979 8                  23603350.085
        48.600
 109314807.163 7  85180314.58248  20801910.099    20801909.5544   20801911.9944
        47.700          48.3004
 114198398.666 6  88985792.64143  21731229.109    21731227.9384   21731231.0054
        39.200          22.0004
 106602254.951 8  83066691.37248  20285730.990    20285730.2354   20285733.1174
        51.600          52.2004
 120551761.748 5  93936459.06242  22940235.106    22940234.0654   22940238.7724
        30.900          13.5004
 119459174.200 7  93085116.55944  22732328.046    22732327.9084   22732327.7214
        45.500          25.1004
 114579448.670 5  89282710.36344  21803739.313    21803739.0944   21803750.2014
        31.000          27.9004
 132532455.486 5                  25220069.664
        35.300
 132972312.053 6                  25303792.025
        41.600
 114228518.058 6                  21428985.394    21428984.657
        40.800
 134626812.916 6                  25618645.248
        39.200
 146335668.948 4                  27846758.553
        29.300
 121597007.440 6  94575463.271 5  22763207.500    22763207.216    22763219.021
        38.600          34.500
 143933252.404 5                  27389582.999
        30.000
 110996721.148 7  86490952.99444  21121974.955    21121974.6074   21121970.9564
        46.800          27.5004


 198897835.826 7                  37849019.389
        43.000
 128355495.303 5                  24425238.869
        35.200
 138197378.632 5                  26298067.384
        35.000
 202052467.694 7                  38449323.704
        46.200
 105389853.709 9  81969880.995 8  19722279.099    19722279.156    19722282.667
        54.300          48.100
 105659067.137 8  82179516.971 7  19744904.583    19744903.619    19744911.728
        49.000          46.400
 123173990.704 6                  23042251.990    23042251.346
        36.900
 112637138.642 5  87606786.245 5  21063715.557    21063715.826    21063721.164
        32.700          34.200
 121850556.916 6                  22834740.680    22834741.171
        41.200


                  94690614.034 5                                  22806946.277
                        33.700
 25  1  1 21  2 30.0000000  0 27G21E31G07G02G30G08G13G17E33E24R10E09
                                E04R12E12G14S35S31E05E06S33R11R21R20
                                R02E26R22
 114320268.900 6  89080741.53344  21754425.449    21754424.2734   21754426.5534
        40.200          27.7004
 124042282.619 7                  23604452.514
        47.500
 109339297.608 7  85199397.99747  20806570.326    20806569.7414   20806573.2544
        45.100          47.2004
 114185486.507 6  88975731.27443  21728773.702    21728772.6114   21728771.7554
        38.900          19.3004
 106595683.460 8  83061570.71348  20284480.020    20284479.2604   20284482.4724
        51.000          50.8004
 120601806.536 5  93975454.98041  22949759.612    22949758.7634   22949761.0254
        31.100          11.0004
 119444422.727 7  93073621.87244  22729520.127    22729519.9754   22729520.0254
        45.600          25.6004
 114541425.231 5  89253081.71044  21796511.481    21796511.2944   21796513.7344
        33.400          27.9004
 132509768.464 5                  25215751.437
        31.400
 132950518.951 7                  25299645.934
        43.700
 114260164.717 7                  21434923.918    21434924.058
        42.000
 134660595.461 6                  25625072.329
        37.500


 121551276.735 6  94539895.014 5  22754649.652    22754647.234    22754655.721
        37.300          32.700
 143886972.991 5                  27380777.887
        30.200
 110972713.711 7  86472245.91544  21117406.254    21117405.9154   21117403.4484
        47.900          29.3004


 198897832.290 7                  37849019.666
        44.500
 128352402.806 6                  24424650.395
        41.400
 138240130.236 5                  26306199.072
        35.100
 202052481.465 7                  38449322.211
        46.000
 105378053.818 8  81960703.318 8  19720069.588    19720070.004    19720075.085
        53.400          48.500
 105633219.658 8  82159413.384 7  19740072.536    19740074.244    19740081.615
        50.600          46.600
 112673908.838 5  87635385.364 5  21070592.591    21070590.396    21070597.956
        32.600          32.500
 121854539.536 6                  22835485.003    22835485.164
        38.300


 121678110.014 5                  22794407.103
        31.100
 25  1  1 21  2 45.0000000  0 25G21E31G07G02G30G08G13G17E33E24R10E09
                                E04R12E12G14S35S31E05E06S33R11R21R02
                                R22
 114330409.823 6  89088643.60144  21756354.232    21756353.0164   21756357.1274
        41.300          28.5004
 124048101.596 7                  23605560.790
        46.700
 109363905.349 8  85218572.84548  20811253.442    20811252.8664   20811256.6614
        48.900          48.8004
 114172711.556 7  88965776.75643  21726342.542    21726341.4514   21726340.4674
        42.000          22.1004
 106589239.218 8  83056549.23748  20283253.829    20283253.0744   20283256.6214
        49.400          50.7004


 119429816.789 7  93062240.60344  22726740.296    22726740.1274   22726741.1094
        45.600          25.4004
 114503490.081 5  89223521.94844  21789293.180    21789292.9704   21789294.1344
        34.200          28.8004
 132487174.145 6                  25211452.851
        38.000
 132928743.870 7                  25295500.841
        44.900
 114291880.907 6                  21440873.507    21440872.206
        40.300
 134694441.033 5                  25631509.683
        30.100


 121505541.718 6  94504323.242 5  22746095.090    22746092.877    22746095.680
        40.600          34.000
 143840697.241 4                  27371972.733
        28.800
 110948748.965 7  86453572.10245  21112846.093    21112845.7634   21112844.7634
        46.400          30.5004


 198897826.958 7                  37849016.800
        44.000
 128349416.460 6                  24424082.588
        40.200
 138282904.215 6                  26314340.134
        37.600
 202052494.646 7                  38449322.054
        45.200
 105366329.537 8  81951584.386 8  19717875.759    19717876.079    19717881.625
        53.100          49.100
 105607564.665 8  82139459.559 7  19735278.950    19735279.690    19735287.396
        51.300          46.100
 121858704.787 6  94779052.160 5  22836260.040    22836262.779    22836283.977
        39.100          33.800


 25  1  1 21  3  0.0000000  0 27G21E31G07G02G30G13G17E33E24R10E09E04
                                R12E12G14S35S31E05E06S33R11R21R01R20
                                R02E26R22
 114340701.118 6  89096662.81044  21758312.966    21758311.7684   21758315.4964
        41.600          28.2004
 124053942.770 8                  23606671.817
        48.000
 109388626.329 8  85237835.91048  20815957.041    20815956.4694   20815960.8174
        50.300          49.7004
 114160069.842 7  88955926.07243  21723935.499    21723934.4404   21723936.3804
        44.400          22.4004
 106582918.306 8  83051623.86148  20282051.314    20282050.5774   20282054.4174
        50.200          50.9004
 119415352.275 7  93050969.54244  22723988.857    22723988.6744   22723989.8624
        43.800          27.4004
 114465639.154 6  89194027.72244  21782091.250    21782090.9464   21782090.4224
        40.100          29.3004
 132464668.767 6                  25207172.180
        38.900
 132906982.708 7                  25291360.089
        45.900
 114323662.456 6                  21446834.924    21446833.903
        40.900




 121459798.227 6  94468745.084 5  22737525.767    22737526.621    22737529.223
        38.700          32.300
 143794421.220 5                  27363166.146
        30.100
 110924822.934 7  86434928.42545  21108293.106    21108292.7534   21108292.6524
        45.700          31.2004


 198897817.448 7                  37849013.849
        43.400
 128346532.153 7                  24423533.701
        42.100
 138325696.008 5                  26322484.947
        30.500
 202052502.930 7                  38449317.024
        42.800
 105354676.991 8  81942521.278 8  19715695.032    19715695.644    19715700.457
        52.300          48.000
 105582098.379 8  82119652.489 7  19730520.319    19730520.149    19730526.393
        51.300          45.200
 123311647.956 6                  23067979.730    23067979.605
        38.600
 112747944.718 5  87692882.834 5  21084436.105    21084436.288    21084444.206
        33.700          32.400
 121863048.287 6                  22837079.834    22837081.001
        38.600
 140281164.623 4                  26694629.471
        28.200


 25  1  1 21  3 15.0000000  0 28G21E31G07G02G30G08G13G19G17E33E24R10
                                E09E04R12E12G14S35S31E05E06S33R11R21
                                R01R20R02R22
 114351151.618 6  89104806.09844  21760301.059    21760299.8704   21760303.5484
        40.100          27.5004
 124059815.092 7                  23607788.866
        47.200
 109413469.375 8  85257194.09548  20820685.500    20820684.9284   20820687.9804
        51.100          51.3004
 114147570.584 7  88946186.34244  21721557.017    21721555.9894   21721559.6994
        44.500          26.4004
 106576729.768 8  83046801.61248  20280873.414    20280872.6724   20280876.9134
        48.200          49.6004


 119401038.167 7  93039815.67444  22721265.153    22721264.9394   22721266.1344
        45.400          27.8004
 130203676.992 5                  24776918.898
        33.000
 114427881.733 6  89164606.41545  21774905.175    21774904.8764   21774905.3784
        39.700          31.0004
 132442261.390 6                  25202906.956
        36.600
 132885244.355 7                  25287222.964
        47.700
 114355518.590 6                  21452808.725    21452808.290
        39.700
 134762382.184 4                  25644426.234
        27.100


 121414055.692 6  94433167.489 4  22728963.157    22728960.977    22728965.091
        40.300          28.900
 143748154.154 4                  27354361.111
        25.300
 110900944.536 8  86416321.89245  21103749.372    21103749.0374   21103750.4714
        48.400          34.5004


 198897811.696 7                  37849011.877
        44.400
 128343758.755 6                  24423006.324
        40.700
 138368514.379 5                  26330633.657
        32.600
 202052514.891 7                  38449326.736
        45.300
 105343105.421 8  81933521.169 7  19713529.464    19713529.988    19713535.109
        52.800          47.700
 105556830.095 8  82099999.383 7  19725798.355    19725798.428    19725804.972
        51.400          44.700
 123357656.556 6                  23076586.141    23076586.767
        39.500
 112785214.686 5  87721870.386 6  21091406.304    21091405.866    21091415.541
        32.000          37.000
 121867579.172 6  94785914.671 5  22837929.316    22837929.872    22837936.509
        40.100          31.000
 121477808.401 5                  22756857.925    22756856.487
        35.600
 25  1  1 21  3 30.0000000  0 29G21E31G07G02G30G08G13G15G19G17E33E24
                                R10E09E04R12E12G14S35S31E05E06S33R11
                                R21R01R20R02R22
 114361757.459 6  89113070.41644  21762320.334    21762319.1634   21762321.5254
        41.400          27.7004
 124065714.593 7                  23608912.172
        46.600
 109438430.542 8  85276644.31148  20825435.654    20825435.0824   20825437.7154
        51.100          51.2004
 114135209.820 7  88936554.58544  21719205.957    21719204.9074   21719207.4914
        45.600          26.2004
 106570669.845 7  83042079.56447  20279720.148    20279719.4154   20279722.9804
        46.800          47.5004


 119386870.770 7  93028776.12144  22718569.594    22718569.3754   22718569.7334
        46.400          29.1004
 130765613.448 4                  24883869.543
        29.500
 130151747.027 5                  24767032.851
        33.400
 114390213.902 6  89135254.93945  21767736.151    21767735.7624   21767737.8554
        36.200          31.4004
 132419948.233 5                  25198662.329
        34.900
 132863524.898 7                  25283089.002
        46.700
 114387445.295 7                  21458800.118    21458800.604
        43.300
 134796416.242 5                  25650931.041
        34.500


 121368309.929 6                  22720398.660    22720394.824
        36.000


 110877109.922 8  86397749.45745  21099212.893    21099212.5494   21099215.6564
        48.500          34.8004


 198897805.190 7                  37849013.755
        43.300
 128341092.450 7                  24422499.398
        42.500
 138411355.198 5                  26338787.155
        34.500
 202052527.040 7                  38449337.222
        46.300
 105331610.988 8  81924581.025 7  19711379.303    19711379.781    19711383.879
        52.600          47.200
 105531756.097 8  82080497.393 7  19721113.315    19721112.727    19721119.364
        50.000          45.100
 123403746.390 6                  23085207.763    23085208.275
        38.600
 112822651.005 4  87750987.567 5  21098407.834    21098408.517    21098413.564
        28.900          34.900
 121872293.009 7  94789580.993 5  22838813.045    22838813.835    22838818.336
        42.000          34.000
 121411095.687 6                  22744361.077    22744361.052
        41.100
 25  1  1 21  3 45.0000000  0 29G21E31G07G02G30G08G13G15G19G17E33E24
                                R10E09E04R12E12G14S35S31E05E06S33R11
                                R21R01R02E26R22
 114372516.696 7  89121454.25844  21764367.470    21764366.2684   21764369.3094
        42.600          27.1004
 124071639.590 7                  23610039.736
        47.200
 109463507.975 8  85296185.12648  20830208.027    20830207.4554   20830209.2674
        52.000          51.2004
 114122985.962 7  88927029.49044  21716879.746    21716878.6694   21716880.2314
        44.900          26.9004
 106564736.907 7  83037456.47647  20278591.325    20278590.5974   20278593.2964
        47.500          47.2004


 119372848.271 7  93017849.46244  22715901.668    22715901.4454   22715900.8054
        44.900          28.3004
 130743379.888 4                  24879628.522
        28.200
 130099837.949 4                  24757149.299
        27.000
 114352634.194 6  89105972.13845  21760584.437    21760584.0444   21760586.6624
        38.300          30.6004
 132397727.649 6                  25194430.092
        36.000
 132841822.642 7                  25278960.181
        46.600
 114419440.691 6                  21464803.690    21464801.070
        41.000
 134830511.706 5                  25657390.663
        35.600


 121322559.462 6                  22711836.351    22711832.409
        40.200


 110853317.438 7  86379209.85345  21094685.212    21094684.8594   21094688.3614
        47.000          34.4004


 198897798.073 7                  37849011.466
        42.700
 128338531.471 7                  24422011.594
        44.400
 138454216.365 5                  26346942.614
        34.600
 202052537.964 7                  38449338.872
        46.400
 105320192.125 8  81915699.680 7  19709241.729    19709242.104    19709246.604
        51.700          46.000
 105506874.761 8  82061145.264 7  19716462.825    19716463.053    19716469.865
        49.000          45.700
 123449915.289 6                  23093843.860    23093843.591
        38.200
 121877188.083 6  94793388.340 5  22839727.779    22839729.074    22839734.589
        41.700          35.600


 121344419.874 6  94378980.017 5  22731868.013    22731867.665    22731889.865
        40.300          32.500
 25  1  1 21  4  0.0000000  0 29G21E31G07G02G30G08G13G19G17E33E24R10
                                E09E04R12E12G14S35S31E05E06S33R11R21
                                R01R20R02E26R22
 114383436.370 6  89129963.11144  21766445.513    21766444.3294   21766447.4424
        40.600          26.8004
 124077597.298 7                  23611172.969
        47.100
 109488708.723 8  85315822.00548  20835003.266    20835002.6904   20835005.0064
        51.500          51.4004
 114110906.512 7  88917616.96044  21714581.752    21714580.6664   21714581.3974
        47.500          27.3004
 106558938.443 7  83032938.17647  20277487.416    20277486.7104   20277490.0304
        47.000          47.3004
 120902691.020 5  94209892.15943  23007018.463    23007018.5394   23007022.0794
        33.200          18.6004
 119358978.011 7  93007041.47644  22713261.426    22713261.1854   22713260.2044
        43.500          25.6004
 130047957.247 5                  24747275.784
        31.400
 114315149.777 5  89076763.58445  21753450.393    21753450.0004   21753455.2564
        33.300          30.5004
 132375607.299 6                  25190222.191
        37.500
 132820144.790 7                  25274835.137
        47.600
 114451512.373 6                  21470820.929    21470819.212
        41.700
 134864675.191 5                  25663895.316
        35.100


 121276811.749 7                  22703272.280    22703273.442
        45.200
 143609369.425 5                  27327954.499
        34.400
 110829574.343 8  86360708.73945  21090167.384    21090167.0364   21090170.0064
        48.100          34.4004


 198897796.495 7                  37849008.921
        42.300
 128336083.072 7                  24421545.444
        44.600
 138497104.986 5                  26355103.148
        32.000
 202052553.731 7                  38449342.785
        44.700
 105308856.472 8  81906883.017 7  19707120.106    19707120.369    19707124.944
        48.200          43.600
 105482193.843 7  82041949.020 7  19711849.688    19711850.400    19711857.785
        47.400          46.800
 123496169.817 6  96052572.871 5  23102497.391    23102498.711    23102511.735
        39.800          31.300
 112898022.817 5  87809610.117 6  21112501.577    21112500.621    21112509.035
        32.700          37.700
 121882271.302 6  94797341.967 6  22840683.186    22840683.211    22840691.333
        39.500          39.300


 121277788.773 6  94327156.426 4  22719387.621    22719384.066    22719402.769
        37.300          28.600
 25  1  1 21  4 15.0000000  0 29G21E31G07G02G30G08G13G19G17E33E24R10
                                E09E04R12E12G14S35S31E05E06S33R11R21
                                R01R20R02E26R22
 114394509.966 6  89138591.89644  21768553.241    21768552.0434   21768553.9204
        40.900          26.5004
 124083581.099 7                  23612310.912
        46.400
 109514026.108 8  85335549.77748  20839821.142    20839820.5574   20839823.0724
        52.200          50.9004
 114098964.868 7  88908311.83744  21712307.746    21712306.6514   21712307.5954
        46.400          25.2004
 106553267.902 7  83028519.53447  20276408.429    20276407.7364   20276411.3454
        47.400          47.8004
 120952949.611 6  94249054.64443  23016583.561    23016584.1194   23016588.0924
        36.700          18.9004
 119345253.421 7  92996347.00743  22710650.127    22710649.9224   22710647.8024
        43.000          23.7004
 129996098.388 5                  24737411.541
        32.500
 114277754.292 6  89047624.25145  21746335.453    21746335.0874   21746341.0744
        39.100          32.6004
 132353580.548 6                  25186033.285
        40.700
 132798484.671 8                  25270713.431
        48.100
 114483653.652 7                  21476849.907    21476850.877
        42.200
 134898899.867 6                  25670409.680
        38.000


 121231060.343 7                  22694709.148    22694707.235
        44.500
 143563127.668 5                  27319154.720
        33.500
 110805874.086 8  86342241.02445  21085657.297    21085656.9624   21085659.3514
        48.500          34.7004


 198897792.999 7                  37849014.877
        43.000
 128333740.610 7                  24421098.941
        42.800
 138540014.224 5                  26363273.269
        35.000
 202052567.770 7                  38449344.734
        45.000
 105297597.455 7  81898125.973 7  19705011.057    19705012.173    19705018.578
        46.100          43.400
 105457706.904 7  82022903.602 7  19707273.874    19707273.744    19707282.675
        46.900          47.500
 123542502.787 5  96088609.416 4  23111164.223    23111161.680    23111177.583
        34.300          28.500
 112935958.328 5  87839115.518 6  21119594.388    21119594.546    21119605.893
        35.500          38.400
 121887536.180 6  94801436.826 6  22841670.364    22841669.476    22841676.262
        40.300          38.600
 140354712.656 5                  26708614.429
        32.300
 121211196.133 5  94275362.621 4  22706912.622    22706909.957    22706947.056
        35.500          27.800
 25  1  1 21  4 30.0000000  0 29G21E31G07G02G30G08G13G19G17E33E24R10
                                E09E04R12E12G14S35S31E05E06S33R11R21
                                R01R20R02E26R22
 114405734.114 6  89147337.99744  21770687.851    21770686.6084   21770689.1744
        40.100          26.6004
 124089587.475 7                  23613453.496
        46.100
 109539456.573 8  85355365.67348  20844660.277    20844659.6924   20844662.5224
        52.000          50.9004
 114087157.770 7  88899111.62343  21710060.584    21710059.5164   21710058.5254
        43.600          21.8004
 106547721.933 7  83024197.97947  20275352.818    20275352.1254   20275355.9714
        46.900          47.4004
 121003232.885 6  94288236.45543  23026152.187    23026152.6694   23026160.7184
        39.000          19.3004
 119331671.269 6  92985763.53543  22708063.228    22708062.9964   22708063.4324
        39.600          21.2004
 129944258.474 4                  24727543.735
        28.800
 114240444.269 6  89018551.57045  21739237.616    21739237.1654   21739242.3464
        37.100          34.7004
 132331644.143 6                  25181857.542
        41.400
 132776838.795 7                  25266594.345
        47.800
 114515861.003 6                  21482892.923    21482892.339
        40.600
 134933182.103 6                  25676933.182
        39.500


 121185301.520 6  94255255.759 5  22686137.778    22686139.960    22686145.647
        41.800          34.900
 143516887.441 5                  27310356.895
        33.000
 110782213.202 7  86323803.96145  21081154.280    21081153.9634   21081155.8994
        47.800          34.4004


 198897786.160 6                  37849006.761
        41.900
 128331500.580 7                  24420672.216
        42.600
 138582940.272 5                  26371443.260
        32.500
 202052579.317 7                  38449341.609
        46.200
 105286411.743 7  81889425.942 7  19702917.211    19702919.727    19702926.542
        44.200          43.600
 105433410.422 7  82004006.330 7  19702735.169    19702733.317    19702741.649
        45.900          47.500
 123588910.262 5                  23119846.514    23119846.657
        35.400
 112974053.705 5  87868745.314 6  21126721.505    21126720.761    21126727.797
        35.700          38.500
 121892978.716 6  94805669.861 6  22842689.183    22842688.904    22842693.802
        39.500          36.200
 140369744.456 4                  26711475.144
        29.000
 121144638.937 6                  22694445.504    22694441.481
        38.800
 25  1  1 21  4 45.0000000  0 28G21E31G07G02G30G08G13G17E33E24R10E09
                                E04R12E12G14S35S31E05E06S33R11R21R01
                                R20R02E26R22
 114417116.325 7  89156207.26544  21772853.584    21772852.3414   21772853.6904
        43.100          26.3004
 124095624.325 7                  23614602.987
        44.200
 109565007.911 8  85375275.77748  20849522.296    20849521.6974   20849525.0354
        50.500          49.9004
 114075493.162 7  88890022.33743  21707841.912    21707840.7774   21707839.8894
        42.200          21.6004
 106542308.576 8  83019979.75548  20274322.464    20274321.7674   20274326.4424
        48.500          49.0004
 121053548.584 6  94327443.52343  23035725.800    23035726.0364   23035736.3584
        38.400          18.7004
 119318239.563 6  92975297.27443  22705508.920    22705508.6394   22705508.0744
        37.900          20.6004
 114203227.930 6  88989551.84645  21732155.309    21732154.8764   21732160.3784
        39.700          35.1004
 132309806.214 6                  25177701.803
        40.800
 132755215.075 8                  25262479.001
        48.300
 114548142.260 6                  21488947.831    21488948.123
        40.500
 134967529.440 6                  25683469.005
        41.300


 121139543.559 5  94219666.326 5  22677570.573    22677566.178    22677576.740
        32.700          33.500
 143470657.092 5                  27301558.734
        30.600
 110758599.701 7  86305403.84645  21076661.430    21076661.1174   21076661.5204
        47.600          34.1004


 198897782.214 7                  37849007.374
        42.800
 128329370.826 7                  24420267.387
        42.200
 138625890.755 5                  26379626.484
        32.900
 202052592.217 7                  38449343.724
        46.900
 105275307.564 7  81880789.340 7  19700838.222    19700838.566    19700845.807
        43.000          42.400
 105409313.054 7  81985263.977 7  19698232.369    19698230.616    19698238.291
        45.400          47.600
 123635399.417 5                  23128539.315    23128537.725
        30.800
 113012316.902 5  87898505.526 6  21133873.976    21133873.582    21133882.984
        33.400          38.800
 121898607.053 7  94810047.412 5  22843744.261    22843744.913    22843747.428
        44.300          33.600
 140384883.462 5                  26714355.848
        32.100
 121078125.665 6                  22681986.887    22681986.241
        40.700
 25  1  1 21  5  0.0000000  0 28G21E31G07G02G30G08G13G17E33E24R10E09
                                E04R12E12G14S35S31E05E06S33R11R21R01
                                R20R02E26R22
 114428652.624 7  89165196.56544  21775049.048    21775047.8234   21775047.6784
        42.700          26.6004
 124101687.660 7                  23615757.108
        44.000
 109590676.172 8  85395276.98448  20854406.951    20854406.3704   20854409.5684
        50.000          48.6004
 114063967.357 7  88881041.20144  21705649.220    21705648.0944   21705648.6114
        44.500          24.3004
 106537023.992 8  83015861.88148  20273317.420    20273316.7184   20273321.7184
        48.900          50.9004
 121103892.328 5  94366672.33742  23045306.861    23045307.0084   23045316.3804
        34.800          16.5004
 119304954.345 6  92964945.16843  22702981.434    22702981.0954   22702980.5844
        38.800          20.4004
 114166101.368 6  88960622.08245  21725090.088    21725089.6374   21725094.4504
        40.500          34.1004
 132288062.893 6                  25173564.225
        40.900
 132733609.480 8                  25258367.291
        48.300
 114580493.506 6                  21495015.347    21495014.322
        38.300
 135001937.760 6                  25690017.618
        40.200


 121093782.797 7  94184074.588 5  22669007.485    22669008.547    22669009.831
        42.100          34.300
 143424432.848 4                  27292762.655
        26.000
 110735029.607 7  86287037.54845  21072176.829    21072176.5124   21072176.6844
        46.300          34.8004


 198897777.364 7                  37849005.536
        42.700
 128327347.428 7                  24419882.799
        43.900
 138668861.206 4                  26387805.125
        29.900
 202052604.970 7                  38449348.280
        45.600
 105264281.096 7  81872213.202 7  19698777.548    19698777.108    19698782.471
        46.400          43.700
 105385410.712 7  81966673.309 7  19693764.193    19693764.100    19693771.735
        45.600          47.700
 123681965.606 4                  23137247.900    23137249.510
        29.700
 113050742.953 6  87928392.437 6  21141058.771    21141060.476    21141068.166
        36.200          39.400
 121904416.721 7  94814565.985 5  22844835.447    22844837.178    22844839.363
        45.500          35.700
 140400125.618 5                  26717255.992
        30.600
 121011652.754 6                  22669530.978    22669531.887
        37.200
 25  1  1 21  5 15.0000000  0 28G21E31G07G02G30G08G13G17E33E24R10E09
                                E04R12E12G14S35S31E05E06S33R11R21R01
                                R20R02E26R22
 114440343.286 7  89174306.18244  21777274.183    21777272.9584   21777272.3504
        43.200          27.4004
 124107777.906 7                  23616915.342
        44.800
 109616461.746 8  85415369.59147  20859312.907    20859312.3354   20859316.1184
        50.400          47.4004
 114052580.778 7  88872168.52944  21703482.317    21703481.2044   21703484.3144
        46.900          27.2004
 106531868.729 8  83011844.75348  20272336.683    20272335.9814   20272340.9934
        49.600          51.3004
 121154264.242 5  94405923.24142  23054890.183    23054890.3614   23054903.3604
        32.200          15.5004
 119291815.986 6  92954707.47743  22700480.973    22700480.6024   22700480.5984
        40.500          19.8004
 114129065.116 6  88931762.72745  21718038.633    21718038.1774   21718045.0584
        37.200          32.1004
 132266414.800 6                  25169444.013
        39.100
 132712022.468 7                  25254259.562
        47.700
 114612914.828 5                  21501092.962    21501096.877
        34.600
 135036407.129 6                  25696577.409
        40.500


 121048019.485 6  94148480.988 6  22660439.375    22660440.494    22660444.563
        41.300          36.900


 110711503.404 7  86268705.45145  21067700.136    21067699.7924   21067700.5954
        45.700          33.7004


 198897772.400 7                  37849000.358
        42.100
 128325430.789 7                  24419518.085
        44.300
 138711852.269 5                  26395989.727
        33.700
 202052618.469 7                  38449349.398
        44.900
 105253332.900 8  81863697.925 7  19696729.462    19696730.393    19696734.767
        50.000          45.600
 105361704.150 7  81948234.895 7  19689333.439    19689333.121    19689341.153
        43.000          46.800
 123728609.111 5                  23145974.718    23145975.282
        31.600
 113089332.174 5  87958406.216 6  21148273.240    21148277.250    21148284.743
        35.800          40.500
 121910408.058 7  94819225.883 5  22845959.458    22845959.954    22845961.476
        46.400          33.700
 140415471.108 4                  26720170.099
        26.900
 120945221.134 6                  22657086.824    22657087.679
        41.800
 25  1  1 21  5 30.0000000  0 29G21E31G07G02G30G08G13G15G17E33E24R10
                                E09E04R12E12G14S35S31E05E06S33R11R21
                                R01R20R02E26R22
 114452187.891 7  89183535.74844  21779528.126    21779526.9064   21779527.6494
        44.000          28.4004
 124113894.682 7                  23618079.736
        44.200
 109642364.070 8  85435553.15347  20864241.813    20864241.2504   20864244.5304
        48.700          46.0004
 114041333.311 7  88863404.25644  21701341.577    21701340.4864   21701344.7914
        46.000          27.1004
 106526842.593 8  83007928.24948  20271380.706    20271380.0134   20271384.2894
        50.400          51.4004
 121204663.780 4  94445195.59741  23064480.787    23064481.0464   23064495.0934
        25.600          11.7004
 119278824.321 7  92944584.11743  22698008.833    22698008.4944   22698007.0084
        42.600          20.3004
 130591414.584 5                  24850719.749
        33.600
 114092118.770 5  88902973.47644  21711009.756    21711009.4214   21711013.1324
        31.200          26.7004
 132244861.708 6                  25165343.195
        40.900
 132690453.612 8                  25250155.480
        48.600
 114645406.448 6                  21507198.338    21507197.315
        40.400
 135070937.017 6                  25703147.970
        40.500


 121002253.545 7  94112885.263 6  22651872.147    22651873.406    22651880.194
        43.200          41.600


 110688020.823 7  86250407.33745  21063232.240    21063231.8654   21063232.1164
        42.700          32.3004


 198897766.948 7                  37848997.474
        43.500
 128323620.571 7                  24419173.305
        44.000
 138754863.137 4                  26404169.196
        28.900
 202052629.885 7                  38449348.428
        45.500
 105242462.911 8  81855243.464 7  19694695.369    19694695.921    19694700.841
        51.300          47.800
 105338193.257 7  81929948.635 7  19684940.162    19684940.525    19684947.037
        44.200          46.300
 123775328.744 5  96269707.840 5  23154719.850    23154718.185    23154741.342
        34.200          33.200
 113128083.501 5  87988546.129 6  21155520.333    21155520.805    21155531.052
        33.900          40.900
 121916580.330 7  94824026.492 5  22847115.074    22847116.821    22847119.582
        44.200          35.100
 140430919.669 5                  26723115.012
        30.900
 120878830.906 6                  22644652.057    22644651.381
        41.200
 25  1  1 21  5 45.0000000  0 29G21E31G07G02G30G08G13G15G17E33E24R10
                                E09E04R12E12G14S35S31E05E06S33R11R21
                                R01R20R02E26R22
 114464188.530 7  89192886.91344  21781811.184    21781809.9374   21781812.4654
        44.500          29.0004
 124120040.246 7                  23619250.318
        44.600
 109668385.257 8  85455829.33547  20869194.118    20869193.5604   20869195.5154
        50.200          45.4004
 114030227.205 7  88854750.14244  21699229.431    21699228.3404   21699229.7404
        44.700          24.2004
 106521947.903 8  83004114.18148  20270449.253    20270448.5744   20270452.1934
        52.100          51.3004


 119265981.625 6  92934576.81843  22695563.354    22695562.9924   22695561.9704
        41.900          19.7004
 130570232.882 5 101743064.21742  24846693.040    24846693.2414   24846695.1724
        31.900          12.4004
 114055265.009 5  88874256.32544  21703996.021    21703995.7134   21704000.0724
        34.500          27.1004
 132223406.044 6                  25161259.092
        40.500
 132668905.124 8                  25246055.119
        49.200
 114677970.223 6                  21513302.038    21513301.809
        36.700
 135105529.346 6                  25709730.220
        40.400


 120956487.181 7  94077289.248 7  22643301.614    22643303.085    22643312.860
        42.000          43.200


 110664584.084 7  86232144.94945  21058772.324    21058771.9274   21058771.3144
        45.400          31.6004


 198897762.917 7                  37849001.342
        43.300
 128321918.951 7                  24418850.529
        43.400
 138797895.625 4                  26412359.681
        29.600
 202052644.133 7                  38449355.744
        45.000
 105231673.481 8  81846851.678 8  19692676.914    19692676.617    19692682.570
        52.300          49.400
 105314880.492 7  81911816.472 7  19680582.376    19680584.467    19680590.555
        45.500          45.800
 123822126.033 5  96306105.567 5  23163474.629    23163470.680    23163492.821
        30.600          30.400
 113166998.864 6  88018813.633 7  21162799.782    21162801.394    21162810.264
        36.700          42.400
 121922936.163 7  94828969.864 6  22848307.131    22848310.382    22848314.851
        42.700          38.100
 140446473.434 4                  26726073.282
        24.100
 120812484.686 6                  22632221.070    22632222.421
        40.400
 25  1  1 21  6  0.0000000  0 28G21E31G07G02G30G08G13G17E33E24R10E09
                                E04R12E12G14S35S31E05E06S33R11R21R01
                                R20R02E26R22
 114476341.086 7  89202356.45344  21784123.835    21784122.5754   21784126.1854
        45.700          29.5004
 124126210.582 7                  23620424.100
        45.200
 109694521.300 8  85476195.00847  20874168.715    20874168.1614   20874168.9484
        49.300          45.2004
 114019258.594 7  88846203.18044  21697141.676    21697140.5944   21697142.3784
        45.100          24.4004
 106517180.805 8  83000399.54848  20269542.051    20269541.3674   20269544.4404
        52.500          50.9004
 121305547.659 5  94523806.10342  23083681.820    23083681.4544   23083693.9914
        35.200          12.6004
 119253283.994 6  92924682.52343  22693148.569    22693148.2074   22693145.0534
        41.400          20.1004
 114018499.846 6  88845608.25145  21697000.591    21697000.2924   21697004.6704
        39.700          31.5004
 132202043.949 6                  25157195.585
        41.800
 132647373.022 8                  25241957.678
        49.500
 114710602.274 5                  21519421.953    21519420.451
        35.400
 135140179.926 6                  25716323.355
        38.700


 120910716.532 6  94041689.870 7  22634732.474    22634734.307    22634744.623
        41.300          44.600


 110641189.275 7  86213915.22545  21054319.687    21054319.2854   21054318.7414
        47.300          32.6004


 198897756.826 7                  37849001.704
        43.500
 128320321.962 7                  24418546.378
        42.400


 202052655.412 7                  38449356.785
        44.500
 105220960.742 8  81838519.526 8  19690671.922    19690671.479    19690677.928
        52.200          50.200
 105291762.039 7  81893835.440 7  19676261.929    19676263.310    19676271.008
        47.000          45.400
 123868996.622 5                  23172242.662    23172239.380
        33.000
 113206073.710 5  88049205.175 7  21170107.912    21170107.918    21170117.642
        35.300          44.100
 121929470.777 6  94834052.359 6  22849534.711    22849534.565    22849537.692
        40.000          39.300
 140462128.009 5                  26729057.359
        32.700
 120746179.046 6  93913627.936 5  22619801.980    22619801.358    22619812.388
        36.800          32.900
 25  1  1 21  6 15.0000000  0 29G21E31G07G02G30G08G13G15G17E33E24R10
                                E09E04R12E12G14S35S31E05E06S33R11R21
                                R01R20R02E26R22
 114488647.630 7  89211945.98845  21786465.685    21786464.4424   21786469.2714
        44.700          30.2004
 124132407.561 7                  23621603.768
        44.700
 109720774.094 8  85496651.63747  20879164.388    20879163.8124   20879165.1194
        50.100          45.6004
 114008429.521 7  88837764.93443  21695080.024    21695078.9294   21695082.4444
        43.600          22.0004
 106512543.354 8  82996785.93948  20268659.526    20268658.8244   20268661.4294
        52.400          50.5004


 119240733.354 6  92914902.79543  22690761.012    22690760.6414   22690757.0774
        39.800          20.1004
 130528259.605 4 101710357.69441  24838719.834    24838720.0884   24838709.4184
        28.000           6.3004
 113981825.277 6  88817030.72345  21690020.760    21690020.4884   21690026.2964
        38.800          33.1004
 132180777.509 7                  25153148.936
        42.300
 132625859.146 8                  25237863.391
        48.400
 114743304.756 6                  21525558.802    21525557.158
        38.300
 135174890.368 5                  25722926.817
        35.200


 120864943.806 6  94006088.845 7  22626166.200    22626164.805    22626175.657
        40.600          44.900


 110617838.340 7  86195719.69345  21049875.406    21049874.9954   21049875.2724
        46.800          33.1004


 198897750.382 7                  37849001.784
        43.200
 128318831.426 7                  24418262.523
        43.200


 202052666.402 7                  38449361.749
        44.900
 105210326.871 8  81830248.737 8  19688682.400    19688681.759    19688687.738
        52.200          50.700
 105268840.105 7  81876007.272 7  19671979.065    19671979.013    19671987.506
        47.800          45.800
 123915941.820 5                  23181022.073
        30.400
 113245309.293 5  88079721.685 7  21177444.683    21177443.686    21177454.242
        34.700          43.300
 121936185.982 5  94839275.610 6  22850780.940    22850778.418    22850796.186
        34.000          38.900
 140477885.441 5                  26732054.858
        33.300
                  93862090.602 6                                  22607400.796
                        36.400
 25  1  1 21  6 30.0000000  0 27G21E31G07G02G30G08G13G17E33E24R10E09
                                E04R12E12G14S35S31E05E06S33R11R21R01
                                R20R02E26
 114501110.557 7  89221657.36144  21788837.993    21788836.7684   21788841.5474
        44.700          29.8004
 124138634.076 7                  23622787.910
        44.400
 109747146.197 8  85517201.22447  20884183.207    20884182.6354   20884184.2254
        51.400          47.5004
 113997743.126 6  88829437.89142  21693046.063    21693044.9634   21693048.3844
        37.800          15.8004
 106508038.529 8  82993275.67748  20267802.579    20267801.8954   20267804.0004
        51.900          50.6004


 119228332.737 6  92905239.93243  22688402.232    22688401.8394   22688397.4474
        41.300          20.0004
 113945244.272 6  88788526.08744  21683060.568    21683060.4164   21683064.9684
        38.900          29.8004
 132159609.680 7                  25149122.128
        44.100
 132604366.394 7                  25233773.387
        47.700
 114776080.097 7                  21531708.833    21531710.013
        42.800




 120819171.872 7  93970488.412 7  22617599.680    22617599.077    22617606.607
        43.900          44.100


 110594534.216 7  86177560.63545  21045440.856    21045440.4544   21045440.7914
        47.800          33.1004


 198897745.458 7                  37848999.643
        42.300
 128317450.270 7                  24417999.069
        42.800


 202052679.028 7                  38449362.424
        44.100
 105199775.157 8  81822041.870 8  19686707.482    19686707.345    19686713.378
        52.500          50.700
 105246117.810 8  81858334.396 7  19667735.059    19667733.377    19667740.842
        48.400          46.200
                                                  23189821.809

 113284708.674 5  88110365.610 7  21184811.973    21184812.044    21184821.298
        35.600          43.100
 121943085.320 7  94844641.593 6  22852091.954    22852093.106    22852087.496
        43.600          38.300
 140493748.452 5                  26735073.568
        31.700
 25  1  1 21  6 45.0000000  0 28G21E31G07G02G30G08G13G19G17E33E24R10
                                E09E04R12E12G14S35S31E05E06S33R11R21
                                R20R02E26R22
 114513724.330 7  89231486.28744  21791238.428    21791237.1854   21791239.0124
        45.900          26.9004
 124144884.566 7                  23623977.993
        44.900
 109773632.022 8  85537839.45948  20889223.165    20889222.5894   20889224.5444
        51.900          48.2004
 113987193.881 6  88821217.70342  21691038.467    21691037.2874   21691040.6034
        38.900          14.7004
 106503660.919 8  82989864.53848  20266969.786    20266969.1114   20266970.9324
        52.700          51.2004


 119216076.701 6  92895689.71643  22686068.581    22686068.1524   22686065.4154
        38.100          19.7004
 129478721.224 5                  24638972.807
        31.400
 113908751.294 6  88760090.09144  21676116.763    21676116.5894   21676120.8914
        38.800          29.5004
 132138535.206 7                  25145111.269
        42.800
 132582889.192 7                  25229686.754
        47.700
 114808923.043 7                  21537871.331    21537871.555
        43.000
 135244528.947 5                  25736181.069
        35.000


 120773395.182 7  93934884.325 7  22609027.706    22609029.127    22609037.431
        44.300          43.800


 110571271.385 7  86159433.75945  21041014.336    21041013.9394   21041015.0334
        45.900          33.7004


 198897737.949 6                  37849000.090
        41.800
 128316172.865 7                  24417755.513
        44.400
 138970106.474 5                  26445135.852
        35.500
 202052689.634 7                  38449363.627
        44.700
 105189299.999 8  81813894.520 8  19684748.593    19684748.730    19684752.567
        53.800          51.000
 105223589.786 8  81840812.637 7  19663526.028    19663525.388    19663531.060
        48.700          46.800
 113324265.380 5  88141131.942 7  21192208.952    21192208.626    21192218.766
        34.600          44.200
 121950162.031 7  94850145.704 5  22853404.938    22853407.947    22853412.201
        45.000          34.700
 140509711.291 5                  26738116.094
        35.900
 120547341.966 6  93759120.308 5  22582582.079    22582581.804    22582600.390
        39.800          35.300
 25  1  1 21  7  0.0000000  0 28G21E31G07G02G30G08G13G19G17E33E24R10
                                E09E04R12E12G14S35S31E05E06S33R11R21
                                R20R02E26R22
 114526494.313 7  89241436.94544  21793667.944    21793666.7194   21793667.1794
        44.700          25.6004
 124151164.412 7                  23625173.486
        45.700
 109800236.864 8  85558570.45747  20894285.301    20894284.7344   20894287.6284
        50.800          47.6004
 113976787.259 5  88813108.74042  21689058.240    21689057.0244   21689059.5894
        34.200          16.3004
 106499416.083 8  82986556.86148  20266161.311    20266160.6454   20266163.5184
        51.000          51.1004


 119203970.539 6  92886256.36343  22683765.078    22683764.6674   22683761.9754
        38.500          18.6004
 129427125.469 5                  24629154.813
        32.000
 113872352.058 6  88731727.10644  21669188.946    21669188.6784   21669194.1964
        38.300          25.2004
 132117559.599 6                  25141118.495
        41.400
 132561433.003 8                  25225602.946
        48.200
 114841839.065 6                  21544044.995    21544043.620
        40.100




 120727619.504 7  93899280.999 6  22600459.527    22600460.237    22600465.764
        42.800          41.500
 143054896.162 5                  27222440.574
        35.400
 110548055.378 7  86141343.37045  21036596.745    21036596.3884   21036598.1304
        44.400          34.5004


 198897732.710 6                  37849003.394
        41.500
 128315004.663 6                  24417532.825
        41.500
 139013234.379 5                  26453343.486
        31.000
 202052701.780 7                  38449368.497
        42.600
 105178906.994 8  81805811.062 8  19682802.028    19682802.541    19682807.497
        52.500          50.700
 105201261.617 7  81823446.354 7  19659352.257    19659352.390    19659358.334
        47.400          47.200
 113363984.340 6  88172024.423 7  21199637.612    21199638.495    21199647.598
        38.300          45.900
 121957421.947 7  94855792.276 5  22854769.778    22854770.799    22854773.989
        47.600          35.400
 140525779.385 5                  26741168.498
        30.200
 120481214.280 6  93707687.787 5  22570193.210    22570192.275    22570220.261
        39.800          34.300
 25  1  1 21  7 15.0000000  0 29G21E31G07G02G30G08G13G15G19G17E33E24
                                R10E09E04R12E12G14S35S31E05E06S33R11
                                R21R20R02E26R22
 114539422.199 7  89251510.63044  21796127.945    21796126.7344   21796128.0294
        45.000          26.5004
 124157475.599 7                  23626373.908
        45.900
 109826962.615 8  85579395.67847  20899370.583    20899370.0024   20899373.2624
        48.600          45.3004
 113966525.339 6  88805112.53043  21687107.088    21687105.8504   21687106.4474
        40.500          19.3004
 106495306.075 8  82983354.24848  20265379.031    20265378.3834   20265382.0354
        51.000          50.9004


 119192016.372 5  92876941.45642  22681488.647    22681488.2364   22681486.4244
        35.000          15.0004
 130445903.679 4                  24823025.147
        29.400
 129375559.152 4                  24619333.409
        26.900


 132096684.918 6                  25137146.388
        41.700
 132539999.637 7                  25221524.401
        46.900
 114874830.040 6                  21550235.347    21550234.308
        41.100




 120681846.889 7  93863680.091 6  22591888.765    22591888.025    22591895.528
        43.200          38.600
 143008747.570 5                  27213659.479
        33.500
 110524888.062 7  86123290.91045  21032187.215    21032186.8714   21032190.4924
        44.000          34.7004


 198897731.547 6                  37848995.904
        39.900
 128313947.548 6                  24417332.590
        41.800
 139056385.083 4                  26461550.948
        28.100
 202052718.340 6                  38449357.841
        38.700
 105168598.477 8  81797793.343 8  19680872.755    19680873.613    19680877.187
        52.000          48.700
 105179135.569 7  81806237.278 8  19655217.227    19655217.074    19655223.774
        47.100          48.000
 113403867.464 6  88203044.616 7  21207096.651    21207096.375    21207107.378
        38.400          46.000
 121964866.522 7  94861582.457 6  22856162.655    22856162.511    22856170.177
        44.900          37.500


 120415136.242 5  93656294.026 5  22557812.668    22557808.259    22557835.780
        31.500          35.400
 25  1  1 21  7 30.0000000  0 30G21E31G07G02G30G08G13G15G19G17E33E24
                                R10E09E04R12E12G14S35S31E05E06S33R11
                                R21R01R20R02E26R22
 114552499.369 7  89261700.65944  21798616.580    21798615.3604   21798616.5504
        42.100          24.3004
 124163809.497 7                  23627579.158
        44.900
 109853800.619 7  85600308.34847  20904477.674    20904477.0804   20904479.9854
        47.000          43.5004
 113956399.682 6  88797222.42944  21685179.395    21685178.1214   21685180.8194
        40.500          25.1004
 106491322.444 8  82980250.09448  20264621.057    20264620.4004   20264624.4984
        50.700          50.9004
 121608841.271 6  94760180.82543  23141395.921    23141395.8054   23141403.7234
        38.100          22.6004
 119180205.522 5  92867738.21442  22679242.764    22679242.3804   22679239.0054
        35.500          16.7004
 130425645.818 5 101630400.35642  24819170.533    24819170.1714   24819180.8414
        30.300          13.3004
 129324013.856 4                  24609527.854
        27.000
 113799832.352 6  88675218.39341  21655379.740    21655379.3514   21655392.0414
        36.500          11.6004
 132075902.819 6                  25133191.723
        41.300
 132518580.563 7                  25217448.307
        46.300
 114907887.267 6                  21556434.992    21556435.586
        40.800




 120636068.790 7  93828074.913 6  22583322.558    22583320.400    22583325.829
        42.200          37.000
 142962603.901 5                  27204879.852
        34.100
 110501761.078 7  86105269.88545  21027786.318    21027785.9974   21027789.9684
        44.400          34.4004


 198897726.014 6                  37849001.972
        39.300
 128312992.947 7                  24417151.913
        43.300
 139099549.501 5                  26469769.952
        32.100
 202052730.348 6                  38449372.597
        41.600
 105158365.942 8  81789834.721 7  19678957.452    19678958.242    19678961.409
        51.000          47.900
 105157203.167 7  81789178.796 8  19651117.035    19651117.790    19651126.305
        45.500          48.800
 124151793.072 6                  23225147.607    23225149.827
        36.300
 113443905.423 6  88234185.187 7  21214585.230    21214585.010    21214592.731
        39.500          44.600
 121972487.144 6  94867509.534 6  22857590.531    22857590.251    22857594.371
        41.700          37.000


 120349099.787 6  93604932.486 5  22545441.566    22545440.462    22545466.212
        38.800          33.700
 25  1  1 21  7 45.0000000  0 30G21E31G07G02G30G08G13G15G19G17E33E24
                                R10E09E04R12E12G14S35S31E05E06S33R11
                                R21R01R20R02E26R22
 114565732.647 7  89272012.28643  21801135.039    21801133.8324   21801133.1664
        42.400          21.4004
 124170173.056 7                  23628790.097
        45.400
 109880757.749 7  85621313.86747  20909607.424    20909606.8304   20909610.0724
        46.400          44.1004
 113946417.486 6  88789444.08744  21683280.528    21683279.2054   21683282.4814
        40.700          27.9004
 106487472.190 8  82977249.89148  20263888.296    20263887.6264   20263892.3774
        48.900          49.7004
 121659484.574 6  94799643.07344  23151033.177    23151033.1774   23151039.5964
        38.800          24.7004
 119168545.374 6  92858652.32342  22677022.450    22677022.1464   22677019.9854
        40.500          15.5004


 129272497.096 5                  24599731.786
        34.500
 113763710.360 6  88647071.55543  21648515.397    21648515.0624   21648515.9334
        40.600          22.8004
 132055220.408 6                  25129255.721
        39.200
 132497182.687 7                  25213376.900
        45.600
 114941018.072 6                  21562650.673    21562650.220
        38.300




 120590292.306 7  93792471.025 6  22574750.078    22574750.840    22574757.789
        44.400          39.300
 142916472.400 4                  27196098.745
        27.200
 110478681.238 7  86087285.58145  21023394.591    21023394.3104   21023397.8514
        46.000          34.2004


 198897723.320 7                  37849002.876
        42.900
 128312147.754 7                  24416992.016
        43.400


 202052744.996 7                  38449379.524
        45.800
 105148216.554 7  81781940.734 7  19677057.421    19677057.262    19677062.642
        47.200          47.800
 105135471.735 7  81772276.626 7  19647057.800    19647058.102    19647063.997
        46.700          47.300
 124199180.315 5                  23234014.941    23234015.561
        32.600
 113484104.489 6  88265451.124 7  21222101.274    21222101.383    21222110.070
        38.200          44.600
 121980290.616 7  94873578.857 6  22859053.456    22859053.125    22859060.147
        43.900          37.800


 120283112.204 6  93553609.047 5  22533082.509    22533081.233    22533101.152
        41.400          32.400
 25  1  1 21  8  0.0000000  0 30G21E31G07G02G30G08G13G15G19G17E33E24
                                R10E09E04R12E12G14S35S31E05E06S33R11
                                R21R01R20R02E26R22
 114579116.776 6  89282441.48743  21803682.009    21803680.8564   21803677.8014
        41.700          19.9004
 124176561.142 7                  23630004.940
        45.200
 109907828.744 7  85642408.10547  20914759.485    20914758.9224   20914761.5734
        46.600          43.5004
 113936573.532 6  88781773.49844  21681407.541    21681406.1964   21681409.0774
        38.900          27.2004
 106483750.388 8  82974349.77648  20263180.706    20263180.0134   20263183.8844
        49.000          50.0004
 121710150.542 5  94839122.97843  23160673.579    23160673.5794   23160677.4634
        35.300          22.1004
 119157030.639 6  92849679.82842  22674831.381    22674831.0824   22674828.8494
        40.500          17.5004


 129221003.362 5                  24589941.124
        32.400
 113727677.687 6  88618994.17444  21641657.245    21641656.8304   21641658.1864
        38.000          26.1004
 132034632.687 6                  25125337.198
        37.500
 132475800.866 7                  25209308.327
        47.500
 114974216.751 6                  21568881.279    21568879.852
        40.100
 135419566.168 4                  25769509.137
        26.600


 120544512.405 7  93756864.408 6  22566183.068    22566182.133    22566189.257
        45.700          41.300
 142870348.007 4                  27187320.252
        29.400
 110455643.583 7  86069334.16245  21019010.851    21019010.5974   21019013.4794
        47.000          34.5004


 198897717.434 6                  37848997.572
        41.900
 128311406.859 7                  24416849.600
        43.200


 202052757.001 7                  38449380.355
        44.400
 105138145.342 7  81774107.568 7  19675172.569    19675170.903    19675178.779
        44.700          47.100
 105113936.273 7  81755526.813 7  19643033.449    19643033.512    19643039.430
        46.100          46.800
 124246636.169 5                  23242914.399    23242915.074
        31.400
 113524459.154 6  88296838.035 7  21229646.284    21229645.954    21229657.069
        37.400          45.500
 121988271.538 7  94879786.192 6  22860547.695    22860547.787    22860557.023
        45.400          38.800
 140591136.351 5                  26753605.057
        31.400
 120217168.889 7  93502320.017 5  22520728.072    22520729.556    22520747.355
        42.000          31.600
 25  1  1 21  8 15.0000000  0 30G21E31G07G02G30G08G13G15G19G17E33E24
                                R10E09E04R12E12G14S35S31E05E06S33R11
                                R21R01R20R02E26R22
 114592655.053 6  89292990.79943  21806257.495    21806256.3734   21806253.3034
        40.700          18.0004
 124182976.973 7                  23631225.774
        45.400
 109935016.781 8  85663593.55247  20919933.277    20919932.7104   20919935.8714
        48.300          44.6004
 113926870.972 7  88774213.06844  21679560.624    21679559.2834   21679561.1524
        43.700          27.5004
 106480160.307 8  82971552.28848  20262497.405    20262496.7034   20262500.5894
        50.600          51.4004
 121760842.366 5  94878623.05443  23170318.787    23170318.6894   23170321.7114
        34.000          19.6004
 119145664.585 7  92840823.12843  22672668.524    22672668.2704   22672666.0374
        42.100          18.0004


 129169536.433 5                  24580138.080
        31.400
 113691737.615 6  88590989.01145  21634819.005    21634818.7104   21634821.6884
        37.300          30.5004
 132014142.906 6                  25121438.476
        38.300
 132454438.303 7                  25205243.225
        47.600
 115007486.995 6                  21575121.119    21575122.210
        39.300
 135454753.014 5                  25776194.721
        30.700


 120498732.365 7  93721257.770 7  22557608.724    22557607.726    22557620.309
        43.100          42.300
 142824234.293 5                  27178545.831
        31.900
 110432651.349 7  86051418.13645  21014635.187    21014634.9374   21014637.4244
        44.900          33.6004


 198897712.443 7                  37848992.479
        42.600
 128310773.387 7                  24416728.467
        43.400
 139229185.693 5                  26494429.215
        35.900
 202052768.922 7                  38449375.911
        46.100
 105128155.697 7  81766337.785 7  19673304.258    19673303.352    19673307.722
        46.900          45.300
 105092600.084 7  81738932.046 7  19639045.626    19639045.876    19639052.312
        45.700          45.300
 124294162.464 5  96673221.549 5  23251775.524    23251774.235    23251793.684
        35.300          30.500
 113564972.263 6  88328348.194 7  21237224.438    21237223.744    21237233.907
        37.200          46.000
 121996432.735 7  94886133.787 6  22862076.169    22862075.758    22862085.987
        44.200          38.400
 140607717.842 4                  26756753.764
        29.000
 120151273.450 6                  22508379.615    22508383.777
        37.100
 25  1  1 21  8 30.0000000  0 30G21E31G07G02G30G08G13G15G19G17E33E24
                                R10E09E04R12E12G14S35S31E05E06S33R11
                                R21R01R20R02E26R22
 114606347.675 6  89303660.34542  21808862.200    21808861.0334   21808858.4174
        36.400          15.7004
 124189421.110 7                  23632452.004
        44.500
 109962322.440 7  85684870.61347  20925129.193    20925128.6124   20925131.7184
        46.400          43.9004
 113917310.831 7  88766763.61744  21677740.912    21677739.5674   21677740.3524
        44.300          28.4004
 106476702.739 8  82968858.05048  20261839.419    20261838.7224   20261843.0904
        50.700          52.2004


 119134447.795 6  92832082.75742  22670533.011    22670532.7574   22670531.1374
        40.300          15.4004


 129118096.648 5                  24570350.033
        35.500
 113655891.045 6  88563056.71745  21627998.453    21627998.1544   21628002.1194
        39.500          31.1004
 131993752.108 6                  25117558.174
        36.300
 132433095.603 8                  25201181.789
        49.200
 115040829.349 5                  21581375.580    21581375.569
        35.900
 135489998.799 5                  25782887.593
        32.100


 120452953.132 7  93685651.684 7  22549040.839    22549039.350    22549049.559
        42.600          42.600
 142778132.037 5                  27169772.439
        31.600
 110409705.200 7  86033538.03945  21010269.335    21010269.0944   21010270.0934
        44.400          31.8004


 198897708.270 7                  37848993.253
        43.000
 128310248.062 7                  24416629.232
        44.300
 139272422.836 5                  26502660.829
        34.600
 202052782.473 7                  38449378.607
        45.600
 105118248.556 8  81758632.227 7  19671452.053    19671452.463    19671454.356
        50.800          45.500
 105071464.201 7  81722493.033 7  19635096.150    19635095.770    19635102.157
        45.800          43.200
 124341760.321 6  96710241.805 4  23260686.386    23260685.248    23260696.197
        38.900          28.200
 113605643.945 6  88359981.718 7  21244830.452    21244829.424    21244838.589
        37.800          45.200
 122004774.639 7  94892621.927 5  22863640.780    22863640.656    22863644.844
        45.300          35.800




 25  1  1 21  8 45.0000000  0 29G21E31G07G02G30G08G13G15G19G17E33E24
                                R10E09R12E12G14S35S31E05E06S33R11R21
                                R01R20R02E26R22
 114620190.846 5  89314447.19442  21811496.118    21811495.0184   21811493.1154
        33.900          15.2004
 124195889.791 7                  23633683.732
        45.000
 109989741.542 7  85706236.08647  20930346.909    20930346.3374   20930348.4384
        46.900          43.5004
 113907889.436 7  88759422.27444  21675948.901    21675947.5964   21675946.6504
        44.600          27.6004
 106473373.973 8  82966264.18848  20261205.700    20261205.0074   20261209.9944
        50.800          52.5004
 121862300.726 5  94957680.99742  23189638.158    23189637.7834   23189629.5744
        32.200          16.5004
 119123376.613 6  92823455.81242  22668427.596    22668427.3154   22668424.3234
        37.500          13.6004


 129066680.945 4                  24560564.665
        28.400
 113620134.130 7  88535194.21845  21621194.871    21621194.5634   21621196.8644
        45.300          33.2004
 131973456.393 5                  25113694.384
        32.200
 132411768.959 8                  25197123.497
        49.900
 115074239.857 5                  21587640.011    21587641.233
        34.900


 120407170.912 7  93650043.236 7  22540470.600    22540470.500    22540479.631
        45.500          43.300
 142732037.856 5                  27161004.368
        33.600
 110386801.416 7  86015690.94345  21005910.493    21005910.2704   21005911.4104
        46.100          32.4004


 198897702.048 7                  37848985.740
        43.100
 128309826.951 7                  24416547.965
        44.000
 139315674.555 5                  26510890.025
        32.700
 202052793.539 7                  38449388.418
        44.800
 105108420.207 8  81750987.914 7  19669611.599    19669612.359    19669617.306
        49.000          47.700
 105050524.764 7  81706206.787 7  19631182.735    19631182.724    19631188.968
        46.800          42.100
 124389424.915 5  96747313.989 5  23269598.169    23269596.696    23269613.431
        33.400          30.300
 113646469.702 6  88391735.036 7  21252465.355    21252464.679    21252472.942
        38.800          45.800
 122013293.529 7  94899247.679 6  22865237.787    22865237.052    22865244.044
        46.300          38.000


                                                  22483741.747

 25  1  1 21  9  0.0000000  0 29G21E31G07G02G30G08G13G15G19G17E33E24
                                E09E04R12E12G14S35S31E05E06S33R11R21
                                R01R20R02E26R22
 114634191.786 6  89325357.00542  21814162.925    21814161.6694   21814158.4124
        38.000          17.7004
 124202390.342 7                  23634920.813
        44.400
 110017281.275 7  85727695.54747  20935586.942    20935586.3574   20935588.2854
        45.600          42.0004
 113898614.201 7  88752194.85544  21674183.209    21674181.9494   21674180.9634
        46.100          27.0004
 106470181.464 8  82963776.48848  20260598.189    20260597.5054   20260602.2604
        51.200          52.5004
 121913069.762 5  94997241.17643  23199298.808    23199298.4154   23199292.6694
        34.100          20.2004
 119112458.310 6  92814947.95642  22666351.434    22666351.1624   22666346.7904
        41.200          14.6004


 129015296.625 4                  24550788.683
        25.600
 113584474.428 7  88507407.47945  21614408.292    21614407.9664   21614410.6314
        43.900          35.7004
 131953263.494 5                  25109850.713
        33.400
 132390465.651 8                  25193069.865
        49.500




 120361393.182 7  93614438.362 7  22531898.315    22531898.127    22531909.798
        43.300          43.400
 142685959.110 5                  27152232.698
        31.100
 110363947.333 7  85997882.57445  21001561.081    21001560.8674   21001562.5744
        45.300          31.7004


 198897700.290 7                  37848990.042
        42.200
 128309517.364 7                  24416489.589
        42.300
 139358947.706 3                  26519118.436
        23.800
 202052809.116 7                  38449388.874
        45.800
 105098678.256 7  81743410.846 8  19667789.245    19667787.324    19667794.713
        46.900          48.600
 105029789.644 7  81690079.445 7  19627307.132    19627307.026    19627315.144
        47.400          42.000
 124437163.190 6  96784443.510 5  23278531.833    23278531.736    23278546.266
        37.500          31.500
 113687456.724 6  88423613.796 7  21260129.290    21260130.539    21260137.258
        39.600          45.300
 122021996.561 7  94906016.669 6  22866864.552    22866864.218    22866874.156
        42.400          38.800




 25  1  1 21  9 15.0000000  0 27G21E31G07G02G30G08G13G15G17E33E24E09
                                R12E12G14S35S31E05E06S33R11R21R01R20
                                R02E26R22
 114648344.283 6  89336384.99343  21816858.964    21816857.7264   21816854.4564
        39.600          20.5004
 124208916.986 7                  23636162.866
        44.900
 110044936.027 7  85749244.63346  20940849.678    20940849.1244   20940850.5624
        44.200          41.4004
 113889479.329 7  88745076.78844  21672444.785    21672443.5384   21672442.5574
        44.900          26.3004
 106467119.551 8  82961390.55148  20260015.394    20260014.7154   20260019.3444
        52.000          52.8004
 121963861.823 5  95036819.31743  23208960.616    23208960.2274   23208960.2914
        35.800          20.7004
 119101687.383 7  92806555.02743  22664301.714    22664301.3844   22664298.8364
        42.300          19.4004
 130287633.813 5                  24792910.526
        30.100
 113548906.391 7  88479692.16646  21607641.108    21607640.8094   21607642.6114
        45.500          39.4004
 131933167.588 5                  25106028.611
        35.200
 132369179.929 8                  25189019.071
        48.500
 135596125.572 6                  25803085.871
        38.400
 120315614.429 7  93578832.662 7  22523332.344    22523330.534    22523338.422
        43.100          42.000
 142639890.456 4                  27143469.187
        28.500
 110341137.310 7  85980108.53445  20997220.882    20997220.6864   20997221.3314
        45.100          30.8004


 198897697.303 7                  37848984.515
        42.100
 128309313.566 7                  24416451.271
        42.400


 202052823.912 7                  38449390.958
        45.900
 105089017.165 7  81735896.650 7  19665981.760    19665979.568    19665984.899
        46.500          46.700
 105009253.227 7  81674106.633 7  19623470.390    19623470.289    19623480.074
        47.800          42.100
 124484968.683 6  96821625.245 4  23287473.871    23287476.273    23287487.615
        36.400          28.900
 113728598.416 6  88455612.864 7  21267823.580    21267824.506    21267830.953
        39.700          45.100
 122030877.566 7  94912924.054 6  22868530.517    22868530.380    22868539.352
        42.100          40.700




 25  1  1 21  9 30.0000000  0 28G21E31G07G02G30G08G13G15G17E33E24R10
                                E09R12E12G14S35S31E05E06S33R11R21R01
                                R20R02E26R22
 114662644.986 6  89347528.44343  21819573.352    21819571.9804   21819577.8094
        36.700          21.6004
 124215466.278 7                  23637407.841
        45.000
 110072702.032 7  85770880.42346  20946132.022    20946131.4594   20946134.7824
        42.600          39.6004
 113880481.715 6  88738065.67143  21670731.845    21670730.6074   21670731.2004
        41.000          23.2004
 106464184.918 8  82959103.80348  20259457.410    20259456.7264   20259461.1824
        53.000          53.3004
 122014673.206 6  95076412.53543  23218626.092    23218625.6814   23218629.6064
        38.000          21.7004
 119091060.302 6  92798274.18942  22662278.905    22662278.5754   22662277.1124
        40.400          17.0004


 113513426.310 7  88452045.37546  21600889.239    21600888.9314   21600891.5794
        43.600          38.9004
 131913165.512 6                  25102224.262
        36.800
 132347908.367 7                  25184970.931
        47.100
 115174980.771 5                  21606534.948    21606538.274
        33.800
 135631598.383 6                  25809834.444
        39.500
 120269831.164 7  93543223.487 6  22514763.948    22514762.767    22514766.500
        43.600          41.400
 142593828.739 4                  27134702.008
        25.900
 110318367.912 7  85962366.14445  20992887.824    20992887.6104   20992888.1944
        47.000          32.7004


 198897690.410 6                  37848984.207
        41.100
 128309212.078 6                  24416430.500
        40.300
 139445519.129 5                  26535601.791
        33.900
 202052834.024 7                  38449394.504
        45.600
 105079433.562 7  81728442.736 7  19664187.712    19664186.143    19664192.548
        46.900          46.100
 104988911.993 8  81658285.652 6  19619668.548    19619669.598    19619672.984
        48.600          37.000
 124532837.057 4  96858856.134 5  23296427.039    23296420.918    23296447.633
        26.900          31.000
 113769890.900 6  88487729.207 7  21275543.895    21275544.356    21275553.776
        36.600          46.500
 122039932.879 7  94919966.998 6  22870232.035    22870231.730    22870236.829
        44.300          41.100




 25  1  1 21  9 45.0000000  0 29G21E31G07G02G30G08G13G15G19G17E33E24
                                R10E09R12E12G14S35S31E05E06S33R11R21
                                R01R20R02E26R22
 114677099.498 6  89358791.71143  21822326.504    21822325.1544   21822328.5904
        37.300          22.4004
 124222043.716 7                  23638659.246
        43.400
 110100584.788 6  85792607.20246  20951439.913    20951439.3324   20951441.9854
        40.000          39.4004
 113871626.793 6  88731165.76343  21669044.972    21669043.6274   21669046.0834
        39.800          19.3004
 106461383.160 8  82956920.59848  20258924.278    20258923.5904   20258928.1834
        52.400          53.4004
 122065509.103 6  95116024.85643  23228307.097    23228306.6064   23228303.6404
        39.400          18.0004
 119080582.579 6  92790109.73542  22660283.603    22660283.3584   22660283.0514
        36.600          16.2004


 128861157.112 5                  24521462.936
        34.800
 113478039.802 6  88424471.49646  21594156.398    21594156.0504   21594158.3224
        41.700          38.0004
 131893262.806 6                  25098435.143
        39.300
 132326656.402 7                  25180926.950
        47.300
 115208675.075 5                  21612840.352    21612845.118
        30.900
 135667129.229 6                  25816594.286
        38.200
 120224049.045 7  93507615.231 6  22506193.067    22506193.045    22506195.715
        46.600          40.200
 142547779.498 4                  27125936.402
        27.400
 110295644.682 7  85944659.74545  20988564.337    20988564.1094   20988564.1354
        45.600          31.7004


 198897684.278 7                  37848986.067
        43.000
 128309218.323 6                  24416431.296
        37.600
 139488836.835 6                  26543847.552
        36.700
 202052845.101 7                  38449395.103
        45.100
 105069933.269 8  81721053.607 7  19662410.885    19662411.799    19662414.421
        49.200          45.600
 104968771.843 7  81642621.155 5  19615904.616    19615904.943    19615908.665
        46.700          32.300
                  96896139.764 5                  23305401.215    23305414.332
                        30.200
 113811339.563 5  88519967.029 7  21283298.219    21283295.153    21283305.101
        32.900          46.700
 122049167.842 7  94927149.674 6  22871962.071    22871962.959    22871967.249
        45.100          41.000




 25  1  1 21 10  0.0000000  0 29G21E31G07G02G30G08G13G15G19G17E33E24
                                R10E09R12E12G14S35S31E05E06S33R11R21
                                R01R20R02E26R22
 114691709.682 6  89370176.28944  21825106.081    21825104.6284   21825108.3214
        37.300          24.3004
 124228651.241 6                  23639917.495
        40.700
 110128586.227 7  85814426.46246  20956768.711    20956768.1614   20956771.0324
        45.300          41.6004
 113862916.565 6  88724378.65343  21667387.835    21667386.4094   21667389.1634
        40.600          20.6004
 106458716.346 8  82954842.54648  20258417.020    20258416.3414   20258420.1894
        52.900          52.9004
 122116371.225 6  95155657.49442  23237985.664    23237984.9854   23237981.5824
        36.100          12.0004
 119070256.207 5  92782063.18642  22658316.015    22658315.7564   22658318.1794
        35.900          12.8004


 128809879.051 5                  24511703.103
        34.300
 113442749.222 5  88396972.35345  21587436.060    21587435.5424   21587443.0364
        34.400          33.7004
 131873461.584 6                  25094665.304
        38.500
 132305425.982 7                  25176886.473
        46.300
 115242442.899 6                  21619186.844    21619185.391
        36.500
 135702719.662 5                  25823367.485
        35.500
 120178270.239 7  93472009.532 6  22497620.498    22497621.996    22497626.181
        45.600          41.000
 142501744.904 5                  27117175.921
        31.800
 110272969.655 7  85926990.89445  20984250.560    20984250.3244   20984249.7754
        44.800          31.4004


 198897680.710 7                  37848982.946
        43.500
 128309334.316 5                  24416454.133
        34.800
 139532173.445 5                  26552091.013
        31.900
 202052858.931 7                  38449392.098
        44.200
 105060518.323 8  81713730.895 7  19660648.479    19660648.898    19660653.402
        48.900          45.300
 104948834.703 7  81627114.440 5  19612177.944    19612178.382    19612183.768
        45.500          35.100
                  96933477.569 5                                  23314396.400
                        30.600
 113852945.946 5  88552327.497 7  21291076.997    21291073.702    21291085.747
        30.100          46.400
 122058584.050 7  94934473.334 6  22873723.232    22873724.720    22873729.775
        42.800          39.800


 119691379.055 6  93093339.609 5  22422248.381    22422244.350    22422239.116
        36.800          30.100
 25  1  1 21 10 15.0000000  0 29G21E31G07G02G30G08G13G15G19G17E33E24
                                R10E09R12E12G14S35S31E05E06S33R11R21
                                R01R20R02E26R22
 114706471.084 6  89381678.67944  21827916.569    21827915.0724   21827917.1664
        39.400          24.8004
 124235284.697 6                  23641179.978
        41.600
 110156702.163 7  85836334.94647  20962118.839    20962118.3254   20962121.1414
        47.700          43.8004
 113854347.183 6  88717701.25044  21665758.356    21665757.0114   21665759.5754
        40.800          24.1004
 106456180.482 8  82952866.53548  20257934.121    20257933.4334   20257936.7984
        52.200          52.0004
 122167255.215 6  95195307.23242  23247658.343    23247657.7224   23247663.5574
        36.300          15.7004
 119060077.213 6  92774131.54442  22656382.434    22656382.3144   22656381.9534
        37.100          13.3004


 128758627.346 5                  24501953.118
        32.800
 113407550.256 5  88369544.58545  21580739.345    21580738.8634   21580745.4134
        34.800          33.4004
 131853757.954 6                  25090917.167
        38.300
 132284212.972 7                  25172850.177
        46.500
 115276280.539 6                  21625526.742    21625527.986
        36.500
 135738365.394 6                  25830149.822
        36.300
 120132490.708 6  93436403.275 7  22489050.022    22489048.111    22489057.984
        40.500          42.100
 142455721.290 5                  27108420.482
        34.300
 110250338.723 7  85909356.40845  20979943.276    20979943.0224   20979943.3214
        44.800          31.4004


 198897675.750 6                  37848977.772
        40.400
 128309555.778 6                  24416499.241
        38.400
 139575524.379 5                  26560342.569
        33.600
 202052871.789 7                  38449395.666
        44.500
 105051184.914 8  81706471.565 7  19658901.985    19658902.228    19658906.013
        49.200          44.400
 104929096.988 7  81611762.855 6  19608492.380    19608492.129    19608498.279
        46.500          38.100
 124676850.781 4  96970865.862 4  23323370.511                    23323389.276
        29.100          29.000
 113894704.303 5  88584806.240 7  21298887.478    21298886.338    21298895.069
        32.100          46.400
 122068177.504 6  94941934.814 6  22875523.359    22875522.478    22875529.035
        39.400          40.600


                  93042397.229 5                                  22409974.157
                        35.300
 25  1  1 21 10 30.0000000  0 28G21E31G07G02G30G08G13G15G19G17E33E24
                                R10E09R12E12G14S35S31E05E06S33R11R21
                                R20R02E26R22
 114721386.872 6  89393301.32544  21830754.912    21830753.3564   21830756.0964
        37.600          26.0004
 124241947.662 6                  23642447.953
        41.100
 110184935.808 8  85858335.14547  20967490.829    20967490.3244   20967493.3844
        48.900          44.1004
 113845922.361 6  88711136.46043  21664155.885    21664154.6164   21664156.6054
        41.000          23.5004
 106453779.206 8  82950995.39248  20257477.467    20257476.7744   20257479.5474
        51.800          51.6004
 122218164.300 5  95234976.49342  23257345.555    23257345.0324   23257349.8564
        33.700          13.8004
 119050049.240 6  92766317.56642  22654473.076    22654473.0094   22654474.4224
        39.100          13.5004


 128707405.674 5                  24492200.966
        30.700
 113372446.987 6  88342191.43845  21574059.482    21574059.0674   21574064.8764
        38.500          30.7004
 131834155.526 6                  25087187.385
        41.200
 132263020.882 7                  25168817.717
        46.400
 115310191.482 5                  21631892.795    21631887.845
        32.600
 135774069.632 5                  25836937.621
        32.000
 120086714.177 6  93400799.352 7  22480479.521    22480476.118    22480489.689
        36.600          43.300
 142409712.418 5                  27099664.810
        35.200
 110227755.529 7  85891759.11745  20975644.810    20975644.5654   20975645.7294
        45.900          31.0004


 198897673.808 6                  37848979.194
        41.400
 128309886.323 6                  24416561.731
        38.500
 139618892.972 5                  26568592.640
        34.100
 202052886.838 7                  38449404.109
        45.900
 105041936.842 8  81699278.642 7  19657169.923    19657169.139    19657173.974
        48.000          43.200
 104909562.077 7  81596569.025 6  19604839.222    19604838.862    19604849.104
        43.700          39.700
 113936618.469 5  88617406.115 7  21306727.557    21306726.085    21306732.004
        33.100          45.000
 122077951.244 6  94949536.612 6  22877354.077    22877352.740    22877360.996
        40.400          41.600


                  92991496.931 5                                  22397712.463
                        35.400
 25  1  1 21 10 45.0000000  0 26G21E31G07G02G30G08G13G17E33E24R10E09
                                R12E12G14S35S31E05E06S33R11R21R20R02
                                E26R22
 114736454.157 6  89405042.04844  21833622.059    21833620.4944   21833623.6904
        41.000          29.3004
 124248637.267 6                  23643721.983
        41.700
 110213284.368 8  85880424.89147  20972885.732    20972885.2364   20972887.5564
        48.200          44.6004
 113837639.135 5  88704682.03943  21662580.493    21662579.1744   21662579.1694
        35.000          20.2004
 106451509.734 8  82949226.96248  20257045.511    20257044.8184   20257048.1484
        52.400          52.3004


 119040169.406 6  92758618.78141  22652593.379    22652593.2724   22652594.3694
        40.900           7.8004
 113337436.255 6  88314910.37745  21567395.915    21567395.5314   21567400.2354
        39.300          30.3004
 131814651.631 7                  25083477.072
        42.800
 132241846.830 7                  25164788.049
        46.000
 115344172.518 5                  21638268.439    21638265.344
        35.200
 135809829.280 5                  25843744.649
        32.400
 120040937.973 6  93365195.656 7  22471912.799    22471909.008    22471917.624
        40.700          42.300
 142363715.582 5                  27090910.552
        34.300
 110205217.252 7  85874196.81045  20971356.520    20971356.2704   20971356.3664
        45.300          30.6004


 198897670.769 6                  37848981.810
        41.200
 128310322.997 7                  24416644.433
        43.600
 139662276.166 4                  26576847.858
        27.100
 202052900.618 7                  38449405.929
        42.800
 105032771.363 8  81692149.906 6  19655454.230    19655454.505    19655459.344
        48.900          41.900
 104890227.559 8  81581531.080 6  19601228.400    19601228.528    19601235.689
        48.700          40.900
 113978685.673 4  88650124.995 7  21314591.879    21314589.697    21314599.707
        29.400          46.000
 122087902.152 7  94957276.268 6  22879217.048    22879216.789    22879225.569
        42.300          40.800
 140779203.229 5                  26789382.686
        33.000


 25  1  1 21 11  0.0000000  0 25G21E31G07G02G30G08G13G17E33E24R10E09
                                R12E12G14S35S31E05E06S33R11R21R02E26
                                R22
 114751671.298 7  89416899.53145  21836517.669    21836516.1224   21836519.5574
        42.900          31.0004
 124255351.837 7                  23644998.620
        42.200
 110241745.968 7  85902602.66946  20978300.565    20978300.0744   20978303.3044
        45.500          41.8004
 113829495.698 6  88698336.50043  21661032.358    21661031.0574   21661029.4484
        40.700          20.5004
 106449370.590 8  82947560.06748  20256637.725    20256637.0324   20256642.1114
        51.500          52.3004


 119030436.074 7  92751034.31642  22650741.069    22650741.1004   22650741.9014
        43.400          16.2004
 113302516.665 6  88287700.37644  21560751.402    21560751.0764   21560753.1554
        37.800          29.4004
 131795244.839 6                  25079784.025
        41.800
 132220689.238 7                  25160761.356
        45.500
 115378222.674 6                  21644656.705    21644654.434
        36.600
 135845642.382 5                  25850577.311
        34.100
 119995160.414 6  93329590.929 6  22463341.001    22463340.283    22463347.317
        41.700          40.500
 142317729.503 5                  27082161.056
        34.000
 110182722.278 7  85856668.29245  20967076.470    20967076.2344   20967074.7204
        46.700          30.5004


 198897665.493 6                  37848986.286
        41.200
 128310864.158 6                  24416746.375
        40.400


 202052913.043 7                  38449409.510
        45.700
 105023686.946 8  81685084.289 7  19653754.915    19653754.707    19653761.576
        50.700          45.800
 104871091.857 7  81566647.801 6  19597651.033    19597651.744    19597659.826
        47.700          41.100
 122098028.458 7  94965152.384 7  22881116.147    22881114.376    22881123.786
        44.900          42.500
 140796903.881 5                  26792736.382
        32.300
 119429847.903 6  92889816.335 6  22373222.162    22373215.003    22373217.143
        36.900          36.000
 25  1  1 21 11 15.0000000  0 28G21E31G07G02G30G08G13G15G17E33E24R10
                                E09R12E12G14S35S31E05E06S33R11R21R01
                                R20R02E26R22
 114767041.603 7  89428876.38045  21839441.925    21839440.3654   21839444.1424
        43.700          30.3004
 124262094.930 7                  23646281.471
        44.300
 110270323.954 7  85924871.17446  20983740.761    20983740.2254   20983741.7274
        42.100          41.1004
 113821496.046 6  88692103.05243  21659507.064    21659505.7594   21659506.9054
        41.400          19.2004
 106447365.331 8  82945997.51848  20256256.250    20256255.5484   20256261.1334
        50.400          51.5004
 122371048.765 5  95354066.15042  23286438.526    23286438.0534   23286437.8774
        32.000          13.0004
 119020852.497 7  92743566.58843  22648917.614    22648917.6274   22648919.9964
        44.700          21.1004
 130137883.249 4                  24764404.062
        28.800


 131775938.758 6                  25076110.767
        41.900
 132199551.510 7                  25156739.996
        45.500
 115412344.860 6                  21651056.249    21651055.410
        38.100
 135881512.734 6                  25857384.233
        38.300
 119949385.183 7  93293988.058 6  22454771.725    22454768.724    22454777.202
        42.700          38.900
 142271757.826 5                  27073412.556
        34.300
 110160274.215 7  85839176.26644  20962804.393    20962804.1434   20962801.0034
        47.100          29.0004


 198897661.911 6                  37848983.777
        41.000
 128311513.282 6                  24416868.497
        39.700


 202052926.738 7                  38449411.648
        44.400
 105014687.303 8  81678084.587 7  19652070.810    19652071.503    19652075.596
        52.600          45.900
 104852158.730 7  81551922.096 6  19594111.883    19594112.607    19594120.067
        47.200          40.100
 124869819.211 6                  23359472.028
        37.700
 114063292.890 5  88715915.810 7  21330407.545    21330410.561    21330419.083
        33.100          46.900
 122108333.570 8  94973167.491 6  22883049.482    22883048.420    22883053.524
        48.100          41.400
 140814706.757 4                  26796131.009
        27.400
 119364561.442 6  92839038.228 6  22361015.082    22361010.845    22360985.547
        38.600          36.500
 25  1  1 21 11 30.0000000  0 29G21E31G07G02G30G08G13G15G19G17E33E24
                                R10E09R12E12G14S35S31E05E06S33R11R21
                                R01R20R02E26R22
 114782561.218 7  89440969.57145  21842395.435    21842393.8574   21842397.3624
        42.300          30.5004
 124268862.553 7                  23647569.251
        44.500
 110299014.380 8  85947227.30547  20989201.872    20989201.3314   20989202.3294
        48.000          44.7004
 113813636.173 7  88685978.53443  21658011.984    21658010.6884   21658010.9154
        42.800          19.9004
 106445490.166 8  82944536.32748  20255899.606    20255898.8914   20255904.1904
        50.600          51.5004
 122422042.286 5  95393801.29442  23296143.299    23296142.5444   23296143.5424
        30.700          15.1004
 119011415.035 7  92736212.68043  22647122.427    22647122.4104   22647123.8844
        46.100          22.5004
 130119764.576 4                  24760944.067
        24.600
 128502806.035 4                  24453263.987
        29.000
 113232930.104 7  88233463.97745  21547516.110    21547516.4364   21547514.8184
        42.900          31.9004
 131756729.569 6                  25072454.013
        41.100
 132178429.698 7                  25152720.218
        45.300
 115446535.274 6                  21657469.968    21657469.421
        39.400
 135917435.469 6                  25864221.140
        37.100
 119903608.591 7  93258384.114 6  22446203.313    22446199.964    22446207.248
        42.200          39.500
 142225796.913 5                  27064666.764
        32.400
 110137869.138 8  85821717.76145  20958540.694    20958540.4664   20958538.6974
        48.500          31.2004


 198897655.733 7                  37848982.217
        43.100
 128312266.369 6                  24417013.756
        37.100


 202052937.612 7                  38449410.436
        46.100
 105005768.812 8  81671147.962 7  19650401.926    19650401.965    19650407.113
        52.500          46.500
 104833424.095 7  81537350.791 6  19590610.676    19590611.166    19590619.914
        46.800          40.500
 124918209.828 5                  23368515.283    23368515.632
        35.000
 114105812.777 5  88748986.861 7  21338362.096    21338365.260    21338370.728
        31.100          46.700
 122118813.430 7  94981318.443 6  22885010.658    22885010.832    22885017.818
        46.000          41.500
 140832607.821 4                  26799532.324
        29.100
 119299326.085 5  92788299.888 6  22348789.314    22348790.258    22348766.476
        34.300          39.500
 25  1  1 21 11 45.0000000  0 28G21E31G07G02G30G08G13G15G19G17E33E24
                                R10E09R12E12G14S35S31E05E06S33R11R21
                                R20R02E26R22
 114798234.907 6  89453182.82145  21845377.767    21845376.1984   21845379.8324
        41.900          30.5004
 124275659.883 7                  23648862.835
        44.800
 110327822.252 8  85969674.95947  20994682.647    20994682.0894   20994685.1024
        49.400          46.8004
 113805921.369 6  88679967.05042  21656541.378    21656540.1134   21656541.9554
        39.200          16.6004
 106443750.359 8  82943180.62648  20255568.617    20255567.9024   20255572.6384
        51.200          51.3004
 122473059.715 4  95433555.05441  23305849.855    23305849.1134   23305853.4254
        29.100          10.8004
 119002129.016 7  92728976.79143  22645354.891    22645354.8244   22645354.7094
        45.400          22.8004
 130101783.455 5                  24757529.617
        32.500
 128451723.790 5 100092278.01741  24443544.377    24443543.9574   24443556.8804
        30.600           6.0004
 113198292.365 7  88206473.58545  21540925.324    21540925.6504   21540924.3664
        44.300          35.1004
 131737622.609 6                  25068818.234
        40.100
 132157329.087 7                  25148704.929
        43.000
 115480799.176 6                  21663898.886    21663898.201
        40.300
 135953415.696 6                  25871067.603
        38.300
 119857835.961 7  93222783.175 6  22437634.385    22437634.535    22437639.637
        47.600          41.900
 142179852.188 4                  27055920.872
        28.400
 110115512.297 8  85804296.84245  20954286.103    20954285.9024   20954286.6934
        48.900          33.2004


 198897651.578 6                  37848977.660
        41.900
 128313128.624 6                  24417180.153
        36.500


 202052950.956 7                  38449414.371
        46.400
 104996936.752 8  81664278.557 7  19648749.749    19648749.432    19648753.583
        52.000          46.200
 104814893.651 7  81522938.248 6  19587148.751    19587149.294    19587154.210
        47.200          37.500
 114148486.473 4  88782177.484 7  21346340.561    21346341.705    21346350.410
        29.100          46.300
 122129472.685 7  94989608.906 6  22887008.957    22887007.358    22887015.646
        43.300          41.600
 140850612.258 4                  26802958.620
        25.600
                  92737605.797 6                  22336548.225    22336558.562
                        41.000
 25  1  1 21 12  0.0000000  0 29G21E31G07G02G30G08G13G15G19G17E33E24
                                R10E09R12E12G14S35S31E05E06S33R11R21
                                R01R20R02E26R22
 114814056.294 6  89465511.18744  21848388.673    21848387.1264   21848389.9004
        41.200          29.3004
 124282480.636 7                  23650160.332
        43.200
 110356741.199 8  85992209.15348  21000185.809    21000185.2464   21000188.7174
        50.200          48.9004
 113798345.533 6  88674063.81642  21655101.176    21655099.9834   21655100.4164
        38.300          15.8004
 106442139.737 8  82941925.59448  20255262.517    20255261.8024   20255265.4284
        50.300          50.8004


 118992988.073 7  92721853.96443  22643615.243    22643615.1724   22643613.0524
        44.800          22.2004
 130083933.451 5                  24754133.873
        34.100
 128400666.884 4 100052493.7444   24433830.625    24433829.6334   24433844.1944
        29.500           4.7004
 113163744.643 7  88179553.38545  21534351.140    21534351.5644   21534349.9454
        42.700          34.2004
 131718611.806 6                  25065201.841
        40.200
 132136243.269 7                  25144692.400
        42.200
 115515130.375 7                  21670340.537    21670340.163
        42.500
 135989446.941 6                  25877925.384
        39.400
 119812061.148 8  93187180.535 7  22429067.065    22429067.268    22429071.597
        48.800          42.900
 142133917.652 5                  27047180.883
        31.300
 110093197.496 8  85786908.68545  20950039.593    20950039.3884   20950042.5384
        48.400          33.2004


 198897644.199 6                  37848971.632
        40.900
 128314093.647 6                  24417362.759
        38.300
 139879405.016 5                  26618165.573
        34.000
 202052960.189 7                  38449414.317
        45.100
 104988185.163 8  81657471.776 7  19647111.340    19647111.749    19647115.900
        52.700          46.500
 104796561.039 7  81508679.634 6  19583721.430    19583721.871    19583728.777
        46.600          39.300
                  97234033.734 5                                  23386673.002
                        32.200
 114191306.828 4  88815482.255 7  21354351.513    21354349.433    21354357.677
        27.100          45.100
 122140304.861 7  94998033.873 6  22889038.328    22889038.337    22889044.863
        43.200          40.000
 140868713.598 4                  26806404.766
        27.200
 119169020.045 7  92686951.371 7  22324346.916    22324345.507    22324360.409
        45.300          43.100
 25  1  1 21 12 15.0000000  0 28G21E31G07G02G30G08G13G15G19G17E33E24
                                R10E09R12E12G14S35S31E05E06S33R11R21
                                R20R02E26R22
 114830030.102 7  89477958.31344  21851429.330    21851427.8334   21851428.3454
        42.800          28.4004
 124289329.750 7                  23651463.712
        44.600
 110385775.938 8  86014833.58348  21005710.826    21005710.2634   21005714.0104
        48.900          49.1004
 113790913.623 6  88668272.80043  21653685.895    21653684.7024   21653688.6224
        39.100          20.0004
 106440663.265 8  82940775.08348  20254981.440    20254980.7254   20254984.1544
        50.300          51.0004


 118983997.264 7  92714848.12443  22641904.453    22641904.3374   22641902.1164
        43.700          22.0004
 130066219.740 5                  24750762.021
        31.000
 128349640.049 5 100012732.8514   24424122.650    24424121.9354   24424137.5044
        35.600           4.3004
 113129291.987 6  88152707.18645  21527796.107    21527796.1564   21527795.7144
        36.100          33.0004
 131699702.190 6                  25061603.575
        41.900
 132115177.156 6                  25140683.027
        41.800
 115549533.797 6                  21676792.941    21676792.670
        38.800
 136025533.808 6                  25884791.316
        38.000
 119766288.975 7  93151579.961 7  22420494.371    22420494.229    22420504.715
        44.800          43.800
 142087998.380 4                  27038442.459
        29.400
 110070929.655 8  85769557.10545  20945802.583    20945802.3644   20945806.2484
        48.300          32.2004
 200815333.997 5                  38213893.344
        33.400
 198897637.684 6                  37848970.962
        39.900
 128315166.400 6                  24417566.240
        39.600
 139922870.083 5                  26626437.317
        33.200
 202052971.072 7                  38449420.296
        46.200
 104979519.108 8  81650731.511 7  19645489.371    19645490.321    19645494.467
        52.400          47.100
 104778431.659 7  81494578.982 7  19580335.190    19580335.078    19580341.125
        47.400          42.000
 114234278.236 3  88848904.611 7  21362378.133    21362381.174    21362393.098
        23.700          43.900
 122151314.798 7  95006597.140 6  22891104.576    22891104.625    22891108.629
        44.700          39.600
 140886916.633 5                  26809871.683
        34.900
 119103948.900 7  92636340.741 6  22312156.191    22312156.012    22312168.611
        44.200          41.300
 25  1  1 21 12 30.0000000  0 28G21E31G07G02G30G08G13G15G17E33E24R10
                                E09R12E12G14S35S31E05E06S33R11R21R01
                                R20R02E26R22
 114846157.732 7  89490525.29644  21854497.575    21854496.0464   21854496.2814
        42.100          27.8004
 124296208.630 7                  23652772.701
        45.300
 110414927.929 8  86037549.35348  21011258.849    21011258.2994   21011261.4164
        49.200          48.9004
 113783627.102 7  88662595.02543  21652300.329    21652299.2254   21652304.8254
        42.000          23.9004
 106439322.580 8  82939730.38348  20254725.783    20254725.0554   20254728.9504
        50.100          50.9004


 118975158.129 6  92707960.45843  22640222.012    22640221.8604   22640221.0004
        40.600          20.2004
 130048643.774 5 101336559.6014   24747413.321    24747413.2774   24747424.3884
        31.000           2.4004
 113094935.878 6  88125936.21245  21521257.545    21521257.5104   21521260.3124
        39.300          34.5004
 131680895.323 6                  25058022.573
        37.800
 132094132.218 7                  25136679.119
        43.000
 115584010.609 6                  21683259.654    21683259.168
        39.100
 136061677.604 5                  25891667.806
        35.300
 119720521.437 7  93115983.007 7  22411928.754    22411927.333    22411937.622
        43.700          44.600


 110048710.346 7  85752243.34845  20941574.045    20941573.8174   20941576.9694
        47.600          31.3004
 200815328.645 5                  38213876.384
        35.300
 198897633.807 6                  37848975.447
        40.900
 128316348.242 7                  24417790.753
        42.400
 139966351.157 5                  26634713.080
        32.400
 202052984.279 7                  38449417.841
        44.500
 104970940.176 8  81644059.055 7  19643884.639    19643884.544    19643889.736
        51.700          47.400
 104760507.002 7  81480637.612 7  19576985.595    19576985.014    19576992.524
        45.100          45.100
 125112279.758 6  97309646.177 5  23404842.884    23404843.434    23404863.294
        36.900          33.200
 114277402.390 5  88882445.477 7  21370453.023                    21370457.719
        32.400          42.800
 122162503.657 7  95015299.510 6  22893200.930    22893202.563    22893206.697
        43.800          40.300
 140905222.788 5                  26813353.342
        35.500
 119038936.159 6  92585775.660 6  22299972.610    22299972.222    22299986.833
        41.500          39.200
 25  1  1 21 12 45.0000000  0 28G21E31G07G02G30G08G13G15G17E33E24R10
                                E09R12E12G14S35S31E05E06S33R11R21R01
                                R20R02E26R22
 114862437.727 7  89503211.00244  21857596.489    21857594.9654   21857593.8684
        43.900          27.7004
 124303116.096 7                  23654087.733
        46.700
 110444195.731 8  86060355.36347  21016827.827    21016827.2824   21016830.2404
        48.200          47.3004
 113776484.841 7  88657029.62244  21650942.883    21650941.8194   21650945.0584
        42.400          25.2004
 106438116.464 8  82938790.54448  20254496.918    20254496.1854   20254499.5604
        48.600          51.1004


 118966469.220 6  92701189.84543  22638568.311    22638568.1334   22638568.7004
        39.400          19.7004
 130031204.460 3 101322970.5524   24744109.196    24744108.9104   24744106.8514
        22.700           2.6004
 113060675.262 6  88099239.68946  21514737.482    21514737.4204   21514742.0284
        40.500          37.4004
 131662190.024 5                  25054464.189
        33.900
 132073107.162 7                  25132678.546
        43.300
 115618559.656 6                  21689740.818    21689742.520
        40.800
 136097876.740 5                  25898557.397
        35.500
 119674757.241 7  93080388.586 7  22403358.919    22403359.226    22403370.794
        43.200          45.200


 110026538.335 7  85734966.46544  20937354.366    20937354.1304   20937356.0574
        46.400          28.6004
 200815324.357 5                  38213876.558
        30.900
 198897631.347 7                  37848980.911
        43.900
 128317637.882 6                  24418036.841
        41.700
 140009846.665 5                  26642988.967
        34.500
 202052999.142 7                  38449420.609
        45.200
 104962447.471 8  81637453.602 7  19642296.877    19642297.386    19642300.218
        51.100          47.400
 104742786.016 7  81466854.631 7  19573675.214    19573673.849    19573681.614
        45.200          46.800
 125160981.665 6  97347525.062 5  23413958.351    23413957.973    23413972.919
        41.300          34.700
 114320676.530 5  88916103.183 6  21378545.077    21378545.454    21378549.683
        33.300          41.600
 122173869.873 5  95024139.863 6  22895327.326    22895326.861    22895336.119
        31.700          39.400
 140923630.542 6                  26816855.549
        37.300
 118973981.179 6  92535255.403 6  22287804.946    22287805.916    22287816.941
        38.700          38.700
 25  1  1 21 13  0.0000000  0 28G21E31G07G02G30G08G13G19G17E33E24R10
                                E09R12E12G14S35S31E05E06S33R11R21R01
                                R20R02E26R22
 114878866.673 7  89516012.78644  21860722.149    21860720.6114   21860720.5834
        44.300          27.7004
 124310048.832 8                  23655406.990
        48.000
 110473575.920 7  86083248.95647  21022418.788    21022418.2614   21022420.3054
        45.800          44.8004
 113769483.700 6  88651574.13944  21649610.820    21649609.7124   21649610.8334
        40.200          25.5004
 106437041.794 8  82937953.12948  20254291.443    20254290.7064   20254295.3684
        49.300          50.9004


 118957927.354 6  92694533.80343  22636943.586    22636943.3764   22636944.2364
        37.300          19.0004
 128196754.306 5                  24395029.759
        30.100
 113026506.918 7  88072615.02546  21508236.572    21508236.5324   21508240.3524
        46.700          40.0004
 131643583.192 4                  25050929.265
        29.000
 132052098.723 7                  25128678.991
        42.100
 115653177.979 7                  21696237.058    21696237.619
        42.900
 136134127.700 6                  25905455.857
        36.900
 119628993.273 7  93044794.403 7  22394794.185    22394792.787    22394803.214
        45.200          44.500


 110004410.438 7  85717724.00444  20933144.023    20933143.7644   20933141.9064
        46.500          27.5004
 200815319.074 4                  38213895.124
        27.800
 198897626.800 7                  37848976.833
        42.300
 128319032.073 7                  24418302.351
        42.000
 140053353.156 5                  26651271.491
        34.800
 202053011.130 7                  38449423.185
        45.500
 104954037.730 8  81630912.703 8  19640722.288    19640722.387    19640726.269
        49.400          48.300
 104725265.369 7  81453227.458 7  19570400.452    19570400.085    19570408.127
        44.500          47.400
 125209741.294 6  97385449.027 5  23423079.042    23423077.423    23423094.591
        40.100          34.100
 114364097.580 5  88949875.127 6  21386662.587    21386663.779    21386671.209
        33.300          41.100
                  95033115.517 6                                  22897501.462
                        37.600
 140942136.527 6                  26820378.680
        38.900
 118909080.932 6  92484777.805 6  22275649.081    22275649.949    22275658.595
        39.400          36.200
 25  1  1 21 13 15.0000000  0 27G21E31G07G02G30G08G13G17E33E24R10E09
                                R12E12G14S35S31E05E06S33R11R21R01R20
                                R02E26R22
 114895448.053 7  89528933.33144  21863877.940    21863876.4344   21863875.9564
        43.100          28.1004
 124317010.474 8                  23656732.080
        49.700
 110503072.013 7  86106232.86847  21028031.981    21028031.4724   21028033.2334
        46.300          44.3004
 113762627.380 6  88646231.56144  21648305.826    21648304.6954   21648305.5714
        40.800          26.4004
 106436102.312 8  82937221.05448  20254112.510    20254111.7554   20254116.6734
        49.800          51.0004


 118949536.222 6  92687995.25643  22635346.205    22635345.8574   22635348.3144
        40.200          19.1004
 112992434.596 6  88046065.14546  21501750.476    21501750.4364   21501756.4634
        41.300          38.2004
 131625078.507 6                  25047411.098
        36.400
 132031110.549 6                  25124685.803
        39.500
 115687868.823 7                  21702746.285    21702745.815
        43.700
 136170433.883 6                  25912365.016
        36.400
 119583233.250 7  93009203.294 7  22386229.289    22386227.443    22386236.963
        46.400          42.500


 109982330.339 7  85700518.74944  20928941.819    20928941.5514   20928939.5114
        47.300          27.8004
 200815314.676 5                  38213889.333
        33.600
 198897623.904 7                  37848976.238
        42.100
 128320534.354 7                  24418587.311
        44.000
 140096874.054 5                  26659550.583
        34.400
 202053025.806 7                  38449429.516
        46.400
 104945714.819 7  81624439.329 8  19639161.805    19639162.376    19639169.366
        46.400          48.800
 104707949.049 7  81439759.216 7  19567163.924    19567166.047    19567171.669
        42.400          47.200
 125258561.795 6  97423420.209 5  23432212.154    23432211.409    23432226.615
        41.300          33.600
 114407668.732 5  88983763.826 6  21394809.004    21394810.432    21394818.068
        33.400          39.700
                  95042229.004 5                                  22899693.979
                        35.300
 140960744.262 6                  26823920.214
        37.800
 118844239.782 6  92434346.051 6  22263502.196    22263503.135    22263511.035
        39.200          37.800
 25  1  1 21 13 30.0000000  0 27G21E31G07G02G30G08G13G17E33E24R10E09
                                R12E12G14S35S31E05E06S33R11R21R01R20
                                R02E26R22
 114912177.511 7  89541969.25044  21867061.009    21867059.5254   21867059.9714
        43.400          28.3004
 124323996.822 8                  23658060.958
        48.100
 110532679.684 7  86129303.72147  21033665.433    21033664.9374   21033667.7374
        46.900          44.7004
 113755911.629 6  88640998.46344  21647026.269    21647025.1254   21647027.0854
        38.500          24.4004
 106435293.775 8  82936591.00648  20253959.317    20253958.5534   20253962.5814
        50.700          51.8004
 122830753.199 5  95712298.38842  23373915.622    23373914.9704   23373921.1344
        32.900          14.7004
 118941291.466 7  92681570.74943  22633777.659    22633777.3114   22633779.9194
        43.300          23.4004
 112958453.922 7  88019586.75546  21495286.261    21495286.2084   21495288.9994
        44.900          39.6004
 131606672.024 5                  25043898.552
        34.300
 132010138.341 6                  25120694.602
        41.300
 115722628.079 7                  21709265.638    21709264.654
        42.000
 136206790.816 6                  25919284.057
        41.300
 119537473.088 7  92973612.174 6  22377660.724    22377659.814    22377669.271
        46.900          39.300
 141858608.180 4                  26994795.419
        29.600
 109960293.784 7  85683347.41345  20924748.075    20924747.7854   20924747.8934
        46.200          30.0004
 200815307.117 5                  38213852.545
        34.700
 198897618.738 7                  37848973.367
        42.100
 128322140.472 7                  24418892.677
        43.300
 140140404.688 6                  26667835.764
        38.200
 202053037.445 7                  38449431.533
        44.800
 104937474.810 7  81618030.429 8  19637623.686    19637625.005    19637628.557
        47.100          49.300
 104690750.959 7  81426446.585 7  19563966.452                    19563972.000
        45.600          45.400
 125307438.367 6  97461434.927 5  23441353.978    23441353.986    23441367.363
        39.600          30.100
 114451385.094 5  89017765.465 6  21402984.394    21402984.406    21402993.329
        33.800          40.300
 122209018.063 6  95051477.142 6  22901925.167                    22901928.449
        38.700          37.000
 140979449.449 5                  26827479.512
        33.000
 118779453.796 5  92383957.290 6  22251356.069    22251362.599    22251372.708
        32.300          36.100
 25  1  1 21 13 45.0000000  0 26G21E31G07G02G30G13G17E33E24R10E09R12
                                E12G14S35S31E05E06S33R11R21R01R20R02
                                E26R22
 114929060.327 7  89555124.68944  21870273.684    21870272.1874   21870273.8114
        43.400          28.2004
 124331013.291 8                  23659397.065
        50.000
 110562404.405 7  86152465.80547  21039321.883    21039321.3874   21039324.5814
        47.000          44.6004
 113749342.118 6  88635879.42743  21645777.659    21645776.5284   21645776.2384
        40.500          22.6004
 106434621.888 8  82936067.45648  20253831.752    20253830.9884   20253834.7154
        51.200          52.3004
 118933198.914 6  92675264.81444  22632239.145    22632238.8414   22632241.3904
        41.700          25.5004
 112924570.874 7  87993184.38546  21488836.833    21488836.7624   21488839.5784
        44.000          38.1004
 131588369.680 5                  25040416.600
        35.900
 131989187.627 7                  25116709.524
        42.700
 115757461.250 7                  21715801.661    21715801.178
        42.100
 136243203.743 6                  25926214.000
        39.000
 119491718.491 8  92938025.125 6  22369097.177    22369096.881    22369104.706
        49.600          40.000
 141812783.512 5                  26986076.343
        35.200
 109938306.459 7  85666214.44145  20920564.727    20920564.4284   20920565.4634
        47.400          30.9004


 198897616.217 7                  37848978.885
        42.800
 128323855.818 6                  24419215.522
        37.800
 140183950.511 5                  26676121.205
        33.700
 202053051.406 7                  38449431.466
        45.000
 104929323.250 5  81611690.317 8  19636090.358    19636088.806    19636102.625
        35.400          49.000
 104673840.722 6  81413294.147 7  19560809.536    19560807.422    19560811.466
        41.400          45.600
 125356376.050 6                  23450510.983    23450507.482
        36.700
 114495252.006 5  89051884.096 6  21411188.220    21411188.335    21411196.602
        33.200          39.300
 122221086.697 5                  22904187.139    22904186.406
        30.500
 140998256.990 4                  26831059.920
        28.700
 118714729.093 5  92333615.970 6  22239254.708    22239251.505    22239248.024
        33.800          36.000
 25  1  1 21 14  0.0000000  0 26G21E31G07G02G30G08G13G19G17E33E24R10
                                E09R12E12G14S35S31E05E06S33R11R21R20
                                E26R22
 114946091.719 7  89568395.94044  21873514.835    21873513.3784   21873516.1444
        42.500          29.3004
 124338055.257 8                  23660736.517
        49.000
 110592241.207 8  86175715.24247  21044999.958    21044999.4534   21045003.2424
        48.400          45.3004
 113742914.325 7  88630870.81444  21644552.133    21644551.0384   21644552.6194
        44.100          26.7004
 106434081.985 8  82935646.74048  20253728.800    20253728.0314   20253732.1274
        50.700          51.9004


 118925253.710 7  92669073.71143  22630726.324    22630726.0474   22630730.1204
        42.100          23.3004
 127993356.207 5  99735097.09641  24356303.312    24356303.1024   24356326.9764
        31.200           6.4004
 112890780.643 7  87966854.40446  21482407.981    21482407.9284   21482408.5394
        46.900          39.8004
 131570166.620 6                  25036952.706
        36.700
 131968253.658 7                  25112725.148
        44.600
 115792363.564 6                  21722347.655    21722348.000
        40.900
 136279667.594 6                  25933150.982
        38.900
 119445964.883 7  92902439.141 5  22360530.063    22360530.468    22360533.808
        45.600          35.900
 141766973.030 5                  26977357.642
        33.600
 109916363.721 7  85649116.19445  20916390.566    20916390.2714   20916391.3384
        42.300          32.2004


 198897611.749 6                  37848971.431
        40.900
 128325675.767 6                  24419564.853
        41.700
 140227506.338 5                  26684411.438
        35.300
 202053064.023 7                  38449438.867
        44.200
 104921255.853 6  81605415.652 7  19634584.651    19634582.581    19634591.257
        39.800          47.400
 104657131.557 6  81400298.355 7  19557681.190    19557679.066    19557690.349
        39.100          46.100
 114539263.726 5  89086115.397 7  21419421.493    21419420.986    21419429.874
        35.500          42.600
 141017162.818 5                  26834653.369
        32.000
 118650061.162 6  92283319.093 6  22227123.955    22227127.389    22227132.717
        40.800          37.000
 25  1  1 21 14 15.0000000  0 26G21E31G07G02G30G08G13G17E33E24R10E09
                                R12E12G14S35S31E05E06S33R11R21R01R20
                                E26R22
 114963273.781 7  89581784.58944  21876784.347    21876782.9174   21876786.0234
        43.500          28.8004
 124345124.924 8                  23662081.675
        49.400
 110622192.153 7  86199053.60947  21050699.045    21050698.5094   21050703.1264
        46.800          45.4004
 113736630.508 7  88625974.34444  21643357.666    21643356.5534   21643356.3714
        44.100          29.2004
 106433676.409 8  82935330.69948  20253652.124    20253651.3464   20253654.7864
        52.200          52.7004
 122984408.718 4                  23403154.649
        28.000
 118917458.123 7  92662999.24143  22629244.637    22629244.4054   22629246.4454
        44.100          23.8004
 112857085.651 7  87940598.61446  21475994.702    21475994.6494   21475995.9514
        45.500          38.3004
 131552065.198 6                  25033507.949
        41.500
 131947338.767 7                  25108745.218
        46.700
 115827337.164 6                  21728908.851    21728907.732
        38.800
 136316184.415 6                  25940100.221
        38.100
 119400214.708 7  92866855.785 6  22351963.686    22351964.185    22351970.065
        45.100          37.900
 141721179.267 4                  26968643.077
        26.400
 109894467.701 7  85632054.37245  20912223.110    20912222.8024   20912225.3104
        45.300          31.1004
 200815194.300 6                  38213864.865
        37.700
 198897608.347 6                  37848964.053
        40.800
 128327602.416 6                  24419931.197
        40.900
 140271074.311 6                  26692698.339
        36.600
 202053077.806 7                  38449435.455
        44.400
 104913275.015 7  81599208.313 7  19633094.695    19633093.392    19633098.101
        47.100          47.200
 104640626.390 7  81387460.963 7  19554601.657    19554599.267    19554606.298
        45.500          46.000
 125454423.081 5  97575756.107 5  23468844.198                    23468863.558
        33.500          31.300
 114583422.018 5  89120460.714 7  21427676.292    21427679.093    21427686.211
        35.900          42.400
 141036168.392 5                  26838271.543
        33.900
 118585453.041 6  92233068.585 6  22215021.677    22215021.781    22215030.790
        40.800          39.100
 25  1  1 21 14 30.0000000  0 27G21E31G07G02G30G08G13G17E33E24R10E09
                                R12E12G14S35S31E05E06S33R11R21R01R20
                                R02E26R22
 114980605.523 7  89595289.85944  21880082.663    21880081.2374   21880082.9994
        42.400          27.8004
 124352221.295 8                  23663431.914
        48.800
 110652256.209 7  86222480.10747  21056419.993    21056419.4664   21056424.1514
        47.800          45.6004
 113730489.676 7  88621189.30245  21642189.949    21642188.8674   21642188.6424
        45.400          31.1004
 106433404.253 8  82935118.62048  20253600.438    20253599.6604   20253602.9334
        52.300          53.1004
 123035644.604 5                  23412929.692
        32.500
 118909811.138 7  92657040.55644  22627788.014    22627787.7864   22627790.4534
        45.200          25.9004
 112823484.802 7  87914416.19945  21469602.706    21469602.6444   21469601.2854
        43.200          34.9004
 131534064.613 7                  25030082.689
        45.000
 131926441.830 7                  25104769.232
        46.100
 115862381.308 5                  21735482.115    21735479.859
        34.500
 136352753.056 6                  25947060.023
        39.200
 119354467.001 7  92831274.253 6  22343400.328    22343400.402    22343408.875
        46.300          39.800
 141675401.482 4                  26959931.064
        26.900
 109872617.598 7  85615028.32645  20908064.046    20908063.7204   20908067.3054
        44.100          30.0004
 200815188.406 5                  38213861.752
        34.900
 198897603.299 7                  37848979.748
        42.200
 128329634.689 7                  24420317.776
        42.200
 140314653.072 5                  26700994.633
        33.900
 202053090.389 7                  38449444.478
        44.200
 104905379.773 8  81593067.551 7  19631615.158    19631615.798    19631620.400
        48.800          46.900
 104624323.936 8  81374781.342 7  19551554.144    19551553.529    19551558.646
        50.000          45.500
 125503529.687 5  97613949.721 5  23478034.659    23478040.179    23478051.803
        35.600          32.600
 114627725.651 5  89154919.122 6  21435962.207    21435961.428    21435970.263
        34.400          38.800
 122258326.269 7                  22911162.710    22911162.182
        42.500
 141055272.846 5                  26841909.995
        31.900
 118520904.001 6  92182864.017 6  22202929.942    22202929.923    22202938.664
        36.400          41.000
 25  1  1 21 14 45.0000000  0 28G21E31G07G02G30G08G13G19G17E33E24R10
                                E09R12E12G14S35S31E05E06S33R11R21R01
                                R20R02E26R22
 114998086.333 7  89608911.26844  21883409.387    21883407.9834   21883409.1004
        43.700          28.2004
 124359344.237 8                  23664787.506
        48.100
 110682433.111 7  86245994.53647  21062163.109    21062162.6004   21062166.7214
        46.900          45.3004
 113724491.752 8  88616515.59645  21641047.615    21641046.5244   21641048.5314
        48.300          32.7004
 106433265.483 8  82935010.47748  20253573.984    20253573.1974   20253576.7524
        52.100          53.5004
 123086898.006 5  95911832.32042  23422640.791    23422640.6664   23422649.5014
        31.400          12.4004
 118902312.549 7  92651197.51043  22626360.799    22626360.5764   22626362.8124
        44.000          22.5004
 127840963.256 6                  24327327.668
        36.300
 112789978.327 7  87888307.31845  21463224.735    21463224.6684   21463224.1304
        42.700          33.8004
 131516164.864 7                  25026676.047
        45.800
 131905562.699 7                  25100795.829
        46.900
 115897495.659 6                  21742071.128    21742072.922
        36.000
 136389372.955 6                  25954028.425
        39.300
 119308721.914 6  92795694.758 7  22334838.102    22334835.613    22334847.556
        41.800          44.500
 141629639.618 5                  26951224.003
        30.200
 109850813.338 7  85598037.97245  20903915.644    20903915.3184   20903917.5864
        45.700          30.6004
 200815168.980 6                  38213855.792
        36.400
 198897598.495 6                  37848960.163
        38.400
 128331772.565 6                  24420725.428
        41.300
 140358242.406 4                  26709289.203
        28.100
 202053101.832 7                  38449444.586
        42.900
 104897570.333 8  81586993.474 8  19630154.387    19630154.816    19630159.602
        49.800          48.500
 104608224.154 8  81362259.377 7  19548544.579    19548544.950    19548549.723
        50.700          45.600
 125552691.443 6  97652186.370 5  23487231.677    23487233.759    23487249.644
        36.700          31.800
 114672173.893 5  89189490.013 5  21444274.571    21444272.225    21444282.562
        31.900          35.600
 122271090.196 6                  22913553.613    22913554.984
        40.800


 118456414.603 6  92132705.806 7  22190847.089    22190853.515    22190858.888
        37.000          42.100
 25  1  1 21 15  0.0000000  0 26G21E31G07G02G30G08G13G19G17E33E24R10
                                E09R12E12G14S31E05E06S33R11R21R20R02
                                E26R22
 115015717.925 7  89622650.18144  21886764.520    21886763.1164   21886764.3284
        42.700          28.1004
 124366495.551 7                  23666147.993
        47.500
 110712724.571 8  86269598.19547  21067927.023    21067926.5414   21067930.6914
        48.000          44.6004
 113718638.521 7  88611954.68145  21639933.510    21639932.3974   21639935.0744
        46.800          32.5004
 106433261.955 8  82935007.69848  20253572.477    20253571.7044   20253576.9174
        51.300          53.4004
 123138170.864 5  95951785.18042  23432401.861    23432401.9144   23432412.1534
        31.900          15.5004
 118894964.282 6  92645471.56543  22624962.478    22624962.2594   22624964.4194
        40.300          21.4004
 127790269.442 5                  24317691.436
        32.600
 112756567.894 7  87862273.25045  21456867.419    21456867.2634   21456865.3534
        45.100          34.0004
 131498367.844 7                  25023289.442
        45.400
 131884703.229 7                  25096826.828
        47.600
 115932682.447 6                  21748673.661    21748672.907
        36.400
 136426045.831 5                  25961007.465
        33.600
 119262981.400 7  92760118.830 7  22326275.157    22326273.774    22326283.911
        42.900          44.200
 141583895.960 5                  26942517.418
        30.500
 109829056.790 7  85581084.82345  20899775.417    20899775.1134   20899776.1934
        46.800          31.3004
 198897594.696 6                  37848976.238
        40.800
 128334017.708 7                  24421152.277
        43.900
 140401843.595 5                  26717587.757
        32.600
 202053115.131 7                  38449449.424
        42.500
 104889848.678 7  81580987.727 8  19628708.799    19628709.744    19628715.084
        47.600          48.800
 104592329.291 8  81349896.774 7  19545571.764    19545571.737    19545579.179
        50.100          44.800
 114716768.062 5  89224174.287 6  21452612.933    21452612.458    21452622.111
        34.000          38.200
 122284028.913 6  95109841.025 6  22915972.718    22915973.635    22915984.624
        39.500          36.800


 118391986.962 5  92082595.616 7  22178779.749    22178783.886    22178789.246
        32.000          42.400
 25  1  1 21 15 15.0000000  0 26G21E31G07G02G30G08G13G17E33E24R10E09
                                R12E12G14S31E05E06S33R11R21R01R20R02
                                E26R22
 115033500.025 7  89636506.39044  21890148.908    21890147.5494   21890148.3004
        42.200          27.7004
 124373675.355 7                  23667514.804
        47.600
 110743130.430 7  86293291.01547  21073712.439    21073711.9524   21073716.1484
        47.000          42.9004
 113712930.325 7  88607506.73745  21638847.981    21638846.8684   21638847.9384
        47.200          32.8004
 106433393.875 8  82935110.48248  20253598.415    20253597.6464   20253602.3384
        52.000          53.8004
 123189462.802 5  95991752.81942  23442162.101    23442162.5254   23442175.3554
        35.100          15.7004
 118887766.432 7  92639862.84243  22623593.113    22623592.8904   22623595.1914
        43.900          23.8004
 112723253.833 6  87836314.25245  21450526.877    21450526.6454   21450526.2874
        41.800          33.4004
 131480673.756 7                  25019923.238
        46.800
 131863863.468 7                  25092860.986
        47.400
 115967941.050 6                  21755288.777    21755287.537
        38.000
 136462771.357 5                  25967998.993
        34.900


 141538170.763 5                  26933816.192
        32.600
 109807347.994 7  85564168.84645  20895644.034    20895643.7304   20895644.2754
        44.300          30.6004
 198897591.436 6                  37848976.305
        40.300
 128336370.166 7                  24421600.505
        45.100
 140445456.726 5                  26725885.749
        35.700
 202053128.680 7                  38449455.206
        43.800
 104882215.102 7  81575050.444 8  19627279.332    19627278.704    19627287.049
        43.600          49.900
 104576639.479 8  81337693.552 7  19542640.028    19542640.333    19542647.659
        49.300          45.900
 125651183.581 6  97728790.705 6  23505660.145    23505658.069    23505678.762
        36.600          37.000
 114761507.510 5  89258971.408 5  21460980.415    21460978.815    21460985.387
        33.800          34.600
 122297142.565 6  95120040.569 4  22918432.884    22918431.682    22918444.624
        39.000          28.100


 118327449.937 5  92032534.053 6  22166724.038                    22166729.879
        33.800          41.600
 25  1  1 21 15 30.0000000  0 26G21E31G07G02G30G08G13G17E33E24R10E09
                                R12E12G14S35S31E05E06S33R11R21R01R20
                                E26R22
 115051431.208 6  89650478.74244  21893559.989    21893558.6354   21893561.3644
        41.800          25.2004
 124380882.151 7                  23668885.755
        47.400
 110773649.130 7  86317071.76847  21079520.983    21079520.5054   21079522.7874
        46.700          42.7004
 113707365.720 7  88603170.67445  21637788.925    21637787.8174   21637787.7034
        46.100          31.7004
 106433659.867 8  82935317.72748  20253648.938    20253648.1834   20253652.9354
        51.100          53.5004
 123240772.219 5  96031734.31042  23451933.679    23451934.3724   23451940.4894
        31.200          13.5004
 118880717.696 6  92634370.23743  22622250.730    22622250.4404   22622253.8344
        41.600          23.3004
 112690034.806 7  87810429.31945  21444205.672    21444205.4404   21444206.7174
        42.500          35.2004
 131463081.367 7                  25016575.097
        43.400
 131843041.930 7                  25088898.708
        44.800
 116003270.248 5                  21761916.102    21761914.643
        34.800


 119171486.274 6  92688976.877 7  22309152.088    22309151.990    22309160.343
        41.600          43.800
 141492462.704 5                  26925119.253
        31.300
 109785685.667 7  85547289.10745  20891522.157    20891521.8894   20891521.9574
        44.900          31.2004


 198897588.526 7                  37848973.770
        42.500
 128338828.459 7                  24422067.555
        43.500
 140489079.966 5                  26734185.914
        35.200
 202053142.393 7                  38449450.882
        44.100
 104874668.357 7  81569180.743 8  19625869.619    19625869.758    19625874.249
        47.900          49.000
 104561153.236 8  81325648.720 7  19539746.720    19539746.764    19539754.014
        48.900          44.900
 125700511.255 6  97767156.393 6  23514884.110    23514886.322    23514905.396
        37.000          36.100
 114806390.767 5  89293880.486 6  21469373.644    21469372.950    21469382.298
        33.800          41.000


 118263186.872 4  91982520.226 7  22154682.408                    22154686.257
        29.600          42.500
 25  1  1 21 15 45.0000000  0 28G21E31G07G02G30G08G13G15G17E33E24R10
                                E09R12E12G14S35S31E05E06S33R11R21R01
                                R20R02E26R22
 115069510.910 6  89664566.87443  21896998.502    21896997.1434   21897002.5774
        36.400          21.3004
 124388115.605 7                  23670262.419
        45.600
 110804280.233 8  86340940.14846  21085349.589    21085349.1204   21085350.8004
        48.300          41.8004
 113701944.238 7  88598946.15145  21636757.000    21636755.8874   21636755.3894
        47.500          31.3004
 106434059.657 8  82935629.24348  20253725.072    20253724.3304   20253729.0554
        51.400          53.3004
 123292098.189 6  96071728.48142  23461701.404    23461701.7934   23461708.1984
        37.600          12.8004
 118873817.505 6  92628993.43843  22620937.479    22620937.1134   22620941.1934
        40.800          22.4004
 129832510.577 4                  24706301.077
        28.400
 112656910.472 7  87784618.17446  21437902.124    21437901.8614   21437904.5954
        44.800          37.4004
 131445590.409 6                  25013246.443
        40.400
 131822238.294 7                  25084940.227
        43.600
 116038670.035 6                  21768554.377    21768554.953
        36.500
 136536374.813 5                  25981998.453
        33.400
 119125757.198 6  92653409.775 7  22300589.589    22300591.440    22300599.359
        41.900          42.900
 141446771.798 5                  26916424.317
        32.800
 109764069.437 7  85530445.31945  20887408.403    20887408.1224   20887408.8884
        46.100          32.2004
 200815162.330 5                  38213861.922
        33.300
 198897584.865 7                  37848971.811
        42.000
 128341392.159 7                  24422555.804
        42.000
 140532712.581 5                  26742490.958
        33.900
 202053156.018 7                  38449452.979
        43.100
 104867208.290 8  81563378.456 8  19624472.313    19624473.450    19624478.857
        48.500          49.000
 104545870.445 8  81313762.086 6  19536891.716    19536891.911    19536896.147
        49.300          41.600
 125749891.856 6  97805563.139 5  23524126.085    23524126.966    23524143.401
        36.800          34.700
 114851416.816 6  89328900.768 7  21477795.197    21477796.360    21477803.490
        38.100          44.600
 122323888.660 6  95140840.231 5  22923440.037    22923439.161    22923455.695
        38.100          33.900


                  91932554.287 6                                  22142649.082
                        41.100
 25  1  1 21 16  0.0000000  0 27G21E31G07G02G30G08G13G17E33E24R10E09
                                R12E12G14S35S31E05E06S33R11R21R01R20
                                R02E26R22
 115087742.709 5  89678773.51343  21900467.303    21900465.9404   21900472.2304
        30.600          19.1004
 124395379.407 7                  23671644.876
        46.700
 110835027.265 7  86364898.80247  21091200.139    21091199.6704   21091202.0884
        46.200          42.8004
 113696669.833 7  88594836.24645  21635753.827    21635752.7054   21635752.0954
        46.800          32.5004
 106434597.012 8  82936047.95548  20253827.403    20253826.6754   20253831.1024
        52.700          52.6004
 123343444.158 5  96111738.40042  23471468.828    23471469.3244   23471478.9264
        31.100          15.5004
 118867069.716 6  92623735.41943  22619653.971    22619653.5384   22619655.6874
        41.300          21.0004
 112623884.565 7  87758883.74346  21431618.594    21431618.3354   21431620.5354
        44.300          39.4004
 131428204.682 6                  25009937.943
        38.900
 131801456.279 7                  25080984.984
        43.600
 116074144.043 6                  21775212.972    21775212.408
        38.300
 136573255.480 6                  25989018.535
        36.400
 119080035.126 6  92617848.210 7  22292029.745    22292028.725    22292043.101
        40.300          42.200
 141401102.028 5                  26907732.963
        32.800
 109742503.120 7  85513640.43945  20883304.933    20883304.6344   20883305.0514
        46.600          33.5004
 200815160.621 5                  38213850.743
        34.100
 198897583.828 7                  37848968.708
        42.100
 128344064.875 6                  24423065.015
        40.700
 140576358.413 5                  26750794.222
        32.400
 202053171.995 7                  38449449.460
        42.800
 104859838.778 8  81557646.688 7  19623094.494    19623094.553    19623098.150
        50.200          45.600
 104530795.053 8  81302036.801 7  19534074.534    19534075.808    19534081.444
        50.000          44.600
 125799328.468 6  97844013.597 5  23533370.029    23533371.858    23533391.146
        36.200          34.800
 114896588.315 5  89364034.107 7  21486238.640    21486240.956    21486250.703
        34.400          44.200
 122337523.944 7  95151445.389 5  22926000.967    22926002.098    22926010.735
        42.400          34.400
 141171891.943 5                  26864118.165
        34.600
 118134818.624 6  91882639.573 6  22130620.083    22130624.243    22130626.615
        36.400          40.100
 25  1  1 21 16 15.0000000  0 29G21E31G07G02G30G08G13G19E10G17E33E24
                                R10E09R12E12G14S35S31E05E06S33R11R21
                                R01R20R02E26R22
 115106104.864 5  89693079.89743  21903963.428    21903963.6294   21903966.4234
        35.100          18.8004
 124402665.001 7                  23673030.995
        46.700
 110865881.532 7  86388941.00747  21097071.709    21097071.2314   21097074.4074
        46.200          44.1004
 113691533.992 8  88590834.33645  21634775.717    21634774.6004   21634775.3454
        48.200          32.6004
 106435263.488 8  82936567.28348  20253954.175    20253953.4474   20253957.5064
        51.800          52.1004


 118860465.843 6  92618589.55743  22618396.979    22618396.6314   22618397.7704
        40.400          23.6004
 127537397.453 5                  24269558.990
        34.500


 112590948.693 7  87733219.47346  21425351.058    21425350.8304   21425353.1184
        45.100          40.2004
 131410915.913 5                  25006646.563
        35.200
 131780687.171 6                  25077033.466
        38.500
 116109683.301 6                  21781882.453    21781882.928
        40.000
 136610181.357 5                  25996048.162
        32.400
 119034311.651 6  92582285.553 7  22283469.762    22283469.624    22283481.679
        41.500          42.000
 141355445.073 5                  26899044.724
        32.300
 109720978.187 7  85496867.79145  20879209.371    20879209.0764   20879209.7704
        46.600          34.1004
 200815153.537 5                  38213878.906
        32.200
 198897577.823 7                  37848967.326
        42.200
 128346838.061 6                  24423590.954
        37.800
 140620008.273 4                  26759099.269
        29.400
 202053182.396 7                  38449456.127
        44.600
 104852551.315 8  81551978.672 7  19621729.172    19621730.418    19621733.325
        51.200          43.200
 104515918.364 8  81290466.043 6  19531292.167    19531293.641    19531300.707
        48.600          41.200
 125848812.010 5  97882500.513 5  23542628.434    23542632.942    23542647.239
        35.900          32.500
 114941896.562 6  89399273.839 7  21494715.078    21494717.069    21494722.688
        37.500          43.200
 122351326.157 7  95162180.345 5  22928588.697    22928587.779    22928597.305
        43.200          33.800
 141191687.141 5                  26867889.111
        31.600
 118070699.808 6  91832769.617 5  22118614.548    22118618.665    22118614.223
        37.800          35.700
 25  1  1 21 16 30.0000000  0 30G21E31G07G02G30G08G13G15G19E10G17E33
                                E24R10E09R12E12G14S35S31E05E06S33R11
                                R21R01R20R02E26R22
 115124630.965 6  89707515.81843  21907493.694    21907493.2344   21907492.4274
        37.000          19.8004
 124409980.205 8                  23674422.859
        48.100
 110896850.619 8  86413072.74248  21102965.926    21102965.4664   21102968.8594
        49.500          48.2004
 113686544.557 7  88586946.49545  21633826.077    21633824.9554   21633825.9484
        47.800          32.6004
 106436066.952 8  82937193.34748  20254106.975    20254106.2424   20254110.1454
        52.400          52.2004


 118854013.416 7  92613561.68644  22617170.677    22617170.4144   22617169.9254
        45.400          27.9004
 129785817.725 5                  24697420.186
        33.800
 127486892.658 6  99340412.81741  24259921.933    24259922.5094   24259943.7854
        36.800          11.8004


 112558110.630 7  87707631.43446  21419102.513    21419102.2854   21419103.7214
        44.200          39.8004
 131393731.646 5                  25003377.391
        30.900
 131759938.951 6                  25073084.872
        40.300
 116145295.621 5                  21788558.830    21788556.660
        32.500
 136647159.444 4                  26003081.018
        26.500
 118988594.966 6  92546728.089 6  22274914.800    22274912.941    22274922.962
        41.300          39.200
 141309808.793 5                  26890360.207
        34.200
 109699502.494 7  85480133.50745  20875121.568    20875121.2694   20875123.8204
        44.300          33.7004


 198897573.435 6                  37848963.892
        41.100
 128349719.405 6                  24424137.967
        37.800
 140663669.794 5                  26767409.494
        34.100
 202053195.443 7                  38449455.501
        43.400
 104845354.049 8  81546380.868 7  19620381.669    19620382.648    19620386.607
        49.000          43.800
 104501248.312 7  81279056.051 6  19528550.888    19528551.664    19528558.382
        46.500          40.400
 125898349.656 6  97921029.458 5  23551904.355    23551904.699    23551916.121
        37.500          31.900
 114987349.244 5  89434625.881 6  21503213.512    21503214.583    21503221.087
        35.900          41.500
 122365303.081 6  95173051.245 5  22931206.660    22931206.517    22931217.403
        40.000          31.200
 141211582.711 4                  26871675.695
        29.200
                  91782950.998 5                  22106601.461    22106612.428
                        32.800
 25  1  1 21 16 45.0000000  0 31G21E31G07G02G30G08G13G15G19E10G17E33
                                E24R10E09E04R12E12G14S35S31E05E06S33
                                R11R21R01R20R02E26R22
 115143306.620 7  89722068.33543  21911045.288    21911044.2604   21911045.7894
        42.400          22.4004
 124417323.744 8                  23675820.548
        48.000
 110927933.172 8  86437292.84647  21108880.026    21108879.5664   21108884.2484
        50.300          47.5004
 113681700.349 8  88583171.81845  21632905.278    21632904.1874   21632904.7094
        49.800          33.7004
 106437006.183 8  82937925.19848  20254285.603    20254284.8614   20254288.8274
        51.300          51.3004


 118847711.163 7  92608650.83044  22615968.148    22615967.8764   22615971.6294
        42.300          26.7004
 129770556.597 5 101119934.83941  24694513.148    24694512.7684   24694521.1374
        34.200          10.3004
 127436421.043 6  99301084.83141  24250326.750    24250327.5374   24250338.3694
        37.800           9.0004


 112525369.240 7  87682118.72546  21412871.982    21412871.7684   21412872.8334
        46.200          39.9004


 131739210.170 6                  25069140.794
        39.900
 116180980.014 6                  21795255.850    21795255.629
        36.400
 136684188.541 4                  26010145.161
        28.600


                  92511175.080 6                  22266353.223    22266369.763
                        41.000
 141264192.399 5                  26881678.850
        35.500
 109678074.887 7  85463436.66945  20871044.631    20871044.3454   20871046.5284
        42.400          32.3004
 200815206.972 5                  38213862.732
        34.300
 198897570.292 7                  37848970.774
        42.200
 128352707.546 6                  24424708.548
        40.600
 140707341.489 5                  26775720.752
        34.200
 202053208.667 7                  38449465.629
        45.200
 104838246.030 8  81540852.394 7  19619051.601    19619052.524    19619056.250
        49.600          44.200
 104486783.932 7  81267806.077 6  19525849.788    19525849.713    19525855.170
        44.500          40.400
 125947939.645 5                  23561176.391    23561178.079
        35.700
 115032944.274 5  89470088.618 6  21511742.896    21511741.927    21511745.579
        32.600          40.800
 122379453.143 6                  22933857.606    22933855.310
        36.200


 117942658.544 6  91733182.991 5  22094633.971    22094632.001    22094626.240
        37.700          35.300
 25  1  1 21 17  0.0000000  0 29G21E31G07G02G30G08G13G19E10G17E33E24
                                R10E09E04R12E12G14S35S31E05E06S33R11
                                R21R01R20E26R22
 115162131.189 6  89736736.84243  21914628.431    21914627.3764   21914627.3844
        38.800          23.6004
 124424695.171 8                  23677223.226
        48.900
 110959128.629 8  86461600.95147  21114816.567    21114816.1074   21114820.8144
        48.500          47.1004
 113677000.919 8  88579509.93945  21632010.841    21632009.7684   21632010.9534
        49.300          33.9004
 106438080.858 8  82938762.59148  20254490.492    20254489.7504   20254493.6494
        51.800          52.1004


 118841558.886 6  92603856.88444  22614799.893    22614799.6524   22614801.6474
        41.900          26.6004
 127385982.413 6  99261782.20641  24240729.917    24240730.4754   24240739.1324
        36.000           7.1004


 112492724.140 7  87656681.07346  21406656.934    21406656.7244   21406660.4794
        45.400          38.0004
 131359610.486 5                  24996904.496
        32.500
 131718500.466 7                  25065199.669
        43.200
 116216736.104 5                  21801961.113    21801959.973
        34.600
 136721268.398 5                  26017196.479
        34.200


 118897178.008 6  92475626.143 6  22257803.434    22257801.996    22257808.940
        41.300          40.900
 141218595.556 5                  26873001.191
        32.700
 109656694.855 6  85446776.89445  20866976.107    20866975.8624   20866977.9414
        39.500          31.0004
 200815203.648 5                  38213866.242
        34.400
 198897567.968 6                  37848969.571
        41.700
 128355802.173 6                  24425297.853
        40.400
 140751022.686 5                  26784035.469
        31.700
 202053223.238 7                  38449465.182
        44.500
 104831226.855 8  81535393.005 7  19617737.714    19617737.724    19617743.417
        49.200          44.000
 104472524.849 6  81256715.710 6  19523182.814    19523183.472    19523192.118
        40.200          39.300
 125997580.854 5  97998208.752 4  23570462.046    23570461.593    23570482.768
        34.400          29.700
 115078680.288 4  89505661.115 7  21520294.182    21520290.846    21520300.481
        27.100          42.500


                  91683465.785 6                                  22082653.341
                        37.900
 25  1  1 21 17 15.0000000  0 28G21E31G07G02G30G08G13G19G17E33E24E09
                                E04R12E12G14S35S31E05E06S33R11R21R01
                                R20R02E26R22
 115181102.712 7  89751519.86644  21918239.672    21918238.7514   21918237.2984
        42.700          25.2004
 124432092.579 8                  23678630.624
        48.200
 110990435.000 8  86485995.47247  21120774.712    21120774.2524   21120777.7044
        50.100          46.8004
 113672444.491 8  88575959.50245  21631143.597    21631142.5334   21631144.6794
        49.100          33.9004
 106439289.105 8  82939704.05948  20254720.129    20254719.3964   20254723.9474
        51.600          52.5004
 123600377.239 5                  23520370.704
        31.900
 118835554.667 7  92599178.28844  22613655.943    22613655.6664   22613658.9684
        42.400          25.2004
 127335575.057 5  99222504.1444   24231146.584    24231146.9994   24231145.7274
        35.000           4.6004
 112460173.490 7  87631317.00346  21400464.567    21400464.3354   21400465.9184
        44.300          38.1004
 131342734.782 5                  24993683.555
        34.700
 131697807.951 7                  25061260.919
        45.500
 136758396.194 6                  26024256.588
        36.000


 118851475.733 7  92440079.976 6  22249249.997    22249249.392    22249253.751
        42.400          41.000
 141173016.740 5                  26864328.106
        30.600
 109635360.798 7  85430152.96745  20862915.463    20862915.2624   20862918.3384
        42.000          30.1004


 198897564.031 6                  37848973.828
        40.600
 128359001.240 6                  24425905.667
        39.400
 140794711.057 6                  26792348.607
        36.300
 202053235.571 7                  38449471.156
        44.700
 104824294.882 8  81530001.461 7  19616442.320    19616441.736    19616447.072
        50.200          44.800
 104458469.343 7  81245783.622 6  19520559.811    19520562.538    19520563.998
        43.000          39.800
 126047271.113 6  98036856.417 4  23579756.785    23579754.532    23579775.931
        37.200          28.600
 115124555.376 5  89541341.645 7  21528869.977    21528868.563    21528882.187
        34.200          43.500
 122408268.297 7                  22939260.060    22939261.121
        46.200


                  91633798.144 6                                  22070691.840
                        39.100
 25  1  1 21 17 30.0000000  0 28G21E31G07G02G30G08G13E10G17E33E24R10
                                E09R12E12G14S35S31E05E06S33R11R21R01
                                R20R02E26R22
 115200219.971 7  89766416.41744  21921875.970    21921875.0234   21921875.6074
        43.200          25.7004
 124439514.999 7                  23680043.342
        47.900
 111021851.352 8  86510475.67147  21126752.661    21126752.2014   21126754.5474
        50.100          46.2004
 113668030.070 8  88572519.70645  21630302.945    21630301.8724   21630304.3534
        48.200          32.9004
 106440630.094 8  82940748.96948  20254975.373    20254974.6404   20254979.3624
        52.000          52.5004
 123651815.354 5  96352086.32842  23530152.756    23530153.1454   23530163.2844
        35.100          16.7004
 118829697.473 7  92594614.25944  22612541.654    22612541.3774   22612543.7914
        42.500          24.8004


 112427716.641 7  87606026.00446  21394287.747    21394287.4754   21394289.4764
        44.600          39.7004
 131325959.867 5                  24990490.683
        33.700
 131677131.583 7                  25057326.225
        45.400
 116288440.423 6                  21815414.381    21815415.085
        36.400
 136795570.975 6                  26031338.378
        38.200
 118805775.960 7  92404535.805 7  22240690.231    22240691.422    22240698.022
        44.200          42.000
 141127455.117 4                  26855660.687
        27.500
 109614071.573 7  85413563.94645  20858865.276    20858865.1784   20858867.4154
        44.100          31.4004


 198897557.781 6                  37848973.595
        40.600
 128362303.716 6                  24426535.629
        40.100
 140838405.601 6                  26800663.168
        36.300
 202053246.030 7                  38449472.896
        45.500
 104817449.205 8  81524677.001 7  19615161.078    19615161.171    19615165.156
        51.900          44.900
 104444616.343 7  81235009.095 6  19517967.805    19517971.926    19517975.621
        42.900          40.600
 126097008.346 6                  23589064.292    23589062.380
        37.300
 115170568.021 5  89577129.315 7  21537472.075    21537473.289    21537484.596
        32.000          43.800
 122422929.817 7  95217893.532 5  22942004.044    22942005.101    22942014.333
        44.600          33.200


                  91584179.672 6                  22058724.961    22058738.549
                        38.300
 25  1  1 21 17 45.0000000  0 28G21E31G07G02G30G08G13E10G17E33E24R10
                                E09R12E12G14S35S31E05E06S33R11R21R01
                                R20R02E26R22
 115219488.617 7  89781430.93144  21925542.087    21925541.1044   21925542.9154
        43.900          26.4004
 124446968.396 8                  23681461.913
        48.200
 111053383.097 7  86535045.79447  21132752.188    21132751.7234   21132754.4404
        46.400          45.1004
 113663763.666 7  88569195.26345  21629491.427    21629490.3814   21629491.5564
        46.500          31.8004
 106442109.769 8  82941901.95248  20255256.823    20255256.0774   20255261.0924
        51.500          52.9004
 123703272.310 5  96392182.76542  23539942.558    23539942.7774   23539955.0834
        32.700          13.5004
 118823992.987 7  92590169.25044  22611457.390    22611457.1044   22611457.2584
        44.800          26.5004


 112395359.438 7  87580812.66346  21388130.357    21388130.0674   21388131.9494
        44.900          37.4004
 131309291.646 5                  24987322.831
        30.500
 131656477.341 7                  25053396.020
        44.600
 116324408.985 5                  21822162.849    21822163.412
        34.900
 136832798.404 6                  26038405.991
        36.800
 118760085.107 7  92368998.496 7  22232143.279    22232141.017    22232144.125
        45.000          43.200
 141081916.985 5                  26846992.526
        30.600
 109592833.278 7  85397014.62745  20854823.520    20854823.4044   20854824.9034
        44.300          30.2004


 198897554.978 6                  37848961.911
        41.000
 128365715.520 6                  24427183.350
        38.100
 140882111.931 6                  26808979.411
        39.600
 202053260.205 7                  38449471.429
        45.000
 104810696.149 8  81519424.604 6  19613897.940    19613898.170    19613900.747
        51.800          41.100
 104430972.003 6  81224396.872 6  19515417.173    19515419.435    19515426.573
        41.700          40.900
 126146798.375 6                  23598376.485    23598376.054
        36.400
 115216723.661 5  89613028.141 7  21546103.885    21546103.985    21546116.393
        33.600          43.800
 122437765.982 7  95229432.767 6  22944782.692    22944783.638    22944793.424
        43.400          38.100


 117687248.302 5  91534615.499 6  22046788.063    22046789.168    22046799.634
        33.400          37.000
 25  1  1 21 18  0.0000000  0 28G21E31G07G02G30G08G13E10G17E33E24R10
                                E09R12E12G14S35S31E05E06S33R11R21R01
                                R20R02E26R22
 115238901.629 7  89796557.94144  21929236.521    21929235.5334   21929237.7494
        43.500          26.2004
 124454445.857 8                  23682884.378
        48.700
 111085023.199 7  86559700.38447  21138774.032    21138773.5594   21138775.7934
        44.700          43.7004
 113659638.348 7  88565980.76245  21628705.950    21628704.9044   21628705.7224
        44.200          30.5004
 106443721.350 8  82943157.72548  20255563.371    20255562.6254   20255567.8454
        51.900          53.2004
 123754741.111 5  96432288.34941  23549738.313    23549739.0014   23549746.8724
        34.400          10.0004
 118818434.552 7  92585837.96944  22610399.347    22610399.0394   22610400.0864
        44.800          27.0004


 112363095.104 7  87555671.69646  21381991.693    21381991.4484   21381991.5354
        47.100          40.9004
 131292723.504 5                  24984167.039
        31.400
 131635838.305 7                  25049467.700
        44.100
 116360445.241 6                  21828923.139    21828922.851
        36.600
 136870071.183 6                  26045501.635
        38.000
 118714396.288 6  92333462.802 6  22223580.865    22223581.607    22223590.975
        40.500          41.500
 141036395.457 5                  26838329.714
        30.600
 109571639.102 7  85380499.68944  20850789.888    20850789.7234   20850790.7624
        42.700          29.2004


 198897548.801 6                  37848956.411
        39.400
 128369229.575 6                  24427852.673
        37.500
 140925822.893 6                  26817298.541
        39.600
 202053270.914 7                  38449475.901
        44.500
 104804028.986 8  81514239.142 6  19612647.163    19612647.023    19612652.560
        48.100          40.400
 104417529.707 7  81213941.726 6  19512908.668    19512908.941    19512915.180
        44.300          41.000
 126196633.504 6                  23607699.780    23607698.681
        38.100
 115263014.770 6  89649032.295 7  21554766.733    21554767.052    21554772.403
        36.500          44.800
 122452769.458 6  95241102.122 6  22947597.482    22947594.835    22947605.100
        41.600          39.000


 117623585.640 6  91485100.472 6  22034873.151    22034870.934    22034873.012
        39.600          38.300
 25  1  1 21 18 15.0000000  0 28G21E31G07G02G30G08G13G19E10G17E33E24
                                R10E09R12E12G14S35S31E05E06S33R11R21
                                R20R02E26R22
 115258465.925 7  89811802.84744  21932959.905    21932958.8954   21932961.3324
        43.800          26.0004
 124461954.448 8                  23684312.997
        49.300
 111116778.567 7  86584444.76547  21144816.504    21144816.0224   21144818.9584
        47.000          44.1004
 113655661.453 7  88562881.89044  21627948.157    21627947.0714   21627950.0674
        44.300          29.4004
 106445471.945 8  82944521.81848  20255896.813    20255896.0764   20255900.9944
        50.900          53.4004
 123806228.438 3  96472408.8824   23559535.343    23559536.1474   23559545.3734
        23.400           5.6004
 118813029.110 7  92581625.89244  22609370.523    22609370.1884   22609371.3224
        45.600          25.1004
 127134132.627 6                  24192823.660
        39.400


 112330930.747 7  87530608.61246  21375870.408    21375870.1544   21375870.5004
        46.700          39.6004
 131276262.446 5                  24981034.862
        35.200
 131615221.458 7                  25045545.097
        44.400
 116396556.287 5                  21835700.799    21835699.644
        35.800
 136907396.247 6                  26052605.301
        38.400
 118668717.006 5  92297934.440 6  22215043.759    22215025.480    22215038.899
        30.900          38.200
 140990898.029 5                  26829672.157
        34.400
 109550496.122 7  85364024.63244  20846766.368    20846766.1904   20846767.3344
        43.300          27.8004
 200815066.214 6                  38213851.029
        37.200
 198897546.580 6                  37848964.827
        41.600
 128372852.981 5                  24428541.153
        30.600
 140969545.252 6                  26825615.604
        37.300
 202053285.220 7                  38449477.305
        43.500
 104797454.991 8  81509126.061 7  19611418.720    19611419.120    19611426.186
        50.200          42.900
 104404296.242 7  81203649.035 6  19510435.438    19510435.279    19510437.758
        46.500          37.600
 115309447.829 5  89685146.920 7  21563445.855    21563446.333    21563456.267
        35.700          45.200
 122467947.256 6  95252907.093 6  22950441.101    22950440.952    22950448.891
        41.600          40.700


 117559993.893 5  91435640.566 6  22022968.831    22022968.687    22022964.379
        33.600          39.000
 25  1  1 21 18 30.0000000  0 30G21E31G07G02G30G08G13G15G19E10G17E33
                                E24R10E09R12E12G14S35S31E05E06S33R11
                                R21R01R20R02E26R22
 115278171.867 7  89827158.11244  21936709.756    21936708.7324   21936710.3904
        44.800          25.6004
 124469484.844 8                  23685745.932
        49.000
 111148639.930 8  86609271.75347  21150880.104    21150879.6224   21150882.6984
        48.100          45.8004
 113651823.557 6  88559891.31345  21627218.377    21627217.2914   21627220.5934
        41.300          30.5004
 106447352.316 8  82945987.04048  20256254.444    20256253.7114   20256258.5414
        51.800          52.6004


 118807767.378 7  92577525.79043  22608368.998    22608368.6454   22608369.0624
        43.700          23.4004
 129667570.989 5                  24674917.782
        31.800
 127083886.661 5                  24183260.735
        34.100


 112298857.057 7  87505616.17146  21369767.911    21369767.6304   21369767.9434
        45.500          40.7004
 131259899.501 6                  24977920.191
        37.800
 131594617.571 7                  25041624.170
        44.600
 116432732.499 6                  21842486.536    21842489.159
        38.700
 136944763.881 6                  26059716.872
        36.800
 118623037.545 6  92262406.023 6  22206480.794    22206480.289    22206487.457
        38.000          39.700
 140945415.729 5                  26821018.428
        30.600
 109529395.135 7  85347582.30645  20842751.770    20842751.5784   20842753.0254
        45.200          30.3004
 200815057.536 5                  38213866.676
        32.900
 198897538.738 6                  37848961.374
        41.900
 128376576.283 6                  24429250.669
        36.400
 141013269.480 6                  26833937.374
        36.500
 202053294.014 7                  38449475.552
        43.500
 104790964.838 8  81504078.162 7  19610203.208    19610203.581    19610211.028
        49.700          42.100
 104391262.488 8  81193511.590 6  19507998.228    19507999.792    19508001.556
        48.800          37.100
 126296448.904 6                  23626374.981    23626375.915
        38.400
 115356013.152 6  89721364.358 7  21572154.051    21572154.120    21572163.617
        37.300          44.600
 122483289.544 6  95264839.920 7  22953317.188    22953316.232    22953324.189
        40.600          42.200


 117496464.509 6  91386228.914 6  22011061.955    22011064.986    22011063.486
        37.000          36.300
 25  1  1 21 18 45.0000000  0 29G21E31G07G02G30G08G13G15G19E10G17E33
                                E24E09R12E12G14S35S31E05E06S33R11R21
                                R01R20R02E26R22
 115298032.875 7  89842634.21244  21940489.018    21940487.9864   21940488.7414
        46.200          24.8004
 124477050.561 8                  23687186.049
        48.200
 111180620.622 8  86634191.72847  21156965.684    21156965.2114   21156968.8854
        48.100          47.4004
 113648138.314 7  88557019.75045  21626517.652    21626516.5354   21626519.3134
        42.700          30.5004
 106449375.980 8  82947563.90648  20256639.413    20256638.6804   20256643.5434
        50.800          51.9004


 118802662.930 6  92573548.28043  22607395.608    22607395.2644   22607396.9094
        36.200          19.0004
 129653411.283 5 101028593.39741  24672219.725    24672220.0914   24672215.3824
        30.100           6.4004
 127033681.873 5                  24173709.261
        33.500


 112266887.732 7  87480705.06446  21363684.503    21363684.2354   21363684.2964
        46.300          40.0004
 131243648.052 6                  24974828.712
        40.700
 131574040.040 7                  25037708.162
        45.200
 136982187.492 5                  26066836.960
        34.100
 118577372.080 6  92226888.507 6  22197937.085    22197935.998    22197938.028
        36.600          37.200
 140899962.078 4                  26812368.199
        29.400
 109508349.655 7  85331183.18745  20838746.002    20838745.8464   20838748.7184
        45.900          31.0004


 198897538.190 7                  37848967.554
        42.000
 128380412.993 5                  24429978.883
        35.500
 141057008.690 6                  26842260.939
        36.500
 202053310.558 6                  38449475.131
        40.900
 104784572.467 8  81499106.278 7  19609009.145    19609009.403    19609013.558
        51.500          44.500
 104378442.186 8  81183540.374 6  19505600.915    19505602.377    19505608.348
        49.200          40.000
 126346432.287 6                  23635721.789    23635723.323
        37.400
 115402723.685 6  89757694.748 7  21580890.234    21580891.662    21580898.301
        37.400          43.800
 122498809.617 5  95276911.011 7  22956224.402    22956224.370    22956232.626
        35.800          42.600


 117433121.101 6  91336876.338 6  21999165.760    21999157.122    21999180.994
        38.900          37.600
 25  1  1 21 19  0.0000000  0 28G21E31G07G02G30G08G13G15G19E10G17E33
                                E24E09R12E12G14S35S31E05E06S33R11R21
                                R20R02E26R22
 115318035.832 7  89858220.90844  21944295.739    21944294.7074   21944293.0104
        45.100          24.2004
 124484638.653 8                  23688630.378
        48.600
 111212707.499 7  86659194.43047  21163071.329    21163070.8604   21163074.8944
        46.800          46.4004
 113644592.763 7  88554257.03645  21625843.177    21625842.0464   21625844.2504
        43.500          31.0004
 106451530.171 8  82949242.48548  20257049.884    20257049.1474   20257053.7034
        51.800          52.8004


 118797702.784 6  92569683.19142  22606455.284    22606454.8644   22606452.2434
        38.100          16.0004
 129639384.138 5 101017663.0284   24669551.170    24669551.5414   24669547.8454
        32.800           5.4004
 126983505.760 5                  24164158.212
        30.700


 112235009.848 7  87455865.22146  21357617.395    21357617.1144   21357617.9274
        47.600          40.6004
 131227495.397 7                  24971755.426
        42.400
 131553476.017 7                  25033795.182
        45.500
 137019653.744 5                  26073968.911
        35.600
 118531707.485 7  92191371.697 5  22189390.229    22189390.034    22189390.799
        44.700          35.700


 109487346.796 7  85314817.31145  20834750.004    20834749.8614   20834752.3134
        44.500          32.0004
 200815095.449 5                  38213869.314
        32.000
 198897533.193 6                  37848953.598
        40.900
 128384350.022 5                  24430729.723
        35.700
 141100749.904 5                  26850582.794
        32.000
 202053321.716 7                  38449484.915
        43.500
 104778264.919 8  81494200.372 7  19607828.186    19607828.711    19607833.497
        52.000          44.300
 104365822.483 7  81173725.103 7  19503244.576    19503244.517    19503252.134
        47.700          42.700
 115449565.676 6  89794127.374 7  21589651.343    21589651.392    21589657.409
        36.100          43.500
                  95289110.123 7                                  22959172.799
                        42.000


 117369731.155 5  91287573.237 5  21987285.898    21987283.462    21987306.704
        35.700          34.500
 25  1  1 21 19 15.0000000  0 29G21E31G07G02G30G08G13G15G19E10G17E33
                                E24R10E09R12E12G14S35S31E05E06S33R11
                                R21R20R02E26R22
 115338190.437 7  89873925.78743  21948130.798    21948129.7884   21948126.5054
        45.300          23.1004
 124492259.052 8                  23690080.474
        48.800
 111244910.354 7  86684287.49647  21169199.741    21169199.2684   21169202.1664
        47.800          46.9004
 113641196.752 7  88551610.84845  21625196.705    21625195.5564   21625197.8904
        42.000          31.1004
 106453824.818 8  82951030.49648  20257486.175    20257485.4514   20257490.3704
        51.300          52.9004
 124012312.298 5  96633022.96841  23598750.686    23598750.4004   23598772.0154
        30.200           6.6004
 118792896.815 6  92565938.22843  22605538.612    22605538.1304   22605538.0554
        39.400          19.2004
 129625499.642 5                  24666910.424
        35.100
 126933368.472 5                  24154618.955
        30.200


 112203233.414 7  87431104.46146  21351570.453    21351570.1494   21351570.9794
        46.100          40.4004
 131211451.605 6                  24968702.607
        41.700
 131532935.393 7                  25029886.554
        44.700
 116541694.965 5                  21862927.490    21862926.522
        32.900
 137057172.312 5                  26081108.602
        31.600
 118486054.173 7  92155863.655 6  22180839.459    22180841.177    22180847.741
        44.600          36.200


 109466396.614 7  85298492.47145  20830763.651    20830763.5224   20830765.5394
        43.000          31.9004


 198897533.027 6                  37848964.920
        41.600
 128388397.341 7                  24431502.454
        43.300
 141144502.573 4                  26858910.837
        27.600
 202053338.005 7                  38449481.231
        42.800
 104772052.588 8  81489368.572 7  19606666.019    19606666.367    19606670.290
        51.800          44.900
 104353413.413 8  81164073.642 7  19500925.806    19500926.933    19500933.182
        50.900          43.900
 115496548.952 5  89830669.970 6  21598435.087    21598434.226    21598443.213
        35.800          41.200
 122530404.701 6  95301444.734 6  22962145.594    22962144.785    22962142.676
        40.200          39.100


 117306415.229 6                  21975425.125    21975424.688
        40.700
 25  1  1 21 19 30.0000000  0 29G21E31G07G02G30G08G13G19E10G17E33E24
                                R10E09R12E12G14S35S31E05E06S33R11R21
                                R01R20R02E26R22
 115358489.585 7  89889743.27744  21951993.384    21951992.3784   21951990.7294
        44.900          24.3004
 124499904.897 8                  23691535.416
        48.600
 111277222.161 7  86709465.48347  21175348.318    21175347.8624   21175350.6294
        45.700          46.1004
 113637943.356 7  88549075.82245  21624578.601    21624577.5014   21624578.3924
        43.900          31.7004
 106456253.121 8  82952922.67148  20257948.383    20257947.6734   20257952.2714
        51.300          52.5004
 124063870.437 5  96673198.11341  23608562.686    23608562.4274   23608584.1154
        30.600           6.4004
 118788238.141 6  92562308.07843  22604654.919    22604654.4684   22604654.1364
        40.100          20.7004
 126883263.382 5                  24145082.814
        34.800


 112171551.473 7  87406417.32546  21345541.704    21345541.4054   21345541.6624
        46.900          39.1004
 131195509.929 7                  24965669.101
        43.400
 131512411.288 7                  25025981.119
        45.200
 116578160.474 5                  21869766.149    21869765.359
        31.000
 137094736.186 4                  26088256.570
        29.100
 118440405.080 7  92120358.851 5  22172293.497    22172295.826    22172300.754
        42.500          35.800


 109445492.215 7  85282203.33045  20826785.993    20826785.8554   20826788.3804
        44.600          32.9004


 198897530.455 6                  37848946.529
        38.900
 128392547.993 6                  24432291.410
        41.100


 202053352.577 7                  38449488.452
        44.900
 104765928.625 8  81484605.457 7  19605520.256    19605520.733    19605523.895
        51.500          43.700
 104341208.086 8  81154580.682 7  19498643.898    19498644.013    19498652.310
        48.200          43.600
 126496692.148 5                  23663820.008
        32.000
 115543666.726 6  89867317.086 6  21607248.412    21607248.680    21607255.113
        37.700          41.200
 122546430.642 6  95313909.237 6  22965143.685    22965142.985    22965145.809
        40.400          37.900


 117243034.687 4                  21963568.932    21963563.490
        28.900
 25  1  1 21 19 45.0000000  0 29G21E31G07G02G30G08G13G15G19E10G17E33
                                E24R10E09R12E12G14S35S31E05E06S33R11
                                R21R20R02E26R22
 115378935.986 7  89905675.51544  21955884.034    21955883.0104   21955884.7524
        42.500          25.4004
 124507579.198 8                  23692995.204
        48.600
 111309645.648 7  86734730.48547  21181518.545    21181518.0944   21181520.6914
        44.800          45.3004
 113634835.808 7  88546654.39345  21623987.500    21623986.4004   21623987.9594
        45.900          33.6004
 106458818.106 8  82954921.35148  20258436.769    20258436.0674   20258439.8704
        51.700          51.8004
 124115442.984 5  96713384.2654   23618378.793    23618378.9044   23618398.4684
        30.200           5.4004
 118783729.659 6  92558794.95543  22603795.542    22603795.0284   22603797.5484
        37.500          21.0004
 129598141.024 5                  24661703.422
        34.500
 126833193.397 6                  24135554.076
        36.100


 112139967.335 7  87381806.38346  21339531.147    21339530.8264   21339531.1004
        46.600          39.5004
 131179673.415 7                  24962654.959
        45.000
 131491906.665 7                  25022079.320
        45.100
 116614698.005 6                  21876625.082    21876621.465
        38.300
 137132347.850 6                  26095415.281
        36.200
 118394763.767 6  92084859.958 5  22163755.919    22163756.471    22163756.865
        38.000          34.300


 109424636.725 7  85265952.28345  20822817.315    20822817.1684   20822820.4184
        45.100          33.5004
 200815114.907 6                  38213848.092
        37.000
 198897529.034 6                  37848959.742
        40.900
 128396804.949 7                  24433100.719
        42.300


 202053367.162 7                  38449493.380
        44.000
 104759896.265 8  81479913.646 7  19604391.360    19604391.268    19604395.839
        50.100          44.200
 104329209.633 7  81145248.554 7  19496401.757    19496401.128    19496409.670
        46.200          45.800
 115590920.274 5  89904069.804 6  21616084.154    21616082.925    21616091.460
        34.200          40.600
 122562626.312 7  95326505.796 6  22968175.013    22968176.413    22968183.789
        42.200          37.600




 25  1  1 21 20  0.0000000  0 29G21E31G07G02G30G08G13G15G19E10G17E33
                                E24R10E09R12E12G14S35S31E05E06S33R11
                                R21R20R02E26R22
 115399528.082 7  89921721.28643  21959802.018    21959800.9904   21959805.6454
        42.500          22.9004
 124515280.435 7                  23694461.301
        47.600
 111342179.412 7  86760081.40647  21187709.862    21187709.3624   21187711.7864
        44.100          44.5004
 113631872.697 7  88544345.48845  21623422.487    21623421.3794   21623424.0654
        46.100          32.5004
 106461518.423 8  82957025.47448  20258949.904    20258949.2024   20258953.5264
        51.100          51.3004
 124167028.319 4  96753580.65942  23628195.234    23628195.3104   23628213.6524
        26.800          13.2004
 118779370.123 6  92555397.88843  22602963.996    22602963.4154   22602968.5094
        38.600          18.4004
 129584668.421 4 100975066.73542  24659135.220    24659135.2604   24659143.4884
        29.900          15.4004
 126783157.720 5                  24126031.426
        33.600


 112108479.624 7  87357270.56546  21333538.835    21333538.4874   21333539.6174
        46.700          40.1004
 131163940.763 7                  24959660.929
        45.500
 131471420.086 7                  25018181.498
        45.000
 116651305.665 6                  21883491.500    21883490.678
        40.800


 118349128.671 6                  22155200.517    22155198.734
        36.000


 109403828.715 7  85249738.27145  20818857.444    20818857.2794   20818860.5014
        43.900          31.7004
 200815112.896 5                  38213862.687
        35.200
 198897527.060 7                  37848959.693
        43.600
 128401166.571 7                  24433931.542
        42.600


 202053381.680 7                  38449495.388
        44.000
 104753954.299 8  81475292.047 7  19603279.447    19603280.351    19603284.422
        50.300          44.300
 104317416.687 7  81136076.287 7  19494197.071    19494197.504    19494205.219
        46.800          45.900
 115638307.863 5  89940926.764 6  21624946.644    21624943.454    21624954.037
        32.600          40.600
 122578989.852 6  95339232.993 5  22971240.357    22971240.856    22971247.888
        40.700          34.800


 117116812.180 5  91090899.371 5  21939922.743                    21939931.759
        34.300          33.500
 25  1  1 21 20 15.0000000  0 30G21E31G07G02G30G08G13G15G19E10G17E33
                                E24R10E09R12E12G14S35S31E05E06S33R11
                                R21R01R20R02E26R22
 115420262.626 7  89937878.05443  21963748.458    21963747.4264   21963751.6154
        44.300          22.2004
 124523005.537 7                  23695930.761
        45.700
 111374820.203 7  86785515.74747  21193920.893    21193920.3754   21193923.4694
        47.500          45.5004
 113629050.865 7  88542146.63945  21622886.329    21622885.2384   21622886.4824
        43.100          30.5004
 106464350.960 8  82959232.63948  20259489.544    20259488.8564   20259492.5394
        52.400          51.7004


 118775156.100 6  92552114.18243  22602163.031    22602162.3744   22602166.0994
        38.500          18.7004


 126733152.869 5                  24116516.910
        33.000


 112077085.098 7  87332807.37746  21327564.834    21327564.4774   21327566.1424
        47.100          40.9004
 131148308.923 7                  24956686.998
        46.000
 131450948.373 7                  25014285.624
        44.000
 116687980.303 6                  21890369.248    21890368.991
        39.100
 137207671.778 6                  26109753.278
        38.300
 118303496.870 6  92013851.561 5  22146661.530    22146660.792    22146670.021
        41.700          31.800


 109383065.142 7  85233558.93345  20814906.492    20814906.3364   20814908.4234
        44.400          30.4004
 200815106.473 5                  38213861.296
        32.500
 198897521.672 6                  37848950.173
        41.600
 128405629.730 7                  24434780.924
        43.600
 141319602.606 4                  26892223.264
        28.600
 202053393.222 7                  38449500.329
        44.400
 104748099.692 8  81470738.551 7  19602181.653    19602182.407    19602188.186
        48.300          46.600
 104305826.227 8  81127061.464 7  19492033.625    19492034.651    19492039.424
        48.800          45.900
 126647309.596 6                  23692006.233    23692007.422
        40.000
 115685825.866 5  89977885.174 6  21633830.911    21633828.192    21633838.453
        31.100          40.500
 122595517.729 7  95352087.970 5  22974336.900    22974337.920    22974345.855
        42.600          30.500


 117053772.639 5  91041868.500 5  21928139.934    21928137.422    21928122.852
        31.700          34.000
 25  1  1 21 20 30.0000000  0 30G21E31G07G02G30G08G13G15G19E10G17E33
                                E24R10E09R12E12G14S35S31E05E06S33R11
                                R21R01R20R02E26R22
 115441144.384 6  89954149.52943  21967721.390    21967720.3134   21967725.2204
        41.900          21.9004
 124530759.462 7                  23697406.732
        45.100
 111407572.672 7  86811037.08547  21200152.990    21200152.4584   21200156.4104
        47.000          45.6004
 113626375.347 7  88540061.78944  21622376.756    21622375.6794   21622376.8694
        45.300          28.9004
 106467320.768 8  82961546.76948  20260054.481    20260053.7844   20260057.7704
        51.500          51.8004


 118771092.733 7  92548947.90843  22601391.634    22601391.0354   22601392.4594
        43.700          23.3004


 126683184.099 5                  24107008.904
        35.000


 112045788.900 8  87308420.80446  21321608.332    21321607.9884   21321610.3444
        48.300          41.4004
 131132783.022 7                  24953731.951
        45.700
 131430496.538 7                  25010393.599
        44.900
 116724727.215 6                  21897261.001    21897259.068
        36.600
 137245420.181 6                  26116935.644
        37.900
 118257873.498 7  91978366.790 5  22138124.754    22138122.188    22138127.921
        42.100          34.000


 109362351.050 6  85217418.07744  20810964.259    20810964.1164   20810966.1474
        39.900          28.5004
 200815101.944 5                  38213847.032
        34.700
 198897517.352 7                  37848955.610
        43.000
 128410199.297 7                  24435650.879
        44.500
 141363381.237 5                  26900553.738
        31.800
 202053404.726 7                  38449501.496
        43.100
 104742337.629 8  81466256.953 8  19601105.713    19601104.715    19601111.186
        48.500          48.200
 104294443.008 7  81118207.896 7  19489904.007    19489904.639    19489911.978
        45.300          46.000
 126697600.568 6                  23701413.673    23701414.620
        37.900
 115733479.354 5  90014948.923 6  21642743.605    21642742.117    21642750.151
        35.700          41.800
 122612215.039 7  95365074.765 5  22977467.931    22977467.904    22977475.530
        43.900          32.000


 116990897.228 6  90992843.498 5  21916326.159                    21916322.419
        36.300          32.700
 25  1  1 21 20 45.0000000  0 29G21E31G07G02G30G08G13G15G19G17E33E24
                                R10E09R12E12G14S35S31E05E06S33R11R21
                                R01R20R02E26R22
 115462170.596 6  89970533.58243  21971723.104    21971722.0134   21971726.1644
        41.500          23.4004
 124538539.721 7                  23698887.355
        43.200
 111440434.119 7  86836643.34647  21206406.047    21206405.5204   21206409.3624
        47.100          45.2004
 113623843.796 7  88538089.14044  21621895.637    21621894.5734   21621894.5784
        42.500          27.9004
 106470425.413 8  82963965.95048  20260645.551    20260644.8544   20260648.3064
        49.900          50.8004


 118767177.620 7  92545897.13844  22600644.932    22600644.3064   22600648.2114
        43.500          24.5004


 126633249.053 6                  24097506.330
        36.700
 112014588.615 7  87284108.95346  21315670.684    21315670.3454   21315673.1914
        47.700          41.7004
 131117360.695 7                  24950797.603
        46.200
 131410062.042 7                  25006504.608
        45.200
 116761543.975 5                  21904167.036    21904165.838
        31.800
 137283213.425 6                  26124129.150
        37.200
 118212256.169 7  91942886.648 5  22129582.235    22129580.415    22129587.663
        44.800          35.300
 140537070.476 5                  26743317.098
        32.000
 109341683.995 6  85201313.89244  20807031.938    20807031.8044   20807032.1704
        37.700          26.5004
 200815096.146 5                  38213857.750
        34.900
 198897511.672 7                  37848956.192
        42.500
 128414872.738 7                  24436539.220
        44.900
 141407163.914 4                  26908886.558
        28.000
 202053415.532 7                  38449501.925
        44.500
 104736665.823 8  81461845.550 8  19600044.377    19600043.782    19600050.549
        50.000          49.100
 104283264.939 7  81109513.876 7  19487814.828    19487814.978    19487822.492
        44.300          45.100
 126747932.825 5                  23710829.527    23710828.866
        33.600
 115781264.797 6  90052115.417 7  21651679.634    21651678.556    21651688.129
        37.000          42.000
 122629078.554 7  95378190.759 5  22980626.247    22980626.166    22980641.323
        44.000          34.700


 116927988.872 5  90943924.462 6  21904549.631    21904521.885    21904543.539
        35.200          36.500
 25  1  1 21 21  0.0000000  0 27G21E31G07G02G30G08G13G19G17E33E24R10
                                E09R12E12G14S35S31E05E06S33R11R21R20
                                R02E26R22
 115483346.229 7  89987034.07043  21975753.631    21975752.5674   21975755.5974
        42.300          23.4004
 124546351.493 6                  23700373.719
        41.100
 111473409.465 7  86862338.35446  21212680.578    21212680.0874   21212683.6434
        42.400          40.9004
 113621461.203 6  88536232.60644  21621441.780    21621440.7344   21621441.5044
        41.000          26.1004
 106473670.065 8  82966494.23948  20261263.121    20261262.4154   20261265.7354
        49.900          50.8004


 118763415.525 7  92542965.62344  22599930.481    22599929.8334   22599932.9084
        44.900          25.1004
 126583353.009 6                  24088011.187
        39.300
 111983489.445 7  87259875.88247  21309752.817    21309752.4514   21309755.1644
        47.100          42.0004
 131102047.131 7                  24947883.631
        46.700
 131389650.015 7                  25002620.420
        46.100
 116798435.535 6                  21911089.313    21911088.044
        37.500
 137321056.262 6                  26131331.699
        38.000
 118166650.517 7  91907415.559 5  22121046.006    22121045.344    22121046.372
        45.000          31.200
 140491814.969 5                  26734704.721
        33.900
 109321069.105 7  85185250.33244  20803108.123    20803107.9944   20803109.3814
        43.500          29.1004


 198897510.091 6                  37848947.852
        41.900
 128419655.072 7                  24437450.215
        42.700


 202053430.352 7                  38449506.281
        44.200
 104731089.716 8  81457508.543 8  19599000.265    19599000.557    19599005.701
        49.000          49.600
 104272297.218 7  81100983.389 7  19485767.275    19485766.935    19485773.179
        44.300          44.500
 115829186.999 5  90089388.239 7  21660641.330    21660640.345    21660651.018
        35.600          43.300
 122646113.272 7  95391435.949 5  22983816.460    22983816.942    22983830.792
        42.500          30.200


 116865169.428 6  90895065.006 5  21892754.765    21892756.742    21892781.186
        40.200          35.300
 25  1  1 21 21 15.0000000  0 28G21E31G07G02G30G08G13G15G19G17E33E24
                                R10E09R12E12G14S35S31E05E06S33R11R21
                                R20R02E26R22
 115504664.178 6  90003645.50543  21979809.113    21979808.0004   21979811.0954
        41.400          22.9004
 124554187.843 6                  23701864.437
        41.300
 111506491.925 7  86888116.84746  21218977.055    21218976.5774   21218979.3254
        42.600          41.0004
 113619220.795 6  88534486.84943  21621013.657    21621012.5894   21621014.9614
        39.300          22.3004
 106477047.987 8  82969126.37148  20261905.978    20261905.2764   20261908.8124
        51.000          51.2004
 124425120.554 4                  23677311.001
        27.100
 118759799.676 7  92540148.05744  22599242.614    22599241.9534   22599244.5244
        43.900          25.1004


 126533489.337 6  98597531.65042  24078527.211    24078527.1184   24078526.3784
        37.200          13.9004
 111952484.564 7  87235716.28147  21303853.904    21303853.5384   21303855.1274
        47.600          42.4004
 131086835.685 7                  24944988.776
        45.700
 131369253.632 8                  24998739.085
        48.100
 116835395.105 7                  21918027.177    21918027.644
        42.200
 137358941.682 6                  26138541.627
        40.000
 118121049.530 7  91871948.123 6  22112508.837    22112509.155    22112513.751
        46.800          37.200
 140446579.991 5                  26726094.790
        33.100
 109300499.750 7  85169222.26545  20799193.385    20799193.2924   20799195.9204
        42.000          31.1004


 198897505.631 6                  37848954.609
        41.000
 128424539.503 6                  24438378.645
        40.800
 141494752.985 5                  26925554.060
        32.600
 202053442.894 7                  38449511.244
        44.800
 104725602.510 7  81453240.723 8  19597972.251    19597972.334    19597979.141
        46.400          49.900
 104261532.935 7  81092611.131 7  19483754.911    19483755.876    19483763.417
        44.300          46.100
 115877238.330 6  90126761.387 6  21669628.760    21669629.724    21669634.726
        38.400          40.400
 122663312.091 7                  22987041.982    22987041.876
        42.900


 116802419.929 6                  21881006.778    21881003.569
        41.100
 25  1  1 21 21 30.0000000  0 30G21E31G07G02G30G08G13G15G19E10G17E33
                                E24R10E09R12E12G14S35S31E05E06S33R11
                                R21R01R20R02E26R22
 115526125.697 6  90020368.77443  21983893.747    21983892.6744   21983893.0474
        40.800          21.3004
 124562050.255 6                  23703359.236
        39.100
 111539682.628 6  86913979.67046  21225292.708    21225292.2084   21225295.7704
        39.600          40.3004
 113617123.938 7  88532853.04044  21620615.785    21620614.7354   21620616.2404
        42.200          24.4004
 106480560.528 8  82971863.41348  20262573.957    20262573.2644   20262577.2844
        50.700          51.3004
 124476775.962 5                  23687140.947
        34.800
 118756331.418 7  92537445.47944  22598582.395    22598581.7254   22598583.9224
        44.900          25.2004


 126483659.737 6  98558703.79242  24069045.622    24069045.6844   24069047.2364
        38.600          13.0004


 111921575.459 7  87211631.31347  21297971.318    21297970.9834   21297972.3364
        47.700          42.3004
 131071727.785 7                  24942113.466
        46.000
 131348874.233 7                  24994861.266
        47.000
 116872423.991 6                  21924973.890    21924972.789
        41.300
 137396870.781 6                  26145758.625
        41.700
 118075454.765 7  91836480.567 5  22103970.934    22103971.853    22103976.565
        45.800          30.800
 140401367.207 5                  26717493.988
        33.100
 109279977.276 7  85153230.73945  20795289.343    20795289.2454   20795290.5614
        43.400          32.5004
 200815107.083 5                  38213855.550
        35.000
 198897498.963 6                  37848951.121
        41.300
 128429527.198 6                  24439328.351
        38.100
 141538549.417 5                  26933899.634
        35.600
 202053452.070 7                  38449511.821
        44.700
 104720205.871 8  81449043.312 8  19596964.921    19596965.133    19596969.033
        48.000          49.500
 104250973.523 7  81084398.269 7  19481781.976    19481783.247    19481789.661
        46.000          45.900
 126899209.312 5                  23739119.402
        31.300
 115925419.800 6  90164235.818 6  21678639.467    21678639.310    21678643.213
        40.500          38.500
 122680675.938 5  95418326.973 5  22990291.120    22990294.217    22990311.278
        35.500          32.300


 116739742.366 7                  21869266.171    21869266.007
        45.500
 25  1  1 21 21 45.0000000  0 31G21E31G07G02G30G08G13G15G19E10G17E33
                                E24R10E09R12E12G14S35R03S31E05E06S33
                                R11R21R01R20R02E26R22
 115547730.281 6  90037203.52343  21988004.336    21988003.2634   21988003.5014
        40.400          22.0004
 124569938.436 6                  23704862.132
        40.100
 111572981.160 7  86939926.55847  21231630.384    21231629.9024   21231633.4764
        45.100          43.3004
 113615170.575 7  88531330.96944  21620243.442    21620242.3834   21620245.6004
        44.400          28.5004
 106484207.546 8  82974705.23548  20263268.158    20263267.4794   20263271.3434
        49.800          51.3004
 124528440.854 5                  23696975.323
        31.200
 118753010.544 7  92534857.79643  22597950.495    22597949.8384   22597951.9084
        45.600          23.7004


 126433863.892 6  98519902.22042  24059567.744    24059567.3114   24059571.7074
        36.200          12.8004


 111890761.952 8  87187620.84247  21292107.670    21292107.3534   21292108.7694
        48.700          42.2004
 131056723.290 7                  24939258.032
        46.600
 131328511.551 8                  24990986.969
        48.400
 116909521.362 6                  21931930.840    21931929.029
        38.400
 137434843.060 6                  26152984.339
        40.900
 118029866.172 7  91801022.861 6  22095438.728    22095439.317    22095445.358
        47.300          38.000
 140356176.534 5                  26708891.275
        32.100
 109259501.484 7  85137275.61545  20791393.268    20791393.1664   20791394.5034
        44.700          32.7004


 130400790.580 6                  24359969.092    24359970.913
        36.400
 198897491.478 7                  37848951.877
        42.700
 128434617.881 6                  24440296.293
        39.800
 141582348.341 5                  26942239.589
        33.400
 202053461.081 7                  38449509.420
        45.700
 104714899.608 8  81444916.193 8  19595972.111    19595973.193    19595976.060
        49.000          48.300
 104240618.835 7  81076344.623 7  19479846.161    19479846.963    19479853.627
        46.400          44.600
 126949702.607 5                  23748565.194    23748564.866
        30.700
 115973730.825 6  90201811.061 6  21687672.435    21687672.091    21687678.524
        38.300          39.500
 122698203.905 5  95431960.083 5  22993607.320    22993608.333    22993596.356
        35.300          32.600


 116677136.916 8  90748854.655 5  21857538.484    21857539.052    21857550.515
        48.600          35.300
 25  1  1 21 22  0.0000000  0 30G21E31G07G02G30G08G13G15G19E10G17E33
                                E24R10E09R12E12G14S35R03S31E05E06S33
                                R11R21R20R02E26R22
 115569485.291 6  90054155.49643  21992144.388    21992143.3424   21992142.9004
        39.200          22.1004
 124577859.965 6                  23706369.219
        41.400
 111606394.974 7  86965963.23847  21237986.583    21237986.1054   21237992.4994
        44.200          43.8004
 113613368.239 7  88529926.56444  21619900.766    21619899.6804   21619902.9044
        46.200          28.4004
 106487996.690 8  82977657.81248  20263988.830    20263988.1374   20263992.6294
        49.100          49.5004


 118749844.558 6  92532390.77043  22597347.792    22597347.1444   22597348.5564
        40.800          18.7004


 126384109.789 4  98481133.02541  24050109.096    24050108.6094   24050103.9494
        26.100           8.0004


 111860051.690 7  87163690.81347  21286263.859    21286263.5604   21286265.3154
        47.000          42.1004
 131041829.944 7                  24936423.807
        45.300
 131308173.215 8                  24987116.356
        48.200
 116946695.118 6                  21938905.927    21938903.955
        40.000
 137472865.779 7                  26160220.185
        43.100
 117984291.855 7  91765576.173 6  22086903.961    22086904.832    22086914.616
        44.700          40.900
 140311015.866 4                  26700298.723
        29.700
 109239080.094 7  85121362.85945  20787507.551    20787507.4084   20787508.1724
        43.600          32.4004


 130375356.362 5                  24355223.037    24355220.083
        32.300
 198897489.135 7                  37848953.893
        42.800
 128439819.134 5                  24441287.085
        34.500


 202053474.971 7                  38449511.597
        44.300
 104709691.716 7  81440865.576 7  19594996.145    19594997.699    19595001.533
        47.100          47.300
 104230476.482 7  81068456.146 7  19477951.556    19477949.430    19477957.950
        45.700          44.900
 116022178.095 6  90239492.197 6  21696731.040    21696732.470    21696738.966
        38.700          38.700
 122715904.056 5  95445727.039 5  22996913.074    22996912.759    22996905.620
        35.600          31.500
 141673899.415 6                  26959646.873
        36.700
 116614611.862 7  90700224.249 5  21845824.230    21845824.930    21845840.007
        47.000          35.400
 25  1  1 21 22 15.0000000  0 29G21E31G07G02G30G08G13G15E10G17E33E24
                                R10E09R12E12G14S35S31E05E06S33R11R21
                                R01R20R02E26R22
 115591386.325 6  90071221.24843  21996312.899    21996311.8894   21996311.5744
        39.700          23.2004
 124585810.616 6                  23707882.110
        41.900
 111639919.572 7  86992086.25447  21244367.270    21244366.8194   21244372.1944
        45.900          44.4004
 113611712.718 7  88528636.56144  21619586.196    21619585.1284   21619587.9724
        46.100          29.9004
 106491923.748 8  82980717.84248  20264736.428    20264735.7264   20264740.0344
        49.600          49.9004


 118746829.240 6  92530041.16542  22596774.615    22596774.0164   22596773.9044
        40.800          17.9004




 111829440.499 7  87139837.99747  21280439.039    21280438.7264   21280440.5664
        46.700          42.0004
 131027043.579 7                  24933610.734
        46.300
 131287855.005 7                  24983250.244
        47.900
 116983941.673 5                  21945891.538    21945889.350
        34.900
 137510934.458 7                  26167464.242
        43.100
 117938727.398 7  91730137.135 6  22078375.133    22078373.356    22078385.277
        43.000          41.900
 140265881.271 4                  26691704.968
        24.600
 109218708.921 7  85105489.23745  20783631.411    20783631.2594   20783631.1094
        43.400          32.5004


 198897488.139 7                  37848949.113
        43.100
 128445126.547 6                  24442299.393
        38.300


 202053490.915 7                  38449516.552
        45.800
 104704578.031 7  81436888.250 7  19594038.428    19594037.714    19594042.866
        43.300          44.900
 104220542.425 8  81060729.616 7  19476096.668    19476095.866    19476102.356
        50.400          45.400
 127050821.020 5                  23767488.703    23767486.269
        33.500
 116070757.166 6  90277275.881 6  21705817.007    21705816.898    21705824.610
        37.700          38.700
                  95459623.980 5                                  23000254.942
                        34.300
 141696022.661 4                  26963854.484
        29.400
 116552163.323 7  90651653.435 5  21834121.644    21834122.265    21834133.974
        44.100          30.000
 25  1  1 21 22 30.0000000  0 29G21E31G07G02G30G08G13G15G19E10G17E33
                                E24R10E09R12E12G14S35S31E05E06S33R11
                                R21R20R02E26R22
 115613428.044 6  90088396.64044  22000507.120    22000506.1194   22000507.2174
        40.500          24.5004
 124593785.331 6                  23709400.400
        40.800
 111673549.757 7  87018291.54047  21250766.547    21250766.0914   21250771.5384
        46.200          44.1004
 113610198.934 7  88527456.99244  21619298.115    21619297.0474   21619299.4234
        46.400          28.9004
 106495983.693 8  82983881.42348  20265508.364    20265507.6584   20265512.5384
        49.300          49.5004


 118743959.457 7  92527804.93843  22596228.390    22596227.8764   22596227.6414
        43.600          18.0004


 126284690.058 6  98403645.60541  24031177.279    24031176.8644   24031175.7014
        38.100           9.6004


 111798923.304 7  87116058.42747  21274631.497    21274631.1444   21274633.9014
        47.700          43.0004
 131012359.265 7                  24930815.548
        46.900
 131267551.791 7                  24979386.182
        46.600
 117021255.092 6                  21952892.657    21952891.454
        39.800
 137549043.798 7                  26174715.752
        43.600
 117893168.021 6  91694702.047 7  22069845.827    22069843.745    22069855.975
        39.700          42.000
 140220767.705 4                  26683124.589
        29.800
 109198382.941 6  85089650.82145  20779763.572    20779763.4164   20779762.9194
        41.500          31.7004


 198897483.894 7                  37848948.250
        42.100
 128450535.112 6                  24443326.287
        37.000


 202053502.379 7                  38449515.354
        44.900
 104699553.721 7  81432980.414 7  19593098.236    19593097.855    19593102.886
        44.000          44.200
 104210811.377 8  81053161.024 7  19474277.494    19474278.196    19474283.797
        52.700          45.700
 116119462.362 5  90315157.752 6  21714924.698    21714922.199    21714934.718
        34.400          40.800
 122751856.588 5  95473646.734 6  23003622.912    23003623.435    23003634.375
        33.500          38.200
 141718237.207 5                  26968081.607
        31.100
 116489786.723 6                  21822433.634    21822433.376
        40.200
 25  1  1 21 22 45.0000000  0 30G21E31G07G02G30G08G13G15G19E10G17E33
                                E24R10E09R12E12G14S35S31E05E06S33R11
                                R21R01R20R02E26R22
 115635616.448 6  90105686.33343  22004728.693    22004727.6834   22004730.7274
        39.900          22.8004
 124601790.302 6                  23710922.827
        40.000
 111707291.479 7  87044583.73047  21257187.849    21257187.3934   21257191.6124
        46.600          43.8004
 113608832.987 7  88526392.58444  21619037.541    21619036.4824   21619038.2764
        45.600          26.5004
 106500182.753 8  82987153.39348  20266307.591    20266306.8944   20266311.2904
        49.000          49.3004


 118741241.277 7  92525686.81042  22595710.000    22595709.5354   22595711.0624
        44.300          17.5004
 129445549.567 5                  24632672.544
        32.800
 126235044.783 6  98364961.33142  24021729.593    24021729.2044   24021737.2904
        36.400          15.8004


 111768506.325 7  87092356.94847  21268843.128    21268842.7804   21268845.8104
        47.500          43.2004
 130997783.271 7                  24928041.836
        47.100
 131247269.714 7                  24975526.700
        44.200
 117058641.877 6                  21959906.017    21959904.975
        36.500
 137587199.698 7                  26181977.193
        43.600
 117847620.096 7  91659275.867 7  22061321.419    22061320.242    22061328.738
        45.300          42.300
 140175681.849 5                  26674546.619
        35.100
 109178108.395 6  85073852.45845  20775904.262    20775904.1154   20775904.4324
        39.500          30.5004
 200815098.810 5                  38213835.656
        35.500
 198897482.490 7                  37848951.930
        43.800
 128456050.736 6                  24444375.184
        36.900


 202053517.253 7                  38449517.473
        44.200
 104694625.146 7  81429147.040 7  19592174.456    19592175.189    19592180.413
        43.200          43.600
 104201289.902 8  81045755.467 7  19472496.936    19472497.681    19472504.601
        51.000          44.700
                  98896163.346 5                                  23786453.177
                        34.100
 116168299.600 5  90353142.221 6  21724056.256    21724056.217    21724066.125
        35.900          41.000
 122770053.410 6  95487799.690 6  23007037.092    23007037.032    23007047.994
        36.500          39.300
 141740549.228 4                  26972326.873
        29.900
 116427488.744 6  90554744.045 5  21810768.647    21810765.089    21810796.308
        40.200          34.200
 25  1  1 21 23  0.0000000  0 30G21E31G07G02G30G08G13G15G19E10G17E33
                                E24R10E09R12E12G14S35S31E05E06S33R11
                                R21R01R20R02E26R22
 115657947.076 5  90123086.87143  22008976.916    22008975.7814   22008980.8124
        34.800          18.8004
 124609821.415 7                  23712450.676
        43.000
 111741140.446 7  87070959.45647  21263629.955    21263629.5134   21263632.1754
        47.000          43.6004
 113607610.707 7  88525440.16043  21618806.196    21618805.1324   21618804.4324
        43.300          23.9004
 106504516.871 8  82990530.59648  20267132.280    20267131.5744   20267135.8934
        50.100          50.1004
 124786969.888 5  97236667.15941  23746168.584    23746169.0804   23746183.4764
        32.400           8.6004
 118738670.566 7  92523683.63042  22595221.047    22595220.6184   22595221.1064
        43.900          16.5004
 129433735.985 4 100857484.87741  24630422.074    24630422.0034   24630427.2214
        28.600          10.4004
 126185434.575 5  98326304.34242  24012292.463    24012291.8154   24012298.4734
        35.600          13.6004


 111738185.614 8  87068730.47747  21263073.554    21263073.1884   21263075.9374
        48.300          43.6004
 130983311.557 7                  24925288.314
        46.300
 131227004.724 7                  24971670.259
        44.200
 117096097.603 6                  21966929.831    21966928.727
        36.200
 137625397.687 6                  26189244.824
        40.200
 117802079.515 7  91623855.404 6  22052795.296    22052794.888    22052803.929
        45.200          41.700
 140130619.691 6                  26665970.455
        36.900
 109157881.234 7  85058091.01445  20772054.866    20772054.7144   20772055.2194
        42.800          31.5004
 200815095.408 5                  38213841.912
        33.000
 198897478.984 7                  37848945.581
        43.300
 128461669.339 6                  24445444.411
        37.000


 202053530.056 7                  38449523.465
        44.200
 104689788.347 7  81425385.068 7  19591269.175    19591268.675    19591275.500
        43.000          44.200
 104191973.677 8  81038509.526 7  19470755.782    19470756.150    19470762.000
        50.100          42.300
                  98935588.871 5                                  23795934.121
                        33.900
 116217263.482 5  90391225.254 6  21733212.982    21733212.133    21733223.136
        34.600          41.700
 122788413.613 6  95502079.702 6  23010478.153    23010481.125    23010486.104
        41.600          38.500
 141762954.352 4                  26976593.704
        29.400
 116365265.700 6  90506348.474 5  21799113.375    21799112.157    21799138.631
        41.300          34.600
 25  1  1 21 23 15.0000000  0 30G21E31G07G02G30G08G13G15G19E10G17E33
                                E24R10E09R12E12G14S35S31E05E06S33R11
                                R21R01R20R02E26R22
 115680421.148 5  90140599.19442  22013258.394    22013257.1964   22013257.5444
        31.800          15.1004
 124617879.911 7                  23713984.686
        43.300
 111775097.835 7  87097419.65347  21270092.073    21270091.6314   21270093.4334
        46.600          42.3004
 113606533.596 7  88524600.85243  21618601.150    21618600.1004   21618597.6114
        46.000          22.6004
 106508987.304 8  82994014.02948  20267982.814    20267982.0904   20267986.8794
        49.800          50.8004
 124838703.452 4  97276978.89341  23756015.160    23756015.5314   23756025.4324
        28.100           7.4004
 118736248.502 7  92521796.29642  22594760.554    22594760.1434   22594758.5974
        45.300          16.9004
 129422060.659 5 100848387.23541  24628199.647    24628199.7094   24628204.1184
        30.500          10.6004
 126135860.658 5  98287675.67942  24002853.796    24002853.1664   24002866.3144
        32.400          12.7004


 111707962.578 8  87045180.12447  21257322.198    21257321.8144   21257324.7784
        48.400          44.3004
 130968945.464 7                  24922554.493
        44.700
 131206758.026 7                  24967817.165
        45.700
 117133623.913 6                  21973974.399    21973975.548
        39.700
 137663638.833 6                  26196522.070
        38.800
 117756547.928 7  91588441.940 6  22044272.204    22044272.557    22044279.242
        45.400          40.200
 140085582.810 6                  26657399.708
        36.600
 109137702.708 7  85042367.45645  20768214.772    20768214.6074   20768216.1214
        44.800          33.3004
 200815092.056 5                  38213853.811
        32.300
 198897475.140 7                  37848948.389
        43.300
 128467392.145 6                  24446534.540
        36.400


 202053542.242 7                  38449528.608
        45.100
 104685044.758 7  81421695.540 7  19590384.349    19590384.885    19590388.222
        47.000          46.300
 104182864.035 8  81031424.236 7  19469052.632    19469053.039    19469059.989
        49.400          42.300
                  98975042.577 5                                  23805424.281
                        33.800
 116266355.131 5  90429407.623 6  21742393.153    21742392.351    21742403.480
        34.100          41.700
 122806938.124 6  95516487.449 6  23013953.467    23013956.363    23013957.049
        38.000          37.600
 141785453.647 5                  26980874.928
        32.900
 116303119.302 7  90458012.487 5  21787467.734    21787467.600    21787489.030
        42.700          31.700
 25  1  1 21 23 30.0000000  0 30G21E31G07G02G30G08G13G15G19E10G17E33
                                E24R10E09R12E12G14S35S31E05E06S33R11
                                R21R01R20R02E26R22
 115703040.532 5  90158224.75542  22017554.856    22017553.6584   22017562.1024
        31.700          15.0004
 124625968.015 7                  23715524.262
        45.100
 111809165.655 7  87123965.90646  21276574.556    21276574.1054   21276575.4524
        46.800          41.2004
 113605603.744 7  88523876.29443  21618423.816    21618422.7844   21618419.5334
        45.600          20.7004
 106513596.321 8  82997605.46348  20268860.291    20268859.5724   20268864.1534
        51.200          51.3004
 124890448.937 4  97317300.0534   23765860.258    23765860.3114   23765872.2314
        26.900           3.8004
 118733977.337 7  92520026.54543  22594328.474    22594328.0994   22594326.3844
        44.500          19.5004
 129410525.936 5 100839399.12042  24626015.016    24626014.6194   24626008.2254
        30.600          13.3004
 126086325.735 4  98249077.29241  23993427.757    23993427.1764   23993440.4924
        26.200           9.7004


 111677839.326 8  87021707.54547  21251589.985    21251589.6194   21251592.1264
        48.000          44.0004
 130954687.383 7                  24919840.893
        44.800
 131186531.802 7                  24963968.197
        47.000
 117171222.817 6                  21981027.067    21981026.881
        38.900
 137701925.049 6                  26203808.267
        38.800
 117711027.522 7  91553037.242 6  22035749.053    22035750.199    22035756.691
        44.600          40.200
 140040573.652 6                  26648834.739
        36.100
 109117575.218 7  85026683.67245  20764384.852    20764384.7004   20764386.3914
        46.400          33.9004
 200815090.155 5                  38213852.814
        34.200
 198897473.557 7                  37848947.423
        43.100
 128473221.133 6                  24447644.162
        39.500


 202053556.751 7                  38449528.241
        44.800
 104680396.971 8  81418080.571 8  19589514.961    19589515.651    19589519.100
        49.100          48.100
 104173963.293 8  81024501.463 6  19467390.283    19467391.303    19467396.640
        49.200          40.100
 127304321.484 5  99014525.985 5  23814905.376    23814905.465    23814920.537
        35.300          33.000
 116315576.377 5  90467690.810 6  21751599.940    21751597.763    21751606.191
        32.300          41.200
 122825628.589 6  95531024.436 6  23017455.692    23017458.649    23017458.186
        39.800          38.700
 141808049.116 5                  26985173.899
        32.700
 116241052.233 7  90409738.204 5  21775842.190    21775840.388    21775857.982
        43.800          33.100
 25  1  1 21 23 45.0000000  0 29G21E31G07G02G30G08G13G15E10G17E33E24
                                R10E09R12E12G14S35S31E05E06S33R11R21
                                R01R20R02E26R22
 115725802.439 5  90175961.41442  22021891.393    22021890.2854   22021894.1484
        30.400          16.3004
 124634083.154 7                  23717068.241
        45.700
 111843341.185 7  87150596.10446  21283077.355    21283076.8774   21283079.4234
        46.700          41.7004
 113604818.706 7  88523264.63843  21618274.569    21618273.5144   21618269.8324
        46.100          18.9004
 106518341.370 8  83001302.89448  20269763.248    20269762.5244   20269766.8754
        51.300          51.4004


 118731854.366 7  92518372.27943  22593924.757    22593924.3864   22593924.1164
        44.400          22.9004
 129399129.313 5 100830518.59342  24623834.570    24623834.3964   24623838.2314
        34.100          13.5004


 111647813.377 7  86998310.76447  21245875.826    21245875.4734   21245877.7014
        46.400          43.5004
 130940534.796 7                  24917147.101
        43.700
 131166323.487 8                  24960122.936
        48.400
 117208891.748 6                  21988096.219    21988093.614
        37.300
 137740253.495 6                  26211101.133
        36.500
 117665516.078 6  91517639.469 6  22027227.322    22027228.279    22027237.280
        41.200          39.800
 139995589.837 5                  26640273.960
        32.600
 109097496.232 7  85011037.69545  20760563.988    20760563.8284   20760565.2064
        46.500          33.9004
 200815088.067 5                  38213852.805
        32.700
 198897471.244 7                  37848942.325
        42.200
 128479153.807 6                  24448771.285
        38.700


 202053570.439 7                  38449529.716
        45.300
 104675842.420 8  81414538.119 8  19588661.472    19588661.826    19588666.903
        48.100          48.900
 104165268.858 7  81017739.105 6  19465766.228    19465766.468    19465769.720
        47.900          38.100
 127355121.272 5  99054036.483 5  23824410.585    23824403.706    23824423.870
        34.100          31.400
 116364923.920 5  90506072.172 6  21760827.363    21760825.560    21760834.260
        32.900          40.000
 122844482.324 4  95545688.240 6  23021008.836    23021006.631    23020993.371
        28.500          40.600


 116179062.465 7  90361524.204 5  21764229.877    21764230.330    21764246.627
        45.200          34.200
 25  1  1 21 24  0.0000000  0 30G21E31G07G02G30G08G13G15G19E10G17E33
                                E24R10E09R12E12G14S35S31E05E06S33R11
                                R21R01R20R02E26R22
 115748707.254 5  90193809.36342  22026249.495    22026248.3824   22026252.3884
        30.100          17.8004
 124642225.859 7                  23718617.400
        45.600
 111877624.780 7  87177310.53247  21289600.644    21289600.1484   21289604.6784
        45.800          42.3004
 113604178.938 7  88522766.10442  21618153.192    21618152.1554   21618145.8304
        47.700          17.4004
 106523223.046 8  83005106.78148  20270692.502    20270691.7784   20270695.3014
        51.400          51.2004


 118729880.241 7  92516833.97843  22593548.849    22593548.4164   22593549.7084
        42.200          22.6004
 129387871.473 5 100821746.11441  24621688.217    24621688.2974   24621695.1804
        32.200           8.9004
 125987372.123 6  98172037.65242  23974600.284    23974599.7124   23974614.6884
        37.100          13.7004
 146987109.438 5                  27970714.965
        30.100
 111617885.351 7  86974990.29347  21240180.972    21240180.6514   21240182.8084
        46.700          42.7004
 130926488.308 7                  24914474.694
        43.300
 131146133.633 7                  24956280.243
        47.200
 117246630.928 6                  21995173.742    21995174.885
        37.600
 137778624.434 6                  26218405.056
        38.200
 117620014.157 7  91482249.119 6  22018711.840    22018710.956    22018719.724
        42.100          40.100
 139950632.171 5                  26631718.337
        34.300
 109077466.340 8  84995429.97645  20756752.758    20756752.5984   20756753.2464
        48.500          34.0004
 200815085.529 5                  38213835.889
        31.100
 198897468.385 7                  37848946.412
        42.400
 128485190.549 6                  24449919.300
        36.300


 202053583.987 7                  38449535.270
        44.700
 104671381.934 8  81411068.814 8  19587828.291    19587828.857    19587831.675
        48.800          48.600
 104156781.296 7  81011137.670 6  19464178.108    19464178.890    19464184.119
        46.900          39.200
 127405955.933 6  99093574.144 5  23833915.983    23833918.764    23833935.611
        36.100          33.400
 116414398.024 5  90544552.095 6  21770076.322    21770077.070    21770087.872
        33.100          41.300
 122863415.408 6  95560479.046 6  23024550.553    23024547.003    23024555.018
        38.000          39.300
 141853520.775 5                  26993843.978
        30.600
 116117150.965 7                  21752631.212    21752632.386
        45.400
 25  1  1 21 24 15.0000000  0 30G21E31G07G02G30G08G13G15G19E10G17E33
                                E24R10E09R12E12G14S35S31E05E06S33R11
                                R21R01R20R02E26R22
 115771756.439 6  90211769.81043  22030637.807    22030636.7074   22030637.3234
        39.400          23.0004
 124650397.738 7                  23720173.264
        46.600
 111912017.811 6  87204110.25246  21296146.159    21296145.6454   21296150.8884
        41.300          41.0004
 113603686.098 8  88522382.09942  21618058.990    21618057.9404   21618049.4574
        48.300          16.5004
 106528243.019 8  83009018.43548  20271648.177    20271647.4534   20271650.2164
        51.900          51.7004


 118728056.254 6  92515412.71343  22593201.146    22593200.7084   22593202.7544
        41.600          21.7004
 129376753.854 5 100813083.09541  24619587.823    24619587.9434   24619579.3824
        33.300           6.4004
 125937949.044 6  98133526.48941  23965193.109    23965192.6364   23965211.0804
        37.000          10.7004
 146939518.989 5                  27961659.803
        32.000
 111588056.869 7  86951747.38047  21234505.489    21234505.1684   21234507.3984
        46.000          42.8004
 130912549.678 7                  24911821.881
        44.600
 131125963.804 7                  24952443.115
        47.500
 117284442.577 5                  22002269.629    22002269.114
        35.100
 137817039.246 6                  26225713.390
        37.100
 117574523.737 6  91446867.583 6  22010199.043    22010197.501    22010202.294
        39.900          40.100
 139905702.428 5                  26623167.743
        34.400
 109057487.174 7  84979861.81645  20752949.926    20752949.7574   20752951.1424
        47.900          33.5004
 200815084.961 4                  38213856.020
        27.400
 198897467.168 7                  37848948.366
        42.200
 128491332.941 6                  24451090.738
        38.200
 142020646.846 5                  27025629.988
        31.100
 202053598.210 7                  38449540.332
        45.500
 104667017.134 8  81407673.994 8  19587009.781    19587010.702    19587015.027
        48.500          49.300
 104148502.287 7  81004698.421 6  19462633.268    19462631.798    19462638.927
        45.200          41.800
 127456826.499 4  99133139.754 4  23843428.650    23843430.379    23843450.285
        28.800          29.800
 116463999.834 6  90583131.270 6  21779355.487    21779355.401    21779363.108
        36.100          41.100
 122882597.004 6  95575397.907 6  23028143.428    23028142.585    23028149.916
        41.200          39.200




 25  1  1 21 24 30.0000000  0 29G21E31G07G02G30G08G13G15E10G17E33E24
                                R10E09R12E12G14S35S31E05E06S33R11R21
                                R01R20R02E26R22
 115794943.177 5  90229837.39543  22035046.881    22035045.7864   22035049.8854
        34.900          22.5004
 124658592.365 7                  23721732.687
        47.200
 111946513.693 7  87230990.13246  21302712.285    21302711.7534   21302715.3594
        43.600          41.3004
 113603333.711 7  88522107.56842  21617991.375    21617990.2534   21617981.8914
        47.200          16.9004
 106533394.819 8  83013032.79748  20272628.138    20272627.4104   20272630.8474
        51.400          52.2004


 118726375.899 6  92514103.38043  22592879.282    22592878.8224   22592884.3664
        37.900          21.8004
 129365770.161 5 100804524.4134   24617486.083    24617486.2084   24617489.1764
        34.100           4.0004
 146891910.487 5                  27952596.144
        30.300
 111558321.544 7  86928577.04247  21228846.452    21228846.1354   21228849.5794
        45.000          42.5004
 130898712.530 7                  24909189.431
        43.800
 131105807.649 7                  24948604.907
        43.300
 117322319.226 5                  22009377.505    22009376.530
        31.500
 137855491.160 6                  26233030.143
        36.800
 117529038.257 7  91411489.923 6  22001683.534    22001682.261    22001690.368
        42.600          41.800
 139860794.559 5                  26614621.873
        35.400
 109037552.339 8  84964328.20945  20749157.523    20749157.3714   20749157.8694
        48.800          33.4004
 200815079.234 5                  38213817.546
        32.100
 198897461.313 7                  37848951.514
        43.700
 128497574.224 5                  24452275.335
        32.800
 142064478.527 4                  27033967.394
        27.600
 202053608.460 6                  38449531.711
        39.500
 104662741.928 7  81404348.811 8  19586209.290    19586209.915    19586216.181
        46.900          50.300
 104140425.399 8  80998416.424 6  19461123.838    19461125.018    19461128.529
        48.000          41.100
 127507725.847 4                  23852955.238    23852953.402
        26.900
 116513721.644 6  90621803.749 6  21788652.706    21788654.489    21788660.291
        36.100          41.500
 122901936.326 7  95590439.589 6  23031768.300    23031769.027    23031773.804
        43.400          39.400


 115993563.071 6                  21729473.193    21729474.572
        40.000
 25  1  1 21 24 45.0000000  0 29G21E31G07G02G30G08G13G15G19E10G17E33
                                E24R10E09R12E12G14S35S31E05E06S33R11
                                R21R20R02E26R22
 115818275.519 6  90248018.47043  22039488.712    22039487.6534   22039490.3454
        40.400          23.0004
 124666818.035 7                  23723297.682
        46.000
 111981120.559 7  87257956.46946  21309296.278    21309295.7464   21309301.0174
        45.900          41.5004
 113603130.005 7  88521948.78542  21617952.468    21617951.3374   21617945.0764
        45.300          17.7004
 106538686.781 8  83017156.38148  20273635.775    20273635.0334   20273638.4654
        52.700          52.9004


 118724847.666 6  92512912.61143  22592590.806    22592590.3954   22592594.7704
        36.400          22.0004
 129354928.436 5 100796076.1284   24615425.724    24615425.7504   24615425.7954
        34.500           5.9004
 125839167.017 5  98056600.61641  23946401.650    23946400.8324   23946424.5694
        33.000           9.2004


 111528687.635 8  86905485.74846  21223207.422    21223207.0784   21223210.3764
        48.900          41.4004
 130884985.290 7                  24906577.587
        43.900
 131085673.242 6                  24944774.354
        41.300
 117360269.753 5                  22016498.836    22016497.746
        33.200
 137893988.140 5                  26240357.352
        34.300
 117483566.473 6  91376122.949 7  21993169.531    21993170.742    21993179.515
        41.600          44.400
 139815916.929 5                  26606082.080
        34.200
 109017670.251 7  84948835.66145  20745374.092    20745373.9324   20745374.9434
        47.700          32.6004


 198897457.809 6                  37848953.048
        41.700
 128503922.709 5                  24453483.002
        32.100


 202053620.892 6                  38449532.100
        37.800
 104658564.769 8  81401099.885 8  19585428.081    19585429.085    19585434.023
        48.100          49.000
 104132559.010 8  80992298.106 7  19459653.486    19459654.109    19459659.517
        49.700          42.900
 116563571.880 6  90660576.140 7  21797974.955    21797976.995    21797983.012
        36.800          42.600
 122921441.635 7  95605610.346 6  23035423.085    23035422.727    23035427.666
        44.100          36.700
 141922459.089 6                  27006946.151
        36.500
 115931889.488 6  90169171.583 5  21717922.830    21717922.869    21717933.822
        40.200          32.600
 25  1  1 21 25  0.0000000  0 27G21E31G07G02G30G08G13E10G17E33E24R10
                                E09R12E12G14S35S31E05E06S33R11R21R20
                                R02E26R22
 115841751.179 6  90266311.17343  22043952.811    22043951.7164   22043957.6794
        39.700          21.5004
 124675072.608 7                  23724869.221
        47.400
 112015836.111 6  87285007.49546  21315900.816    21315900.3204   21315906.9454
        41.800          38.5004
 113603073.016 7  88521904.37643  21617940.551    21617939.3984   21617937.9534
        44.600          21.1004
 106544116.871 8  83021387.58048  20274668.232    20274667.4864   20274672.6794
        50.900          53.7004


 118723469.361 6  92511838.62543  22592326.697    22592326.2554   22592332.2954
        39.300          21.6004
 146796662.677 4                  27934472.054
        29.400
 111499153.234 7  86882471.97746  21217585.624    21217585.2944   21217589.7654
        47.400          40.4004
 130871365.927 7                  24903985.879
        44.300
 131065558.728 6                  24940945.810
        40.400
 117398316.085 6                  22023626.527
        39.100


 117438106.238 7  91340765.030 7  21984656.839    21984660.458    21984666.771
        44.500          44.300
 139771067.850 5                  26597547.356
        35.100
 108997838.783 7  84933382.63545  20741599.485    20741599.3074   20741602.0474
        46.700          30.1004


 198897455.858 7                  37848952.530
        44.600
 128510376.416 6                  24454713.280
        38.000
 142152133.158 5                  27050646.342
        31.100
 202053634.595 7                  38449546.879
        42.400
 104654483.731 8  81397925.806 7  19584664.296    19584663.981    19584669.791
        48.500          47.900
 104124900.880 8  80986341.814 7  19458223.844    19458225.095    19458230.596
        50.700          45.100
 116613547.592 5  90699446.130 7  21807319.866    21807319.131    21807330.688
        35.100          44.100
 122941110.042 6  95620907.971 6  23039107.865    23039106.508    23039114.822
        40.000          37.900
 141945617.437 5                  27011349.224
        32.000
 115870297.459 7  90121266.937 6  21706387.239    21706386.964    21706395.127
        42.800          37.100
 25  1  1 21 25 15.0000000  0 30G21E31G07G02G30G08G13G15G19E10G17E33
                                E24R10E09R12E12G14S35S31E05E06S33R11
                                R21R01R20R02E26R22
 115865371.121 6  90284716.31843  22048450.022    22048448.9634   22048451.4004
        41.200          21.2004
 124683357.213 7                  23726445.374
        46.900
 112050661.307 7  87312143.97046  21322528.774    21322528.2964   21322533.7964
        44.900          40.2004
 113603163.649 7  88521974.98844  21617958.062    21617956.9134   21617960.1554
        44.700          26.0004
 106549686.184 8  83025727.26948  20275727.710    20275726.9594   20275733.1614
        50.700          53.9004


 118722241.933 6  92510882.14843  22592093.390    22592092.9254   22592098.1614
        40.300          22.3004
 129333649.627 5 100779502.64541  24611381.320    24611381.4494   24611381.9194
        35.600          10.7004
 125740605.832 5  97979800.58741  23927639.073    23927638.4074   23927662.3874
        32.100          10.1004


 111469719.531 7  86859536.71646  21211985.889    21211985.5544   21211986.6354
        46.100          38.2004
 130857855.593 7                  24901414.550
        44.200
 131045464.952 6                  24937124.017
        40.000
 117436411.157 6                  22030772.243    22030772.582
        39.200
 137971123.380 5                  26255032.266
        32.200
 117392659.063 6  91305417.349 6  21976148.360    21976150.343    21976157.336
        41.500          40.400
 139726248.508 4                  26589017.785
        29.600
 108978059.207 7  84917969.99244  20737835.314    20737835.1184   20737838.8194
        43.800          25.6004


 198897456.379 7                  37848948.903
        43.700
 128516936.216 6                  24455962.127
        38.000


 202053650.385 7                  38449544.535
        43.400
 104650500.140 8  81394827.503 7  19583918.742    19583918.915    19583924.313
        50.500          47.700
 104117452.283 8  80980548.479 7  19456828.106    19456829.175    19456838.258
        49.200          47.000
 127660622.749 5                  23881557.740    23881560.012
        32.400
 116663649.351 6  90738414.114 7  21816691.129    21816691.227    21816698.559
        37.100          42.300
 122960942.527 7  95636333.129 6  23042826.259    23042827.345    23042834.765
        44.700          40.500
 141968871.244 5                  27015771.736
        33.800
 115808788.613 6  90073426.740 6  21694864.070    21694863.329    21694871.827
        41.500          38.700
 25  1  1 21 25 30.0000000  0 28G21E31G07G02G30G13G15G19E10G17E33E24
                                R10E09R12E12G14S35S31E05E06S33R11R21
                                R20R02E26R22
 115889130.925 6  90303230.45043  22052970.720    22052969.6294   22052971.6254
        41.200          21.6004
 124691667.782 7                  23728026.981
        46.600
 112085591.785 6  87339362.46446  21329175.347    21329174.8114   21329179.9644
        39.200          37.0004
 113603397.910 8  88522157.61544  21618004.352    21618003.2524   21618008.1674
        48.100          28.5004
 106555390.658 8  83030172.29648  20276813.807    20276813.0794   20276819.0904
        50.300          53.5004
 118721161.252 7  92510040.06543  22591886.343    22591885.9994   22591891.8454
        42.000          23.9004
 129323226.620 4 100771380.82141  24609394.489    24609394.7704   24609394.0284
        29.800           7.8004
 125691371.588 5  97941436.57242  23918281.801    23918280.7514   23918290.3634
        35.300          12.9004


 111440382.381 7  86836676.64146  21206404.632    21206404.2614   21206402.8704
        44.800          39.3004
 130844450.371 7                  24898863.115
        43.000
 131025387.968 7                  24933304.057
        42.200
 117474574.815 6                  22037932.933    22037930.850
        39.200
 138009745.951 6                  26262382.442
        36.700
 117347220.777 6  91270076.459 6  21967641.177    21967643.846    21967652.095
        41.700          40.000
 139681455.157 5                  26580493.980
        35.400
 108958327.386 7  84902594.59643  20734081.112    20734080.9074   20734082.2274
        42.500          22.3004


 198897454.687 6                  37848943.045
        41.900
 128523597.837 5                  24457227.785
        32.300


 202053664.523 7                  38449553.099
        46.500
 104646610.019 8  81391801.847 7  19583191.088    19583191.480    19583196.687
        50.900          47.600
 104110208.964 8  80974914.796 7  19455476.196    19455476.612    19455483.021
        50.700          46.000
 116713872.682 5  90777476.714 7  21826081.695    21826081.804    21826090.187
        34.800          42.500
 122980934.567 5  95651882.528 7  23046569.712    23046565.438    23046581.878
        33.000          42.100
 141992216.213 4                  27020215.132
        25.900
 115747359.027 7  90025648.296 5  21683353.016    21683351.798    21683363.937
        42.300          35.800
 25  1  1 21 25 45.0000000  0 26G21E31G07G02G30G13E10G17E33E24R10E09
                                R12E12G14S35S31E05E06S33R11R21R20R02
                                E26R22
 115913031.291 7  90321854.08443  22057520.062    22057518.9624   22057519.1584
        42.900          21.7004
 124700005.281 7                  23729613.297
        45.700
 112120628.196 6  87366663.50145  21335845.084    21335844.5344   21335846.1524
        37.100          35.7004
 113603776.916 8  88522452.96744  21618075.944    21618074.8624   21618080.5854
        50.100          29.7004
 106561231.329 8  83034723.43748  20277925.428    20277924.7004   20277930.4224
        50.000          53.0004
 118720228.196 7  92509312.99243  22591710.447    22591710.1844   22591714.1694
        42.000          23.9004


 111411142.709 7  86813892.51946  21200839.244    21200838.8514   21200839.4344
        46.600          39.9004
 130831151.246 6                  24896332.402
        40.200
 131005328.686 7                  24929486.802
        42.900
 117512807.957 6                  22045102.816    22045102.545
        38.300
 138048408.572 6                  26269740.940
        41.500
 117301792.684 7  91234743.570 7  21959137.150    21959137.254    21959149.086
        42.900          43.400
 139636689.012 6                  26571974.343
        37.900
 108938644.471 7  84887257.29143  20730335.418    20730335.1864   20730332.0564
        43.900          20.0004


 198897451.729 7                  37848946.734
        42.600
 128530362.266 5                  24458516.005
        32.000


 202053677.608 7                  38449553.921
        45.300
 104642814.624 8  81388849.868 7  19582480.684    19582479.710    19582484.693
        49.200          45.500
 104103171.895 8  80969441.556 7  19454161.972    19454162.232    19454169.004
        51.700          47.700
 116764218.119 5  90816634.246 7  21835495.960    21835494.364    21835505.560
        30.700          42.300
 123001086.833 6  95667556.497 6  23050349.342    23050347.621    23050355.829
        37.400          41.100


 115686010.457 7  89977932.828 6  21671865.507    21671867.093    21671871.674
        45.400          37.800
 25  1  1 21 26  0.0000000  0 26G21E31G07G02G30G13E10G17E33E24R10E09
                                R12E12G14S35S31E05E06S33R11R21R20R02
                                E26R22
 115937072.314 7  90340587.37443  22062094.436    22062093.3544   22062093.4764
        42.200          21.5004
 124708369.508 7                  23731204.746
        45.600
 112155770.592 7  87394047.14246  21342532.324    21342531.7394   21342532.4984
        44.200          39.0004
 113604300.337 7  88522860.86344  21618174.774    21618173.6744   21618179.3814
        46.400          28.8004
 106567207.994 8  83039380.56148  20279062.720    20279061.9964   20279067.3374
        50.800          52.6004
 118719442.612 6  92508700.80643  22591562.748    22591562.5164   22591563.8694
        40.500          22.2004


 111382000.546 7  86791184.37846  21195293.180    21195292.7564   21195294.1484
        44.900          40.5004
 130817958.184 6                  24893823.246
        39.800
 130985287.009 7                  24925672.273
        43.800
 117551110.681 6                  22052288.508    22052288.331
        39.700
 138087110.661 7                  26277105.735
        42.300
 117256374.810 7  91199418.564 7  21950641.797    21950638.940    21950645.415
        45.700          42.800
 139591950.079 6                  26563461.655
        37.400
 108919010.315 7  84871957.97743  20726599.067    20726598.8394   20726594.6964
        45.000          23.5004


 198897448.351 7                  37848932.845
        42.900
 128537229.156 5                  24459822.283
        35.600


 202053689.398 7                  38449560.611
        44.700
 104639113.871 8  81385971.483 7  19581786.978    19581788.509    19581792.566
        49.300          45.300
 104096340.912 8  80964128.604 7  19452885.074    19452885.012    19452891.600
        50.700          47.200
 116814684.832 5  90855886.094 7  21844934.427    21844935.109    21844944.265
        32.600          43.200
 123021398.652 5  95683354.563 6  23054154.569    23054153.509    23054165.016
        34.900          41.000


 115624743.037 7  89930280.535 6  21660387.676    21660388.080    21660396.623
        43.700          40.000
 25  1  1 21 26 15.0000000  0 27G21E31G07G02G30G13G19E10G17E33E24R10
                                E09R12E12G14S35S31E05E06S33R11R21R20
                                R02E26R22
 115961253.402 6  90359429.79343  22066695.871    22066694.7584   22066696.3004
        41.500          20.6004
 124716760.976 7                  23732801.183
        44.900
 112191018.834 7  87421513.24646  21349239.527    21349238.9824   21349240.5894
        45.000          41.2004
 113604968.462 7  88523381.55744  21618302.456    21618301.3834   21618302.5024
        47.100          27.4004
 106573321.169 8  83044144.05948  20280226.233    20280225.5234   20280230.1734
        50.900          52.9004
 118718804.714 6  92508203.70543  22591443.196    22591442.9824   22591442.1654
        41.900          23.2004
 125543804.894 5  97826487.25141  23890202.890    23890202.6714   23890228.1954
        33.700          10.2004


 111352956.275 7  86768552.49446  21189766.104    21189765.6804   21189766.7314
        45.400          40.5004
 130804871.769 5                  24891332.599
        35.600
 130965263.292 7                  24921861.121
        43.100
 117589482.763 6                  22059485.912    22059484.670
        38.300
 138125852.421 7                  26284477.087
        42.200
 117210967.801 7  91164102.032 7  21942139.545    21942139.316    21942145.661
        46.700          43.200
 139547239.123 6                  26554953.544
        39.600
 108899425.429 7  84856696.98644  20722871.612    20722871.3674   20722868.3904
        46.000          25.7004


 198897443.610 7                  37848940.984
        42.400
 128544198.998 6                  24461152.286
        37.000


 202053700.632 7                  38449556.314
        45.900
 104635508.343 8  81383167.159 7  19581114.446    19581115.494    19581117.910
        50.600          46.200
 104089716.679 8  80958976.460 7  19451646.778    19451647.092    19451654.029
        50.900          46.600
 116865272.627 5  90895232.137 7  21854393.223    21854392.644    21854405.682
        31.300          43.300
                  95699276.914 6                                  23058000.036
                        38.600


 115563557.838 6  89882692.035 6  21648917.405    21648916.240    21648936.011
        38.500          39.200
 25  1  1 21 26 30.0000000  0 28G21E31G07G02G30G08G13G19E10G17E33E24
                                R10E09R12E12G14S35S31E05E06S33R11R21
                                R20R02E26R22
 115985575.668 7  90378382.20443  22071324.774    22071323.6574   22071325.3914
        42.700          20.0004
 124725180.833 7                  23734403.624
        44.600
 112226374.206 7  87449062.80747  21355967.443    21355966.9384   21355969.6704
        47.300          44.0004
 113605782.642 7  88524016.01444  21618456.137    21618455.0554   21618455.1814
        47.200          29.0004
 106579572.101 8  83049014.89848  20281415.395    20281414.6894   20281419.3974
        50.600          52.7004


 118718315.703 7  92507822.64743  22591349.035    22591348.7674   22591347.8954
        43.200          22.2004
 125494722.473 5  97788241.07441  23880867.861    23880867.5534   23880895.3864
        35.700           6.3004


 111324011.239 7  86745997.95646  21184258.400    21184257.9534   21184258.0584
        45.000          40.2004
 130791893.308 5                  24888860.956
        33.400
 130945258.787 7                  24918053.816
        43.200
 117627925.969 6                  22066698.556    22066697.732
        36.100
 138164634.822 6                  26291857.189
        41.000
 117165573.015 7  91128794.995 7  21933641.481    21933642.263    21933647.749
        45.600          43.800
 139502557.593 6                  26546451.073
        39.000
 108879891.130 7  84841475.44545  20719154.388    20719154.1344   20719153.3934
        46.100          30.2004


 198897439.778 6                  37848935.381
        41.000
 128551272.844 6                  24462494.418
        38.300


 202053711.143 7                  38449554.167
        45.400
 104631999.666 8  81380438.171 7  19580457.895    19580459.248    19580462.048
        51.800          47.500
 104083300.374 8  80953985.980 7  19450448.553    19450450.128    19450453.832
        50.900          45.200
 116915982.260 4  90934672.989 7  21863880.477    21863876.298    21863886.979
        28.400          42.400
                  95715324.078 5                                  23061860.938
                        33.300


 115502456.450 6  89835168.915 6  21637476.439    21637471.815    21637485.925
        38.400          36.400
 25  1  1 21 26 45.0000000  0 28G21E31G07G02G30G13G15G19E10G17E33E24
                                R10E09R12E12G14S35S31E05E06S33R11R21
                                R20R02E26R22
 116010038.730 6  90397444.28743  22075979.027    22075977.8964   22075980.7264
        41.400          20.1004
 124733628.873 7                  23736010.883
        44.700
 112261836.105 8  87476695.38347  21362715.276    21362714.7804   21362718.9814
        49.000          45.0004
 113606742.621 7  88524764.06445  21618640.187    21618639.1414   21618638.1074
        45.300          30.3004
 106585960.458 8  83053992.81948  20282631.190    20282630.4974   20282634.8024
        50.500          51.9004
 118717975.229 6  92507557.31943  22591281.082    22591280.8054   22591283.0784
        41.100          22.7004
 129273254.350 5 100732386.65441  24599875.386    24599875.1944   24599878.6614
        35.900          11.6004
 125445679.334 5  97750025.71241  23871535.704    23871535.0474   23871563.2714
        31.200          10.1004


 111295165.126 7  86723520.51046  21178768.861    21178768.4284   21178768.6814
        47.700          40.4004
 130779022.532 5                  24886410.877
        35.200
 130925273.133 6                  24914251.159
        40.700
 117666439.830 6                  22073924.969    22073924.058
        39.600
 138203457.276 6                  26299245.606
        40.500
 117120190.330 7  91093497.380 7  21925144.014    21925145.357    21925152.847
        44.200          45.300
 139457905.419 6                  26537953.548
        38.800
 108860407.158 7  84826293.10745  20715447.804    20715447.5904   20715448.5154
        44.500          33.2004


 198897436.357 7                  37848943.841
        42.200
 128558450.277 5                  24463860.519
        34.300


 202053723.350 7                  38449561.237
        44.700
 104628587.563 8  81377784.293 8  19579817.442    19579817.592    19579823.903
        49.900          48.000
 104077091.663 7  80949157.005 7  19449287.485    19449287.690    19449292.583
        47.700          44.500
 116966813.227 5  90974208.078 7  21873384.818    21873384.662    21873392.688
        35.400          42.900
 123083236.866 5                  23065752.845    23065753.314
        33.500




 25  1  1 21 27  0.0000000  0 28G21E31G07G02G30G13G15G19E10G17E33E24
                                R10E09R12E12G14S35S31E05E06S33R11R21
                                R20R02E26R22
 116034645.475 6  90416618.34543  22080661.344    22080660.2314   22080664.2144
        40.100          21.5004
 124742108.026 7                  23737624.234
        43.500
 112297407.511 8  87504413.29947  21369483.867    21369483.3764   21369488.4984
        48.000          44.3004
 113607851.368 7  88525628.06245  21618851.171    21618850.1434   21618850.3164
        47.000          31.7004
 106592489.344 8  83059080.24548  20283873.950    20283873.2754   20283876.7994
        49.700          51.4004
 118717786.385 6  92507410.14544  22591246.148    22591245.8984   22591248.2584
        41.800          24.2004
 129263667.744 5 100724916.52142  24598048.023    24598047.9794   24598055.4694
        33.200          12.7004
 125396678.764 4  97711843.5624   23862209.330    23862208.5704   23862237.9394
        29.900           4.3004


 111266421.102 8  86701122.62446  21173298.248    21173297.8284   21173299.1274
        48.000          40.7004
 130766262.521 6                  24883985.348
        40.200
 130905309.430 7                  24910452.264
        42.800
 117705026.977 6                  22081163.940    22081161.620
        37.800
 138242322.465 6                  26306641.066
        38.800
 117074822.923 7  91058211.702 7  21916652.799    21916654.287    21916660.059
        43.600          44.900
 139413285.865 6                  26529463.093
        37.800
 108840976.632 7  84811152.41445  20711749.959    20711749.7584   20711752.3444
        46.800          35.3004


 198897435.881 6                  37848935.202
        40.400
 128565734.164 6                  24465249.092
        40.700


 202053738.285 7                  38449561.827
        45.900
 104625275.307 8  81375208.115 7  19579198.681    19579198.836    19579204.927
        52.100          47.500
 104071093.562 7  80944491.785 7  19448167.865    19448168.112    19448171.767
        47.900          45.600
 117017767.689 5  91013839.410 6  21882910.951    21882910.600    21882922.829
        33.800          41.800
 123104192.405 5  95747794.291 6  23069692.326                    23069686.962
        35.900          37.100


 115380509.222 6                  21614626.950    21614627.892
        37.200
 25  1  1 21 27 15.0000000  0 29G21E31G07G02G30G08G13G15E10G17E33E24
                                R10E09R12E12G14S35S31E05E06S33R03R11
                                R21R20R02E26R22
 116059389.697 6  90435899.52943  22085371.020    22085369.9254   22085372.6944
        40.200          20.7004
 124750612.470 6                  23739243.523
        41.900
 112333082.098 7  87532211.61447  21376272.076    21376271.5944   21376276.8694
        47.300          42.5004
 113609102.987 7  88526603.33645  21619088.334    21619087.3244   21619089.4724
        47.600          33.3004
 106599152.793 8  83064272.54248  20285141.556    20285140.8774   20285145.1624
        49.900          50.8004


 118717742.946 6  92507376.28743  22591237.835    22591237.5904   22591241.6094
        36.700          22.1004
 129254217.681 5 100717552.78742  24596250.171    24596250.0694   24596255.4804
        33.200          16.2004


 111237773.075 7  86678799.54346  21167846.492    21167846.0684   21167848.0674
        45.400          40.5004
 130753607.456 6                  24881576.272
        40.000
 130885361.726 7                  24906656.589
        44.500
 117743682.063 6                  22088414.770    22088417.959
        38.900
 138281224.296 6                  26314043.953
        36.700
 117029465.152 6  91022933.429 7  21908157.649    21908157.542    21908167.907
        38.500          43.400
 139368693.255 6                  26520977.336
        37.200
 108821593.654 7  84796048.79046  20708060.884    20708060.6744   20708064.2304
        46.900          36.4004


 198897432.467 7                  37848938.158
        42.800
 128573118.729 6                  24466653.186
        38.900
 142546716.953 5                  27125733.953
        34.300
 202053749.757 7                  38449566.679
        45.200
 129878273.228 5                  24262349.874
        32.000
 104622057.174 8  81372705.100 7  19578595.600    19578596.379    19578601.715
        51.800          45.900
 104065300.060 7  80939985.741 7  19447086.041    19447084.973    19447089.724
        45.000          46.300
 117068839.303 5  91053561.707 7  21892462.677    21892460.703    21892473.392
        31.800          42.000
 123125303.873 5  95764214.292 6  23073645.623    23073643.689    23073648.811
        33.500          40.700
 142158220.971 5                  27051806.645
        32.600
 115319661.450 6                  21603232.944    21603230.222
        38.900
 25  1  1 21 27 30.0000000  0 29G21E31G07G02G30G08G13G19E10G17E33E24
                                R10E09R12E12G14S35S31E05E06S33R03R11
                                R21R20R02E26R22
 116084271.501 6  90455287.91843  22090105.842    22090104.7564   22090106.9574
        41.500          21.2004
 124759142.206 7                  23740866.408
        43.700
 112368859.838 7  87560090.28646  21383079.874    21383079.3694   21383084.1184
        45.700          40.3004
 113610497.506 7  88527689.98045  21619354.245    21619353.2394   21619355.5704
        47.700          33.3004
 106605950.918 8  83069569.75648  20286434.915    20286434.2404   20286439.2274
        50.300          50.5004


 118717844.994 6  92507455.81043  22591260.968    22591260.7184   22591262.4244
        38.200          19.7004
 125298880.884 4                  23843582.806
        29.400


 111209221.401 7  86656551.55046  21162414.360    21162413.9454   21162415.3584
        45.100          40.6004
 130741057.510 6                  24879188.021
        39.800
 130865430.040 7                  24902864.150
        46.300
 117782404.357 6                  22095678.237    22095677.478
        37.600
 138320162.515 6                  26321456.070
        37.100
 116984117.271 7  90987662.850 7  21899675.191    21899674.141    21899676.721
        42.300          43.400
 139324127.893 6                  26512497.305
        37.900
 108802258.382 7  84780982.33245  20704381.974    20704381.7554   20704384.7154
        44.700          35.4004


 198897426.717 6                  37848935.215
        41.800
 128580603.698 6                  24468076.438
        40.600
 142590549.099 4                  27134058.655
        29.700
 202053758.972 7                  38449568.946
        45.200
 129856385.903 5                  24258262.410    24258262.393
        32.100
 104618933.345 8  81370275.417 7  19578011.759    19578012.269    19578016.276
        52.800          44.500
 104059711.145 7  80935638.779 7  19446041.869    19446041.565    19446046.092
        45.500          47.200
 117120027.463 5  91093374.717 7  21902036.671    21902035.569    21902046.170
        33.500          42.200
                  95780755.426 6                  23077633.163    23077631.130
                        40.300
 142182300.906 5                  27056387.958
        32.300
 115258896.189 6  89645716.843 6  21591847.317    21591845.869    21591856.152
        37.800          36.300
 25  1  1 21 27 45.0000000  0 29G21E31G07G02G30G08G13G15E10G17E33E24
                                R10E09R12E12G14S35S31E05E06S33R03R11
                                R21R20R02E26R22
 116109300.099 7  90474790.68443  22094868.434    22094867.3174   22094868.7304
        42.700          22.4004
 124767706.827 7                  23742495.901
        42.600
 112404750.102 7  87588056.64546  21389910.632    21389910.1094   21389913.1584
        43.700          40.2004
 113612044.492 8  88528895.42845  21619648.879    21619647.8554   21619649.4404
        48.000          34.1004
 106612893.286 8  83074979.35948  20287755.994    20287755.3244   20287759.8944
        50.400          50.5004


 118718101.937 5  92507655.99743  22591307.512    22591307.1684   22591311.6174
        35.000          18.1004
 129235675.712 5                  24592731.363
        34.300


 111180775.509 7  86634385.97546  21157000.981    21157000.5574   21157002.8224
        44.600          40.5004
 130728622.351 6                  24876821.472
        38.700
 130845523.943 7                  24899076.232
        46.900
 117821203.754 5                  22102955.546    22102955.517
        34.500
 138359146.382 5                  26328873.747
        34.700
 116938789.013 7  90952407.605 7  21891186.601    21891187.323    21891193.060
        43.600          45.500
 139279599.617 6                  26504023.407
        38.100
 108782980.388 7  84765960.51645  20700713.312    20700713.1024   20700715.6954
        44.700          34.1004


 198897427.218 6                  37848927.032
        41.300
 128588198.611 6                  24469521.961
        39.300


 202053775.301 7                  38449573.610
        45.000
 129834669.583 5                  24254212.299    24254210.781
        33.500
 104615913.677 8  81367926.827 7  19577446.740    19577446.532    19577450.853
        52.300          44.400
 104054336.579 7  80931458.601 8  19445036.038    19445036.778    19445042.369
        42.600          48.200
 117171341.179 5  91133285.357 6  21911629.372    21911632.069    21911639.947
        32.700          41.400
 123168004.331 6  95797425.334 6  23081643.637    23081644.598    23081649.568
        41.600          40.000
 142206479.402 5                  27060988.661
        33.300
 115198223.654 7  89598527.201 6  21580483.757    21580482.716    21580491.528
        42.400          39.300
 25  1  1 21 28  0.0000000  0 29G21E31G07G02G30G08G13G15G19E10G17E33
                                E24R10E09R12E12G14S35S31E05E06S33R11
                                R21R20R02E26R22
 116134462.387 7  90494397.62043  22099657.077    22099656.0044   22099655.8174
        42.400          22.8004
 124776293.579 7                  23744130.365
        42.800
 112440740.093 7  87616100.73846  21396760.114    21396759.5474   21396762.0694
        44.100          40.2004
 113613730.981 8  88530209.55645  21619970.099    21619969.0754   21619969.8904
        48.100          35.0004
 106619967.202 8  83080491.47348  20289102.158    20289101.4794   20289105.6964
        49.100          50.3004


 118718501.106 5  92507967.00542  22591383.959    22591383.4634   22591387.8584
        35.400          12.1004
 129226641.884 5 100696116.78141  24591014.049    24591013.8214   24591018.1954
        34.000           7.3004
 125201153.608 5                  23824983.130
        31.400


 111152422.751 7  86612292.96346  21151606.367    21151605.9024   21151607.2414
        42.000          39.4004
 130716289.229 6                  24874475.894
        39.400
 130825630.725 7                  24895290.778
        46.800
 117860067.762 5                  22110252.623    22110248.778
        32.500
 138398162.941 5                  26336298.796
        33.000
 116893467.626 6  90917157.683 7  21882702.804    21882702.737    21882709.677
        41.900          45.900
 139235095.869 6                  26495553.227
        38.100
 108763747.084 7  84750973.52645  20697053.231    20697053.0214   20697054.9924
        44.700          32.3004


 198897422.091 6                  37848930.605
        41.600
 128595890.669 6                  24470986.958
        37.000


 202053785.550 7                  38449576.101
        45.400
 104612985.519 9  81365649.394 7  19576899.506    19576900.471    19576902.936
        54.100          44.700
 104049163.477 6  80927435.128 8  19444069.069    19444070.559    19444075.394
        40.500          48.200
 117222767.474 5  91173283.491 6  21921251.061    21921251.205    21921256.708
        34.700          41.200
 123189588.987 6  95814213.414 6  23085685.139    23085684.159    23085693.274
        40.700          38.600
 142230743.407 3                  27065598.128
        23.100
 115137631.304 7  89551399.908 6  21569134.112    21569132.486    21569139.773
        44.400          39.700
 25  1  1 21 28 15.0000000  0 29G21E31G07G02G30G08G13G15G19E10G17E33
                                E24R10E09R12E12G14S35S31E05E06S33R11
                                R21R20R02E26R22
 116159770.455 6  90514118.13043  22104473.239    22104472.1534   22104471.1064
        40.000          22.6004
 124784915.139 7                  23745772.079
        42.600
 112476842.246 7  87644232.24746  21403630.769    21403630.1614   21403632.4224
        42.100          40.0004
 113615569.807 8  88531642.41546  21620320.086    21620319.0544   21620320.3364
        48.300          36.4004
 106627185.281 8  83086115.92548  20290476.039    20290475.3644   20290479.2624
        49.500          50.6004


 118719054.933 6  92508398.52441  22591487.137    22591486.4764   22591493.6034
        36.000           6.3004
 129217754.220 5 100689191.0534   24589320.425    24589320.0954   24589326.2234
        33.700           3.4004
 125152353.829 5  97521418.87841  23815699.644    23815700.2924   23815721.0224
        31.400          11.0004


 111124175.825 7  86590282.40546  21146230.831    21146230.3044   21146231.8194
        43.100          38.3004
 130704070.961 6                  24872151.118
        41.800
 130805762.925 7                  24891510.225
        46.400
 117899008.451 4                  22117554.823    22117550.884
        29.600
 138437224.426 6                  26343731.374
        37.000
 116848166.237 6  90881923.261 7  21874220.829    21874220.959    21874230.197
        41.500          46.500
 139190629.522 6                  26487091.633
        37.300
 108744571.147 7  84736031.22945  20693404.280    20693404.0884   20693405.1604
        44.000          30.4004


 198897424.033 7                  37848929.948
        42.100
 128603692.424 5                  24472470.942
        34.800


 202053801.699 7                  38449574.929
        44.700
 104610161.871 8  81363453.248 7  19576370.022    19576370.946    19576375.321
        52.800          45.100
 104044204.635 6  80923578.222 7  19443140.207    19443141.633    19443149.035
        36.300          47.900
 117274318.097 5  91213378.499 6  21930888.538    21930887.833    21930898.286
        31.800          41.600
 123211338.160 7  95831129.365 6  23089763.188    23089762.797    23089769.113
        46.100          37.700


 115077132.540 7  89504345.388 7  21557798.949    21557797.732    21557807.662
        43.900          42.100
 25  1  1 21 28 30.0000000  0 29G21E31G07G02G30G08G13G15G19E10G17E33
                                E24R10E09R12E12G14S35S31E05E06S33R11
                                R21R20R02E26R22
 116185211.979 6  90533942.64143  22109313.533    22109312.4474   22109313.3904
        41.400          23.4004
 124793559.404 7                  23747416.594
        43.500
 112513043.912 7  87672441.26246  21410519.998    21410519.3954   21410522.1644
        44.600          41.2004
 113617548.770 7  88533184.47545  21620695.955    21620694.8874   21620696.9314
        47.000          35.0004
 106634535.479 8  83091843.33148  20291875.066    20291874.3964   20291878.2274
        50.700          51.3004


 118719751.452 6  92508940.97041  22591621.834    22591621.3294   22591626.7684
        40.200          10.8004
 129209000.619 5                  24587658.188
        34.300
 125103588.655 5  97483420.21341  23806413.944    23806414.5524   23806436.9554
        31.100           9.9004


 111096022.775 7  86568344.99146  21140872.741    21140872.2274   21140874.1894
        42.000          38.3004
 130691955.567 7                  24869844.203
        42.700
 130785908.606 7                  24887731.776
        46.600
 117938014.195 5                  22124875.084    22124874.177
        35.500
 138476318.731 5                  26351170.327
        34.800
 116802872.670 6  90846694.990 7  21865741.281    21865739.476    21865751.357
        38.100          46.900
 139146188.851 6                  26478635.885
        38.600
 108725440.577 7  84721124.31444  20689763.348    20689763.1204   20689764.0214
        45.200          29.3004


 198897420.719 7                  37848945.286
        44.200
 128611591.530 5                  24473976.302
        34.100


 202053813.331 7                  38449583.895
        44.700
 104607430.635 8  81361328.942 7  19575859.557    19575860.421    19575863.432
        52.100          45.000
 104039447.540 7  80919878.314 7  19442254.308    19442254.235    19442259.330
        42.000          46.600
 117325980.746 5  91253560.566 7  21940549.484    21940549.368    21940561.064
        33.600          42.400
 123233239.072 7  95848163.321 6  23093864.383    23093865.940    23093872.001
        44.000          37.500


 115016715.620 6  89457354.561 7  21546477.942    21546477.596    21546489.346
        41.400          43.000
 25  1  1 21 28 45.0000000  0 29G21E31G07G02G30G08G13G15G19E10G17E33
                                E24R10E09R12E12G14S35S31E05E06S33R11
                                R21R20R02E26R22
 116210794.095 6  90553876.74544  22114181.266    22114180.1984   22114182.8804
        40.900          24.4004
 124802233.436 7                  23749067.229
        45.300
 112549352.162 7  87700733.35247  21417427.726    21417427.1144   21417432.1854
        44.900          43.1004
 113619674.826 7  88534841.14345  21621102.354    21621101.2414   21621101.2914
        45.700          34.1004
 106642024.853 8  83097679.18648  20293300.261    20293299.5914   20293303.8524
        51.700          52.5004
 125978941.172 5                  23972998.167
        35.000
 118720597.415 6  92509600.15842  22591782.440    22591781.8734   22591788.9804
        41.800          14.4004
 129200387.949 5                  24586017.614
        33.400
 125054896.258 5                  23797153.285
        34.700


 111067970.724 6  86546486.28846  21135535.123    21135534.6324   21135536.4004
        40.500          37.1004
 130679950.183 7                  24867559.420
        44.200
 130766074.714 7                  24883957.530
        46.400
 117977091.746 5                  22132205.770    22132204.866
        30.900
 138515452.372 4                  26358616.249
        28.400
 116757594.651 7  90811478.623 7  21857270.344    21857270.142    21857273.813
        42.400          45.800
 139101781.029 6                  26470184.546
        38.800
 108706362.477 7  84706258.29744  20686132.993    20686132.7434   20686132.3174
        44.600          28.1004


 198897418.232 6                  37848939.298
        41.800
 128619595.136 6                  24475499.196
        41.400


 202053826.153 7                  38449583.072
        45.100
 104604799.069 8  81359282.200 7  19575367.023    19575367.635    19575371.325
        51.200          44.200
 104034899.607 6  80916341.028 7  19441398.108    19441401.049    19441407.781
        41.500          44.200
 117377761.216 4  91293834.257 7  21950232.116    21950229.496    21950244.368
        29.700          42.300
 123255298.778 7  95865320.833 5  23097997.889    23097997.214    23098003.083
        43.500          35.800


 114956388.098 7  89410433.240 6  21535176.436    21535176.344    21535186.828
        42.300          41.400
 25  1  1 21 29  0.0000000  0 26G21E31G07G02G30G08G13E10G17E33E24E09
                                R12E12G14S35S31E05E06S33R11R21R20R02
                                E26R22
 116236510.627 6  90573915.59144  22119074.540    22119073.4814   22119077.0984
        41.700          25.1004
 124810931.291 7                  23750721.858
        45.800
 112585760.866 7  87729103.74346  21424355.560    21424354.9344   21424360.9604
        42.100          40.6004
 113621942.109 7  88536607.87545  21621533.565    21621532.4214   21621533.0044
        46.600          34.5004
 106649647.421 8  83103618.84048  20294751.164    20294750.4984   20294754.7284
        51.800          52.5004
 126030842.652 5                  23982874.794
        35.400
 118721586.852 6  92510371.20541  22591969.564    22591969.0504   22591978.4074
        40.700          11.2004
 146033069.363 5                  27789179.712
        34.300
 111040013.501 7  86524701.48246  21130214.932    21130214.4854   21130217.0834
        43.900          38.9004
 130668048.817 7                  24865294.488
        45.200
 130746255.245 7                  24880185.992
        47.000


 116712325.870 6  90776269.479 7  21848786.106                    21848799.257
        36.900          45.000
 139057400.434 6                  26461740.456
        38.900
 108687330.929 7  84691428.59644  20682511.515    20682511.2874   20682509.6724
        46.100          28.8004


 198897411.968 6                  37848933.091
        41.200
 128627697.082 6                  24477038.631
        41.500


 202053834.302 7                  38449580.939
        44.500
 104602261.438 7  81357308.429 7  19574891.840    19574891.979    19574896.036
        47.800          44.200
 104030554.753 7  80912961.618 7  19440590.800    19440592.692    19440596.575
        44.700          44.200
 117429653.565 5  91334194.998 6  21959935.412    21959935.019    21959947.556
        32.000          40.600
 123277510.603 7  95882596.725 6  23102159.278    23102160.290    23102168.230
        44.900          37.100
 142328702.447 5                  27084252.251
        34.500
 114896144.369 6  89363577.131 6  21523890.199    21523888.685    21523901.262
        40.600          40.000
 25  1  1 21 29 15.0000000  0 27G21E31G07G02G30G08G13G19E10G17E33E24
                                E09R12E12G14S35S31E05E06S33R11R21R20
                                R02E26R22
 116262368.005 7  90594064.16644  22123995.982    22123994.9054   22123997.5424
        43.000          26.1004
 124819660.021 7                  23752382.974
        44.900
 112622277.136 6  87757557.92245  21431306.401    21431305.7404   21431307.8984
        38.300          35.2004
 113624357.775 7  88538490.21745  21621992.258    21621991.1234   21621992.4774
        47.900          35.6004
 106657410.327 8  83109667.83348  20296228.135    20296227.4604   20296231.5314
        51.200          51.7004
 126082751.654 5                  23992752.202
        35.200
 118722726.685 6  92511259.50341  22592188.226    22592187.6994   22592195.4694
        39.300          10.8004
 124957595.392 6                  23778642.610
        36.200
 145985259.466 5                  27780085.584
        33.200
 111012158.379 7  86502996.23946  21124915.256    21124914.8234   21124917.1994
        44.200          40.3004
 130656258.769 7                  24863050.434
        44.700
 130726457.411 7                  24876418.715
        46.700
 138593859.987 5                  26373534.896
        34.100
 116667073.895 6  90741073.463 7  21840321.248    21840319.191    21840326.122
        39.200          42.300
 139013054.367 5                  26453301.467
        35.700
 108668353.133 7  84676640.70945  20678899.996    20678899.7774   20678899.6684
        44.300          30.4004


 198897408.743 7                  37848928.150
        42.800
 128635904.409 6                  24478599.697
        40.600


 202053845.437 7                  38449582.996
        43.700
 104599825.080 7  81355413.464 7  19574436.376    19574436.442    19574441.362
        46.100          45.800
 104026419.986 7  80909745.680 7  19439819.202    19439821.489    19439824.303
        46.300          44.200
 117481664.615 5  91374647.924 6  21969664.235    21969664.684    21969673.764
        33.500          36.800
 123299881.557 7  95899996.310 6  23106353.306    23106354.163    23106362.375
        46.100          37.800
 142353423.229 5                  27088955.072
        30.900
 114835992.079 7  89316792.215 6  21512623.800    21512622.334    21512634.208
        42.400          41.300
 25  1  1 21 29 30.0000000  0 27G21E31G07G02G30G08G13G19E10G17E33E24
                                E09R12E12G14S35S31E05E06S33R11R21R20
                                R02E26R22
 116288361.789 6  90614319.03144  22128942.648    22128941.5934   22128944.4534
        39.000          26.3004
 124828415.254 7                  23754048.772
        45.100
 112658895.907 6  87786091.97245  21438274.548    21438273.7844   21438274.5254
        40.300          35.9004
 113626917.269 8  88540484.64946  21622479.313    21622478.1824   21622479.4684
        48.400          36.4004
 106665309.102 8  83115822.68748  20297730.903    20297730.2284   20297734.3634
        50.400          51.0004
 126134663.505 5  98286904.08941  24002630.477    24002630.5084   24002666.0474
        31.900           7.9004
 118724012.412 6  92512261.40542  22592432.936    22592432.3864   22592439.2134
        38.800          15.5004
 124908990.735 5                  23769388.841
        31.600
 145937439.432 5                  27770983.866
        31.800
 110984400.845 7  86481367.01846  21119632.844    21119632.4474   21119635.0644
        45.900          41.2004
 130644575.589 7                  24860827.389
        43.100
 130706676.681 7                  24872653.502
        45.500
 138633102.411 5                  26381003.081
        32.500
 116621834.466 6  90705887.265 6  21831852.794    21831850.385    21831854.772
        41.000          38.500
 138968738.566 5                  26444868.351
        35.300
 108649424.724 7  84661891.27345  20675297.981    20675297.7494   20675299.3104
        44.200          30.8004


 198897402.884 6                  37848932.018
        41.800
 128644212.499 6                  24480181.462
        39.400
 142941084.566 5                  27200784.468
        33.500
 202053855.078 7                  38449588.518
        44.300
 104597485.622 7  81353593.884 7  19573997.545    19573998.151    19574003.438
        46.800          45.800
 104022490.807 7  80906689.661 7  19439083.253    19439084.490    19439092.737
        47.000          45.200
 117533788.830 5  91415188.896 5  21979407.648    21979408.546    21979417.359
        30.100          34.000
 123322406.588 7  95917515.750 5  23110574.857    23110575.522    23110582.978
        45.200          34.600
 142378232.794 5                  27093675.078
        32.700
 114775927.261 7  89270075.290 6  21501372.811    21501370.189    21501380.816
        43.400          39.500
 25  1  1 21 29 45.0000000  0 28G21E31G07G02G30G08G13G19E10G17E33E24
                                R10E09R12E12G14S35S31E05E06S33R11R21
                                R20R02E26R22
 116314496.750 6  90634683.90944  22133916.109    22133915.0814   22133918.0604
        41.200          25.2004
 124837202.018 7                  23755721.306
        43.400
 112695622.235 7  87814709.83046  21445264.456    21445263.6834   21445263.3004
        42.900          39.4004
 113629625.545 8  88542595.00746  21622994.498    21622993.3674   21622994.5594
        48.700          37.1004
 106673348.801 8  83122087.36048  20299260.953    20299260.2924   20299264.0474
        49.500          50.1004
 126186583.034 5  98327360.78042  24012510.151    24012509.9504   24012551.8704
        34.000          12.4004
 118725449.047 6  92513380.84843  22592707.068    22592706.5144   22592709.8264
        38.200          18.4004
 124860430.375 6                  23760145.253
        37.400
 145889614.179 4                  27761884.166
        25.400
 110956746.156 7  86459817.95146  21114369.346    21114368.9494   21114372.3094
        46.300          40.1004
 130633004.420 7                  24858625.542
        42.900
 130686918.121 7                  24868894.364
        44.600
 118134078.221 6                  22161655.280
        36.300
 138672384.696 5                  26388476.713
        35.900
 116576612.594 7  90670714.816 6  21823388.231    21823387.433    21823392.038
        45.200          38.700
 138924458.361 6                  26436441.719
        38.500
 108630550.759 7  84647184.26445  20671705.843    20671705.5754   20671709.5234
        46.000          33.9004


 198897400.714 6                  37848931.204
        41.600
 128652626.308 6                  24481783.849
        39.300
 142984898.155 6                  27209120.975
        36.000
 202053867.121 7                  38449591.376
        45.200
 104595248.375 7  81351853.839 7  19573578.312    19573578.092    19573585.435
        46.700          46.800
 104018772.332 8  80903797.525 7  19438388.337    19438388.853    19438396.371
        48.800          43.600
 117586031.306 5  91455821.779 5  21989181.007    21989181.224    21989189.741
        33.100          32.900
 123345090.506 7  95935158.800 5  23114826.069    23114825.486    23114832.719
        44.200          31.700
 142403135.997 5                  27098418.571
        33.000
 114715955.412 7  89223430.703 6  21490135.888    21490135.201    21490147.206
        42.400          39.000
 25  1  1 21 30  0.0000000  0 28G21E31G07G02G30G08G13G19E10G17E33E24
                                R10E09R12E12G14S35S31E05E06S33R11R21
                                R20R02E26R22
 116340771.559 6  90655157.76043  22138914.752    22138913.7244   22138918.1484
        36.900          22.0004
 124846018.955 7                  23757399.452
        43.500
 112732454.614 7  87843410.32146  21452272.575    21452271.7934   21452272.7524
        46.700          41.1004
 113632481.197 8  88544820.18946  21623538.198    21623537.0454   21623537.5174
        48.100          36.6004
 106681528.041 8  83128460.78148  20300817.587    20300816.9214   20300820.3684
        50.100          49.7004
 126238508.517 4  98367822.17741  24022388.890    24022388.5604   24022433.8474
        26.000           6.4004
 118727035.087 6  92514616.68042  22593009.047    22593008.4574   22593008.8664
        37.400          16.9004
 124811913.170 6                  23750903.298
        38.300
 145841783.229 4                  27752775.802
        25.300
 110929192.874 7  86438347.89346  21109126.111    21109125.7054   21109128.9824
        45.100          39.1004
 130621543.956 7                  24856446.134
        43.100
 130667180.349 7                  24865138.099
        43.500
 118173508.178 5                  22169060.533    22169061.253
        34.000
 138711705.533 6                  26395959.174
        36.100
 116531407.231 7  90635555.212 6  21814921.816    21814922.624    21814932.207
        45.500          39.900
 138880212.607 6                  26428020.703
        39.300
 108611729.997 7  84632518.70945  20668124.528    20668124.2294   20668129.3324
        47.200          35.1004


 198897400.994 7                  37848934.612
        42.600
 128661144.428 6                  24483403.457
        36.400
 143028709.972 5                  27217458.528
        34.700
 202053881.842 7                  38449591.246
        44.800
 104593112.155 8  81350192.307 7  19573178.262    19573178.432    19573186.093
        48.100          46.300
 104015263.000 8  80901068.090 7  19437734.208    19437734.878    19437740.536
        51.100          43.000
 117638389.488 5  91496544.757 6  21998968.673    21998969.861    21998981.552
        30.800          37.600
 123367931.503 6  95952923.880 5  23119111.213    23119107.999    23119107.756
        40.300          31.200
 142428131.287 5                  27103188.623
        32.800
 114656075.609 6  89176857.652 6  21478915.644    21478914.975    21478930.780
        40.100          38.800
 25  1  1 21 30 15.0000000  0 28G21E31G07G02G30G08G13G19E10G17E33E24
                                R10E09R12E12G14S35S31E05E06S33R11R21
                                R20R02E26R22
 116367182.828 5  90675737.97243  22143941.140    22143940.1574   22143943.8004
        32.600          18.3004
 124854862.945 7                  23759081.345
        43.400
 112769389.694 7  87872190.83647  21459300.593    21459299.8024   21459303.1804
        47.100          43.4004
 113635481.122 7  88547157.80045  21624109.340    21624108.1874   21624108.1184
        47.300          35.7004
 106689843.740 8  83134940.52948  20302399.772    20302399.1024   20302403.1574
        51.200          50.3004


 118728767.318 6  92515966.45542  22593337.270    22593336.7124   22593336.4264
        41.900          16.9004
 124763436.157 6                  23741674.854
        37.200


 110901737.854 7  86416954.40346  21103902.363    21103901.9664   21103904.0844
        43.000          38.0004
 130610191.236 7                  24854284.833
        44.000
 130647460.246 7                  24861386.140
        42.400
 118213006.673 5                  22176485.058    22176485.837
        30.400
 138751061.385 5                  26403445.669
        33.800
 116486215.705 7  90600406.220 6  21806463.791    21806463.441    21806470.099
        46.600          41.700
 138835998.417 6                  26419607.672
        40.400
 108592959.394 7  84617892.25446  20664553.041    20664552.7284   20664557.1724
        46.900          36.3004


 198897399.802 7                  37848928.016
        42.000
 128669763.628 5                  24485044.971
        35.600
 143072516.628 6                  27225794.998
        36.900
 202053895.191 7                  38449595.101
        45.900
 104591074.107 8  81348607.120 7  19572798.543    19572799.171    19572803.729
        51.000          44.200
 104011959.928 8  80898499.080 7  19437116.780    19437117.732    19437124.360
        52.000          43.400
 117690860.041 4  91537355.124 6  22008784.274    22008781.410    22008795.244
        28.900          39.500
 123390925.934 5                  23123421.205    23123415.733
        33.100
 142453215.661 4                  27107951.846
        28.700
 114596285.329 7  89130354.204 6  21467718.761    21467718.327    21467727.948
        42.600          36.400
