     2.11           OBSERVATION DATA    M (MIXED)           RINEX VERSION / TYPE
teqc  2019Feb25                         20260317 16:18:01UTCPGM / RUN BY / DATE
Linux 2.4.21-27.ELsmp|Opteron|gcc -static|Linux 64|=+       COMMENT
BIT 2 OF LLI FLAGS DATA COLLECTED UNDER A/S CONDITION       COMMENT
-Unknown-                                                   MARKER NAME
-Unknown-           -Unknown-                               OBSERVER / AGENCY
-Unknown-           -Unknown-           -Unknown-           REC # / TYPE / VERS
-Unknown-           -Unknown-                               ANT # / TYPE
        0.0000        0.0000        0.0000                  APPROX POSITION XYZ
        0.0000        0.0000        0.0000                  ANTENNA: DELTA H/E/N
     1     1                                                WAVELENGTH FACT L1/2
     7    L1    L2    C1    P1    P2    S1    S2            # / TYPES OF OBSERV
 SNR is mapped to RINEX snr flag value [0-9]                COMMENT
  L1 & L2: min(max(int(snr_dBHz/6), 0), 9)                  COMMENT
  2025     1     1    11     0    0.0000000     GPS         TIME OF FIRST OBS
    18                                                      LEAP SECONDS
                                                            END OF HEADER
 25  1  1 11  0  0.0000000  0 27G18G08G23G02E29G32G24E33G10G28G27R19
                                R04R03E26S35R05G25S31G21S33E07E19R14
                                E13R20E12




 112994496.358 7  88047663.78144  21502142.457    21502142.2164   21502145.1274
        43.800          29.1004
 132732698.895 5 103428059.07141  25258188.680    25258188.3094   25258190.9554
        31.000           7.3004
 124047764.343 8                  23605498.385
        50.800
 110241426.141 8  85902375.12648  20978216.363    20978216.0244   20978216.2324
        52.300          52.2004


 125910021.799 8                  23959875.957
        51.200
 107662608.907 8  83892984.47448  20487513.002    20487512.4614   20487513.0734
        50.900          48.0004
 120356159.062 6  93783987.93843  22903015.698    22903015.4124   22903015.6684
        36.700          18.4004


 109737885.186 6  85351712.428 6  20514336.671    20514335.858    20514339.426
        36.300          40.300
 106696787.952 8  82986497.521 7  19924843.345    19924846.108    19924850.996
        48.200          46.100
 113934688.529 6  88615815.049 5  21283926.759    21283929.279    21283930.222
        41.000          34.600
 127747270.963 6                  24309497.348
        37.700


 118714484.960 7  92333464.561 6  22207989.709    22207990.205    22207992.336
        45.700          36.300


 198899342.763 7                  37849285.697
        42.800
 123979806.346 6  96607578.66843  23592570.250    23592569.3614   23592572.0124
        41.100          20.3004
 202014975.914 7                  38442179.102
        44.700
 128719031.567 5                  24494394.560
        30.200
 137309921.334 5                  26129208.656
        35.000
 116162551.761 7  90348659.434 7  21791796.577    21791796.371    21791801.621
        45.400          45.200
 147925276.650 4                  28149250.132
        26.900
 116488574.015 5  90602275.440 7  21783965.383    21783963.026    21783963.302
        32.800          42.400
 147665672.977 5                  28099842.279
        34.500
 25  1  1 11  0 15.0000000  0 27G18G08G23G02E29G32G24E33G10G28G27R19
                                R04R03E26R18S35R05G25S31G21S33E07E19
                                R14R20E12


 131983720.889 5 102844463.78142  25115663.887    25115663.1684   25115667.5934
        34.200          16.6004
 113024031.152 7  88070677.89944  21507762.970    21507762.7344   21507764.9414
        45.100          28.2004
 132690236.483 5 103394971.34541  25250109.095    25250108.8414   25250110.3844
        34.200           6.5004
 124038829.075 8                  23603798.058
        50.300
 110230422.814 8  85893801.10448  20976122.120    20976121.7854   20976122.4444
        52.300          52.4004


 125901572.510 8                  23958267.862
        50.900
 107654924.123 8  83886996.34848  20486050.544    20486050.0034   20486050.2264
        51.200          48.8004
 120304252.976 6  93743541.68942  22893137.780    22893137.5974   22893136.8254
        37.800          16.8004


 109775662.291 6  85381094.547 6  20521398.866    20521399.761    20521402.130
        38.300          40.900
 106693708.339 7  82984102.272 7  19924270.018    19924270.226    19924275.055
        46.500          44.100
 113965321.796 6  88639640.797 5  21289647.539    21289647.840    21289650.460
        38.200          33.100
 127779065.743 6                  24315548.694
        36.400
                  94170781.735 6                                  22681760.225
                        37.000


 118680070.117 7  92306697.457 5  22201550.581    22201550.170    22201555.493
        43.900          35.400


 198899350.030 7                  37849286.895
        43.000
 123951794.880 6  96585751.55543  23587239.659    23587238.8104   23587240.2374
        40.200          19.8004
 202014973.820 7                  38442178.758
        45.000


 137279198.455 6                  26123362.410
        36.000
 116113196.204 7  90310271.801 7  21782536.847    21782535.587    21782543.229
        42.600          44.000
 116453937.153 4  90575335.715 7  21777482.438    21777482.129    21777484.359
        28.400          42.900
 147624830.102 5                  28092070.604
        32.100
 25  1  1 11  0 30.0000000  0 27G18G08G23G02E29G32G24E33G10G28G27R19
                                R04R03E26R18S35R05G25S31G21S33E07E19
                                R14R20E12


 132012629.372 5 102866989.96643  25121165.200    25121164.4004   25121167.7604
        34.700          18.9004
 113053644.413 7  88093753.16844  21513397.669    21513397.4014   21513398.8154
        44.100          26.1004
 132647831.893 5 103361928.89441  25242040.948    25242040.7654   25242040.6524
        30.200           6.0004
 124029945.056 8                  23602107.436
        50.000
 110219488.662 8  85885280.99248  20974041.617    20974041.2784   20974041.9234
        52.900          52.5004


 125893227.820 8                  23956680.189
        51.200
 107647319.314 8  83881070.52048  20484602.712    20484602.1714   20484603.3704
        51.200          50.0004
 120252404.231 6  93703140.11242  22883270.254    22883270.1024   22883269.8554
        36.000          16.6004


 109813606.471 6  85410606.632 7  20528491.890    20528492.157    20528496.990
        39.000          42.700
 106690684.036 8  82981749.996 7  19923707.109    19923706.734    19923709.520
        48.000          43.500
 113995981.519 6  88663487.089 6  21295385.472    21295387.633    21295378.631
        37.000          37.000
 127810940.429 6                  24321614.536
        37.900
 121142654.275 5  94221907.939 5  22694101.843                    22694071.434
        31.600          35.500


 118645686.757 7  92279954.788 5  22195120.153    22195119.525    22195119.317
        42.900          30.200


 198899355.498 7                  37849292.292
        43.300
 123923879.176 6  96563999.07142  23581927.793    23581926.9754   23581926.6894
        38.200          16.5004
 202014973.324 7                  38442176.410
        44.000


 137248509.356 5                  26117520.950
        35.600
 116063940.341 6  90271961.699 6  21773294.537    21773293.012    21773300.958
        40.500          40.600
                  90548528.736 7                                  21771038.046
                        42.600
 147584025.055 5                  28084304.318
        31.500
 25  1  1 11  0 45.0000000  0 28G18G08G23G02E29G32G24E33G10G28G27R19
                                R04R03R13E26R18S35R05G25S31G21S33E07
                                E19R14R20E12


 132041602.594 5 102889566.54743  25126679.504    25126678.5074   25126681.2304
        33.900          20.2004
 113083339.324 7  88116892.06044  21519049.433    21519049.1834   21519049.4034
        44.000          26.7004
 132605488.707 5 103328934.11141  25233983.174    25233982.9784   25233982.8604
        32.000           6.8004
 124021115.470 8                  23600427.388
        50.200
 110208626.816 8  85876817.19348  20971974.458    20971974.1144   20971975.3324
        52.900          52.7004


 125884991.057 8                  23955112.366
        50.700
 107639797.894 8  83875209.66248  20483171.632    20483171.1004   20483172.9704
        50.700          51.2004
 120200616.499 6  93662786.12442  22873415.786    22873415.6524   22873414.7434
        38.500          16.4004
 133703847.028 5 104184883.74342  25442997.411    25442997.0854   25443008.4914
        34.600          12.2004
 109851720.284 6  85440250.680 7  20535617.909    20535617.495    20535621.787
        39.500          43.300
 106687717.927 7  82979443.048 7  19923151.530    19923151.958    19923155.160
        45.700          43.500
                  88687356.568 6                                  21301111.220
                        36.300
 116144181.254 4                  21750074.832    21750071.859
        28.800
 127842898.184 6                  24327696.293
        40.100
                  94273060.560 5                                  22706391.622
                        32.400


 118611338.181 6                  22188695.104    22188692.650
        40.600


 198899363.743 7                  37849291.179
        42.600
 123896062.422 6  96542323.72442  23576634.463    23576633.6004   23576632.0824
        39.100          16.5004
 202014973.820 7                  38442180.882
        45.500


 137217857.160 6                  26111688.298
        36.200
 116014787.985 7  90233732.145 6  21764077.590    21764075.419    21764077.843
        44.200          36.600
                  90521857.282 7                                  21764624.831
                        42.600
 147543261.323 5                  28076547.371
        30.200
 25  1  1 11  1  0.0000000  0 28G18G08G23G02E29G32G24E33G10G28G27R19
                                R04R03R13E26R18S35R05G25S31G21S33E07
                                E19R14R20E12


 132070631.900 5 102912186.77242  25132201.069    25132200.3814   25132204.2254
        32.300          16.2004
 113113107.774 7  88140088.26244  21524714.597    21524714.3114   21524714.0054
        45.200          24.9004
 132563199.155 4 103295981.30541  25225932.710    25225932.5184   25225935.0494
        26.100           8.2004
 124012332.077 8                  23598755.845
        50.600
 110197829.143 8  85868403.41748  20969919.459    20969919.1114   20969920.9394
        53.100          52.5004


 125876854.183 8                  23953563.879
        49.600
 107632351.860 8  83869407.54048  20481754.694    20481754.1584   20481756.9014
        51.300          52.6004
 120148881.868 6  93622473.44242  22863571.041    22863570.8724   22863569.3704
        37.300          15.8004
 133743872.015 6 104216072.00042  25450614.024    25450613.6444   25450615.4684
        36.400          12.0004
 109889995.666 6  85470020.400 7  20542772.692    20542772.928    20542777.779
        39.900          43.600
 106684801.951 7  82977175.037 7  19922608.435    19922608.821    19922612.256
        46.500          45.400
 114057290.473 5  88711242.768 5  21306851.236                    21306845.906
        33.900          33.500
 116151768.322 5                  21751497.709    21751496.147
        33.100
 127874930.703 6                  24333792.097
        40.900
                  94324232.804 5                  22718707.885    22718715.328
                        30.800






 198899366.870 7                  37849290.906
        42.500
 123868336.604 6  96520719.27443  23571357.360    23571356.4974   23571355.7284
        38.000          18.4004
 202014968.613 7                  38442178.928
        45.400
 128818021.693 6                  24513253.027
        38.100
 137187233.848 5                  26105860.007
        34.300
 115965731.624 7  90195577.248 5  21754874.058    21754874.362    21754873.942
        46.000          35.300
                  90495315.656 7                                  21758244.774
                        44.600
 147502530.990 4                  28068795.581
        29.500
 25  1  1 11  1 15.0000000  0 25G18G08G23G02E29G32G24E33G10G28G27R19
                                R04R03E26S35G25S31G21S33E07E19R14R20
                                E12


 132099722.713 5 102934854.86742  25137741.704    25137741.0074   25137739.4014
        33.100          17.0004
 113142955.330 7  88163346.07643  21530393.300    21530392.9874   21530390.8694
        45.100          21.1004
 132520968.673 5 103263074.56441  25217899.369    25217899.0974   25217898.6174
        31.300           7.0004
 124003600.399 8                  23597094.295
        50.900
 110187101.077 8  85860043.87348  20967877.979    20967877.6314   20967879.2274
        52.700          51.6004


 125868822.899 8                  23952035.336
        48.500
 107624986.978 8  83863668.63649  20480353.148    20480352.5984   20480356.4294
        50.900          54.0004
 120097206.224 5  93582206.74742  22853739.139    22853738.9034   22853735.5394
        35.500          14.3004
 133783897.519 5 104247260.68441  25458237.264    25458236.5094   25458226.3224
        35.800          10.4004
 109928437.367 6  85499919.437 7  20549959.195    20549958.213    20549962.804
        38.500          42.000
 106681941.603 7  82974950.315 7  19922074.427    19922075.571    19922079.019
        47.800          46.600
 114088028.239 6  88735149.899 5  21312582.173    21312582.524    21312592.683
        38.300          32.200
 127907043.389 6                  24339902.949
        41.200




 198899369.324 7                  37849293.933
        42.600
 123840707.552 6  96499190.18043  23566100.456    23566099.6074   23566097.7844
        39.300          19.2004
 202014964.711 7                  38442175.851
        44.600
 128842848.974 6                  24517976.236
        36.800
 137156645.007 5                  26100041.416
        33.600
 115916777.150 7  90157501.648 6  21745689.175    21745687.906    21745691.908
        45.700          36.600
                  90468908.224 7                                  21751894.623
                        44.400
 147461839.750 5                  28061053.691
        31.500
 25  1  1 11  1 30.0000000  0 25G08G23G02E29G32G24E33G10G28G27R19R04
                                R03E26R18S35R05G25S31G21S33E07E19R14
                                E12
 132128880.236 5 102957574.97442  25143293.893    25143293.3434   25143287.6114
        32.100          17.2004
 113172887.620 7  88186669.91743  21536089.467    21536089.2044   21536085.0154
        44.300          20.5004
 132478803.500 6 103230218.69841  25209875.476    25209874.9674   25209874.6044
        36.100           9.4004
 123994926.036 8                  23595443.716
        50.700
 110176448.262 8  85851742.99448  20965850.893    20965850.5454   20965851.3694
        52.900          51.1004


 125860902.953 7                  23950528.067
        47.800
 107617709.141 8  83857997.58849  20478968.732    20478968.1874   20478972.1264
        51.600          54.4004
 120045595.562 6  93541990.68542  22843917.186    22843916.8024   22843913.6244
        39.600          14.4004
 133823928.871 5 104278453.92041  25465845.909    25465845.2924   25465843.6644
        34.200          10.4004
 109967050.890 6  85529952.094 6  20557176.092    20557176.203    20557179.686
        38.200          40.600
 106679142.606 8  82972773.300 7  19921551.157    19921551.931    19921556.443
        48.600          47.100
 114118799.005 6  88759082.745 5  21318335.185    21318334.998    21318340.162
        41.800          32.000
 127939241.754 7                  24346029.840
        42.000
                                                  22743384.042



 118508474.018 7  92173363.747 5  22169453.345    22169454.334    22169486.832
        45.200          33.100


 198899377.824 7                  37849295.879
        42.800
 123813181.069 6  96477741.00243  23560862.115    23560861.2614   23560858.7964
        39.400          18.7004
 202014964.754 7                  38442179.295
        45.200
 128867705.541 5                  24522704.595
        34.500
 137126096.164 5                  26094227.435
        32.800
 115867931.460 7  90119510.578 6  21736526.406    21736525.404    21736530.725
        46.800          38.900
 147421193.557 5                  28053318.971
        33.500
 25  1  1 11  1 45.0000000  0 29G08G23G02E29G32G24E33G10G28G27R19R04
                                R12R03E26R18S35R05G25S31G21S33E07E19
                                R14E13R20E12E30


 113202895.019 7  88210052.25243  21541799.676    21541799.4264   21541796.5924
        44.500          20.0004
 132436694.311 6 103197406.31142  25201860.964    25201860.3214   25201861.1384
        37.400          14.0004
 123986299.307 8                  23593802.270
        51.200
 110165861.008 8  85843493.19748  20963836.420    20963836.0764   20963836.0984
        52.400          51.3004


 125853084.803 7                  23949040.243
        47.600
 107610508.884 8  83852387.00448  20477598.492    20477597.9424   20477601.7224
        51.600          53.7004
 119994040.576 6  93501818.03842  22834106.407    22834105.9254   22834102.6344
        39.200          14.8004
 133863956.021 5 104309643.91742  25473462.899    25473462.2654   25473461.5964
        32.200          12.4004
 110005825.502 6  85560110.079 6  20564426.274    20564426.331    20564430.225
        39.300          41.700
 106676395.322 7  82970636.537 7  19921037.440    19921037.699    19921043.508
        47.100          47.700
 129548301.627 5                  24251714.543    24251714.825
        34.200
 114149593.004 6                  21324088.115    21324086.194
        39.900
 127971516.060 7                  24352171.875
        42.000
 121471390.685 7  94477894.789 6  22755725.414    22755727.768    22755734.487
        43.000          36.100


 118474249.940 7                  22163047.280    22163048.570
        44.200


 198899382.189 7                  37849298.074
        42.400
 123785747.612 6  96456364.30143  23555641.811    23555640.9574   23555638.1184
        38.600          20.0004
 202014962.296 7                  38442176.585
        45.000
 128892581.661 5                  24527441.181
        35.600
 137095577.928 5                  26088421.427
        35.200
 115819184.762 7  90081596.461 6  21727380.493    21727380.028    21727387.308
        46.500          38.900


 116249738.795 5  90416503.068 7  21739287.372    21739288.191    21739293.059
        33.000          44.400
 147380582.995 5                  28045590.847
        34.900
 147231454.925 5                  28017213.479
        34.100
 25  1  1 11  2  0.0000000  0 30G08G23G02E29G32G24E33G10G28G27R19R04
                                R12R03R13E26R18S35R05G25S31G21S33E07
                                E19R14E13R20E12E30


 113232984.506 7  88233498.50943  21547525.259    21547525.0054   21547522.1964
        44.800          20.2004
 132394648.366 6 103164643.27643  25193861.310    25193860.6534   25193859.6134
        39.800          18.4004
 123977727.141 8                  23592171.019
        51.200
 110155346.269 8  85835299.91248  20961835.734    20961835.3864   20961835.2484
        53.200          52.6004


 125845375.582 7                  23947573.390
        47.600
 107603393.363 8  83846842.44848  20476244.491    20476243.9414   20476246.6194
        50.800          52.5004
 119942548.624 6  93461694.47843  22824307.694    22824307.2794   22824303.4094
        41.500          18.9004
 133903985.654 5 104340835.89841  25481081.323    25481080.7604   25481080.2174
        30.400          11.3004
 110044768.268 6  85590398.867 7  20571706.332    20571705.846    20571709.790
        38.800          42.000
 106673706.505 8  82968545.213 8  19920537.764    19920537.185    19920541.903
        49.500          48.600
 129594048.516 5                  24260280.279    24260280.773
        31.100
 114180416.814 6                  21329841.022    21329843.663
        38.600
 116184151.125 6                  21757559.743
        36.000
 128003873.120 6                  24358330.876
        40.700
 121537306.543 7  94529162.636 6  22768074.677    22768075.770    22768084.836
        44.100          37.700






 198899389.570 7                  37849299.505
        42.700
 123758414.665 6  96435065.92243  23550441.527    23550440.6564   23550436.7984
        38.200          20.2004
 202014962.491 7                  38442174.899
        44.700
 128917484.198 5                  24532180.647
        34.900
 137065097.113 6                  26082619.787
        36.000
 115770545.002 7  90043765.581 6  21718257.089    21718255.995    21718260.762
        47.000          38.000


 116216311.159 5  90390503.795 7  21733034.687    21733037.497    21733041.484
        33.600          44.400
 147340015.341 6                  28037871.759
        36.600
 147204851.794 4                  28012146.652
        24.300
 25  1  1 11  2 15.0000000  0 29G08G23G02E29G32G24E33G10G28G27R19R04
                                R12R03R13E26R18S35R05G25S31G21S33E07
                                E19R14E13R20E12


 113263151.399 6  88257005.12043  21553265.474    21553265.2644   21553262.2434
        41.900          19.7004
 132352661.146 6 103131925.96543  25185871.567    25185870.9504   25185868.9664
        41.600          20.6004
 123969204.778 8                  23590549.284
        51.400
 110144899.248 8  85827159.37348  20959847.729    20959847.3724   20959847.9114
        53.700          53.5004


 125837770.682 8                  23946126.127
        48.100
 107596358.051 8  83841360.39448  20474906.379    20474905.8344   20474906.2954
        50.600          50.9004
 119891115.240 6  93421616.56443  22814520.912    22814520.4654   22814517.8804
        41.100          20.5004


 110083873.987 6  85620814.396 6  20579016.133    20579015.304    20579019.962
        37.000          41.900
 106671071.480 8  82966495.693 8  19920044.174    19920046.148    19920049.372
        49.400          48.700
 129639912.618 4                  24268877.388    24268875.330
        27.700
 114211265.560 6  88830983.627 5  21335607.818    21335607.642    21335623.118
        39.100          32.100
 116192721.476 6                  21759155.018    21759154.713
        36.100
 128036308.106 7                  24364503.354
        42.000
 121603248.858 7  94580451.091 6  22780427.838    22780429.602    22780434.425
        44.500          37.000


 118405902.628 6  92093507.393 5  22150266.573    22150264.313    22150280.260
        38.600          33.200


 198899395.840 7                  37849298.338
        42.700
 123731177.854 6  96413842.44643  23545258.091    23545257.2644   23545255.3644
        40.100          21.8004
 202014960.354 7                  38442177.358
        44.400
 128942408.332 6                  24536923.445
        37.700
 137034649.036 6                  26076826.260
        36.600
 115722007.924 7  90006014.551 6  21709150.437    21709150.443    21709152.581
        45.600          36.800


 116183056.328 5  90364638.940 7  21726816.160    21726816.639    21726823.139
        31.500          45.100
 147299486.029 6                  28030159.383
        37.100
 25  1  1 11  2 30.0000000  0 29G08G23G02E29G32G24E33G10G28G27R19R04
                                R12R03R13E26R18S35R05G25S31G21S33E07
                                E19R14E13R20E12


 113293397.942 6  88280573.80443  21559021.624    21559021.4464   21559017.9464
        38.800          18.0004
 132310735.212 7 103099256.37343  25177893.609    25177893.0014   25177890.1164
        42.700          22.5004
 123960734.485 8                  23588937.489
        50.800
 110134522.244 8  85819073.38549  20957873.287    20957872.9304   20957873.9404
        53.800          54.7004
 122499387.238 6  95454060.68943  23310856.892    23310857.1284   23310857.1484
        38.200          22.2004
 125830272.533 8                  23944699.637
        48.000
 107589405.439 8  83835942.79348  20473583.314    20473582.7824   20473582.3414
        52.000          50.6004
 119839743.137 6  93381586.34543  22804746.473    22804746.0264   22804744.9164
        41.200          23.0004


 110123144.182 5  85651357.894 7  20586357.664    20586355.915    20586361.522
        35.200          42.400
 106668492.582 7  82964489.896 8  19919561.386    19919562.153    19919567.081
        46.500          48.500
 129685896.419 4                  24277466.977    24277468.608
        24.900
 114242142.154 6  88854998.679 4  21341374.050    21341373.755    21341391.900
        40.300          29.100
 116201488.191 6                  21760796.019    21760796.116
        39.600
 128068823.134 7                  24370689.839
        43.200
 121669219.603 7  94631761.691 6  22792786.688    22792787.025    22792791.772
        44.200          36.600


 118371776.734 7                  22143881.366    22143881.608
        42.700


 198899401.898 6                  37849297.994
        41.900
 123704039.560 6  96392695.76843  23540093.390    23540092.5774   23540092.9164
        39.400          22.9004
 202014959.640 7                  38442174.644
        43.700
 128967356.300 7                  24541671.077
        42.200
 137004236.191 5                  26071037.502
        34.200
 115673576.416 7  89968345.664 6  21700066.118    21700066.418    21700068.301
        46.300          36.600


 116149976.542 5  90338910.192 7  21720630.342    21720630.542    21720637.253
        31.200          44.800
 147258997.768 6                  28022454.606
        36.300
 25  1  1 11  2 45.0000000  0 28G08G23G02E29G32G24E33G10G28G27R19R04
                                R03R13E26R18S35R05G25S31G21S33E07E19
                                R14E13R20E12


 113323723.511 5  88304204.11842  21564791.703    21564791.4444   21564788.9464
        35.600          16.4004
 132268870.520 7 103066634.52343  25169927.210    25169926.6204   25169923.6974
        43.300          22.5004
 123952315.648 8                  23587334.951
        51.000
 110124214.643 9  85811041.49449  20955911.846    20955911.4894   20955912.7454
        54.300          54.5004
 122549499.428 6  95493109.06444  23320388.379    23320388.3444   23320394.8954
        38.600          24.8004
 125822880.664 8                  23943293.043
        48.000
 107582535.202 8  83830589.37448  20472274.953    20472274.4214   20472274.9954
        52.200          50.7004
 119788431.948 6  93341603.54743  22794982.955    22794982.4994   22794982.4974
        40.600          22.6004


 110162578.255 5  85682028.799 7  20593728.699    20593726.674    20593734.047
        35.200          42.500
 106665969.208 7  82962527.275 8  19919090.463    19919089.404    19919096.331
        44.800          48.600
 114273045.624 6                  21347145.712    21347146.262
        41.100
 116210451.026 6                  21762473.456    21762474.150
        39.200
 128101417.572 7                  24376891.670
        42.000
 121735217.606 6  94683093.498 6  22805149.367    22805149.098    22805154.511
        41.400          37.400






 198899408.689 7                  37849300.900
        42.000
 123676999.143 6  96371625.32043  23534947.736    23534946.9144   23534948.2344
        39.800          23.1004
 202014959.409 7                  38442174.689
        44.300
 128992327.498 7                  24546422.907
        43.900
 136973857.880 5                  26065260.465
        31.900
 115625250.583 7  89930758.882 6  21690999.688    21690999.542    21691003.674
        46.300          38.400


 116117071.932 5  90313317.727 7  21714476.873    21714477.022    21714483.102
        31.300          44.400
 147218550.219 5                  28014757.831
        35.800
 25  1  1 11  3  0.0000000  0 28G08G23G02E29G32G24E33G10G28G27R19R04
                                R03R13E26R18S35R05G25S31G21S33E07E19
                                R14E13R20E12


 113354125.726 5  88327894.15242  21570578.227    21570577.8704   21570574.8594
        30.800          14.0004
 132227064.729 7 103034058.63243  25161972.276    25161971.7134   25161968.5824
        42.200          22.2004
 123943945.700 8                  23585742.204
        50.600
 110113973.850 8  85803061.64249  20953962.723    20953962.3664   20953963.9134
        53.900          54.3004
 122599684.842 6  95532214.50144  23329939.440    23329939.2354   23329947.2694
        38.500          26.5004
 125815592.751 7                  23941906.382
        47.800
 107575745.061 8  83825298.38248  20470983.277    20470982.7634   20470983.8144
        52.500          51.7004
 119737179.662 6  93301666.66443  22785228.723    22785228.2724   22785231.5164
        41.500          23.4004


 110202172.965 6  85712824.629 7  20601130.948    20601130.102    20601134.707
        38.100          42.100
 106663498.731 7  82960605.812 8  19918630.427    19918628.630    19918634.810
        46.400          48.800
 114303973.377 5                  21352921.157    21352919.663
        33.300
 116219607.329 5                  21764188.502    21764188.356
        35.300
 128134088.764 6                  24383107.987
        41.400
 121801239.860 6  94734444.152 5  22817517.956    22817514.941    22817520.752
        37.500          35.500


 118303618.547 6                  22131125.179    22131127.575
        41.900


 198899412.996 7                  37849305.412
        42.200
 123650054.721 6  96350629.69444  23529821.254    23529820.4234   23529821.4694
        41.300          24.2004
 202014956.103 7                  38442171.934
        43.600
 129017319.335 7                  24551178.611
        43.800
 136943511.696 4                  26059485.540
        27.400
 115577028.474 7  89893252.866 6  21681952.447    21681951.008    21681958.807
        44.000          40.300


 116084339.905 5  90287859.439 7  21708361.468    21708359.104    21708361.008
        33.200          43.400
 147178141.051 5                  28007067.661
        34.200
 25  1  1 11  3 15.0000000  0 28G08G23G02E29G32G24E33G10G28G27R19R04
                                R03R13E26R18S35R05G25S31G21S33E07E19
                                R14E13R20E12


 113384604.647 5  88351643.97542  21576374.406    21576373.8654   21576375.2834
        33.700          14.6004
 132185318.408 6 103001529.04543  25154028.829    25154028.2084   25154025.4874
        38.900          20.3004
 123935624.728 8                  23584158.836
        50.400
 110103799.974 8  85795133.93348  20952026.486    20952026.1294   20952027.4644
        52.700          53.3004
 122649943.291 6  95571376.83344  23339501.911    23339501.7774   23339512.3384
        36.700          24.6004
 125808408.965 8                  23940539.762
        48.800
 107569035.237 8  83820069.95048  20469706.193    20469705.6844   20469708.1324
        52.200          52.5004
 119685986.771 7  93261776.13743  22775486.220    22775485.8314   22775491.2264
        43.000          23.6004


 110241928.054 6  85743745.193 6  20608562.821    20608563.513    20608566.696
        39.000          41.500
 106661081.260 8  82958725.523 8  19918179.838    19918178.655    19918184.428
        49.100          49.300
                                                  21358705.576

 116228957.267 6                  21765946.518    21765945.999
        37.700
 128166836.655 6                  24389339.175
        41.600
 121867285.830 5  94785813.245 5  22829887.791    22829884.880    22829892.748
        35.700          35.600


 118269584.055 6                  22124759.859    22124758.804
        36.200


 198899415.012 7                  37849301.580
        42.500
 123623206.559 6  96329709.08244  23524711.005    23524710.1834   23524712.1264
        40.000          24.6004
 202014951.151 7                  38442172.636
        44.000
 129042331.820 7                  24555938.820
        42.900


 115528910.543 7  89855827.837 7  21672928.145    21672927.426    21672933.445
        46.200          42.400


 116051781.287 5  90262536.118 7  21702268.975    21702266.796    21702273.488
        31.300          44.000
 147137770.607 5                  27999384.664
        33.000
 25  1  1 11  3 30.0000000  0 28G18G08G23G02E29G32G24E33G10G28G27R19
                                R04R13E26R18S35R05G25S31G21S33E07E19
                                R14E13R20E12




 113415167.669 6  88375459.33643  21582192.090    21582191.6664   21582192.7204
        39.300          21.3004
 132143639.029 5 102969051.65443  25146096.571    25146095.9284   25146095.3374
        35.600          19.8004
 123927360.044 8                  23582586.177
        50.400
 110093700.344 8  85787264.07948  20950104.439    20950104.0864   20950105.0914
        52.400          52.4004
 122700281.985 5  95610601.75543  23349081.896    23349081.7764   23349091.6324
        35.400          21.5004
 125801336.788 8                  23939193.131
        49.300
 107562413.357 8  83814910.02748  20468446.298    20468445.7894   20468448.4134
        51.200          52.3004
 119634860.818 6  93221937.77643  22765756.841    22765756.4574   22765760.3364
        41.700          20.8004


 110281850.517 6  85774795.989 7  20616025.934    20616026.092    20616030.796
        38.000          42.900
 106658724.272 8  82956892.318 8  19917739.242    19917739.112    19917742.927
        50.000          48.500
 116238507.665 5                  21767731.706    21767733.454
        33.800
 128199668.471 6                  24395587.553
        41.100
 121933362.705 6  94837206.327 5  22842265.649    22842268.413    22842271.416
        38.800          35.400


 118235586.715 6  91960996.051 6  22118405.277    22118403.215    22118407.201
        39.800          36.000


 198899422.559 7                  37849301.093
        42.100
 123596462.160 6  96308869.31543  23519623.180    23519622.3534   23519621.9184
        39.900          23.8004
 202014951.927 7                  38442174.161
        44.200
 129067372.218 7                  24560703.760
        42.400


 115480905.094 7  89818490.321 7  21663922.226    21663920.536    21663926.372
        44.600          42.200


 116019403.851 5  90237353.668 7  21696211.268    21696211.682    21696219.918
        31.500          45.000
 147097446.562 5                  27991710.860
        30.700
 25  1  1 11  3 45.0000000  0 28G18G08G23G02E29G32G24E33G10G28G27R19
                                R04R13E26R18S35R05G25S31G21S33E07E19
                                R14E13R20E12
 131252396.943 5                  24976501.399
        34.200


 113445804.930 6  88399332.52744  21588022.371    21588021.9154   21588024.2444
        41.200          24.5004
 132102016.997 6 102936618.93143  25138175.901    25138175.2674   25138175.9234
        37.400          19.7004
 123919141.733 8                  23581022.044
        50.800
 110083665.030 8  85779444.35248  20948194.407    20948194.0594   20948195.2884
        53.600          52.2004
 122750690.790 5  95649881.36243  23358678.549    23358678.4604   23358685.2834
        32.100          19.4004
 125794366.480 8                  23937866.586
        49.200
 107555869.727 8  83809811.08448  20467201.588    20467201.0704   20467202.8344
        50.100          51.5004
 119583792.311 6  93182144.23042  22756038.874    22756038.5704   22756037.6384
        40.400          16.2004


 110321929.831 6  85805968.785 7  20623518.261    20623517.996    20623523.187
        37.700          42.900
 106656417.745 8  82955098.388 8  19917307.996    19917307.985    19917312.422
        50.100          48.600
 116248249.299 4                  21769573.476
        24.100
 128232574.243 7                  24401850.167
        43.200
 121999459.744 6  94888615.109 6  22854648.182    22854648.100    22854654.550
        37.900          36.600


 118201616.511 6  91934574.752 6  22112047.278    22112048.784    22112051.769
        38.000          36.700


 198899424.944 7                  37849304.563
        43.000
 123569811.985 6  96288102.98544  23514551.606    23514550.7484   23514549.7024
        41.100          24.9004
 202014946.522 7                  38442174.362
        44.100
 129092430.584 7                  24565471.650
        42.400


 115433002.605 6  89781232.893 7  21654935.537    21654936.568    21654938.799
        37.800          42.100


 115987198.278 5  90212304.994 7  21690189.798    21690188.988    21690197.984
        32.200          45.500
 147057159.331 4                  27984045.841
        28.900
 25  1  1 11  4  0.0000000  0 28G18G08G23G02E29G32G24E33G10G28G27R19
                                R04R03E26R18S35R05G25S31G21S33E07E19
                                R14E13R20E12
 131311288.500 5                  24987707.833
        34.700


 113476522.788 6  88423268.52144  21593868.943    21593868.4654   21593870.5774
        41.300          25.7004
 132060459.094 6 102904236.15443  25130267.212    25130266.5284   25130268.9504
        40.500          20.7004
 123910976.120 8                  23579468.009
        50.400
 110073700.327 8  85771679.65448  20946298.195    20946297.8604   20946299.0024
        53.900          52.2004
 122801175.664 5  95689220.13343  23368292.504    23368292.4784   23368292.7924
        31.300          19.7004
 125787504.530 7                  23936560.379
        47.800
 107549410.897 8  83804778.21648  20465972.014    20465971.4964   20465973.3084
        49.200          50.4004
 119532787.963 6  93142400.63542  22746333.084    22746332.7894   22746329.1644
        41.300          15.5004


 110362172.137 6  85837268.326 7  20631040.933    20631039.936    20631045.878
        36.000          42.600
 106654167.901 8  82953348.491 8  19916887.591    19916888.185    19916892.791
        50.200          48.600
                                                  21376101.856

 128265560.162 7                  24408127.187
        44.800
 122065583.014 6  94940044.342 6  22867035.151    22867035.160    22867043.239
        38.000          38.300


 118167679.865 6  91908179.442 5  22105704.228    22105706.204    22105700.339
        37.700          35.300


 198899429.404 7                  37849305.144
        43.100
 123543262.486 6  96267415.08044  23509499.359    23509498.4834   23509497.3414
        41.900          25.1004
 202014943.870 7                  38442172.659
        43.800
 129117513.215 7                  24570244.249
        42.300


 115385209.825 6  89744060.980 6  21645985.923    21645982.318    21645974.086
        38.100          41.900


 115955171.382 5  90187395.208 7  21684200.288    21684200.922    21684208.013
        33.600          45.000
 147016915.310 5                  27976388.360
        30.700
 25  1  1 11  4 15.0000000  0 28G18G08G23G02E29G32G24E33G10G28G27R19
                                R04E26R18S35R05G12G25S31G21S33E07E19
                                R14E13R20E12
 131370186.646 5                  24998915.837
        34.300


 113507324.781 6  88447270.06744  21599732.450    21599731.9414   21599732.4774
        40.600          26.7004
 132018969.217 6 102871906.38243  25122371.233    25122370.5454   25122373.6434
        40.700          20.8004
 123902866.686 8                  23577924.977
        49.800
 110063809.776 9  85763972.74548  20944416.474    20944416.1394   20944416.5974
        54.300          52.0004


 125780754.614 7                  23935276.255
        47.700
 107543040.615 8  83799814.35448  20464759.139    20464758.6074   20464760.9574
        48.700          49.2004
 119481851.653 6  93102710.04942  22736639.409    22736639.1374   22736635.5584
        39.100          17.4004


 110402580.602 5  85868697.041 7  20638596.216    20638593.893    20638598.856
        35.100          42.400
 106651978.600 8  82951645.691 8  19916478.154    19916479.211    19916484.045
        49.800          48.400
 128298629.609 7                  24414420.482
        45.400
 122131735.805 6  94991496.473 6  22879429.798    22879430.494    22879437.892
        41.700          39.800


 118133780.265 6  91881813.198 5  22099382.920    22099366.878    22099360.942
        37.600          35.800
 129538481.310 5                  24650348.876
        35.300


 198899438.867 7                  37849306.150
        42.400
 123516817.436 7  96246808.57644  23504466.501    23504465.6074   23504465.0184
        42.100          25.0004
 202014946.975 7                  38442173.727
        43.900
 129142623.575 7                  24575022.759
        42.100


 115337531.372 5  89706977.902 6  21637034.816    21637030.572    21637028.498
        30.800          41.100


 115923326.537 5  90162626.983 7  21678246.153    21678247.037    21678252.961
        34.000          44.200
 146976718.651 5                  27968738.382
        32.900
 25  1  1 11  4 30.0000000  0 28G18G08G23G02E29G32G24E33G10G28G27R19
                                R04R03E26R18S35R05G12G25S31G21S33E07
                                E19R14R20E12
 131429081.156 4                  25010121.973
        28.900


 113538201.086 6  88471329.48444  21605608.511    21605608.0114   21605609.1554
        41.800          27.8004
 131977537.945 6 102839622.35443  25114487.240    25114486.5434   25114489.0284
        41.600          21.3004
 123894803.540 8                  23576390.784
        49.900
 110053983.446 8  85756315.88248  20942546.595    20942546.2604   20942546.5424
        53.900          51.6004


 125774106.944 7                  23934011.499
        47.600
 107536749.228 8  83794911.98147  20463561.718    20463561.1864   20463563.5464
        48.900          47.9004
 119430973.881 6  93063065.09942  22726958.461    22726958.2294   22726954.4284
        37.400          17.0004


 110443144.417 5  85900246.656 7  20646174.242    20646173.897    20646181.793
        31.000          42.300
 106649839.607 8  82949982.027 8  19916078.425    19916078.911    19916084.483
        48.500          48.300
                  89047822.503 5                                  21387701.450
                        33.000
 128331772.667 7                  24420727.417
        44.600
 122197907.366 6  95042963.237 6  22891824.579    22891826.077    22891834.299
        41.500          39.400


                  91855468.034 5                                  22093022.676
                        35.300
 129510618.504 5 100917347.75841  24645042.009    24645041.6294   24645047.0564
        31.300          10.1004


 198899444.294 7                  37849308.980
        42.600
 123490467.141 6  96226275.88843  23499452.309    23499451.4064   23499450.8134
        40.300          23.6004
 202014945.813 7                  38442172.158
        43.500
 129167751.737 6                  24579803.663
        38.700


 115289957.659 6  89669976.198 6  21628106.650    21628106.725    21628103.846
        38.400          40.100
 115891654.636 5  90137993.287 7  21672323.248    21672322.974    21672329.800
        33.700          43.300
 146936559.430 5                  27961095.787
        33.800
 25  1  1 11  4 45.0000000  0 27G08G23G02E29G32G24E33G10G28G27R19R04
                                R03E26R18S35R05G12G25S31G21S33E07E19
                                R14R20E12


 113569158.756 7  88495452.31944  21611497.952    21611497.4964   21611500.8884
        42.300          28.4004
 131936172.387 6 102807389.48043  25106615.686    25106614.9674   25106616.2624
        41.800          20.9004
 123886793.755 8                  23574866.362
        50.500
 110044228.442 9  85748714.60148  20940690.592    20940690.2534   20940690.6584
        54.100          51.7004


 125767568.791 8                  23932767.441
        48.800
 107530544.098 8  83790076.80847  20462380.667    20462380.1354   20462382.3624
        48.500          46.9004
 119380162.135 6  93023471.61942  22717291.255    22717291.0274   22717285.7614
        38.500          16.9004


 110483870.788 5  85931922.693 7  20653791.877    20653789.499    20653796.005
        33.400          42.100
 106647758.165 8  82948363.109 8  19915690.459    19915690.707    19915696.136
        49.300          48.400
                  89072025.440 5                                  21393513.200
                        34.500
 128364996.258 7                  24427049.682
        44.900
 122264104.502 6  95094449.957 6  22904225.984    22904227.058    22904233.661
        41.500          37.000


 118066069.984 7  91829149.829 6  22086697.963    22086698.543    22086693.815
        43.000          37.200
 129482845.491 4 100895706.51841  24639757.766    24639757.6684   24639766.4674
        24.500           6.5004


 198899451.691 7                  37849309.159
        42.400
 123464218.981 6  96205822.78643  23494457.821    23494456.9094   23494456.6104
        38.700          21.9004
 202014945.367 7                  38442170.843
        44.000
 129192904.701 6                  24584593.078
        37.800
 136732060.942 5                  26019246.594
        34.600
 115242496.588 6  89633062.090 6  21619200.085    21619198.511    21619198.171
        40.100          37.600
 115860163.345 6  90113500.063 7  21666435.578    21666436.964    21666441.322
        37.900          44.100
 146896445.378 6                  27953462.586
        36.100
 25  1  1 11  5  0.0000000  0 28G18G08G23G02E29G32G24E33G10G28G27R19
                                R04R03E26R18S35R05G12G25S31G21S33E07
                                E19R14R20E12




 113600196.192 7  88519637.32044  21617403.859    21617403.4484   21617406.0554
        44.900          28.2004
 131894871.327 6 102775206.80643  25098756.717    25098755.9304   25098756.1164
        40.300          19.7004
 123878835.637 8                  23573352.159
        51.200
 110034543.061 8  85741167.56148  20938847.797    20938847.4534   20938848.1354
        53.100          52.1004


 125761138.599 8                  23931543.642
        49.500
 107524423.691 8  83785307.68047  20461216.340    20461215.8174   20461217.2414
        49.300          46.7004




 110524757.400 5  85963723.378 7  20661433.292    20661433.805    20661439.667
        35.800          42.500
 106645732.532 8  82946787.630 7  19915312.001    19915311.956    19915316.871
        49.200          47.300
                  89096249.926 5                                  21399331.268
                        34.500
 128398298.631 7                  24433386.354
        43.800
 122330324.964 7  95145954.781 5  22916631.497    22916632.162    22916636.466
        42.600          33.400


 118032264.578 6  91802856.711 6  22080367.438    22080366.198    22080370.963
        39.000          39.500
 129455161.028 4 100874134.3134   24634488.914    24634488.4764   24634502.0354
        29.200           2.6004


 198899460.791 7                  37849311.154
        42.500
 123438071.705 6  96185448.28343  23489482.883    23489481.9444   23489481.6974
        36.000          21.6004
 202014947.177 7                  38442176.120
        44.700
 129218080.709 6                  24589383.415
        39.600
 136701994.530 5                  26013524.279
        33.000
 115195146.913 7  89596234.671 6  21610314.354    21610314.117    21610316.635
        43.100          37.300
 115828851.080 6  90089146.112 7  21660578.492    21660578.494    21660585.925
        36.700          42.200
 146856374.715 6                  27945837.170
        36.700
 25  1  1 11  5 15.0000000  0 30G18G08G23G02E29G32G24E33G10G28G27R19
                                R04R03R13E26R18S35R05G12G25S31G31G21
                                S33E07E19R14R20E12




 113631305.585 7  88543878.39744  21623323.289    21623322.9004   21623324.3554
        42.600          26.4004
 131853627.487 6 102743068.79242  25090909.479    25090908.6214   25090906.2764
        39.500          17.4004
 123870921.338 8                  23571846.229
        51.600
 110024919.439 8  85733668.63448  20937015.808    20937015.4464   20937017.5464
        53.300          52.2004


 125754808.689 8                  23930339.301
        49.000
 107518380.480 8  83780598.68947  20460066.339    20460065.8164   20460067.0644
        49.700          46.7004




 110565795.822 5  85995642.130 7  20669106.975    20669105.339    20669111.536
        35.200          42.300
 106643754.858 8  82945249.442 7  19914943.323    19914943.624    19914946.987
        50.700          46.600
 114583672.335 6  89120489.566 5  21405152.839    21405165.359    21405155.574
        38.900          34.900
 116310777.505 5                  21781272.476    21781270.576
        34.600
 128431671.836 6                  24439737.284
        39.900
 122396560.414 7  95197471.171 5  22929040.217    22929041.098    22929043.649
        44.300          33.300


                  91776582.923 6                  22074043.570    22074052.014
                        39.400
 129427557.574 4                  24629237.550
        28.600


 198899462.188 7                  37849312.200
        42.300
 131774194.066 5                  25075795.870
        33.500
 123412017.627 6  96165146.41943  23484524.987    23484524.0174   23484523.7054
        38.100          21.4004
 202014942.330 7                  38442172.118
        43.500
 129243272.001 6                  24594177.661
        40.500
 136671955.884 5                  26007808.441
        30.100
 115147901.248 7  89559488.039 6  21601449.655    21601450.932    21601455.117
        44.400          38.200
 115797710.566 6  90064925.740 6  21654753.733    21654755.073    21654762.638
        36.400          41.100
 146816340.048 5                  27938218.850
        35.800
 25  1  1 11  5 30.0000000  0 30G18G08G23G02E29G32G24E33G10G28G27R19
                                R04R03R13E26R18S35R05G12G25S31G31G21
                                S33E07E19R14R20E12




 113662496.342 6  88568182.87444  21629258.919    21629258.5484   21629259.0754
        40.900          25.5004
 131812450.185 6 102710982.61242  25083072.928    25083072.0704   25083068.9984
        41.000          17.1004
 123863060.229 8                  23570350.434
        51.000
 110015366.956 8  85726225.13448  20935198.102    20935197.7314   20935200.3194
        52.700          52.4004
 123105600.963 5                  23426216.465
        34.800
 125748588.554 8                  23929155.810
        48.700
 107512424.026 8  83775957.30247  20458933.037    20458932.5144   20458933.7674
        49.300          46.7004
 119228090.803 5                  22688347.280
        33.000


 110606995.080 5  86027685.997 6  20676807.624    20676806.475    20676812.014
        33.300          40.400
 106641834.755 8  82943756.027 7  19914583.997    19914585.747    19914588.180
        51.900          45.800
 114614866.677 6  89144751.871 5  21410979.841    21410981.348    21410983.297
        38.900          34.100
 116321888.218 5                  21783350.602    21783347.958
        32.000
 128465125.111 6                  24446101.723
        37.100
 122462819.882 7  95249006.265 5  22941453.656    22941452.771    22941455.586
        42.900          34.200


 117964737.668 6  91750335.651 6  22067738.966    22067734.155    22067740.078
        37.800          39.000
 129400045.011 5 100831227.73541  24624001.814    24624001.3814   24624015.6874
        34.500          10.1004
 127233464.335 5                  24211718.685
        32.100
 198899466.621 7                  37849309.928
        42.400
 131713768.680 5                  25064290.904
        34.400
 123386066.437 6  96144924.69943  23479585.080    23479584.1194   23479585.1294
        39.300          21.7004
 202014939.462 7                  38442172.690
        44.900
 129268487.823 6                  24598976.261
        41.200
 136641954.195 4                  26002096.535
        24.700
 115100770.130 7  89522830.496 6  21592609.580    21592608.021    21592615.431
        45.600          39.500
 115766751.711 6  90040846.674 6  21648965.895    21648966.026    21648973.264
        37.000          39.600
 146776350.892 5                  27930609.312
        35.200
 25  1  1 11  5 45.0000000  0 30G18G08G23G02E29G32G24E33G10G28G27R19
                                R04R03R13E26R18S35R05G12G25S31G31G21
                                S33E07E19R14R20E12




 113693769.072 6  88592551.19944  21635210.905    21635210.5484   21635210.7914
        39.000          24.3004
 131771340.548 7 102678949.18642  25075250.412    25075249.4964   25075244.7544
        42.300          17.9004
 123855252.880 8                  23568865.078
        51.800
 110005886.192 8  85718837.51348  20933394.047    20933393.6544   20933396.4984
        51.800          51.7004
 123156597.691 5  95966176.16441  23435919.752    23435919.8724   23435923.6114
        32.600          10.4004
 125742478.978 8                  23927993.379
        49.300
 107506555.131 8  83771384.15047  20457816.462    20457815.9124   20457817.3144
        49.700          47.0004
 119177535.491 5  92865573.28341  22678730.841    22678731.0244   22678725.2514
        34.100           9.2004


 110648355.455 5  86059855.143 6  20684539.542    20684537.955    20684542.770
        32.200          38.000
 106639972.674 8  82942307.760 7  19914235.654    19914236.227    19914241.356
        49.500          45.600
 114646090.942 5  89169037.473 5  21416815.903    21416813.824    21416815.634
        34.200          34.300
 116333197.175 5                  21785470.162    21785468.272
        33.400
 128498658.946 5                  24452485.117
        35.600
 122529103.461 6  95300560.102 6  22953869.509    22953868.767    22953876.752
        41.500          37.700


 117931026.624 7  91724115.972 6  22061434.323    22061437.851    22061434.021
        42.800          37.500
 129372624.146 5 100809861.0194   24618781.495    24618781.0844   24618796.6154
        30.600           5.0004
 127190422.585 4                  24203514.099
        27.300
 198899475.220 7                  37849312.607
        43.000
 131653345.283 5 102586992.44641  25052786.108    25052785.7644   25052791.9034
        34.100           8.3004
 123360218.743 6  96124783.66243  23474666.734    23474665.7154   23474666.2684
        38.900          21.6004
 202014940.694 7                  38442170.655
        44.700
 129293728.731 6                  24603779.177
        41.500
 136611990.200 4                  25996397.104
        26.200
 115053754.363 8  89486262.668 6  21583790.702    21583789.395    21583799.421
        48.300          38.600
 115735975.476 6  90016909.589 6  21643211.038    21643210.422    21643217.982
        37.000          37.000
 146736408.296 5                  27923008.784
        34.100
 25  1  1 11  6  0.0000000  0 30G18G08G23G02E29G32G24E33G10G28G27R19
                                R04R03R13E26R18S35R05G12G25S31G31G21
                                S33E07E19R14R20E12




 113725119.147 6  88616979.82243  21641176.625    21641176.2544   21641177.7024
        37.400          22.4004
 131730294.056 7 102646964.90043  25067438.855    25067437.9254   25067433.3434
        43.000          19.1004
 123847494.654 8                  23567388.454
        51.400
 109996472.504 8  85711502.15148  20931602.777    20931602.3714   20931604.9654
        51.500          52.0004
 123207664.514 4  96005968.43441  23445639.009    23445638.7594   23445643.9614
        29.300          11.6004
 125736475.432 8                  23926850.881
        49.100
 107500769.402 8  83766875.81448  20456715.555    20456714.9924   20456716.4414
        51.200          48.3004
 119127043.884 4  92826229.20242  22669122.384    22669122.8664   22669122.7284
        26.900          15.5004


 110689871.792 5  86092145.583 6  20692299.429    20692300.803    20692302.015
        34.600          36.300
 106638163.971 8  82940901.024 7  19913899.489    19913899.250    19913904.652
        50.500          45.700
 114677340.716 4  89193342.703 5  21422671.165    21422667.929    21422654.572
        29.400          32.600
 116344699.909 5                  21787625.647    21787625.633
        33.600
 128532268.540 5                  24458876.972
        33.300
 122595406.036 6  95352128.788 6  22966289.700    22966288.600    22966298.749
        40.600          39.600


 117897345.729 7  91697919.858 5  22055139.843    22055137.814    22055131.318
        46.400          35.600
 129345290.820 5                  24613591.937
        32.000
 127147404.015 5                  24195337.415
        31.700
 198899481.038 7                  37849314.239
        43.200
 131592919.805 5 102539907.55341  25041292.558    25041292.3844   25041291.4764
        30.800           9.9004
 123334470.204 6  96104719.81743  23469766.045    23469764.9994   23469766.6624
        38.700          21.8004
 202014940.044 7                  38442170.901
        44.800
 129318990.041 6                  24608585.637
        40.400
 136582059.236 4                  25990700.668
        29.500
 115006849.899 7  89449781.413 5  21574989.338    21574988.554    21574998.597
        45.500          33.600
 115705377.809 6  89993111.368 5  21637487.497    21637487.648    21637499.067
        36.600          35.600
 146696507.924 5                  27915416.249
        34.400
 25  1  1 11  6 15.0000000  0 28G08G23G02E29G32G24E33G10G28G27R19R04
                                R03E26R18S35R05G12G25S31G31G21S33E07
                                E19R14R20E12


 113756546.331 5  88641468.56343  21647156.132    21647155.7214   21647158.9574
        32.100          19.3004
 131689311.182 7 102615030.21843  25059640.383    25059639.4184   25059636.1804
        43.500          20.3004
 123839785.315 8                  23565921.385
        50.800
 109987125.668 8  85704218.88948  20929824.355    20929823.9534   20929825.9394
        52.900          52.8004


 125730577.891 8                  23925728.614
        48.900
 107495066.889 8  83762432.32648  20455630.204    20455629.6544   20455630.9144
        50.900          48.6004
 119076615.937 6  92786934.64243  22659533.188    22659533.3984   22659528.4154
        36.900          19.4004
 134584019.445 5 104870662.1604   25610489.126    25610489.5194   25610483.1024
        34.100           4.4004
 110731543.459 5  86124556.875 6  20700090.759    20700090.133    20700095.270
        33.700          39.100
 106636408.601 8  82939535.794 7  19913571.367    19913572.102    19913575.111
        51.200          42.800
 114708615.358 6  89217667.321 4  21428513.379    21428514.245    21428497.542
        38.800          29.100
 128565953.698 5                  24465291.073
        31.200
 122661726.926 6  95403711.713 6  22978712.987    22978713.563    22978723.188
        40.900          40.300


 117863694.993 7  91671747.003 6  22048842.396    22048843.048    22048839.571
        44.000          39.500
 129318045.563 5 100767355.19741  24608398.596    24608398.0604   24608415.8824
        32.000          10.1004
 127104408.909 5  99042394.7614   24187153.953    24187154.2524   24187162.9844
        33.500           4.9004
 198899486.048 7                  37849313.555
        43.000
 131532492.207 4 102492821.09641  25029800.430    25029799.8184   25029792.8414
        27.700           7.1004
 123308820.947 6  96084733.35643  23464885.209    23464884.1364   23464885.8594
        38.700          22.0004
 202014938.913 7                  38442166.278
        43.700
 129344271.487 6                  24613396.660
        40.000
 136552161.214 5                  25985012.239
        30.500
 114960057.133 7                  21566212.262    21566212.748
        46.400
 115674958.213 6  89969451.753 5  21631798.569    21631799.328    21631813.538
        37.700          32.300
 146656649.680 5                  27907831.679
        35.100
 25  1  1 11  6 30.0000000  0 30G18G08G23G02E29G32G24E33G10G28G27R19
                                R04R03R13E26R18S35R05G12G25S31G31G21
                                S33E07E19R14R20E12




 113788052.441 6  88666018.79343  21653153.131    21653152.7164   21653154.8314
        38.800          20.1004
 131648393.814 7 102583146.57543  25051853.964    25051852.9994   25051851.6794
        42.400          21.4004
 123832126.464 8                  23564464.056
        51.000
 109977847.247 8  85696988.94348  20928058.517    20928058.1204   20928060.2294
        53.100          53.4004


 125724788.062 8                  23924626.772
        48.100
 107489449.368 8  83758055.03948  20454561.510    20454560.9654   20454561.4814
        51.600          48.6004
 119026253.691 5  92747691.39343  22649945.657    22649945.4654   22649945.0444
        34.600          19.6004
 134623975.625 4 104901839.2784   25618101.741    25618102.1214   25618101.9564
        29.200           5.6004
 110773371.635 6  86157089.931 6  20707911.392    20707911.086    20707915.007
        36.900          41.100
 106634707.845 8  82938213.024 6  19913253.257    19913253.646    19913255.386
        50.400          39.800
 114739916.137 5                  21434341.552    21434345.612
        35.200
 116368369.880 5                  21792054.118
        35.700
 128599715.870 5                  24471715.146
        34.300
 122728067.363 7  95455309.801 6  22991142.563    22991143.860    22991149.979
        42.400          39.800


 117830075.768 6  91645598.701 7  22042563.617    22042569.075    22042553.418
        40.500          42.000
 129290890.140 4 100746195.13841  24603230.289    24603229.9544   24603245.9034
        27.500           9.5004
 127061439.337 5  99008912.00641  24178983.264    24178983.5054   24178986.0594
        34.900           6.1004
 198899492.020 7                  37849317.074
        43.100
 131472064.326 4 102445734.4624   25018299.978    25018299.2324   25018293.8404
        28.400           5.4004
 123283272.965 6  96064825.82043  23460024.285    23460023.2614   23460024.4144
        36.800          22.4004
 202014937.822 7                  38442170.190
        44.400
 129369574.651 6                  24618211.234
        39.900
 136522297.881 5                  25979327.476
        33.200
 114913378.408 7                  21557456.456    21557456.972
        47.600
 115644719.548 6  89945933.005 5  21626143.347    21626143.562    21626147.929
        36.700          33.300
 146616835.464 5                  27900254.857
        35.900
 25  1  1 11  6 45.0000000  0 29G18G08G23G02E29G32G24E33G10G28G27R19
                                R04R03R13E26R18S35R05G25S31G31G21S33
                                E07E19R14R20E12




 113819637.952 6  88690630.87943  21659164.196    21659163.7724   21659165.9934
        39.700          20.2004
 131607542.832 7 102551314.67743  25044080.270    25044079.3234   25044079.3964
        42.700          22.3004
 123824518.741 8                  23563016.354
        50.200
 109968637.914 8  85689812.83548  20926306.237    20926305.8624   20926307.9844
        52.500          53.5004


 125719106.746 7                  23923545.621
        47.200
 107483917.712 8  83753744.66148  20453508.884    20453508.3304   20453509.1484
        51.700          49.1004
 118975958.153 6  92708500.09643  22640374.306    22640374.1994   22640374.0724
        36.600          21.6004
 134663925.451 4                  25625695.041
        24.800
 110815356.597 6  86189744.885 6  20715760.172    20715762.540    20715763.617
        38.600          41.300
 106633062.748 8  82936933.436 6  19912946.820    19912948.395    19912947.743
        52.700          37.900
 114771244.469 5                  21440201.024    21440199.542
        34.400
 116380456.741 5                  21794303.233    21794305.039
        34.900
 128633555.587 6                  24478154.183
        36.700
 122794427.389 7  95506923.176 6  23003577.218    23003577.850    23003579.288
        42.900          37.300


                  91619475.898 6                  22036261.874    22036267.354
                        40.700
 127018496.428 5  98975450.1654   24170823.452    24170823.1484   24170812.3714
        32.600           5.0004
 198899497.927 7                  37849314.297
        42.700
 131411637.561 3 102398648.6234   25006788.885    25006787.8484   25006795.3674
        23.500           5.0004
 123257826.978 6  96044997.75043  23455183.191    23455182.2034   23455181.9474
        38.500          23.0004
 202014937.029 7                  38442171.505
        44.700
 129394900.147 6                  24623030.592
        39.800
 136492469.820 5                  25973649.028
        31.000
 114866814.924 7  89340898.897 5  21548719.132    21548719.725    21548729.890
        47.400          35.700
 115614662.311 6  89922555.281 6  21620522.985    21620522.469    21620528.544
        36.300          36.800
 146577066.602 6                  27892686.396
        36.700
 25  1  1 11  7  0.0000000  0 28G18G08G23G02E29G32G24E33G10G28G27R19
                                R04R03R13E26R18S35R05G25S31G21S33E07
                                E19R14R20E12




 113851304.096 4  88715305.79842  21665187.207    21665186.7254   21665191.5224
        29.000          14.8004
 131566759.342 6 102519535.26043  25036319.564    25036318.6034   25036319.3024
        41.200          21.2004
 123816963.171 8                  23561578.435
        49.700
 109959498.705 8  85682691.35948  20924566.990    20924566.6244   20924568.8044
        52.800          53.0004


 125713535.126 7                  23922485.806
        47.200
 107478473.262 8  83749502.24248  20452472.905    20452472.3474   20452473.7844
        51.000          49.6004
 118925730.819 6  92669361.96743  22630816.868    22630816.7704   22630816.0504
        38.500          22.9004


 110857498.860 6  86222522.187 7  20723638.005    20723637.988    20723641.498
        36.100          42.000
 106631474.138 8  82935697.793 6  19912650.683    19912651.895    19912650.921
        53.600          38.800
 114802601.640 5                  21446070.812    21446067.349
        32.400
 116392740.104 5                  21796605.461    21796602.505
        31.600
 128667473.840 6                  24484608.230
        38.200
 122860807.575 6  95558552.243 6  23016008.943    23016010.204    23016013.346
        38.800          36.100


 117762936.257 6  91593378.879 6  22029981.438    22029983.899    22029990.050
        41.000          38.600
 126975581.712 3  98942010.2304   24162646.571    24162646.0304   24162644.9884
        22.600           2.2004
 198899505.931 7                  37849317.253
        42.600
 123232484.316 6  96025250.19843  23450360.185    23450359.1704   23450359.0114
        38.800          23.9004
 202014938.174 7                  38442170.758
        44.500
 129420248.949 6                  24627854.659
        39.600
 136462678.099 5                  25967983.653
        31.100
 114820368.338 7  89304773.655 6  21540005.028    21540004.913    21540015.059
        47.000          38.000
 115584787.840 6  89899319.583 6  21614936.971    21614936.142    21614944.865
        36.300          40.800
 146537344.062 6                  27885126.745
        37.200
 25  1  1 11  7 15.0000000  0 28G18G08G23G02E29G32G24E33G10G28G27R19
                                R04R03R13E26R18S35R05G25S31G21S33E07
                                E19R14R20E12






 131526038.612 6 102487804.76043  25028570.260    25028569.2594   25028569.7124
        40.400          20.3004
 123809454.119 8                  23560149.283
        49.000
 109950423.970 8  85675620.11548  20922839.528    20922839.1624   20922841.3674
        52.900          52.3004


 125708067.759 7                  23921444.987
        46.900
 107473110.625 8  83745323.58548  20451452.623    20451452.0654   20451454.1334
        51.700          50.3004
 118875566.421 5  92630272.87543  22621271.270    22621271.1774   22621270.7954
        34.200          20.8004


 110899792.318 5  86255417.126 7  20731543.347    20731543.218    20731548.042
        34.400          42.200
 106629936.353 8  82934501.764 7  19912363.956    19912365.144    19912366.687
        52.900          42.100
 114833981.077 6                  21451911.425    21451912.689
        36.000
 116405214.183 4                  21798935.717    21798933.052
        25.700
 128701464.804 6                  24491075.253
        36.000
 122927201.839 6  95610192.218 5  23028447.355    23028448.344    23028451.204
        39.600          35.900


 117729411.216 6  91567303.824 5  22023709.498    22023710.047    22023715.603
        39.600          34.700


 198899510.959 7                  37849319.252
        42.700
 123207239.699 6  96005579.05244  23445556.800    23445555.7594   23445554.6734
        40.500          24.8004
 202014936.914 7                  38442169.318
        44.000
 129445615.377 6                  24632680.876
        39.600
 136432917.210 5                  25962319.692
        32.400
 114774033.606 8  89268735.520 6  21531315.075    21531314.145    21531319.122
        49.300          37.700
 115555091.223 5  89876222.201 6  21609383.522    21609382.825    21609390.542
        35.500          41.500
 146497662.372 6                  27877575.315
        37.700
 25  1  1 11  7 30.0000000  0 27G18G08G23G02E29G32G24E33G10G28G27R19
                                R04R13E26R18S35R05G25S31G21S33E07E19
                                R14R20E12




 113914910.436 5  88764890.05141  21677283.943    21677284.4084   21677291.2374
        34.600          10.3004
 131485384.906 6 102456126.52943  25020835.089    25020834.0884   25020832.5754
        39.500          20.3004
 123801995.764 8                  23558729.623
        49.400
 109941417.897 8  85668602.37748  20921125.945    20921125.5834   20921127.2294
        52.800          52.1004


 125702708.916 7                  23920425.246
        47.000
 107467834.142 8  83741212.05248  20450448.928    20450448.3654   20450451.0684
        50.900          50.3004




 110942240.965 5  86288432.743 7  20739479.142    20739476.095    20739484.452
        30.700          42.600
 106628453.904 8  82933348.795 7  19912086.920    19912087.541    19912089.428
        52.000          43.900
 116417883.427 5                  21801312.329    21801310.229
        30.600
 128735532.592 6                  24497558.123
        37.300
 122993614.000 6  95661846.079 6  23040891.257    23040891.519    23040892.805
        41.200          36.000


 117695918.340 5                  22017446.176    22017441.888
        35.000


 198899517.257 7                  37849321.403
        43.000
 123182097.554 6  95985987.78544  23440772.000    23440770.9764   23440770.4124
        41.300          25.8004
 202014936.384 7                  38442168.424
        44.500
 129471003.576 6                  24637512.454
        37.600
 136403191.359 5                  25956662.915
        32.000
 114727815.488 8  89232788.053 6  21522644.999    21522644.760    21522648.172
        50.500          37.600
 115525577.084 5  89853266.810 7  21603863.515    21603863.636    21603870.373
        35.200          42.400
 146458026.359 6                  27870032.841
        37.500
 25  1  1 11  7 45.0000000  0 28G18G08G23G02E29G32G24E33G10G28G27R19
                                R04R03R13E26R18S35R05S31G21S33E07E19
                                R14E13R20E12




 113946808.236 5  88789745.45842  21683353.477    21683353.4334   21683355.4994
        31.900          14.0004
 131444796.828 6 102424499.38543  25013110.893    25013109.9144   25013108.5894
        39.300          20.6004
 123794586.283 8                  23557319.566
        49.600
 109932478.636 8  85661636.70948  20919425.106    20919424.7444   20919426.2864
        52.800          52.3004


 125697456.953 7                  23919426.035
        47.400
 107462642.304 8  83737166.47648  20449460.510    20449459.9524   20449463.7204
        49.700          49.4004




 110984842.288 5  86321567.113 6  20747440.085    20747441.665    20747447.893
        30.600          41.500
 106627024.693 8  82932237.245 7  19911818.771    19911819.525    19911823.335
        50.400          45.200
 114896818.936 6  89364053.054 5  21463651.875    21463665.200    21463655.322
        38.700          34.600
 116430746.024 6                  21803725.437    21803722.902
        37.200
 128769675.272 6                  24504055.225
        38.700
 123060041.775 6  95713512.103 6  23053334.966    23053336.385    23053336.955
        41.300          36.600


 117662455.914 6                  22011188.311    22011186.227
        41.800
 198899521.144 7                  37849321.635
        43.100
 123157056.304 7  95966475.14944  23436006.786    23436005.7804   23436004.7054
        42.200          25.7004
 202014932.958 7                  38442173.490
        44.300
 129496411.734 5                  24642347.836
        35.200
 136373498.847 5                  25951013.047
        32.200
 114681712.794 8  89196930.418 6  21513995.102    21513994.084    21513999.410
        49.300          37.900
 149412286.307 4                  28432208.862
        29.000
 115496243.563 5  89830451.841 7  21598377.457    21598375.046    21598385.561
        32.900          43.800
 146418434.279 6                  27862498.504
        37.600
 25  1  1 11  8  0.0000000  0 28G18G08G23G02E29G32G24E33G10G28G27R19
                                R04R03R13E26R18S35R05S31G21S33E07E19
                                R14E13R20E12




 113978787.360 6  88814664.24143  21689440.036    21689439.8804   21689439.9024
        38.200          18.0004
 131404278.604 6 102392926.74843  25005400.510    25005399.5274   25005397.7324
        41.200          21.4004
 123787229.561 8                  23555919.598
        48.500
 109923610.127 8  85654726.18948  20917737.520    20917737.1584   20917738.8174
        53.100          52.3004


 125692315.871 7                  23918447.269
        47.300
 107457539.205 7  83733190.02947  20448488.600    20448488.0424   20448492.0234
        47.800          46.3004
 118725478.663 6  92513330.73643  22592708.628    22592708.2844   22592704.9084
        39.700          20.4004


 111027599.950 5  86354823.059 6  20755438.249    20755437.789    20755441.241
        33.000          41.100
 106625652.823 8  82931170.222 7  19911561.704    19911563.279    19911567.027
        50.600          45.700
 114928279.583 6  89388522.508 6  21469524.826    21469526.487    21469535.975
        39.900          36.000
 116443805.904 6                  21806166.826    21806168.285
        38.300
 128803896.656 6                  24510567.614
        40.400
 123126488.670 6  95765192.983 6  23065782.971    23065784.049    23065787.647
        40.700          38.900


 117629027.805 7  91489219.897 5  22004936.737    22004934.098    22004935.862
        44.200          34.200
 198899528.300 7                  37849322.811
        43.200
 123132119.875 7  95947044.19944  23431261.671    23431260.6654   23431259.1284
        42.400          25.5004
 202014934.095 7                  38442168.643
        44.600
 129521843.737 6                  24647187.212
        36.300
 136343843.669 5                  25945370.869
        33.700
 114635730.334 8  89161166.276 6  21505368.375    21505368.051    21505376.490
        49.000          39.800
 149460241.747 4                  28441334.265
        28.000
 115467095.066 5  89807780.810 7  21592924.883    21592924.192    21592934.994
        31.800          44.600
 146378890.348 6                  27854973.911
        38.600
 25  1  1 11  8 15.0000000  0 27G08G23G02E29G32G24E33G10G28R19R04R03
                                R13E26R18S35R05G25S31G21S33E07E19R14
                                E13R20E12
 132937870.854 6                  25297234.717
        36.500
 114010844.250 6  88839643.58643  21695537.409    21695537.2754   21695539.9914
        38.600          20.0004
 131363827.053 6 102361406.10543  24997702.721    24997701.6894   24997700.2324
        41.700          22.0004
 123779921.992 8                  23554529.365
        48.700
 109914808.741 8  85647867.97948  20916062.793    20916062.4224   20916063.9574
        53.200          52.2004


 125687282.257 7                  23917489.476
        47.500
 107452521.528 7  83729280.13047  20447532.808    20447532.2414   20447535.8294
        46.200          43.9004
 118675584.897 6  92474452.48943  22583214.062    22583213.8664   22583212.4004
        37.200          22.6004
 111070509.712 5  86388197.304 6  20763456.901    20763455.560    20763462.097
        32.500          40.400
 106624334.554 8  82930144.893 7  19911316.521    19911317.814    19911321.016
        49.300          46.200
 114959765.815 6  89413011.841 5  21475407.000    21475409.174    21475414.428
        40.300          33.800
 116457058.808 6                  21808652.440    21808653.345
        36.400
 128838193.046 6                  24517093.665
        40.800
 123192950.435 6  95816885.502 6  23078231.384    23078231.155    23078240.338
        37.200          40.400


 117595630.349 7  91463244.092 6  21998685.777    21998684.657    21998690.360
        43.400          37.000


 198899535.250 7                  37849324.600
        43.000
 123107285.008 7  95927692.37744  23426535.523    23426534.4774   23426533.2314
        43.500          26.5004
 202014935.120 7                  38442168.285
        44.500
 129547295.917 6                  24652028.832
        40.300
 136314222.226 5                  25939733.372
        34.600
 114589864.710 8  89125493.050 6  21496763.808    21496763.661    21496774.626
        48.600          41.700
 149508193.605 4                  28450459.614
        25.100
 115438128.684 5  89785251.431 7  21587509.394    21587509.025    21587518.946
        31.800          45.700
 146339391.296 6                  27847458.244
        38.800
 25  1  1 11  8 30.0000000  0 29G08G23G02E29G32G24E33G10G28R19R04R03
                                R13E26R18S35R05G12G25S31G21S33E07E30
                                E19R14E13R20E12
 132968592.995 4 103611892.98142  25303080.400    25303080.6634   25303083.3834
        25.600          12.8004
 114042975.511 6  88864680.92643  21701652.941    21701652.7454   21701654.8594
        38.200          20.0004
 131323438.849 6 102329934.83543  24990016.488    24990015.4384   24990015.5124
        40.300          22.9004
 123772660.110 8                  23553147.596
        49.400
 109906071.018 8  85641059.37448  20914400.308    20914399.9244   20914401.4174
        52.500          52.0004


 125682352.772 7                  23916551.443
        46.200
 107447585.971 7  83725434.20947  20446593.769    20446593.2464   20446595.7384
        44.800          42.9004
 118625755.054 6  92435624.06844  22573734.246    22573734.3894   22573731.0224
        40.200          25.5004
 111113567.722 5  86421686.818 6  20771509.323    20771508.233    20771510.396
        34.500          39.100
 106623066.698 7  82929158.734 7  19911081.402    19911080.777    19911084.109
        47.700          46.400
 114991274.184 6  89437518.456 5  21481290.137    21481289.774    21481300.894
        38.200          30.500
 116470501.533 5                  21811162.453    21811160.311
        32.200
 128872560.829 7                  24523635.307
        42.000
 123259423.157 5  95868586.551 6  23090681.115    23090680.689    23090692.944
        30.700          39.400


 117562260.207 7  91437289.457 6  21992442.211    21992442.222    21992447.197
        46.000          39.100
 129076887.947 5                  24562511.529
        33.100


 198899538.398 7                  37849326.089
        43.400
 123082548.656 7  95908417.29844  23421829.045    23421827.9774   23421826.7374
        42.800          27.2004
 202014930.740 7                  38442166.975
        45.600
 129572764.736 6                  24656874.980
        38.900


 136284631.116 5                  25934103.183
        32.700
 114544113.096 8  89089908.494 6  21488182.187    21488182.103    21488188.122
        48.100          40.300
 149556138.230 4                  28459583.079
        25.100
 115409341.344 5  89762861.294 7  21582129.647    21582127.191    21582135.448
        32.100          45.300
 146299933.713 6                  27839950.119
        38.800
 25  1  1 11  8 45.0000000  0 30G08G23G02E29G32G24E33G10G28R19R04R03
                                R13E26R18S35R05G12G25S31G21S33E07E30
                                E19R14E13R20E12R15


 114075188.725 6  88889782.05943  21707780.480    21707780.2304   21707783.8844
        36.800          20.0004
 131283122.099 6 102298519.25643  24982345.029    24982343.9974   24982344.3274
        38.700          22.5004
 123765451.496 8                  23551775.864
        50.300
 109897404.503 8  85634306.23848  20912751.413    20912751.0164   20912752.3144
        52.700          52.3004


 125677535.131 7                  23915635.077
        47.200
 107442740.365 7  83721658.41647  20445672.133    20445671.6244   20445673.2424
        44.700          42.5004
 118575997.063 7  92396851.62744  22564265.764    22564265.7334   22564263.1264
        42.600          27.6004
 111156781.240 5  86455297.331 6  20779588.365    20779586.729    20779589.577
        34.200          39.200
 106621856.488 7  82928217.426 7  19910855.907    19910855.667    19910857.733
        47.700          45.700
 115022812.293 6                  21487181.787    21487184.048
        40.200
 116484141.948 5                  21813719.066    21813717.753
        33.600
 128907007.513 7                  24530190.147
        43.400
 123325914.256 6  95920301.849 6  23103141.993    23103141.894    23103147.696
        38.300          38.000


 117528925.251 7  91411362.195 6  21986209.040    21986210.028    21986211.559
        47.200          40.700
 129050555.957 5 100558940.54141  24557506.267    24557505.9324   24557518.4254
        32.100          11.2004


 198899544.252 7                  37849323.706
        43.600
 123057918.485 7  95889224.97944  23417141.962    23417140.8764   23417140.0474
        43.600          28.1004
 202014930.937 7                  38442166.801
        45.100
 129598257.765 6                  24661726.168
        38.300


 136255077.988 5                  25928479.207
        31.100
 114498483.794 7  89054419.102 6  21479620.265    21479621.401    21479627.174
        43.300          41.000
 149604083.131 4                  28468709.473
        25.300
 115380741.103 5  89740616.546 7  21576779.782    21576778.021    21576786.860
        33.800          45.800
 146260525.778 6                  27832451.924
        40.500
 129449396.848 5                  24224686.300
        32.400
 25  1  1 11  9  0.0000000  0 29G08G23G02E29G32G24E33G10G28R19R04R03
                                R13E26R18S35R05G25S31G21S33E07E30E19
                                R14E13R20E12R15


 114107477.259 5  88914941.87842  21713930.187    21713930.0314   21713927.5184
        35.800          16.3004
 131242870.381 6 102267154.32343  24974685.900    24974684.9124   24974685.3014
        37.900          20.9004
 123758289.456 8                  23550413.146
        50.500
 109888802.534 8  85627603.39648  20911114.635    20911114.2384   20911115.6734
        53.400          53.1004


 125672822.783 8                  23914738.448
        48.000
 107437978.266 7  83717947.70047  20444767.932    20444767.4144   20444766.4374
        45.400          42.5004
 118526304.604 6  92358130.21344  22554809.222    22554809.1734   22554807.6564
        36.300          25.8004
 111200143.178 5  86489023.278 6  20787697.305    20787693.879    20787695.730
        34.200          40.400
 106620697.344 7  82927315.855 7  19910638.590    19910639.491    19910640.569
        46.600          44.800
 115054373.912 6                  21493083.963    21493083.468
        40.300
 116497973.240 5                  21816314.124    21816311.361
        35.000
 128941526.294 7                  24536760.046
        43.100
 123392416.235 6  95972025.593 6  23115597.378    23115598.814    23115602.864
        36.900          36.600


 117495618.405 7  91385456.900 7  21979973.199    21979972.392    21979983.045
        42.800          42.200


 198899547.874 7                  37849324.475
        44.000
 123033388.155 7  95870110.47544  23412473.212    23412472.1174   23412472.3134
        44.700          28.6004
 202014928.161 7                  38442166.542
        44.900
 129623768.277 6                  24666581.118
        38.000


 136225556.253 5                  25922856.808
        31.800
 114452970.596 4  89019020.063 7  21471074.502    21471068.940    21471089.470
        29.500          42.400
 149652021.494 4                  28477831.244
        26.900
 115352321.074 5  89718512.055 7  21571464.604    21571463.739    21571472.815
        32.900          46.700
 146221161.090 6                  27824960.853
        40.300
 129385640.044 5                  24212757.206    24212756.948
        32.000
 25  1  1 11  9 15.0000000  0 29G08G23G02E29G32G24E33G10G28R19R04R03
                                R13E26R18S35R05G25S31G21S33E07E30E19
                                R14E13R20E12R15


 114139847.182 5  88940165.21542  21720084.453    21720083.9714   21720087.4774
        32.700          16.2004
 131202689.957 6 102235844.88243  24967038.883    24967037.8954   24967039.2644
        39.100          20.3004
 123751180.140 8                  23549060.337
        49.600
 109880271.259 9  85620955.64348  20909490.710    20909490.3084   20909492.3094
        54.000          53.9004


 125668222.087 8                  23913862.800
        48.200
 107433306.110 7  83714307.07047  20443877.979    20443877.4164   20443877.4704
        46.900          44.8004
 118476684.287 5  92319464.99043  22545370.852    22545370.8924   22545365.5614
        33.500          21.0004
 111243658.865 4  86522868.914 6  20795827.403    20795824.313    20795831.623
        28.300          40.900
 106619595.700 7  82926459.002 7  19910433.376    19910434.901    19910434.494
        45.200          44.400
 115085964.823 6                  21498981.628    21498984.713
        39.000
 116512001.245 5                  21818942.067    21818940.514
        31.300
 128976123.227 7                  24543343.069
        42.100
 123458935.017 5  96023762.415 6  23128058.646    23128058.673    23128063.782
        32.300          36.100


 117462345.961 7  91359578.295 6  21973754.072    21973751.023    21973759.700
        42.600          41.800
 126590574.152 5  98641988.56142  24089376.344    24089376.7154   24089380.0104
        33.900          13.2004
 198899554.857 7                  37849328.615
        44.300
 123008964.056 7  95851078.75744  23407824.997    23407823.9064   23407824.4194
        44.400          28.0004
 202014928.316 7                  38442167.762
        45.400
 129649302.418 6                  24671438.704
        36.300


 136196071.967 5                  25917247.643
        31.800
 114407579.994 6  88983716.781 7  21462649.175                    21462573.515
        41.300          42.200
 149699959.445 4                  28486951.920
        28.000
 115324088.092 5  89696553.131 7  21566181.431    21566184.041    21566192.057
        32.000          46.000
 146181846.087 6                  27817479.669
        38.900
 129321854.461 5                  24200826.162    24200822.196
        30.000
 25  1  1 11  9 30.0000000  0 28G08G23G02E29G32G24E33G10G28G27R19R04
                                R03E26R18S35R05G25S31G21S33E07E30E19
                                R14E13R20E12
 133092029.063 5                  25326564.456
        32.800
 114172295.562 5  88965449.65042  21726259.252    21726258.5954   21726262.9134
        33.900          14.5004
 131162578.459 6 102204589.21343  24959405.643    24959404.6514   24959405.7934
        38.800          18.6004
 123744120.456 8                  23547717.041
        50.000
 109871807.588 8  85614360.57148  20907880.204    20907879.8074   20907881.7284
        53.000          53.5004


 125663730.018 8                  23913008.381
        48.900
 107428720.983 8  83710734.24547  20443004.751    20443004.2194   20443005.4814
        49.600          46.8004




 111287325.231 4  86556831.715 6  20803986.822    20803984.250    20803994.217
        28.800          41.600
 106618548.285 7  82925644.346 7  19910237.837    19910239.272    19910239.509
        44.600          44.700
                                                  21504886.285

 129010795.109 7                  24549940.797
        42.100
 123525467.084 5  96075509.580 6  23140521.436    23140517.517    23140527.952
        33.000          36.900


 117429104.980 7  91333724.192 6  21967536.134    21967534.614    21967539.593
        44.100          38.600
 126547941.880 5  98608768.57142  24081261.177    24081261.4764   24081266.1124
        34.200          13.5004
 198899561.170 7                  37849326.348
        43.300
 122984643.349 7  95832127.57244  23403197.138    23403196.0254   23403196.1914
        43.200          26.9004
 202014928.430 7                  38442169.233
        44.900
 129674857.173 5                  24676301.689
        33.300


 136166622.359 5                  25911646.967
        31.200
                  88948507.111 6                  21454068.663    21454078.259
                        40.100
 149747893.639 4                  28496073.095
        28.200
 115296039.834 5  89674737.769 7  21560942.804    21560940.590    21560945.860
        34.900          45.000
 146142577.932 6                  27810007.627
        38.600
 25  1  1 11  9 45.0000000  0 29G08G23G02E29G32G24E33G10G28G27R19R04
                                R03E26R18S35R05G25S31G21S33E07E30E19
                                R14E13R20E12R15
 133123006.023 5 103732236.8654   25332458.322    25332458.4204   25332471.6334
        32.900           1.6004
 114204820.977 5  88990794.18241  21732460.176    21732459.4074   21732452.5694
        32.600          11.6004
 131122534.653 5 102173386.26442  24951785.358    24951784.2994   24951784.7044
        35.900          15.2004
 123737109.013 8                  23546382.896
        49.500
 109863410.135 8  85607817.10648  20906282.518    20906282.1124   20906283.7994
        51.600          52.4004


 125659345.395 8                  23912173.968
        49.500
 107424221.744 8  83707228.33547  20442148.396    20442147.8604   20442149.5234
        50.000          47.9004




 111331140.496 5  86590910.150 7  20812181.225    20812179.742    20812184.521
        32.200          42.100
 106617553.718 7  82924870.834 7  19910049.408    19910051.025    19910054.049
        43.500          44.400


 129045540.432 6                  24556552.218
        39.800
 123592010.494 5  96127265.546 6  23152987.779    23152985.438    23152994.455
        35.400          36.100


 117395894.188 7  91307893.531 5  21961325.286    21961326.231    21961323.564
        46.300          35.100
 126505339.203 6  98575571.74242  24073154.944    24073154.8104   24073158.8684
        36.200          17.3004
 198899567.635 7                  37849330.561
        44.000
 122960424.746 6  95813255.91044  23398587.345    23398586.2284   23398587.4464
        39.100          24.3004
 202014927.577 7                  38442168.013
        45.300
 129700430.845 5                  24681168.446
        32.300


 136137205.903 4                  25906046.582
        26.100
 114317160.483 6  88913390.675 6  21445606.122    21445601.735    21445609.091
        39.100          40.200
 149795822.562 4                  28505193.779
        27.100
 115268175.597 5  89653065.643 7  21555729.937    21555729.638    21555735.190
        34.500          44.700
 146103355.595 6                  27802543.876
        36.700
 129194188.680 5                  24176932.987    24176931.412
        30.400
 25  1  1 11 10  0.0000000  0 29G08G23G02E29G32G24E33G10G28G27R19R04
                                R03E26R18S35R05G25S31G21S33E07E30E19
                                R14E13R20E12R15
 133154033.865 5 103756414.4694   25338362.686    25338362.6424   25338379.6934
        31.300           2.8004
 114237426.185 6  89016200.81942  21738653.419    21738652.8164   21738657.0444
        36.400          17.0004
 131082561.539 5 102142238.40342  24944177.813    24944176.6694   24944177.3384
        33.200          14.1004
 123730148.391 8                  23545058.297
        49.800
 109855081.473 8  85601327.24148  20904698.061    20904697.6414   20904698.4974
        50.300          51.2004


 125655070.908 8                  23911360.491
        49.900
 107419811.262 8  83703791.58948  20441309.427    20441308.9044   20441309.7124
        51.000          48.6004




 111375106.110 5  86625105.644 7  20820399.715    20820397.261    20820404.942
        32.400          42.600
 106616614.944 7  82924140.683 7  19909875.890    19909877.209    19909879.025
        46.200          43.500
 115180713.812 6  89584994.670 5  21516737.353    21516737.435    21516726.573
        38.100          34.100
 129080361.688 6                  24563178.625
        36.500
 123658567.385 5  96179031.985 5  23165455.575    23165458.519    23165459.063
        35.400          33.600


 117362716.216 7  91282088.412 5  21955123.823    21955124.135    21955116.831
        42.800          34.600
 126462769.124 6  98542400.30443  24065054.968    24065054.5304   24065059.0704
        37.600          18.7004
 198899574.901 7                  37849332.595
        43.800
 122936311.228 6  95794466.16043  23393999.424    23393998.2804   23393998.7574
        36.400          22.0004
 202014929.326 7                  38442167.583
        45.000
 129726026.169 6                  24686040.709
        37.300




 114272133.708 7  88878369.842 6  21437160.688    21437158.793    21437163.399
        44.400          41.000
 149843748.780 4                  28514314.746
        25.700
 115240497.656 5  89631538.351 7  21550551.570    21550550.967    21550559.922
        31.300          44.700
 146064181.734 5                  27795089.101
        33.600
 129130310.777 5                  24164979.304    24164979.548
        31.000
 25  1  1 11 10 15.0000000  0 28G08G23G02E29G32G24E33G10G28G27R19R04
                                R03E26R18S35R05G25S31G21S33E07E30E19
                                R14R20E12R15
 133185107.547 5                  25344279.974
        33.900
 114270106.399 6  89041665.91043  21744874.692    21744874.1564   21744875.3854
        41.200          20.2004
 131042654.658 5 102111142.13642  24936585.664    24936584.4664   24936582.8914
        35.400          14.7004
 123723233.881 8                  23543742.161
        49.500
 109846816.872 8  85594887.29448  20903125.026    20903124.5754   20903124.9734
        51.100          50.1004


 125650901.953 8                  23910566.951
        49.800
 107415485.030 8  83700420.49748  20440486.192    20440485.6694   20440485.7714
        52.100          49.3004




 111419217.408 5  86659414.466 6  20828643.926    20828644.185    20828650.257
        34.500          41.700
 106615726.986 7  82923450.081 7  19909710.320    19909712.233    19909712.430
        47.300          42.200
 115212406.442 6  89609644.428 5  21522650.777    21522652.989    21522636.707
        36.300          33.200
 129115254.030 6                  24569818.433
        36.200
 123725132.586 6  96230804.909 5  23177932.491    23177933.443    23177927.096
        37.800          31.800


 117329566.352 6  91256305.092 5  21948912.071    21948916.280    21948912.964
        37.800          33.600
 126420227.484 5  98509250.92442  24056957.070    24056956.5524   24056964.4984
        34.200          16.4004
 198899578.991 7                  37849331.974
        43.200
 122912298.408 6  95775754.91443  23389429.081    23389427.8834   23389428.9374
        38.500          20.7004
 202014927.513 7                  38442170.226
        46.200
 129751638.368 6                  24690914.425
        39.300




 114227225.588 7  88843441.381 7  21428733.179    21428733.277    21428741.120
        44.600          42.200
 115213001.697 5  89610152.543 7  21545411.699    21545410.725    21545416.130
        34.500          43.100
 146025052.086 5                  27787642.996
        31.300
 129066399.393 5                  24153019.116    24153021.307
        33.700
 25  1  1 11 10 30.0000000  0 28G08G23G02E29G32G24E33G10G28G27R19R04
                                R03E26R18S35R05G25S31G21S33E07E30E19
                                R14R20E12R15
 133216229.849 5 103804900.34541  25350199.077    25350199.3584   25350214.7054
        32.100          10.1004
 114302864.649 5  89067191.79742  21751107.805    21751107.2874   21751107.9464
        34.400          17.7004
 131002817.345 6 102080100.04642  24929003.252    24929002.1084   24929002.1274
        37.600          16.2004
 123716368.408 8                  23542435.922
        50.000
 109838619.363 8  85588499.62148  20901564.691    20901564.2314   20901564.3904
        49.700          49.4004


 125646841.709 8                  23909794.152
        48.400
 107411246.236 8  83697117.52648  20439679.798    20439679.2804   20439679.5734
        53.100          50.9004
 118229725.055 5  92127053.08842  22498352.874    22498352.7724   22498354.2534
        34.900          13.5004


 111463476.642 5  86693838.338 6  20836915.973    20836916.378    20836921.573
        32.300          39.500
 106614892.719 7  82922801.237 6  19909550.918    19909552.225    19909556.402
        46.600          41.600
                  89634314.581 6                                  21528565.654
                        36.300
 129150220.421 6                  24576471.900
        38.900
 123791708.690 6  96282586.273 5  23190401.511    23190400.841    23190400.763
        36.200          32.200


 117296447.674 6  91230546.030 6  21942718.460    21942716.997    21942719.432
        40.300          37.100
 126377717.728 4  98476126.36542  24048867.548    24048866.8874   24048875.6734
        27.900          13.5004
 198899583.511 7                  37849335.994
        43.900
 122888389.429 6  95757124.58543  23384879.824    23384878.6174   23384878.0514
        37.400          21.9004
 202014926.365 7                  38442169.220
        45.300
 129777270.417 6                  24695791.941
        40.600


 136049157.384 5                  25889293.887
        34.100
 114182439.886 7  88808608.058 7  21420334.062    21420333.727    21420339.912
        46.800          42.200
 115185691.151 5  89588910.989 7  21540303.973    21540304.959    21540308.115
        35.900          42.600
 145985970.006 4                  27780204.198
        28.200
 129002458.522 5                  24141051.424    24141051.444
        33.900
 25  1  1 11 10 45.0000000  0 29G08G23G02E29G32G24E33G10G28G27R19R04
                                R03R13E26R18S35R05G25S31G21S33E07E30
                                E19R14R20E12R15
 133247401.973 4 103829190.26541  25356132.428    25356132.5084   25356148.5084
        27.900           9.9004
 114335702.561 5  89092779.73442  21757357.235    21757356.6324   21757355.8854
        35.900          14.6004
 130963051.558 6 102049113.74342  24921436.398    24921435.3304   24921435.3374
        37.900          16.2004
 123709553.662 8                  23541139.072
        49.900
 109830490.500 8  85582165.43148  20900017.420    20900016.9604   20900017.4734
        50.300          50.5004


 125642891.929 7                  23909042.498
        47.400
 107407096.753 8  83693884.16348  20438890.432    20438889.9144   20438890.9174
        52.100          52.2004
 118180523.207 6  92088713.95242  22488986.447    22488985.7414   22488988.6954
        39.200          17.8004


 111507885.218 5  86728378.311 6  20845216.444    20845219.278    20845221.088
        33.600          36.800
 106614114.145 8  82922195.611 7  19909408.975    19909409.723    19909411.494
        50.400          42.700
 115275871.629 6  89659006.135 6  21534492.135    21534492.831    21534495.652
        41.700          37.900
 116600180.788 5                  21835468.051    21835469.527
        35.100
 129185262.267 6                  24583139.266
        38.700
 123858296.790 5  96334376.966 5  23202871.243    23202868.556    23202880.020
        30.700          34.900


 117263361.584 7  91204812.335 6  21936531.114    21936530.096    21936529.655
        44.000          38.900
 126335241.872 5  98443028.31441  24040786.849    24040786.1254   24040793.0944
        30.100          11.7004
 198899589.520 7                  37849336.772
        43.400
 122864586.040 6  95738576.49443  23380350.912    23380349.7364   23380348.1004
        38.700          23.0004
 202014925.610 7                  38442165.155
        44.500
 129802923.871 6                  24700674.911
        41.300
 146312744.694 4                  27842387.919
        29.900
 136019878.046 6                  25883721.042
        36.200
 114137778.774 7  88773871.632 6  21411955.988    21411955.910    21411959.796
        46.600          40.100
 115158568.316 6  89567815.474 7  21535232.798    21535232.378    21535236.293
        37.400          43.200
 145946937.293 5                  27772778.050
        30.300
 128938490.290 4                  24129097.837    24129094.419
        29.800
 25  1  1 11 11  0.0000000  0 31G08G23G02E29G32G24E33G10G28G27R19R04
                                R03R13E26R18S35R05G12G25S31G21S33E07
                                E30E19R14R20E12E27R15
 133278625.418 5 103853520.26242  25362075.787    25362076.0954   25362091.7504
        32.100          12.7004
 114368621.820 6  89118431.02742  21763624.623    21763624.0204   21763619.8774
        37.200          17.4004
 130923359.398 6 102018184.83242  24913884.363    24913883.3174   24913883.2634
        36.200          14.4004
 123702791.220 8                  23539852.387
        50.100
 109822431.892 8  85575885.98748  20898483.726    20898483.2754   20898484.7214
        52.300          52.1004


 125639054.307 7                  23908312.058
        46.800
 107403038.448 8  83690721.84948  20438118.840    20438118.3494   20438119.3214
        52.700          51.9004
 118131395.636 6  92050432.73643  22479636.387    22479635.6144   22479639.0914
        38.400          18.8004


 111552444.534 6  86763035.486 5  20853550.396    20853551.614    20853550.541
        36.200          35.500
 106613392.708 8  82921634.461 7  19909273.335    19909275.123    19909280.302
        51.400          44.800
 115307647.073 6  89683720.365 6  21540429.980    21540429.138    21540431.681
        39.700          38.100
 116615563.203 4                  21838343.566    21838342.053
        26.700
 129220381.110 6                  24589823.526
        38.300
 123924898.161 5  96386178.119 6  23215344.638    23215347.415    23215356.893
        32.800          36.200


 117230309.813 7  91179105.419 6  21930344.146    21930343.615    21930347.807
        44.000          41.700


 126292801.976 5  98409958.25842  24032709.497    24032708.6124   24032717.3084
        33.700          14.5004
 198899598.128 7                  37849336.217
        42.700
 122840890.197 6  95720112.22343  23375841.208    23375840.0464   23375839.5874
        39.300          23.4004
 202014928.698 7                  38442164.189
        44.000
 129828600.347 7                  24705561.723
        42.700
 146288427.315 5                  27837763.162
        30.100
 135990636.335 6                  25878157.641
        36.900
 114093244.506 7  88739233.882 6  21403600.209    21403600.782    21403602.530
        45.100          37.500
 115131634.682 6  89546867.029 7  21530195.460    21530195.511    21530201.041
        37.200          43.600
 145907955.835 5                  27765357.003
        32.000


 128874496.773 4                  24117116.029
        27.900
 25  1  1 11 11 15.0000000  0 30G08G23G02E29G32G24E33G10G28G27R19R04
                                R03R13E26R18S35R05G12G25S31G21S33E07
                                E30E19R14R20E12E27
 133309893.805 6 103877885.40542  25368023.321    25368023.8444   25368043.0064
        36.200          17.9004
 114401616.494 5  89144141.14642  21769903.544    21769902.9234   21769898.6344
        32.800          16.7004
 130883735.226 5 101987308.84441  24906343.776    24906342.8114   24906343.7814
        32.900           9.3004
 123696075.213 8                  23538574.350
        50.500
 109814437.702 8  85569656.73848  20896962.340    20896961.8894   20896964.2084
        52.000          52.5004


 125635323.165 7                  23907602.319
        47.500
 107399065.673 8  83687626.19348  20437362.052    20437361.5744   20437363.5324
        53.100          51.9004
 118082336.867 6  92012205.14843  22470302.222    22470301.5654   22470302.8174
        39.300          19.1004


 111597147.921 6  86797804.709 5  20861910.457    20861910.982    20861909.389
        37.500          35.100
 106612722.618 8  82921113.312 7  19909148.084    19909148.031    19909153.562
        50.500          44.500
 115339445.899 5  89708452.940 6  21546366.384    21546364.582    21546372.460
        32.700          39.200
 116631135.474 5                  21841268.150    21841267.004
        34.800
 129255570.965 6                  24596522.657
        37.500
 123991506.528 6  96437984.596 6  23227852.427    23227849.513    23227834.115
        38.200          36.500


 117197286.808 7  91153420.788 7  21924167.553    21924168.926    21924170.149
        46.400          43.200


 126250392.748 6  98376912.04443  24024638.974    24024638.0584   24024647.0854
        36.400          18.6004
 198899605.328 7                  37849337.465
        42.500
 122817296.281 6  95701727.39544  23371352.318    23371351.1874   23371350.4094
        40.400          24.2004
 202014929.260 7                  38442166.627
        44.400
 129854294.067 7                  24710451.491
        43.200
 146264175.048 4                  27833144.817
        26.100
 135961426.474 6                  25872600.007
        37.400
 114048831.728 7  88704690.577 6  21395268.009    21395267.971    21395269.872
        43.000          37.300
 115104885.043 6  89526061.845 7  21525192.755    21525191.475    21525198.073
        36.000          43.600
 145869020.234 5                  27757948.102
        32.500


 25  1  1 11 11 30.0000000  0 29G08G23G02E29G32G24E33G10G28G27R19R04
                                R03R13E26R18S35R05G12G25S31G21S33E07
                                E30E19R14R20E12
 133341208.854 6 103902286.81843  25373983.557    25373983.9544   25374001.2154
        38.400          19.3004
 114434688.570 6  89169911.53542  21776193.552    21776192.9184   21776192.7294
        37.400          17.7004
 130844181.161 5                  24898815.214
        30.600
 123689407.466 8                  23537305.719
        50.800
 109806509.749 8  85563479.09748  20895454.176    20895453.7434   20895455.6624
        52.900          53.3004


 125631700.426 8                  23906912.826
        48.400
 107395180.479 8  83684598.76848  20436621.807    20436621.3294   20436623.9754
        51.900          50.9004
 118033349.094 6  91974032.88643  22460981.447    22460980.7904   22460980.1594
        40.400          21.0004


 111641996.595 5  86832686.978 5  20870290.228    20870291.728    20870294.232
        32.900          35.200
 106612105.593 8  82920633.404 7  19909031.845    19909032.520    19909037.381
        50.800          43.400
 115371270.519 6  89733205.301 6  21552310.744    21552315.104    21552318.090
        38.600          40.300
 116646899.765 5                  21844211.152    21844210.637
        34.700
 129290833.578 6                  24603231.556
        38.100
                  96489797.530 5                  23240307.525    23240313.390
                        35.800


 117164294.325 7  91127759.961 7  21917993.124    21917994.420    21917999.081
        45.200          44.900


 126208016.483 5  98343891.57943  24016574.967    24016574.0874   24016580.4794
        35.300          19.9004
 198899612.325 7                  37849340.975
        43.200
 122793806.257 6  95683423.54544  23366881.514    23366880.3704   23366880.7494
        39.400          24.5004
 202014928.975 7                  38442169.046
        44.400
 129880006.639 7                  24715343.385
        43.500


 135932250.230 6                  25867048.054
        36.800
 114004543.172 6  88670243.922 6  21386958.704    21386958.673    21386963.417
        41.900          39.800
 115078321.380 6  89505401.150 7  21520225.098    21520224.499    21520230.624
        37.400          43.600
 145830132.391 5                  27750548.739
        34.100
 25  1  1 11 11 45.0000000  0 29G08G23G02E29G32G24E33G10G28G27R19R04
                                R03R13E26R18S35R05G12G25S31G21S33E07
                                E30E19R14R20E12
 133372568.421 6 103926722.96542  25379949.744    25379950.1154   25379967.5494
        36.300          12.3004
 114467836.014 5  89195740.73442  21782501.165    21782500.4864   21782500.9594
        33.600          14.8004
 130804695.742 5                  24891301.585
        32.100
 123682786.069 8                  23536045.747
        51.300
 109798646.143 8  85557351.59748  20893957.800    20893957.3674   20893958.9524
        53.300          53.3004


 125628184.348 8                  23906243.927
        49.700
 107391381.223 8  83681638.30148  20435899.138    20435898.6564   20435901.0214
        50.800          50.1004
 117984430.705 6  91935914.73643  22451673.515    22451672.8634   22451671.0864
        40.200          21.5004


 111686988.499 5  86867680.586 5  20878700.492    20878701.844    20878704.026
        32.000          34.300
 106611539.824 8  82920193.356 6  19908926.828    19908928.165    19908930.446
        52.000          41.800
 115403118.302 7  89757975.710 6  21558274.034    21558270.858    21558268.121
        42.000          41.400
 116662853.756 6                  21847195.106    21847193.813
        37.500
 129326166.971 6                  24609954.729
        40.500
 124124745.726 5  96541614.977 6  23252786.077    23252786.299    23252796.671
        35.000          37.200


 117131330.204 7  91102121.200 7  21911827.408    21911826.483    21911832.513
        44.500          44.900


 126165671.732 5  98310895.69343  24008517.983    24008517.1204   24008520.2054
        35.400          21.0004
 198899615.160 7                  37849338.981
        42.900
 122770418.642 6  95665199.46243  23362432.571    23362431.4544   23362429.8624
        38.700          23.4004
 202014927.183 7                  38442169.301
        44.600
 129905736.216 7                  24720238.795
        42.700


 135903105.770 5                  25861500.244
        35.500
 113960377.240 6  88635892.648 7  21378674.470    21378673.404    21378678.775
        41.600          42.000
 115051942.472 6  89484884.253 7  21515291.371    21515292.639    21515298.827
        38.300          45.000
 145791291.107 5                  27743158.691
        34.500
 25  1  1 11 12  0.0000000  0 30G08G23G02E29G32G24E33G10G28G27R19R04
                                R03R13E26R18S35R05G12G25S31G21S33E07
                                E30E19R14R20E12R15
 133403975.268 4 103951196.06041  25385923.916    25385923.9964   25385943.7884
        26.800           7.3004
 114501062.045 5  89221631.19841  21788822.550    21788821.9114   21788823.5424
        34.400          11.1004
 130765282.202 5 101895046.29841  24883804.728    24883804.5594   24883809.2584
        34.900           6.4004
 123676214.151 8                  23534795.090
        51.600
 109790849.997 8  85551276.67348  20892474.193    20892473.7554   20892475.4244
        52.700          53.8004


 125624778.191 8                  23905595.056
        49.000
 107387671.236 8  83678747.40248  20435193.560    20435193.0784   20435195.6134
        51.700          50.7004
 117935585.302 6  91897853.46443  22442378.733    22442378.0944   22442374.8654
        41.700          22.1004


 111732126.209 5  86902787.740 5  20887144.159    20887144.455    20887141.808
        33.000          35.400
 106611028.641 8  82919795.794 6  19908831.596    19908832.535    19908835.612
        51.900          41.800
 115434992.895 6  89782767.061 7  21564216.808    21564218.604    21564224.009
        41.100          42.200
 116679000.497 6                  21850218.204    21850217.788
        36.400
 129361574.116 6                  24616691.831
        41.600
 124191376.882 6  96593439.274 6  23265267.766    23265270.125    23265282.045
        36.800          37.600


 117098398.048 8  91076507.216 7  21905669.507    21905668.294    21905671.529
        48.100          43.500


 126123362.088 5  98277927.15043  24000466.451    24000465.5754   24000468.7274
        35.100          18.5004
 198899619.669 7                  37849340.541
        42.600
 122747136.784 6  95647057.78743  23358001.214    23358000.1014   23357998.8154
        38.200          22.0004
 202014926.347 7                  38442165.620
        44.100
 129931485.912 7                  24725138.734
        42.600


 135873996.265 5                  25855960.627
        33.900
 113916337.637 6  88601639.637 7  21370410.831    21370410.423    21370417.636
        38.600          43.100
 115025751.809 6  89464513.722 7  21510392.449    21510393.302    21510400.379
        36.200          45.000
 145752499.268 5                  27735776.723
        35.300


 25  1  1 11 12 15.0000000  0 30G08G23G02E29G32G24E33G10G28G27R19R04
                                R03R13E26R18S35R05G12G25S31G21S33E07
                                E30E19R14R20E12R15
 133435432.048 5 103975708.01541  25391913.686    25391913.7844   25391928.6614
        31.000          11.1004
 114534369.705 6  89247585.25542  21795160.127    21795159.4754   21795161.5804
        37.500          14.1004
 130725944.437 6 101864393.48042  24876314.958    24876314.4804   24876320.0824
        36.000          14.6004
 123669694.632 8                  23533554.577
        51.400
 109783124.230 8  85545256.59248  20891004.310    20891003.8814   20891005.5884
        52.800          53.4004


 125621484.993 7                  23904968.275
        47.900
 107384053.721 8  83675928.56648  20434504.962    20434504.4894   20434507.3284
        53.200          51.3004
 117886816.036 7  91859851.45044  22433097.624    22433097.0074   22433094.7954
        43.000          24.2004


 111777412.309 5  86938010.140 5  20895610.937    20895609.984    20895606.531
        34.800          35.000
 106610574.996 8  82919443.009 7  19908746.107    19908747.033    19908751.201
        51.600          43.000
 115466897.184 6  89807581.481 7  21570178.208    21570178.789    21570183.519
        41.500          42.200
 116695343.373 5                  21853280.738    21853278.914
        35.200
 129397057.825 6                  24623443.207
        41.500
 124258019.356 6  96645272.285 5  23277756.384    23277757.310    23277767.182
        40.100          35.900


 117065500.638 8  91050920.274 6  21899515.854    21899516.669    21899518.134
        50.100          41.900
 128691825.779 5                  24489237.368
        33.200
 126081091.023 4  98244988.64142  23992419.975    23992419.0414   23992424.0594
        29.500          14.0004
 198899628.947 7                  37849340.836
        42.600
 122723963.803 6  95629000.91943  23353590.360    23353589.2164   23353588.7404
        37.800          20.5004
 202014928.576 7                  38442166.255
        44.100
 129957258.571 6                  24730042.790
        41.000


 135844924.758 5                  25850427.669
        33.100
 113872428.023 6  88567487.714 7  21362175.031    21362174.664    21362180.362
        41.700          44.000
 114999752.493 6  89444292.015 7  21505532.256    21505532.259    21505538.630
        36.700          45.000
 145713760.259 5                  27728405.186
        34.600


 25  1  1 11 12 30.0000000  0 30G08G23G02E29G32G24E33G10G28G27R19R04
                                R03R13E26R18S35R05G12G25S31G21S33E07
                                E30E19R14R20E12R15
 133466931.186 5 104000252.82742  25397905.280    25397905.3064   25397920.6404
        33.700          13.6004
 114567751.639 6  89273597.18043  21801516.658    21801516.0554   21801514.1154
        40.000          19.3004
 130686674.917 5 101833793.83742  24868844.133    24868843.4724   24868845.7694
        33.900          16.7004
 123663220.238 8                  23532322.399
        51.200
 109775461.592 8  85539285.70948  20889545.971    20889545.5514   20889547.2364
        52.200          52.7004


 125618297.644 7                  23904361.777
        47.100
 107380521.584 8  83673176.25548  20433832.928    20433832.4634   20433834.7334
        52.200          51.0004
 117838116.086 7  91821903.45744  22423829.842    22423829.2304   22423829.9284
        44.100          27.4004


 111822839.038 5  86973342.124 5  20904099.857    20904099.261    20904100.150
        31.200          34.900
 106610171.365 8  82919129.057 7  19908670.155    19908671.588    19908675.823
        50.400          43.700
 115498823.909 6  89832413.439 6  21576142.060    21576141.863    21576146.178
        40.600          40.200
 116711874.564 5                  21856379.752    21856377.976
        31.800
 129432610.680 6                  24630209.569
        41.800
 124324665.058 6  96697107.892 5  23290241.731    23290244.683    23290255.426
        41.800          34.000


 117032630.658 8  91025354.703 6  21893365.214    21893366.699    21893369.018
        48.300          39.600
 128666925.110 5 100260002.82042  24484502.273    24484502.2654   24484509.3414
        34.400          12.1004
 126038851.711 5  98212074.96242  23984381.475    23984380.6574   23984385.3474
        30.300          12.2004
 198899633.596 7                  37849341.275
        42.900
 122700892.610 6  95611023.38843  23349198.553    23349197.4004   23349198.8324
        37.400          18.7004
 202014928.040 7                  38442167.762
        44.200
 129983046.870 6                  24734950.783
        40.900


 135815884.054 5                  25844902.913
        33.300
 113828641.688 7  88533431.703 7  21353957.305    21353959.319    21353966.510
        42.200          44.900
 114973937.474 6  89424213.644 7  21500706.127    21500706.207    21500711.397
        37.600          45.100
 145675066.949 5                  27721042.339
        34.600


 25  1  1 11 12 45.0000000  0 29G08G23G02E29G32G24E33G10G28G27R19R04
                                R03R13E26R18S35R05G12G25S31G21S33E07
                                E30E19R14R20E12
 133498477.041 5 104024834.06941  25403909.244    25403909.2224   25403920.9854
        31.600          11.9004
 114601212.669 7  89299670.70243  21807885.282    21807884.7194   21807883.3604
        42.800          22.6004
 130647478.901 5 101803251.49742  24861386.378    24861385.5024   24861385.4794
        34.000          16.6004
 123656795.623 8                  23531099.695
        51.400
 109767866.702 8  85533367.61048  20888100.417    20888100.0154   20888101.2744
        52.300          52.0004


 125615220.940 7                  23903776.132
        46.700
 107377079.795 8  83670494.34248  20433177.904    20433177.4574   20433179.4134
        52.200          51.0004
 117789490.498 7  91784013.40244  22414575.841    22414575.2744   22414578.3784
        44.500          28.6004


 111868410.653 4  87008786.730 5  20912614.698    20912616.902    20912619.883
        28.700          35.600
 106609822.762 8  82918857.896 7  19908605.612    19908606.602    19908610.502
        50.100          45.000
 115530777.703 7  89857266.374 6  21582116.361    21582117.556    21582114.774
        43.800          39.800
 116728598.874 5                  21859510.163    21859511.224
        31.700
 129468237.273 6                  24636986.902
        39.100
 124391318.329 6  96748949.494 5  23302726.072    23302724.807    23302749.336
        36.800          30.500


 116999793.032 7  90999814.357 6  21887220.047    21887219.613    21887227.436
        42.300          36.600


 125996649.348 4  98179189.98741  23976354.511    23976353.7384   23976353.6874
        26.000           9.3004
 198899639.885 7                  37849344.999
        43.400
 122677928.233 6  95593129.11242  23344830.289    23344829.1454   23344828.7194
        37.400          16.9004
 202014928.168 7                  38442169.341
        44.300
 130008855.571 6                  24739861.183
        40.200


 135786878.945 5                  25839384.290
        35.200
 113784983.995 6  88499475.742 7  21345770.128    21345766.367    21345777.077
        39.800          45.100
 114948312.467 6  89404283.125 7  21495913.404    21495913.195    21495918.072
        38.100          44.300
 145636424.631 6                  27713688.352
        36.700
 25  1  1 11 13  0.0000000  0 30G18G08G23G02E29G32G24E33G10G28G27R19
                                R04R03R13E26R18S35R05G12G25S31G21S33
                                E07E30E19R14R20E12


 133530068.310 4 104049450.68442  25409921.222    25409921.1464   25409930.9804
        29.900          12.1004
 114634751.628 6  89325804.93143  21814267.549    21814266.9914   21814267.8044
        41.100          23.2004
 130608355.375 5 101772765.62242  24853940.353    24853939.3434   24853938.9804
        33.000          17.4004
 123650419.693 8                  23529885.989
        51.100
 109760338.455 8  85527501.43748  20886667.685    20886667.2794   20886668.0794
        52.000          51.6004


 125612253.888 7                  23903212.297
        47.100
 107373727.405 8  83667882.09448  20432540.058    20432539.6074   20432541.5634
        51.700          51.1004
 117740938.500 7  91746180.68344  22405336.671    22405336.1304   22405340.3324
        44.500          29.5004


 111914125.493 5  87044342.651 5  20921159.059    20921163.661    20921165.499
        30.300          35.800
 106609527.878 7  82918628.564 7  19908549.860    19908549.754    19908555.698
        46.300          46.100
 115562757.935 7  89882139.889 6  21588090.942    21588090.884    21588087.480
        44.500          38.500
 116745514.950 5                  21862677.318    21862674.835
        30.000
 129503936.380 6                  24643782.640
        38.400
 124457977.550 4                  23315210.132    23315203.930
        28.900


 116966986.610 6  90974298.345 5  21881083.394    21881082.133    21881088.319
        39.100          33.900




 198899646.670 7                  37849344.123
        42.800
 122655069.601 6  95575317.14642  23340478.618    23340477.4564   23340479.0204
        37.400          16.0004
 202014928.466 7                  38442168.402
        44.400
 130034683.376 6                  24744776.763
        40.300


 135757908.192 5                  25833870.940
        34.400
 113741454.211 7  88465619.200 7  21337606.837    21337605.209    21337611.215
        47.100          44.500
 114922876.329 6  89384499.483 7  21491158.297    21491158.318    21491160.655
        39.100          42.900
 145597832.436 6                  27706344.516
        38.400
 25  1  1 11 13 15.0000000  0 29G18G08G23G02E29G32G24E33G10G28R19R04
                                R03R13E26R18S35R05G12G25S31G21S33E07
                                E30E19R14R20E12


 133561706.527 5 104074103.83342  25415943.984    25415943.8284   25415949.3504
        32.000          13.3004
 114668370.484 7  89352001.42643  21820664.852    21820664.3654   21820666.7314
        42.400          21.1004
 130569307.028 5 101742338.37642  24846509.800    24846508.7944   24846507.3674
        33.900          17.4004
 123644094.339 8                  23528682.091
        50.500
 109752878.803 8  85521688.71748  20885248.255    20885247.8624   20885248.5844
        52.500          52.0004


 125609398.540 8                  23902669.149
        48.100
 107370466.607 8  83665341.21348  20431919.597    20431919.1464   20431921.1884
        52.700          51.5004
 117692462.401 7  91708407.10944  22396112.570    22396112.0204   22396116.4484
        43.500          29.2004
 111959985.138 5  87080011.145 6  20929740.955    20929740.345    20929740.425
        32.300          36.900
 106609288.923 7  82918442.682 7  19908505.880    19908506.348    19908511.192
        46.300          46.600
 115594765.948 7  89907035.054 5  21594063.337    21594063.907    21594064.399
        42.100          35.400
 116762624.670 5                  21865890.391    21865890.616
        34.000
 129539709.815 6                  24650588.841
        41.000
                  96852741.220 5                  23327702.736    23327717.947
                        35.700


 116934213.487 6  90948808.148 5  21874951.955    21874953.591    21874957.112
        39.300          35.900




 198899655.763 7                  37849349.189
        43.400
 122632318.830 6  95557589.29242  23336150.081    23336148.8704   23336148.8354
        38.200          16.6004
 202014932.249 7                  38442170.454
        44.700
 130060532.282 6                  24749695.147
        40.900


 135728973.842 5                  25828364.235
        33.600
 113698055.093 8  88431864.359 7  21329463.776    21329463.337    21329468.712
        48.500          43.700
 114897630.655 6  89364864.010 7  21486434.804    21486436.079    21486441.457
        40.100          44.100
 145559292.570 6                  27699010.280
        38.300
 25  1  1 11 13 30.0000000  0 29G18G08G23G02E29G32G24E33G10G28R19R04
                                R03R13E26R18S35R05G12G25S31G21S33E07
                                E30E19R14R20E12


 133593385.407 5 104098788.76342  25421974.177    25421973.9674   25421975.0494
        34.800          14.9004
 114702063.227 6  89378255.49842  21827074.021    21827073.5304   21827078.4704
        37.700          14.9004
 130530327.753 5 101711964.91643  24839093.883    24839092.9364   24839089.0794
        35.700          18.1004
 123637813.469 8                  23527486.681
        49.900
 109745481.648 8  85515924.70348  20883840.862    20883840.4874   20883841.2714
        53.100          52.4004


 125606648.945 8                  23902145.800
        48.400
 107367291.548 8  83662867.15948  20431315.417    20431314.9664   20431316.6784
        53.400          52.0004
 117644056.421 7  91670688.17944  22386902.270    22386901.6854   22386904.5484
        42.400          26.6004
 112005982.546 4  87115786.916 6  20938340.603    20938335.770    20938338.635
        26.600          36.400
 106609099.572 8  82918295.336 7  19908472.260    19908471.738    19908476.089
        48.600          47.300
 115626796.028 7  89931947.264 5  21600052.345    21600052.774    21600046.016
        43.000          32.200
 116779921.784 4                  21869142.160
        26.600
 129575551.366 6                  24657409.930
        40.300
 124591312.720 6  96904594.065 6  23340200.088    23340198.766    23340203.710
        40.800          38.500


 116901467.197 4  90923338.818 6  21868822.565    21868821.167    21868831.955
        29.800          38.700
 128568477.646 5                  24465757.913
        33.000


 198899660.893 7                  37849350.164
        43.200
 122609670.237 6  95539941.00842  23331841.887    23331840.7254   23331838.7014
        39.900          17.9004
 202014931.328 7                  38442168.245
        44.300
 130086396.188 6                  24754617.333
        41.100


 135700069.975 5                  25822864.099
        34.400
 113654780.853 8  88398206.674 7  21321346.348    21321346.059    21321349.981
        50.300          43.100
 114872570.442 6  89345372.723 7  21481749.156    21481749.734    21481754.740
        40.200          43.800
 145520798.991 6                  27691684.921
        38.000
 25  1  1 11 13 45.0000000  0 29G18G08G23G02E29G32G24E33G10G28R19R04
                                R03E26R18S35R05G12G25S31G21S33E07E30
                                E19R14R20E12R15


 133625105.732 5 104123505.88443  25428007.552    25428007.2664   25428008.6594
        33.000          19.3004
 114735830.773 6  89404567.8064   21833499.978    21833499.6394   21833504.5054
        38.800           5.4004
 130491419.034 5 101681646.42042  24831689.496    24831688.5754   24831684.1314
        35.300          17.3004
 123631578.137 8                  23526300.558
        49.600
 109738147.979 8  85510210.17048  20882445.050    20882444.6934   20882445.6464
        52.500          52.2004


 125604006.219 8                  23901642.818
        49.000
 107364203.431 9  83660460.85948  20430727.912    20430727.4614   20430728.7854
        54.200          52.5004
 117595722.037 7  91633025.05544  22377703.810    22377703.1894   22377704.5874
        43.100          25.7004
                  87151670.623 5                                  20946964.905
                        35.400
 106608960.804 7  82918187.428 7  19908444.855    19908444.846    19908449.904
        47.800          47.000
 115658849.226 6  89956877.468 5  21606042.776    21606047.333    21606034.619
        37.400          31.500
 129611461.948 6                  24664243.443
        39.200
 124657982.238 6  96956448.159 6  23352682.327    23352683.818    23352693.341
        39.400          40.800


 116868749.511 6  90897891.589 6  21862711.331    21862710.874    21862714.033
        40.000          40.300
 128544068.416 4                  24461095.088
        25.700


 198899663.044 7                  37849348.814
        42.700
 122587125.207 6  95522373.42943  23327551.419    23327550.2524   23327548.6174
        40.200          18.4004
 202014927.781 7                  38442167.016
        43.900
 130112275.985 6                  24759542.506
        40.800


 135671197.454 6                  25817369.397
        36.200
 113611633.272 8  88364647.576 7  21313250.865    21313250.839    21313255.950
        50.200          43.800
 114847697.089 6  89326026.825 7  21477097.710    21477097.954    21477101.686
        40.100          42.700
 145482353.335 6                  27684369.748
        37.500
 128168710.069 5                  23985027.035    23985025.966
        34.400
 25  1  1 11 14  0.0000000  0 28G18G08G23G02E29G32G24E33G10G28G27R19
                                R04E26R18S35R05G12G25S31G21S33E07E30
                                E19R14R20E12


 133656873.643 5 104148260.13443  25434051.406    25434051.2014   25434052.2804
        34.200          20.3004
 114769679.634 6  89430943.3194   21839940.876    21839940.6404   21839945.9894
        36.700           5.0004
 130452587.620 6 101651388.17842  24824301.631    24824300.7014   24824294.7794
        36.300          16.9004
 123625394.809 8                  23525123.886
        49.800
 109730884.298 8  85504550.15948  20881062.753    20881062.4094   20881063.1324
        52.100          51.7004


 125601477.048 7                  23901161.022
        47.800
 107361209.035 8  83658127.57648  20430158.002    20430157.5334   20430159.1314
        53.100          52.5004
 117547465.954 7  91595422.96244  22368520.133    22368519.5304   22368519.1194
        44.600          24.4004


                  87187666.990 5                                  20955617.853
                        34.800
 106608879.486 7  82918124.203 7  19908430.156    19908430.349    19908434.253
        47.800          46.200
 129647447.949 6                  24671090.725
        39.200
 124724659.542 5  97008308.265 6  23365172.655    23365172.532    23365184.071
        35.600          40.300


 116836066.350 6  90872471.347 6  21856599.088    21856595.823    21856598.932
        40.700          39.800
 128519763.321 4                  24456484.896
        24.000


 198899669.717 7                  37849347.074
        42.400
 122564690.546 6  95504891.86043  23323281.790    23323280.6194   23323279.6444
        40.600          18.0004
 202014928.776 7                  38442165.374
        43.900
 130138178.250 6                  24764472.378
        41.000


 135642363.042 6                  25811882.938
        36.800
 113568619.569 8  88331192.568 7  21305180.540    21305179.931    21305187.234
        48.800          44.200
 114823017.026 6  89306831.286 7  21472481.323    21472481.299    21472487.307
        38.100          42.700
 145443962.180 6                  27677065.261
        36.800
 25  1  1 11 14 15.0000000  0 29G18G08G23G02E29G32G24E33G10G28G27R19
                                R04E26R18S35R05G12G25S31G21S33E07E30
                                E19R14R20E12R15


 133688684.130 5 104173047.52643  25440103.281    25440103.0714   25440105.7754
        34.200          21.4004
 114803605.258 6  89457378.79141  21846398.568    21846398.4084   21846402.5344
        36.900           8.2004
 130413829.346 5 101621186.92742  24816925.337    24816924.3814   24816919.1644
        33.900          14.9004
 123619258.763 8                  23523956.021
        50.000
 109723685.918 8  85498941.03248  20879693.257    20879692.9044   20879693.4124
        51.700          51.8004


 125599056.785 7                  23900700.135
        46.100
 107358303.865 8  83655863.83248  20429605.519    20429605.0504   20429606.4844
        51.900          51.7004
 117499283.966 7  91557878.64943  22359350.664    22359350.1234   22359347.4094
        44.000          22.2004


                  87223771.978 5                                  20964291.539
                        30.700
 106608850.858 8  82918101.973 7  19908425.081    19908425.551    19908428.869
        50.000          45.400
 129683504.545 6                  24677952.071
        38.400
 124791339.228 4  97060170.368 6  23377668.119    23377662.887    23377675.017
        29.600          39.800


 116803413.210 7  90847074.411 6  21850484.764    21850483.056    21850487.754
        44.000          37.100




 198899675.780 7                  37849352.968
        43.300
 122542361.509 6  95487492.59642  23319032.143    23319030.9364   23319031.0934
        38.700          15.9004
 202014928.853 7                  38442167.007
        44.600
 130164098.259 6                  24769407.386
        40.200


 135613561.884 5                  25806401.329
        35.600
 113525735.629 8  88297838.446 7  21297135.506    21297133.909    21297142.011
        48.800          44.500
 114798525.833 6  89287782.530 7  21467901.850    21467901.700    21467906.868
        36.800          42.600
 145405621.241 6                  27669769.825
        36.000
                                                  23960958.196

 25  1  1 11 14 30.0000000  0 28G18G08G23G02E29G32G24E33G10G28G27R19
                                R04E26R18S35R05G12G25S31G21S33E07E30
                                E19R14R20E12


 133720538.717 5 104197869.28043  25446168.428    25446168.2324   25446167.2784
        34.700          21.3004
 114837609.374 6  89483875.51742  21852868.504    21852868.3484   21852873.9154
        41.200          14.3004
 130375146.620 4 101591044.52341  24809558.804    24809557.7764   24809557.9834
        26.100          10.0004
 123613171.807 8                  23522797.720
        49.700
 109716554.603 8  85493384.14948  20878336.401    20878336.0484   20878336.7574
        52.000          52.6004


 125596747.395 7                  23900260.804
        45.300
 107355489.967 8  83653671.20748  20429069.909    20429069.4404   20429070.8594
        51.000          50.7004
 117451178.169 7  91520393.67443  22350196.675    22350196.1434   22350190.6674
        42.400          21.2004


                  87259986.377 5                                  20973000.449
                        31.300
 106608876.692 8  82918122.069 7  19908432.187    19908432.222    19908434.213
        52.100          45.200
 129719633.377 6                  24684826.497
        36.200
                  97112035.513 6                                  23390167.125
                        38.900


 116770792.076 7  90821702.494 5  21844382.532    21844380.946    21844381.422
        45.600          31.900




 198899682.035 7                  37849351.269
        43.200
 122520140.215 6  95470177.35342  23314804.107    23314802.8874   23314802.5664
        37.900          14.4004
 202014930.356 7                  38442167.539
        44.700
 130190037.743 6                  24774341.614
        37.700


 135584796.007 5                  25800927.865
        33.500
 113482983.459 8  88264586.808 7  21289115.958    21289115.668    21289122.443
        50.100          44.700
 114774226.337 5  89268882.996 7  21463354.769    21463355.898    21463362.304
        33.900          42.800
 145367332.656 5                  27662482.529
        33.800
 25  1  1 11 14 45.0000000  0 30G18G08G23G02E29G32G24E33G10G28G27R19
                                R04R03E26R18S35R05G12G25S31G21S33E07
                                E30E19R14R20E12R15


 133752436.344 4 104222724.50642  25452237.739    25452237.4354   25452237.1354
        29.600          15.1004
 114871691.177 7  89510432.78542  21859353.087    21859352.9184   21859359.1004
        42.600          16.5004
 130336538.288 5 101560960.16741  24802214.985    24802213.7924   24802210.7184
        32.500          10.2004
 123607133.081 8                  23521648.892
        48.800
 109709489.514 8  85487878.86548  20876992.357    20876992.0044   20876992.9144
        53.400          53.8004


 125594548.138 7                  23899841.906
        45.300
 107352766.707 8  83651549.19048  20428551.993    20428551.5154   20428552.1514
        48.900          49.3004
 117403148.048 6  91482967.63143  22341056.126    22341055.5904   22341051.1084
        37.800          20.8004


                  87296309.198 5                                  20981726.114
                        30.700
 106608956.367 8  82918184.039 7  19908446.008    19908446.295    19908449.398
        51.700          44.800
 115787277.808 5  90056811.660 6  21630037.618                    21630044.353
        34.600          38.900
 129755833.532 6                  24691718.876
        37.600
                  97163902.621 6                                  23402658.652
                        37.700


 116738201.845 8  90796354.644 5  21838288.580    21838287.368    21838288.586
        48.300          33.100




 198899689.434 7                  37849355.490
        43.400
 122498025.782 6  95452945.34842  23310596.706    23310595.4954   23310594.2144
        39.100          15.1004
 202014931.660 7                  38442167.530
        44.700
 130215995.803 5                  24779276.589
        32.500


 135556064.568 5                  25795459.307
        32.100
 113440363.239 8  88231437.754 7  21281121.264    21281121.095    21281126.658
        51.000          43.300
 114750117.897 5  89250132.023 7  21458849.295    21458847.366    21458853.733
        33.300          43.300
 145329095.576 4                  27655207.077
        29.900
 127911352.111 4                  23936863.996    23936861.659
        26.100
 25  1  1 11 15  0.0000000  0 28G18G08G23G02E29G32G24E33G10G28G27R04
                                R03E26R18S35R05G12G25S31G21S33E07E30
                                E19R14R20E12




 114905850.833 6  89537050.65342  21865853.924    21865853.7374   21865858.7294
        41.800          12.7004
 130298005.029 5 101530934.31641  24794881.751    24794880.4324   24794877.7634
        33.100          11.0004
 123601142.720 8                  23520509.112
        48.800
 109702490.760 8  85482425.26849  20875660.446    20875660.0894   20875661.8424
        53.900          54.5004


 125592459.256 7                  23899444.314
        46.100
 107350134.436 8  83649498.07748  20428050.969    20428050.4874   20428050.7754
        49.900          48.6004
 117355194.114 6  91445600.90243  22331933.336    22331932.7914   22331927.6354
        40.100          22.9004


 106609089.726 8  82918287.749 7  19908469.994    19908469.954    19908472.423
        51.300          43.800
 115819465.231 5  90081846.395 6  21636050.489    21636048.830    21636057.120
        35.700          39.400
 129792104.986 6                  24698619.381
        41.500
                  97215771.567 5                                  23415148.976
                        34.500


 116705643.144 8  90771031.139 6  21832197.522    21832197.183    21832199.645
        50.800          38.900




 198899697.560 7                  37849355.244
        43.300
 122476018.924 6  95435797.13642  23306408.992    23306407.7904   23306405.6864
        40.700          16.0004
 202014933.669 7                  38442167.472
        44.100
 130241972.526 5                  24784220.435
        32.400


 135527367.731 5                  25789998.845
        35.600
 113397875.478 8  88198391.750 6  21273147.922    21273147.879    21273153.858
        48.400          40.900
 114726200.446 5  89231529.573 7  21454376.893    21454375.234    21454382.620
        34.600          44.200
 145290910.703 5                  27647939.841
        31.400
 25  1  1 11 15 15.0000000  0 30G18G08G23G02E29G32G24E33G10G28G27R19
                                R04R03R13E26S35R05G12G25S31G31G21S33
                                E07E30E19R14R20E12




 114940084.331 6  89563725.75741  21872369.435    21872369.2524   21872372.5644
        39.700           7.4004
 130259543.168 5 101500964.04042  24787563.411    24787562.0924   24787558.3294
        32.600          13.3004
 123595196.754 8                  23519377.621
        49.600
 109695554.375 8  85477020.28049  20874340.426    20874340.0734   20874342.2484
        53.900          54.7004


 125590476.898 7                  23899067.337
        46.800
 107347589.400 8  83647514.92048  20427565.468    20427564.9904   20427566.5074
        49.100          48.3004
 117307312.813 7  91408290.79144  22322820.606    22322820.0704   22322818.2644
        42.000          26.3004


                  87369276.685 5                                  20999263.424
                        35.300
 106609272.776 8  82918430.113 7  19908505.459    19908505.722    19908508.048
        52.100          44.300
 115851674.825 6  90106898.227 6  21642065.542    21642067.938    21642074.980
        37.600          39.600
 116906287.923 5                  21892795.041    21892799.607
        33.900
 129828443.668 7                  24705535.005
        43.500


 116673111.720 8  90745728.942 6  21826109.790    21826109.852    21826114.549
        49.700          41.500




 198899701.852 7                  37849355.745
        42.900
 129359148.780 5                  24616225.060
        34.100
 122454115.809 6  95418729.79042  23302241.207    23302240.0094   23302237.6554
        40.500          16.6004
 202014933.279 7                  38442168.066
        44.300
 130267963.993 4                  24789164.408
        29.300


 135498701.641 6                  25784545.234
        37.900
 113355516.626 8  88165445.997 6  21265203.481    21265201.963    21265208.523
        48.200          40.400
 114702470.630 6  89213073.051 7  21449938.355    21449938.329    21449944.074
        36.500          43.400
 145252774.392 5                  27640681.487
        34.500
 25  1  1 11 15 30.0000000  0 30G18G08G23G02E29G32G24E33G10G28G27R04
                                R03R13E26R18S35R05G12G25S31G31G21S33
                                E07E30E19R14R20E12




 114974395.327 6  89590461.47042  21878897.500    21878897.2954   21878902.2194
        41.300          16.1004
 130221156.556 5 101471052.37042  24780257.377    24780256.1034   24780253.6574
        30.000          12.8004
 123589298.738 8                  23518255.127
        50.000
 109688683.931 8  85471666.67949  20873033.233    20873032.8804   20873034.5894
        53.900          54.3004


 125588604.805 7                  23898711.520
        47.200
 107345135.436 8  83645602.74247  20427098.931    20427098.4584   20427100.0234
        48.100          47.7004
 117259508.053 7  91371040.32944  22313723.232    22313722.7274   22313722.7924
        45.000          29.5004


 106609509.432 8  82918614.204 7  19908548.702    19908549.388    19908551.776
        51.400          44.400
 115883910.520 6  90131970.284 6  21648089.328    21648091.956    21648092.376
        41.100          37.100
 116925107.749 4                  21896322.640    21896324.274
        28.600
 129864853.063 7                  24712462.799
        42.700
                  97319506.617 5                                  23440131.546
                        32.300


 116640611.160 8  90720450.708 7  21820030.383    21820030.685    21820034.224
        49.300          43.100




 198899706.518 7                  37849358.633
        43.700
 129298908.053 5 100752426.79142  24604762.867    24604762.5864   24604771.6684
        35.500          17.2004
 122432320.058 6  95401746.05442  23298093.515    23298092.3534   23298090.0644
        41.200          15.8004
 202014932.159 7                  38442168.053
        44.500
 130293973.730 4                  24794115.178
        26.300


 135470069.860 6                  25779098.166
        39.100
 113313291.410 8  88132604.230 6  21257283.567    21257282.983    21257286.730
        50.400          38.100
 114678932.531 5  89194765.652 7  21445536.180    21445535.700    21445542.312
        35.500          42.500
 145214690.320 6                  27633434.735
        36.900
 25  1  1 11 15 45.0000000  0 30G18G08G23G02E29G32G24E33G10G28G27R19
                                R04R03R13E26R18S35R05G25S31G31G21S33
                                E07E30E19R14R20E12




 115008786.225 6  89617259.61143  21885442.358    21885442.1394   21885446.7574
        39.900          19.8004
 130182848.212 5 101441201.67441  24772970.318    24772969.0404   24772964.0004
        32.500          11.0004
 123583451.045 8                  23517142.224
        50.000
 109681881.839 9  85466366.35348  20871739.101    20871738.7444   20871739.3664
        54.000          53.2004


 125586845.444 7                  23898376.604
        47.500
 107342775.162 7  83643763.56747  20426650.152    20426649.6964   20426651.4524
        47.900          47.6004
 117211782.582 7  91333851.64445  22304641.617    22304641.1574   22304641.9734
        46.900          31.9004


                  87442672.146 6                                  21016904.883
                        36.400
 106609802.021 8  82918841.783 7  19908602.643    19908603.249    19908606.786
        50.500          44.200
 115916174.730 6  90157064.608 5  21654117.831    21654116.730    21654117.257
        39.200          34.900
                                                  21899883.779

 129901335.396 6                  24719405.800
        41.200
                  97371377.043 5                                  23452630.335
                        35.900


 116608144.353 8  90695198.747 7  21813955.370    21813956.836    21813961.421
        48.000          45.100


 198899713.789 7                  37849360.131
        43.000
 129238680.841 5 100705496.47443  24593304.660    24593304.1284   24593309.6874
        35.700          18.0004
 122410634.523 6  95384848.24942  23293966.610    23293965.5064   23293962.4664
        41.200          15.1004
 202014933.844 7                  38442167.847
        44.100
 130320004.089 4                  24799069.505
        27.900


 135441474.876 6                  25773655.222
        37.200
 113271202.193 8  88099868.271 5  21249386.482    21249387.001    21249387.649
        49.300          33.700
 114655588.811 6  89176609.440 7  21441172.403    21441172.966    21441178.326
        37.900          42.400
 145176661.217 6                  27626198.963
        39.400
 25  1  1 11 16  0.0000000  0 28G18G08G23G02E29G32G24E33G10G28G27R04
                                R03E26R18S35R05G25S31G31G21S33E07E30
                                E19R14R20E12




 115043253.951 6  89644117.63043  21892001.579    21892001.3604   21892003.3454
        41.200          21.6004
 130144615.332 5 101411409.77141  24765691.009    24765689.7174   24765688.7734
        34.900          11.8004
 123577650.662 8                  23516038.715
        50.200
 109675145.021 8  85461116.89348  20870456.891    20870456.5294   20870456.5824
        53.500          52.2004


 125585195.891 7                  23898062.580
        47.200
 107340505.756 8  83641995.19947  20426217.599    20426217.1664   20426220.2224
        48.500          47.3004
 117164133.725 7  91296722.67745  22295574.099    22295573.6484   22295575.3334
        47.500          32.6004


 106610147.676 8  82919110.584 7  19908667.124    19908666.951    19908671.030
        49.900          44.200
 115948464.422 6  90182178.870 6  21660150.129    21660146.851    21660151.743
        36.700          36.400
 129937887.545 6                  24726360.800
        39.300
                  97423247.059 6                                  23465124.277
                        36.400


 116575707.928 7  90669970.390 7  21807887.352    21807888.035    21807893.134
        46.800          45.500


 198899721.134 7                  37849360.587
        42.900
 129178464.537 5 100658574.62742  24581847.782    24581847.1834   24581849.7284
        32.200          15.8004
 122389056.268 6  95368034.02842  23289860.633    23289859.4844   23289855.6614
        40.500          14.7004
 202014935.128 7                  38442169.149
        44.000
 130346052.024 4                  24804025.582
        25.200


 135412913.700 5                  25768220.863
        33.200
 113229246.813 7  88067236.380 5  21241513.617    21241513.301    21241518.050
        46.300          33.100
 114632436.687 6  89158602.261 6  21436842.480    21436842.892    21436847.251
        38.700          41.300
 145138684.403 6                  27618973.050
        40.700
 25  1  1 11 16 15.0000000  0 27G18G08G23G02E29G32G24E33G10G28G27R04
                                R03E26R18S35R05G25S31G21S33E07E30E19
                                R14R20E12




 115077798.915 6  89671035.82743  21898574.594    21898574.3404   21898575.1774
        40.800          23.6004
 130106458.497 6 101381677.14442  24758432.497    24758431.2634   24758428.4004
        37.200          14.6004
 123571897.887 8                  23514943.976
        50.500
 109668473.860 8  85455918.59748  20869187.183    20869186.8214   20869186.4494
        53.600          51.6004


 125583656.626 7                  23897769.815
        47.000
 107338327.797 7  83640298.06947  20425803.000    20425802.5854   20425805.9764
        46.100          46.2004
 117116562.164 7  91259653.93445  22286521.366    22286520.9194   22286522.7174
        45.800          31.6004


 106610546.676 8  82919420.855 7  19908743.186    19908743.094    19908746.314
        51.200          45.300
 115980780.098 6  90207313.238 6  21666186.888    21666184.137    21666190.217
        37.800          38.300
 129974509.715 6                  24733329.626
        38.700
                  97475116.616 5                                  23477616.720
                        34.100


 116543302.268 6  90644765.968 7  21801824.759    21801823.481    21801830.517
        41.500          44.100


 198899728.772 7                  37849361.437
        42.800
 122367586.222 6  95351304.19642  23285775.614    23285774.4834   23285769.7924
        41.700          16.6004
 202014938.032 7                  38442171.751
        44.400
 130372117.834 4                  24808986.464
        25.800


 135384386.805 4                  25762790.227
        26.600
 113187426.221 7  88034709.235 5  21233668.209    21233666.784    21233677.341
        43.900          35.300
 114609476.592 6  89140744.434 6  21432548.177    21432547.738    21432553.375
        37.300          40.300
 145100760.491 6                  27611756.266
        41.600
 25  1  1 11 16 30.0000000  0 27G18G08G23G02E29G32G24E33G10G28G27R04
                                R03E26R18S35R05G25S31G21S33E07E30E19
                                R14R20E12




 115112415.912 7  89698010.13544  21905161.792    21905161.5294   21905161.3184
        42.400          26.5004
 130068372.973 6 101352000.08542  24751184.070    24751182.9264   24751181.6224
        39.400          16.5004
 123566187.533 8                  23513857.456
        50.900
 109661863.102 8  85450767.35948  20867928.978    20867928.6164   20867928.2604
        53.100          52.0004


 125582222.520 7                  23897496.709
        46.300
 107336236.292 8  83638668.31747  20425405.401    20425404.9594   20425407.4924
        48.000          46.2004
 117069062.982 7  91222641.58344  22277483.646    22277483.1954   22277482.9024
        43.500          29.5004


 106610993.784 8  82919768.589 7  19908825.081    19908825.470    19908830.001
        50.400          45.800
 116013116.273 5  90232463.716 5  21672227.280    21672222.142    21672229.117
        34.500          35.100
 130011196.551 6                  24740310.026
        37.400
                  97526981.288 5                                  23490104.884
                        31.800


 116510922.212 6  90619581.389 6  21795769.279    21795767.925    21795771.674
        37.600          41.500


 198899731.189 7                  37849361.164
        43.300
 122346218.931 6  95334654.40543  23281708.824    23281707.7074   23281704.0414
        40.700          18.4004
 202014934.882 7                  38442168.822
        44.700
 130398196.242 5                  24813955.477
        31.500


 135355888.802 4                  25757368.327
        26.200
 113145735.642 7  88002283.128 6  21225850.598    21225848.210    21225853.576
        47.900          36.200
 114586704.165 6  89123032.581 6  21428289.595    21428289.121    21428295.375
        38.600          40.700
 145062884.523 6                  27604548.623
        41.400
 25  1  1 11 16 45.0000000  0 27G18G08G23G02E29G32G24E33G10G28R19R04
                                R03E26S35R05G25S31G31G21S33E07E30E19
                                R14R20E12




 115147116.851 7  89725049.83144  21911764.857    21911764.5944   21911764.7334
        43.300          28.3004
 130030370.995 6 101322388.16842  24743953.231    24743952.1814   24743950.4634
        40.300          17.3004
 123560531.499 8                  23512781.432
        50.400
 109655324.689 8  85445672.50248  20866684.697    20866684.3264   20866684.3894
        52.900          52.3004
 125465699.997 5                  23875322.623
        33.700
 125580905.660 7                  23897246.830
        45.100
 107334243.386 8  83637115.39947  20425026.627    20425026.1584   20425027.6724
        49.000          47.2004
 117021648.638 6  91185695.37544  22268461.851    22268461.4094   22268458.8554
        41.400          28.0004
                  87590735.230 5                                  21052491.674
                        34.700
 106611500.884 8  82920163.004 7  19908920.065    19908919.146    19908924.598
        49.400          45.800
 116045485.378 5  90257639.617 5  21678274.680    21678269.743    21678271.240
        32.700          32.100
 130047959.877 5                  24747307.432
        35.700


 116478579.937 6  90594426.249 6  21789712.345    21789712.525    21789721.435
        36.200          41.200


 198899741.026 7                  37849363.990
        43.500
 128997949.416 6 100517853.82242  24547491.688    24547492.2644   24547486.4854
        36.200          12.2004
 122324966.762 6  95318094.34343  23277663.915    23277662.8024   23277660.5854
        39.900          18.9004
 202014938.922 7                  38442168.348
        44.300
 130424299.226 4                  24818917.212
        29.600




 113104187.530 8  87969967.860 6  21218055.156    21218055.486    21218058.577
        49.000          36.400
 114564131.286 6  89105475.885 7  21424066.876    21424066.823    21424074.217
        37.000          42.100
 145025068.784 6                  27597352.294
        39.700
 25  1  1 11 17  0.0000000  0 27G18G08G23G02E29G32G24E33G10G28G27R04
                                R03E26S35R05G25S31G31G21S33E07E30E19
                                R14R20E12




 115181890.361 6  89752146.08644  21918381.901    21918381.5804   21918382.6454
        39.500          26.9004
 129992441.340 6 101292832.59343  24736736.106    24736735.1184   24736731.9854
        40.900          18.0004
 123554918.365 8                  23511713.122
        50.700
 109648847.173 8  85440625.08748  20865452.411    20865452.0544   20865452.3764
        52.300          52.6004
 125519534.752 5  97807392.36142  23885565.493    23885565.5064   23885564.2384
        31.900          12.5004
 125579694.731 7                  23897016.482
        46.000
 107332337.889 8  83635630.59948  20424663.870    20424663.3794   20424664.7244
        51.400          48.6004
 116974307.911 7  91148806.52644  22259452.304    22259451.8444   22259449.3674
        42.600          26.3004


 106612056.721 8  82920595.312 7  19909023.703    19909024.113    19909028.898
        50.400          46.500
                  90282831.877 6                                  21684330.226
                        36.300
 130084788.145 6                  24754316.561
        37.000


 116446263.722 6  90569291.409 7  21783671.989    21783668.698    21783677.635
        36.300          42.200


 198899746.209 7                  37849363.834
        43.500
 128937778.569 6 100470967.48242  24536039.117    24536039.6404   24536034.0074
        38.400          12.5004
 122303818.376 6  95301615.12243  23273642.160    23273641.0654   23273636.2684
        40.700          19.2004
 202014938.688 7                  38442167.811
        44.000
 130450415.391 4                  24823886.330
        28.800




 113062771.210 8  87937755.166 6  21210286.429    21210286.646    21210290.501
        48.500          37.500
 114541746.844 6  89088065.745 7  21419882.662    21419882.587    21419888.242
        36.700          42.800
 144987302.147 6                  27590165.485
        38.500
 25  1  1 11 17 15.0000000  0 27G18G23G02E29G32G24E33G10G28R19R04R03
                                E26S35R05G25S31G31G21S33E07E30E19R14
                                R20E12R15


 115216743.056 5  89779304.05144  21925015.728    21925015.4114   21925015.6084
        35.900          24.5004
 129954591.030 6 101263338.82143  24729534.515    24729533.5414   24729528.9574
        41.600          18.9004
 123549354.714 8                  23510654.393
        51.100
 109642437.117 8  85435630.21548  20864232.272    20864231.9154   20864233.1264
        52.000          52.8004


 125578596.409 7                  23896807.345
        46.600
 107330526.598 8  83634219.21748  20424318.917    20424318.4304   20424320.0114
        51.900          50.0004
 116927047.820 7  91111980.48244  22250457.449    22250456.9804   22250456.4964
        42.200          26.7004
                  87665395.162 5                                  21070436.752
                        31.600
 106612668.105 8  82921070.846 7  19909137.665    19909138.998    19909143.323
        51.100          47.300
 116110274.853 6  90308046.048 6  21690380.180    21690378.445    21690389.749
        38.000          36.300
 130121687.824 6                  24761338.065
        39.100


 116413980.505 7  90544182.186 7  21777633.417    21777632.343    21777640.144
        43.000          42.300


 198899753.559 7                  37849365.569
        43.500
 128877622.814 6 100424092.96841  24524595.066    24524595.6964   24524586.2064
        36.600           8.8004
 122282780.810 6  95285222.22943  23269638.235    23269637.1314   23269633.2044
        38.200          19.2004
 202014940.899 7                  38442168.227
        44.300
 130476551.200 5                  24828863.691
        30.200




 113021493.823 7  87905650.567 5  21202541.139    21202541.805    21202543.884
        45.100          35.600
 114519557.945 5  89070807.735 7  21415734.379    21415734.039    21415739.448
        35.100          43.700
 144949591.473 6                  27582989.307
        36.300
 127266528.323 5                  23816194.049    23816197.938
        33.800
 25  1  1 11 17 30.0000000  0 27G18G23G02E29G32G24E33G10G28R04R03E26
                                R18S35R05G25S31G31G21S33E07E30E19R14
                                R20E12R15


 115251670.733 6  89806520.46043  21931662.313    21931662.0544   21931662.1434
        37.200          22.5004
 129916816.398 7 101233904.06043  24722346.230    24722345.2834   24722340.4084
        42.500          19.3004
 123543836.423 8                  23509603.935
        50.700
 109636090.433 8  85430684.72548  20863024.557    20863024.2134   20863025.8064
        51.300          52.6004


 125577606.701 7                  23896618.533
        47.500
 107328805.609 8  83632878.19748  20423991.640    20423991.1494   20423992.5854
        51.600          50.6004
 116879864.578 6  91075214.32744  22241478.344    22241477.9244   22241478.7484
        40.100          26.9004
 106613330.619 8  82921586.148 7  19909260.525    19909261.539    19909267.079
        50.400          47.400
 116142717.100 6  90333278.886 5  21696441.981    21696441.143    21696443.096
        41.000          32.500
 130158654.762 6                  24768371.131
        39.000
                  97734480.351 5                                  23540077.949
                        35.900


 116381725.938 7  90519095.304 6  21771598.758    21771599.579    21771605.354
        44.800          40.400


 198899759.578 7                  37849365.479
        42.700
 128817478.286 5 100377227.3844   24513149.906    24513150.6754   24513137.1264
        31.800           3.8004
 122261850.077 6  95268912.63243  23265656.378    23265655.2344   23265651.8554
        38.100          19.4004
 202014941.825 7                  38442169.766
        44.400
 130502702.468 5                  24833839.182
        30.500




 112980351.925 6  87873651.368 6  21194818.154    21194818.114    21194826.713
        36.700          37.300
 114497560.593 5  89053698.637 7  21411622.802    21411621.783    21411626.692
        35.100          44.500
 144911932.967 5                  27575823.534
        34.200
 127201946.140 5                  23804113.604    23804117.165
        34.000
 25  1  1 11 17 45.0000000  0 28G18G23G02E29G32G24E33G10G28R19R04R03
                                E26R18S35R05G25S31G31G21S33E07E30E19
                                R14R20E12R15


 115286673.933 6  89833795.74343  21938328.376    21938328.1314   21938321.7044
        36.400          18.1004
 129879118.151 7 101204528.82343  24715173.292    24715172.3404   24715166.0164
        42.500          18.7004
 123538363.968 8                  23508562.686
        49.500
 109629807.596 8  85425788.98948  20861828.386    20861828.0294   20861830.4434
        51.400          52.2004


 125576726.199 7                  23896451.228
        47.700
 107327175.626 8  83631608.09548  20423681.835    20423681.3394   20423682.5544
        52.000          51.6004
 116832759.009 6  91038508.68844  22232516.133    22232515.7624   22232515.6184
        41.100          27.7004
 112809155.142 5                  21088479.267
        35.200
 106614044.959 8  82922141.744 7  19909394.036    19909395.379    19909399.202
        50.800          46.400
 116175183.757 6  90358530.640 5  21702508.097    21702509.443    21702515.761
        41.500          32.600
 130195689.171 6                  24775417.964
        38.600
                  97786335.973 5                                  23552565.984
                        35.100


 116349500.919 7  90494031.414 6  21765570.554    21765571.112    21765578.921
        46.500          38.300
 125160652.912 5  97527788.74741  23817277.396    23817277.3204   23817281.0184
        30.200          11.9004
 198899764.013 7                  37849368.359
        43.100
 128757345.876 4 100330371.25041  24501707.216    24501707.9354   24501693.3584
        29.400           9.0004
 122241026.913 5  95252686.81342  23261693.051    23261691.8984   23261691.3484
        32.100          17.2004
 202014941.291 7                  38442169.958
        44.100
 130528869.754 5                  24838824.401
        32.800


 135213945.443 5                  25730354.043
        34.600
 112939346.419 6  87841758.154 6  21187128.110    21187129.105    21187136.171
        37.900          40.400
 114475755.715 5  89036739.247 7  21407545.712    21407545.238    21407548.737
        33.400          44.500
 144874327.180 5                  27568666.393
        32.500
 127137346.607 4  98884635.887 5  23792026.516    23792030.875    23792027.567
        29.600          35.700
 25  1  1 11 18  0.0000000  0 28G18G08G23G02E29G32G24E33G10G28R04R03
                                E26R18S35R05G25S31G31G21S33E07E30E19
                                R14R20E12R15






 129841500.263 6 101175216.20542  24708012.801    24708011.8674   24708006.7564
        37.900          15.1004
 123532940.888 8                  23507530.990
        49.400
 109623592.126 8  85420945.74048  20860646.023    20860645.6664   20860647.5604
        50.900          51.8004


 125575958.581 7                  23896305.263
        47.700
 107325640.513 8  83630411.91148  20423389.605    20423389.0964   20423390.6834
        52.900          52.6004
 116785735.013 7  91001866.61144  22223569.013    22223568.6424   22223566.3224
        43.500          28.3004
 106614814.721 8  82922740.449 7  19909537.497    19909538.368    19909542.348
        50.100          45.300
 116207678.632 5                  21708573.976    21708573.290
        31.400
 130232794.542 6                  24782479.113
        38.300
                  97838190.287 5                                  23565054.135
                        32.600


 116317309.049 8  90468993.257 5  21759550.381    21759550.680    21759554.277
        49.400          35.400
 125119293.848 4  97495560.84141  23809404.255    23809403.5274   23809411.5034
        25.900          11.2004
 198899771.207 7                  37849369.669
        43.100
 128697229.771 5 100283527.61842  24490269.530    24490270.2904   24490253.6334
        31.900          12.9004
 122220314.814 4  95236547.46241  23257747.815    23257746.7914   23257751.1154
        26.300          10.1004
 202014942.740 7                  38442168.268
        44.300
 130555056.606 5                  24843803.520
        30.500


 135185655.746 5                  25724969.366
        34.300
 112898481.472 6  87809974.343 6  21179463.633    21179464.883    21179469.444
        41.100          41.200
 114454146.898 5  89019932.368 7  21403504.019    21403503.410    21403506.614
        33.000          43.300
 144836778.361 5                  27561520.223
        33.100
                  98834381.712 5                                  23779934.471
                        34.900
 25  1  1 11 18 15.0000000  0 28G18G08G23G02E29G32G24E33G10G28R19R04
                                R03E27E26S35R05G25S31G31S33E07E30E19
                                R14R20E12R15






 129803957.673 5 101145962.28641  24700869.542    24700868.5864   24700862.1984
        31.200           9.0004
 123527561.777 8                  23506507.390
        49.400
 109617438.644 8  85416150.80048  20859475.442    20859475.0804   20859476.1114
        51.300          51.8004


 125575298.541 8                  23896179.729
        48.900
 107324194.994 8  83629285.53848  20423114.981    20423114.4674   20423116.0624
        52.800          53.2004
 116738787.560 7  90965284.18545  22214634.369    22214633.9544   22214631.4044
        45.400          30.0004
 112906206.142 5                  21106619.556    21106620.045
        34.400
 106615634.469 8  82923377.971 7  19909691.402    19909691.356    19909695.604
        50.600          45.400
 116240195.950 5                  21714640.685
        30.500


 130269965.359 6                  24789553.054
        38.200


 116285144.700 8  90443976.512 5  21753533.313    21753533.853    21753535.813
        50.900          32.400
 125077976.522 6  97463365.47143  23801545.880    23801545.3264   23801547.8774
        36.300          20.2004
 198899775.524 7                  37849370.653
        43.200
 128637124.553 5 100236692.43242  24478830.161    24478830.9034   24478815.9294
        33.300          13.6004
 202014942.121 7                  38442169.198
        44.400




 135157396.958 5                  25719592.817
        33.600
 112857752.081 6  87778296.035 6  21171820.845    21171821.065    21171829.431
        41.800          41.500
 114432729.387 5  89003274.268 7  21399496.586    21399495.651    21399501.807
        33.300          43.700
 144799281.019 5                  27554383.556
        32.400
                  98784113.350 5                                  23767837.238
                        34.000
 25  1  1 11 18 30.0000000  0 29G18G08G23G02E29G32G24E33G10G28R19R04
                                R13E27E26R18S35R05G25S31G31S33E07E30
                                E19R14R20E12R15




 115392132.400 6  89915928.18043  21958392.966    21958392.3814   21958389.9664
        36.300          21.9004
 129766493.309 5 101116769.22541  24693740.523    24693739.4734   24693732.6304
        33.000           9.6004
 123522229.596 8                  23505492.494
        49.600
 109611350.088 8  85411406.45848  20858316.724    20858316.3674   20858317.0444
        53.000          52.5004


 125574749.151 8                  23896075.031
        49.400
 107322842.277 8  83628231.46648  20422857.604    20422857.0904   20422858.6454
        52.800          53.6004
 116691919.983 7  90928764.05245  22205715.575    22205715.1954   22205712.7434
        43.600          30.2004
 112954927.382 5  87853842.463 6  21115730.108    21115729.585    21115735.706
        35.900          38.100
 106616507.193 8  82924056.757 7  19909853.311    19909853.604    19909860.169
        49.500          46.800
 117165756.333 5                  21941379.497    21941379.690
        32.600


 130307204.429 6                  24796639.378
        39.500
 125925139.112 6                  23590021.514    23590022.850
        36.000


 116253010.898 8  90418983.482 5  21747522.578    21747523.187    21747524.915
        51.100          32.200
 125036704.437 6  97431205.38043  23793689.928    23793689.1284   23793693.6874
        36.300          20.9004
 198899779.603 7                  37849371.337
        42.800
 128577033.770 4 100189868.35541  24467396.881    24467397.4844   24467381.1364
        25.600           9.9004
 202014941.618 7                  38442171.357
        44.500




 135129172.328 5                  25714219.875
        30.200
 112817162.226 6  87746726.235 6  21164204.492    21164202.131    21164213.927
        37.100          40.500
 114411506.377 6  88986767.474 7  21395529.349    21395530.073    21395533.845
        36.400          44.300
 144761838.561 5                  27547258.172
        31.600
                  98733833.915 5                                  23755739.429
                        31.700
 25  1  1 11 18 45.0000000  0 28G18G08G23G02E29G32E33G10G28R19R04R03
                                R13E27E26R18S35R05G25S31S33E07E30E19
                                R14R20E12R15




 115427443.787 6  89943443.52744  21965114.866    21965114.5714   21965111.6244
        37.800          25.1004
 129729109.702 6 101087639.17041  24686626.180    24686625.0224   24686618.9454
        36.000          11.6004
 123516946.188 8                  23504487.102
        50.400
 109605328.315 8  85406714.16248  20857170.687    20857170.3344   20857171.2314
        52.700          53.0004
 125574312.360 8                  23895991.990
        48.800
 107321584.461 8  83627251.35148  20422618.142    20422617.6334   20422619.0914
        52.500          53.6004
 116645134.442 7  90892307.84645  22196812.787    22196812.5104   22196810.0744
        43.500          30.1004
 113003780.945 5  87891839.586 6  21124860.994    21124862.798    21124868.745
        35.200          38.200
 106617434.975 8  82924778.325 7  19910028.103    19910028.726    19910034.218
        51.600          46.900
 116305299.950 6                  21726811.644    21726813.664
        41.800
 117187028.119 4                  21945367.490    21945361.259
        29.100


 130344513.463 6                  24803739.447
        40.100
 125991792.453 6                  23602515.102    23602515.485
        37.100


 116220909.595 7  90394015.820 5  21741514.157    21741514.060    21741520.125
        46.400          35.400
 124995479.922 5  97399082.35942  23785846.646    23785845.8284   23785848.0374
        35.800          17.2004
 198899786.373 7                  37849373.649
        43.000
 202014942.665 7                  38442170.857
        44.300




 135100983.481 5                  25708857.739
        30.600
 112776714.161 7  87715266.628 6  21156624.406    21156623.124    21156624.238
        44.600          38.600
 114390479.918 6  88970413.609 7  21391593.552    21391595.613    21391601.536
        36.700          43.700
 144724453.181 4                  27540144.535
        29.600
                  98683544.983 5                                  23743643.645
                        31.200
 25  1  1 11 19  0.0000000  0 28G18G08G23G02E29G32E33G10G28R19R04R03
                                R13E27E26R18S35R05G25S31S33E07E30E19
                                R14R20E12R15




 115462833.566 6  89971019.92444  21971847.999    21971848.1594   21971847.0864
        38.100          24.7004
 129691806.817 5 101058571.96642  24679526.930    24679525.7544   24679520.9244
        35.100          13.0004
 123511711.414 8                  23503490.732
        50.300
 109599373.162 8  85402073.78148  20856037.619    20856037.2714   20856038.4844
        53.600          53.4004
 125573988.144 8                  23895930.499
        48.000
 107320421.603 8  83626345.21948  20422396.043    20422395.5434   20422397.9474
        50.600          53.0004
 116598431.164 6  90855915.69644  22187926.063    22187925.8134   22187923.2564
        41.300          28.7004
 113052766.558 5  87929939.446 6  21134017.165    21134017.372    21134021.995
        32.900          36.100
 106618417.628 8  82925542.636 7  19910211.754    19910212.358    19910217.326
        51.900          46.600
 116337898.926 7                  21732901.346    21732904.179
        44.300
 117208488.945 5                  21949397.327    21949388.210
        33.300


 130381892.222 6                  24810852.588
        41.200
 126058441.619 5                  23615019.387
        34.700


 116188840.681 7  90369073.364 6  21735515.977    21735516.344    21735522.302
        45.900          37.100
 124954303.349 5  97366996.66341  23778009.672    23778008.7874   23778012.7714
        31.700          11.8004
 198899795.115 7                  37849373.390
        42.600
 202014946.413 7                  38442171.872
        43.900


 145547054.614 5                  27696684.114
        34.100
 135072830.412 5                  25703500.019
        32.000
 112736408.104 7  87683917.511 6  21149060.328    21149061.704    21149062.836
        46.200          38.700
 114369650.405 6  88954212.951 7  21387698.487    21387699.672    21387705.380
        36.800          42.200
 144687124.876 4                  27533041.301
        29.400
                  98633246.733 5                                  23731543.497
                        30.700
 25  1  1 11 19 15.0000000  0 27G08G23G02E29G32E33G10G28R19R04R03R13
                                E27E26S35R05G12G25S31S33E07E30E19R14
                                R20E12R15


 115498298.200 6  89998654.66643  21978595.260    21978595.3494   21978595.1674
        36.300          20.8004
 129654581.573 5 101029565.27842  24672443.879    24672442.7034   24672437.8694
        35.300          13.6004
 123506521.654 8                  23502503.417
        50.400
 109593481.031 8  85397482.50748  20854915.809    20854915.4434   20854917.6274
        53.100          53.3004
 125573773.043 8                  23895889.216
        48.200
 107319350.375 8  83625510.48848  20422192.048    20422191.5434   20422194.4254
        48.900          52.1004
 116551806.940 6  90819585.14144  22179053.611    22179053.3344   22179051.8754
        39.600          27.1004
 113101880.056 5  87968138.880 5  21143199.131    21143196.299    21143203.931
        32.100          35.000
 106619451.670 8  82926346.949 7  19910405.342    19910404.799    19910409.677
        51.000          45.400
 116370521.625 7                  21738999.036    21739000.571
        44.900
 117230135.038 5                  21953433.429    21953434.344
        30.200


 130419337.016 6                  24817977.969
        41.500


 116156800.998 7  90344153.633 6  21729523.227    21729524.307    21729527.627
        44.400          39.700
 128032824.501 5                  24363836.901
        32.000
 124913171.635 5  97334945.9764   23770182.301    23770181.3274   23770185.5314
        30.700           5.9004
 198899801.765 7                  37849376.050
        43.100
 202014947.546 7                  38442170.173
        43.800


 145525079.140 5                  27692494.709
        32.200
 135044709.770 4                  25698150.292
        28.700
 112696241.120 7  87652676.537 6  21141526.195    21141527.445    21141528.027
        47.300          39.900
 114349014.202 6  88938162.642 6  21383840.079    21383841.171    21383845.404
        36.300          39.600
 144649850.562 5                  27525947.046
        30.000
                  98582937.099 5                                  23719441.511
                        31.100
 25  1  1 11 19 30.0000000  0 26G08G23G02E29G32E33G10G28R19R04R03E27
                                E26S35R05G12G25S31G21S33E07E30E19R14
                                R20E12


 115533840.273 4  90026349.76542  21985357.924    21985357.9954   21985358.0674
        27.500          16.1004
 129617436.983 5 101000621.41442  24665374.592    24665373.3904   24665370.0454
        35.800          14.1004
 123501379.523 8                  23501525.061
        50.600
 109587654.580 8  85392942.42048  20853807.182    20853806.8164   20853808.7414
        52.900          53.0004
 125573669.733 8                  23895869.337
        48.100
 107318373.563 8  83624749.32948  20422006.745    20422006.2494   20422008.7734
        48.700          51.9004
 116505264.689 6  90783318.43344  22170196.766    22170196.4714   22170196.1614
        39.400          26.1004
 113151123.495 5  88006439.300 5  21152401.057    21152403.669    21152409.974
        33.400          35.200
 106620539.446 8  82927193.003 7  19910609.696    19910610.359    19910612.394
        52.100          44.600
 116403170.962 6  90535875.883 6  21745099.219    21745096.966    21745102.206
        39.300          36.200


 130456850.309 6                  24825115.630
        40.400


 116124792.686 6  90319258.320 6  21723532.616    21723534.278    21723540.357
        39.800          41.700
 128010799.681 5  99748686.7904   24359644.948    24359644.6044   24359647.1254
        30.600           3.2004
 124872087.902 5  97302932.7374   23762366.123    23762365.1224   23762366.8414
        31.400           5.6004
 198899809.820 7                  37849377.973
        43.300
 122098318.012 6  95141563.12942  23234538.516    23234538.9544   23234539.1334
        39.000          13.3004
 202014951.437 7                  38442171.344
        44.200


 145503179.558 4                  27688328.789
        29.500
 135016624.138 4                  25692806.454
        29.300
 112656216.369 7  87621546.189 6  21134019.637    21134020.289    21134019.484
        47.100          40.900
 114328574.579 5  88922265.139 6  21380018.230    21380018.596    21380022.435
        34.900          37.500
 144612633.025 5                  27518865.450
        31.200
 25  1  1 11 19 45.0000000  0 28G08G23G02E29G32G24E33G10G28R19R04R03
                                E27E26R18S35R05G12G25S31G21S33E07E30
                                E19R14R20E12




 129580369.653 5 100971737.76442  24658321.596    24658320.3854   24658316.7364
        34.300          14.1004
 123496281.432 8                  23500554.883
        50.600
 109581890.164 8  85388450.66948  20852710.231    20852709.8654   20852711.3914
        53.200          53.0004


 125573674.743 7                  23895869.761
        46.700
 107317487.807 8  83624059.10948  20421838.141    20421837.6594   20421840.3944
        49.200          52.2004
 116458801.159 6  90747113.09344  22161352.311    22161352.0394   22161354.1234
        41.500          26.3004
 113200492.654 5  88044837.439 6  21161638.895    21161636.859    21161639.716
        34.600          36.200
 106621677.682 8  82928078.311 7  19910822.729    19910823.870    19910825.158
        52.400          44.800
 116435843.388 6  90561287.884 6  21751198.204    21751196.948    21751207.527
        37.200          39.700


 130494428.373 6                  24832267.506
        40.400
 126258342.116 5                  23652448.093    23652449.853
        34.400


 116092812.528 7  90294384.811 7  21717553.186    21717552.919    21717558.202
        42.000          43.600
 127988879.637 5  99731606.3924   24355482.730    24355482.1404   24355477.6374
        33.500           2.8004
 124831048.805 5  97270954.08041  23754560.322    23754559.3164   23754557.0364
        34.400          10.7004
 198899816.293 7                  37849379.525
        43.900
 122078370.338 6  95126019.58043  23230743.684    23230743.4074   23230740.4044
        40.200          18.0004
 202014951.851 7                  38442169.162
        44.400


 145481352.395 5                  27684177.532
        33.600
 134988569.791 4                  25687466.686
        29.300
 112616330.742 7  87590524.039 7  21126530.439    21126530.419    21126538.549
        42.200          43.400
 114308327.964 5  88906517.795 6  21376233.663    21376233.797    21376238.258
        34.500          38.400
 144575468.954 5                  27511793.782
        30.300
 25  1  1 11 20  0.0000000  0 28G08G23G02E29G32G24E33G10G28R19R04R03
                                E27E26R18S35R05G12G25S31G21S33E07E30
                                E19R14R20E12




 129543381.229 5 100942915.62841  24651281.893    24651280.6194   24651278.4064
        33.300          11.7004
 123491228.655 8                  23499593.176
        50.600
 109576189.086 8  85384008.27448  20851625.503    20851625.1554   20851626.2274
        53.300          53.1004


 125573789.476 7                  23895891.270
        45.900
 107316694.634 8  83623441.01948  20421686.883    20421686.4014   20421689.6734
        48.300          51.6004
 116412418.049 6  90710970.41444  22152525.290    22152525.0314   22152526.1164
        38.500          24.7004
                  88083334.079 6                  21170882.869    21170892.826
                        36.900
 106622867.651 8  82929003.870 7  19911043.746    19911045.117    19911046.933
        51.000          45.500
 116468540.566 7  90586718.986 6  21757309.256    21757309.343    21757314.060
        43.400          40.300


 130532072.398 6                  24839430.259
        40.700
 126324957.386 4                  23664924.833    23664921.204
        29.900


 116060861.670 7  90269534.131 7  21711573.471    21711576.184    21711581.602
        42.700          45.100
 127967066.178 5  99714608.92841  24351325.239    24351324.7304   24351331.4414
        32.900           6.0004
 124790056.299 5  97239011.98941  23746759.550    23746758.3574   23746756.7154
        30.900           7.6004
 198899820.346 7                  37849378.720
        43.200
 122058531.501 6  95110560.78243  23226966.615    23226966.1554   23226965.6044
        36.500          18.1004
 202014951.509 7                  38442171.755
        44.200


 145459599.300 5                  27680037.448
        32.300
 134960548.228 5                  25682134.627
        31.200
 112576586.189 7  87559611.631 7  21119077.262    21119075.294    21119082.834
        42.400          44.400
 114288276.035 5  88890921.900 6  21372480.020    21372480.473    21372488.011
        30.400          40.000
 144538360.004 5                  27504731.602
        31.100
 25  1  1 11 20 15.0000000  0 27G08G23G02E29G32G24E33G10G28R19R04R03
                                E27E26S35R05G25S31G31G21S33E07E30E19
                                R14R20E12


 115640916.856 6  90109806.07743  22005735.907    22005735.8144   22005735.0094
        39.500          21.2004
 129506475.422 4 100914157.83441  24644257.101    24644255.7964   24644255.8664
        26.000           8.7004
 123486224.418 8                  23498640.733
        51.200
 109570554.548 9  85379617.72148  20850553.412    20850553.0644   20850553.9774
        54.500          53.7004


 125574017.259 7                  23895935.610
        46.700
 107315997.467 7  83622897.73948  20421554.333    20421553.8734   20421556.8354
        46.900          50.3004
 116366118.880 6  90674893.18943  22143716.814    22143716.6274   22143714.7754
        36.900          23.6004
 113299613.478 4  88121931.485 5  21180159.874                    21180171.667
        27.100          35.300
 106624112.715 8  82929972.265 7  19911275.789    19911277.141    19911279.323
        51.600          46.400
 116501265.466 7  90612171.646 6  21763421.523    21763423.290    21763425.900
        44.800          40.400


 130569785.482 7                  24846608.230
        42.900


 116028943.228 6  90244708.666 7  21705597.815    21705599.150    21705610.054
        37.600          45.500
 124749114.233 4  97207108.99741  23738976.886    23738975.7024   23738965.6604
        28.600           7.4004
 198899827.426 7                  37849380.464
        43.200
 128156757.946 5                  24387420.928
        34.500
 122038805.025 5  95095189.52042  23223213.182    23223212.8964   23223212.3294
        35.100          15.1004
 202014953.950 7                  38442172.771
        44.200


 145437923.698 5                  27675911.720
        34.800
 134932562.754 5                  25676810.273
        31.900
 112536986.608 7  87528811.912 7  21111650.567    21111649.477    21111653.229
        46.000          44.900
 114268422.158 4  88875479.972 6  21368768.981    21368765.972    21368777.307
        25.700          41.800
 144501309.676 5                  27497682.993
        31.700
 25  1  1 11 20 30.0000000  0 27G08G23G02E29G32G24E33G10G28R19R04R03
                                E27E26S35R05G25S31G31G21S33E07E30E19
                                R14R20E12


 115676763.199 6  90137738.26543  22012555.774    22012555.0994   22012555.4994
        41.300          21.3004
 129469650.582 5 100885463.05841  24637255.025    24637253.7114   24637248.2304
        34.500          10.9004
 123481267.081 8                  23497697.485
        50.800
 109564984.907 9  85375277.73848  20849493.501    20849493.1484   20849494.1174
        54.700          53.9004


 125574356.547 7                  23896000.097
        47.300
 107315394.945 7  83622428.22448  20421439.329    20421438.8734   20421441.5214
        44.200          48.1004
 116319902.473 6  90638880.45144  22134922.393    22134922.2104   22134920.8774
        36.100          24.0004
 113349366.253 4  88160628.055 4  21189463.005    21189465.264    21189467.723
        29.800          28.000
 106625411.027 8  82930982.063 7  19911516.588    19911517.562    19911522.052
        50.700          47.500
 116534017.221 6  90637645.189 6  21769538.864    21769538.895    21769545.007
        41.700          40.900


 130607565.821 7                  24853797.988
        44.000


 115997056.233 6  90219907.608 7  21699633.429    21699633.353    21699644.511
        37.800          44.700


 198899835.295 7                  37849381.430
        42.800
 128096795.005 5  99815621.78541  24376006.822    24376007.4704   24376002.1394
        34.000          11.3004
 122019189.220 5  95079904.52141  23219476.227    23219476.0984   23219479.9734
        30.200          11.4004
 202014956.397 7                  38442171.317
        44.000


 145416324.202 5                  27671800.661
        32.200
 134904611.672 5                  25671491.140
        33.500
 112497531.078 7  87498124.247 7  21104247.724    21104248.677    21104250.292
        47.200          43.500
 114248765.238 4  88860191.250 7  21365090.771    21365091.135    21365102.102
        26.200          43.300
 144464316.682 5                  27490644.048
        32.300
 25  1  1 11 20 45.0000000  0 28G08G23G02E29G32G24E33G10G28R19R04R03
                                E27E26S35R05G25S31G31G21S33E07E30E19
                                R14R20E12R15


 115712685.805 5  90165729.89343  22019391.688    22019390.7364   22019390.7954
        35.000          19.2004
 129432906.927 5 100856831.58241  24630258.541    24630257.2544   24630256.4144
        34.700          11.7004
 123476356.136 8                  23496763.078
        49.900
 109559479.693 9  85370987.96649  20848446.236    20848445.8834   20848446.5374
        54.800          54.2004


 125574806.970 7                  23896085.390
        47.000
 107314886.761 7  83622032.23247  20421342.848    20421342.3974   20421344.1964
        44.300          46.7004
 116273768.581 5  90602932.02144  22126141.446    22126141.2904   22126143.4444
        33.900          24.5004
 113399245.269 5                  21198791.309    21198792.725
        32.900
 106626762.411 8  82932033.150 8  19911769.715    19911770.799    19911774.909
        51.200          48.600
 116566794.517 6  90663138.650 6  21775665.859    21775663.614    21775666.605
        41.100          40.200


 130645412.843 7                  24861000.573
        44.600


 115965199.965 6  90195130.402 7  21693680.818    21693677.920    21693683.785
        39.300          43.000


 198899842.967 7                  37849384.622
        43.400
 128036849.314 4  99768910.87141  24364600.484    24364601.2394   24364598.8484
        28.500           9.6004
 121999684.128 5  95064705.84941  23215766.112    23215766.0054   23215768.3254
        32.200           8.4004
 202014960.024 7                  38442172.283
        44.300
 130844206.711 5                  24898825.113
        35.200
 145394800.607 5                  27667704.754
        31.700
 134876694.635 5                  25666178.529
        33.100
 112458219.325 7  87467548.439 7  21096875.967    21096874.927    21096874.851
        47.300          42.100
 114229305.169 4  88845055.641 7  21361455.715    21361450.666    21361463.364
        25.800          43.300
 144427380.704 5                  27483615.591
        31.600
 126361109.429 5                  23646758.950    23646762.288
        34.100
 25  1  1 11 21  0.0000000  0 25G08G23G02E29G32G24E33G10G28R04R03E27
                                E26S35R05G25S31G21S33E07E30E19R14R20
                                E12


 115748682.982 6  90193779.60642  22026242.252    22026241.5594   22026241.6474
        36.300          15.6004
 129396242.875 5 100828262.20541  24623282.164    24623280.9714   24623279.3914
        35.200          11.6004
 123471489.862 8                  23495837.300
        50.100
 109554037.143 9  85366747.01649  20847410.669    20847410.3214   20847411.1464
        55.000          54.7004


 125575366.922 7                  23896192.058
        47.200
 107314471.409 7  83621708.58247  20421263.612    20421263.1474   20421264.9014
        46.400          46.7004
 116227715.868 6  90567046.82644  22117381.864    22117381.6954   22117381.2514
        40.500          26.3004
 106628165.231 8  82933124.215 8  19912031.963    19912031.910    19912036.405
        51.600          48.600
 116599595.988 6  90688650.909 6  21781789.834    21781789.907    21781793.555
        40.000          39.400


 130683324.654 7                  24868214.633
        44.700


 115933372.416 6  90170375.542 7  21687729.446    21687726.978    21687730.611
        41.800          42.700
 124626639.568 6  97111544.87442  23715649.454    23715649.3074   23715634.4994
        38.900          15.7004
 198899849.930 7                  37849386.585
        43.300
 121980288.616 5  95049592.47341  23212078.929    23212078.8044   23212077.1534
        34.600          11.3004
 202014961.795 7                  38442173.209
        44.000
 130870590.965 6                  24903848.345
        38.900
 145373351.473 5                  27663624.117
        34.600
 134848809.756 5                  25660871.009
        31.300
 112419050.218 7  87437083.609 6  21089524.982    21089526.290    21089526.478
        46.400          40.700
 114210040.005 5  88830071.578 6  21357850.707    21357850.509    21357857.761
        33.400          41.900
 144390500.237 5                  27476597.054
        30.600
 25  1  1 11 21 15.0000000  0 28G08G23G02E29G32G24E33G10G28R19R04R03
                                E27E26S35R05G12G25S31G21S33E07E30E19
                                R14R20E12R15


 115784753.069 5  90221886.15842  22033103.723    22033102.8694   22033106.1604
        35.800          13.6004
 129359656.908 5 100799753.62741  24616321.064    24616320.0054   24616316.9984
        33.500           8.4004
 123466666.530 8                  23494919.620
        50.400
 109548655.597 9  85362553.59849  20846386.407    20846386.0634   20846387.7124
        54.900          55.0004


 125576034.770 7                  23896319.243
        47.700
 107314147.390 8  83621456.09947  20421201.933    20421201.4284   20421203.0314
        48.300          47.4004
 116181742.938 7  90531223.79044  22108631.712    22108631.5204   22108632.5174
        42.100          27.4004
 113499373.346 4                  21217507.994    21217504.860
        28.500
 106629617.588 8  82934253.806 8  19912303.532    19912303.499    19912307.282
        52.600          49.200
 116632419.987 5  90714180.815 6  21787920.139    21787916.973    21787925.013
        33.200          40.500


 130721299.455 7                  24875439.820
        42.000


 115901572.238 7  90145642.027 7  21681777.853    21681775.709    21681782.535
        43.900          42.500
 127859669.229 5  99630940.05141  24330881.491    24330880.9194   24330891.6864
        32.100           7.8004
 124585890.166 6  97079792.14243  23707894.695    23707894.5934   23707888.7594
        38.600          20.9004
 198899853.444 7                  37849385.807
        43.300
 121961000.912 5  95034563.17742  23208407.823    23208407.7614   23208405.9114
        34.600          12.5004
 202014960.436 7                  38442174.617
        44.400
 130896988.154 6                  24908870.322
        38.800
 145351975.354 5                  27659557.487
        35.500
 134820955.550 5                  25655572.087
        30.400
 112380022.767 7  87406729.034 6  21082202.343    21082201.311    21082206.830
        44.300          39.300
 114190968.551 5  88815238.223 6  21354282.278    21354283.782    21354290.833
        35.200          41.700
 144353674.139 4                  27469589.431
        27.900
 126231569.930 5                  23622518.014    23622518.416
        35.500
 25  1  1 11 21 30.0000000  0 27G08G23G02E29G32G24E33G10G28R19R04R03
                                E27E26S35R05G12G25S31G21S33E07E30E19
                                R14R20E12


 115820899.622 6  90250052.25441  22039984.452    22039983.5854   22039984.8354
        38.500           9.3004
 129323153.141 4 100771309.1034   24609373.171    24609371.9604   24609370.1054
        29.300           5.1004
 123461889.720 8                  23494010.301
        50.300
 109543338.573 9  85358410.47049  20845374.388    20845374.0494   20845376.5534
        54.900          55.3004


 125576814.171 7                  23896467.624
        47.500
 107313918.446 8  83621277.70748  20421159.050    20421158.5364   20421159.5634
        50.100          48.4004
 116135853.685 7  90495465.96644  22099899.292    22099899.1454   22099898.5794
        44.200          27.2004
 113549623.111 4                  21226899.985    21226899.685
        29.000
 106631123.212 8  82935424.835 8  19912584.764    19912584.214    19912589.214
        51.700          49.800
 116665270.241 6  90739730.998 6  21794055.992    21794055.246    21794063.526
        37.500          40.900


 130759340.630 6                  24882677.321
        38.600


 115869802.831 7  90120932.523 6  21675832.114    21675831.594    21675838.313
        42.700          39.900
 127838506.921 5  99614450.16941  24326851.962    24326851.5694   24326862.7854
        34.300           6.4004
 124545191.570 5  97048078.95143  23700148.325    23700147.9234   23700149.0384
        33.600          18.6004
 198899857.275 7                  37849386.648
        42.800
 121941824.633 5  95019620.63742  23204760.111    23204760.0804   23204755.8194
        33.500          12.1004
 202014960.198 7                  38442171.831
        43.700
 130923401.773 6                  24913895.814
        37.800
 145330676.098 5                  27655502.264
        32.100
 134793135.643 5                  25650278.701
        31.300
 112341140.981 7  87376487.661 6  21074910.116    21074909.369    21074914.472
        47.200          39.100
 114172094.598 6  88800558.432 7  21350753.708    21350754.170    21350761.739
        36.500          42.000
 144316905.955 4                  27462593.450
        24.300
 25  1  1 11 21 45.0000000  0 28G08G23G02E29G32G24E33G10G28R04R03R13
                                E27E26S35R05G25S31G31G21S33E07E30E19
                                R14R20E12R15


 115857123.755 6  90278278.50741  22046877.632    22046876.8774   22046878.0914
        40.900           8.1004
 129286732.748 4 100742929.4824   24602442.529    24602441.0674   24602439.1484
        26.000           1.8004
 123457160.570 8                  23493110.434
        51.300
 109538087.237 9  85354318.52949  20844375.302    20844374.9634   20844377.3744
        54.400          55.2004


 125577706.344 7                  23896637.545
        47.900
 107313786.004 8  83621174.53048  20421134.294    20421133.7674   20421134.7594
        51.200          49.0004
 116090049.642 7  90459774.56844  22091182.276    22091182.1384   22091180.7354
        42.900          25.6004
 106632683.346 8  82936638.254 8  19912877.818    19912876.765    19912880.379
        53.000          49.700
 116698148.306 7  90765302.799 6  21800209.224    21800212.259    21800204.231
        43.600          40.700
 117456781.552 5                  21995881.446    21995882.277
        33.400


 130797449.237 6                  24889930.158
        36.000


 115838065.743 7  90096248.182 6  21669897.848    21669896.191    21669898.943
        43.400          36.600
 124504545.279 5  97016406.44742  23692411.629    23692411.1474   23692416.1494
        34.400          17.7004
 198899863.672 7                  37849387.905
        42.400
 127797282.894 6                  24319008.220
        36.500
 121922761.037 5  95004765.91141  23201131.834    23201131.7234   23201127.7284
        32.400           9.2004
 202014961.316 7                  38442173.253
        43.600
 130949833.004 6                  24918925.171
        39.100
 145309455.084 4                  27651465.244
        29.100
 134765351.360 5                  25644990.059
        33.000
 112302406.652 7  87346360.954 6  21067640.706    21067641.060    21067647.888
        45.400          37.200
 114153419.999 6  88786033.813 7  21347262.057    21347261.551    21347270.265
        36.600          43.900


 126101995.663 6                  23598267.340    23598267.268
        39.900
 25  1  1 11 22  0.0000000  0 28G08G23E29G32G24E33G10G28R19R04R03R13
                                E27E26S35R05G25S31G31G21S33E07E30E19
                                R14R20E12R15


 115893424.168 6  90306564.47542  22053786.096    22053785.3234   22053787.0124
        41.900          17.1004
 123452477.718 8                  23492219.498
        51.300
 109532900.220 9  85350276.70349  20843388.509    20843388.1704   20843389.7584
        54.300          54.5004


 125578710.101 7                  23896829.046
        47.800
 107313748.951 8  83621145.68248  20421126.934    20421126.4074   20421127.9534
        51.000          49.0004
 116044329.807 7  90424148.78344  22082482.482    22082482.3754   22082479.5174
        42.700          24.1004
                  88394834.331 6                                  21245764.964
                        37.300
 106634296.640 8  82937893.034 8  19913178.070    19913178.099    19913181.462
        53.000          49.600
 116731052.322 6  90790894.801 6  21806347.178    21806349.207    21806349.909
        41.100          39.800
 117480467.007 5                  22000319.226    22000318.373
        31.000


 130835623.792 5                  24897195.353
        35.100


 115806359.375 7  90071587.751 6  21663967.040    21663967.101    21663969.477
        45.000          37.300
 124463950.451 6  96984774.09943  23684689.079    23684688.6504   23684693.1074
        37.900          23.1004
 198899870.348 7                  37849388.267
        42.700
 127737425.290 6  99535630.16742  24307614.548    24307614.7894   24307614.7404
        37.200          12.1004
 121903809.326 5  94989998.24541  23197520.426    23197520.3284   23197521.2884
        30.100           9.0004
 202014963.706 7                  38442173.008
        44.000
 130976280.534 6                  24923957.761
        38.900


 134737601.264 5                  25639708.114
        34.100
 112263819.015 7  87316348.382 5  21060402.269    21060402.026    21060405.139
        44.400          35.400
 114134943.382 5  88771663.126 7  21343806.594    21343805.514    21343815.878
        34.700          44.400


 126037198.015 5                  23586133.781    23586135.238
        35.000
 25  1  1 11 22 15.0000000  0 25G08G23E29G32G24E33G10G28R04R03R13E26
                                S35R05G25S31G31G21S33E07E30E19R14R20
                                E12


 115929800.633 7  90334909.76143  22060708.195    22060707.4004   22060711.4944
        42.100          20.1004
 123447840.986 8                  23491337.069
        51.300
 109527777.323 9  85346284.83648  20842413.520    20842413.1764   20842413.7864
        55.000          53.6004


 125579825.310 8                  23897041.270
        48.000
 107313807.282 8  83621191.16548  20421138.399    20421137.8764   20421138.9714
        51.500          48.8004
 115998694.337 6  90388588.75043  22073797.215    22073797.0594   22073795.7204
        40.800          22.3004
 106635962.923 8  82939188.995 8  19913488.360    19913489.834    19913492.915
        53.300          50.000
 116763982.589 6  90816507.158 6  21812503.615    21812506.028    21812502.566
        40.700          40.600
 117504336.904 5                  22004801.794    22004799.060
        31.900
 130873863.966 6                  24904474.417
        39.300


 115774683.661 7  90046950.998 6  21658040.789    21658041.700    21658042.601
        43.000          38.400
 124423407.315 5  96953182.05143  23676972.034    23676971.6454   23676980.0824
        35.800          23.1004
 198899877.335 7                  37849391.777
        43.100
 127677586.998 6  99489002.95742  24296228.442    24296228.6434   24296225.4194
        36.800          13.4004
 121884969.117 5  94975317.53841  23193936.639    23193936.4614   23193936.0494
        31.100           8.2004
 202014965.752 7                  38442174.148
        43.900
 131002744.019 6                  24928992.378
        38.100
 145267244.786 4                  27643434.335
        26.800
 134709885.142 5                  25634433.605
        34.400
 112225378.398 7  87286450.202 5  21053191.584    21053191.861    21053194.692
        45.800          35.800
 114116665.050 5  88757446.631 7  21340390.438    21340389.195    21340398.476
        35.500          45.500


 25  1  1 11 22 30.0000000  0 28G08G23G02E29G32G24E33G10G28R19R04R03
                                R13E26S35R05G25S31G31G21S33E07E30E19
                                R14R20E12R15


 115966252.536 6  90363313.83643  22067644.504    22067643.7314   22067649.3064
        39.700          20.0004
 129177948.007 6 100658130.67141  24581746.599    24581746.2464   24581744.9224
        36.900           9.5004
 123443249.687 8                  23490463.548
        51.600
 109522717.914 9  85342342.44448  20841450.381    20841450.0334   20841449.9864
        54.600          53.1004


 125581051.398 7                  23897274.322
        47.900
 107313960.600 8  83621310.66348  20421167.087    20421166.5694   20421168.1974
        50.600          48.9004
 115953142.932 6  90353094.23743  22065130.417    22065130.1724   22065128.7724
        37.800          21.5004
                  88473675.093 6                                  21264713.527
                        36.400
 106637681.784 8  82940525.913 8  19913809.214    19913811.187    19913813.195
        52.500          49.900
                  90842139.105 6                                  21818658.443
                        40.900
 117528390.461 4                  22009289.877    22009292.656
        26.200
 130912168.974 7                  24911762.347
        42.100


 115743038.065 5  90022337.803 6  21652144.321    21652142.610    21652125.079
        35.400          41.800
 124382915.771 5  96921630.19643  23669267.280    23669266.8024   23669275.6464
        33.800          18.1004
 198899884.591 7                  37849390.386
        42.500
 127617767.630 6  99442390.40641  24284846.059    24284846.2694   24284842.1834
        36.400          11.8004
 121866240.157 5  94960723.46941  23190375.271    23190374.9544   23190372.0004
        35.000          11.4004
 202014968.465 7                  38442174.720
        43.700
 131029222.832 6                  24934032.121
        37.600
 145246255.179 5                  27639443.542
        33.400
 134682202.593 5                  25629164.740
        34.600
 112187084.529 7  87256666.152 6  21046005.479    21046004.797    21046012.050
        42.700          38.300
 114098583.810 5  88743383.455 7  21337010.288    21337009.408    21337016.642
        33.200          44.900


 125907581.818 5                  23561885.624    23561883.080
        30.500
 25  1  1 11 22 45.0000000  0 27E27G23G02E29G32G24E33G10G28R19R04R03
                                E26S35R05G25S31G31G21S33E07E30E19R14
                                R20E12R15


 116002779.703 6  90391776.59742  22074596.772    22074596.0174   22074599.9604
        37.300          17.1004
 129141858.295 6 100630008.75441  24574878.508    24574878.2134   24574879.3404
        38.500           7.5004
 123438703.706 8                  23489598.443
        51.400
 109517721.841 9  85338449.39748  20840499.976    20840499.6284   20840498.9394
        54.400          53.1004


 125582388.353 8                  23897528.907
        48.400
 107314208.948 8  83621504.20548  20421213.804    20421213.2864   20421215.5474
        50.000          49.0004
 115907675.802 6  90317665.38043  22056477.724    22056477.4524   22056477.6314
        40.200          22.5004
                  88513237.276 5                                  21274220.152
                        34.800
 106639452.950 8  82941903.527 8  19914138.575    19914140.200    19914144.627
        50.600          50.400
                  90867790.804 7                  21824825.625    21824820.348
                        42.000
 130950538.592 7                  24919062.994
        43.400


                  89997748.011 7                                  21646212.172
                        44.200
 124342476.219 5  96890118.89342  23661571.817    23661571.3524   23661579.1254
        31.900          14.3004
 198899891.370 7                  37849391.567
        42.400
 127557967.466 6  99395792.85342  24273466.502    24273466.7034   24273463.2954
        36.900          15.6004
 121847622.452 6  94946216.11942  23186832.578    23186832.2074   23186828.8834
        40.000          14.4004
 202014970.409 7                  38442176.925
        43.900
 131055716.844 6                  24939073.500
        37.300
 145225342.528 5                  27635466.221
        34.900
 134654553.330 5                  25623903.230
        35.200
 112148938.036 7  87226996.687 6  21038852.403    21038851.600    21038856.984
        47.900          40.500
 114080700.545 4  88729474.251 7  21333664.411    21333664.089    21333671.631
        27.800          43.800


 125842763.548 5                  23549758.307    23549758.369
        33.000
 25  1  1 11 23  0.0000000  0 27E27G23G02E29G32G24E33G10G28R19R04R03
                                E26S35R05G12G25S31G31G21S33E07E30E19
                                R14R20E12


 116039383.838 6  90420299.29042  22081559.531    22081558.8294   22081565.2594
        38.700          15.4004
 129105852.964 6 100601952.5914   24568025.640    24568025.4214   24568027.7684
        38.600           5.4004
 123434204.697 8                  23488742.200
        49.800
 109512790.743 9  85334606.98148  20839561.948    20839561.6004   20839561.1194
        54.200          53.4004


 125583837.942 8                  23897804.791
        48.600
 107314554.170 8  83621773.24448  20421279.132    20421278.6184   20421281.2854
        49.800          49.7004
 115862294.911 7  90282303.72244  22047840.811    22047840.5344   22047842.0654
        43.000          24.7004
                  88552894.631 5                                  21283749.533
                        33.000
 106641278.108 8  82943323.100 8  19914479.015    19914480.495    19914485.012
        49.100          50.100
 116863157.351 6  90893463.589 6  21830986.598    21830987.150    21830986.926
        38.200          41.900
 130988974.347 7                  24926376.638
        43.900


                  89973183.040 7                  21640294.912    21640304.345
                        44.800
 127713827.664 6  99517293.87542  24303132.931    24303132.9054   24303138.0824
        37.600          16.9004
 124302090.685 5  96858649.64241  23653884.061    23653883.6954   23653893.3854
        31.100           8.9004
 198899899.318 7                  37849395.256
        43.000
 127498188.519 6  99349211.86643  24262091.393    24262091.5224   24262088.7394
        37.800          19.2004
 121829117.720 6  94931796.88042  23183310.146    23183309.7534   23183307.9464
        40.800          15.7004
 202014974.005 7                  38442175.650
        43.900
 131082227.736 6                  24944119.048
        37.100
 145204508.831 5                  27631504.617
        30.300
 134626939.082 5                  25618649.537
        35.400
 112110941.149 8  87197443.556 6  21031723.695    21031724.076    21031727.358
        48.700          41.600
 114063017.074 4  88715720.450 7  21330354.311    21330355.634    21330363.105
        24.800          42.400


 25  1  1 11 23 15.0000000  0 28E27G23G02E29G32G24E33G10G28R19R04R03
                                R13E26S35R05G12G25S31G31G21S33E07E30
                                E19R14R20E12


 116076062.286 6  90448879.91442  22088540.441    22088539.7934   22088544.9074
        38.100          15.3004
 129069930.100 6 100573960.71241  24561191.346    24561191.1414   24561191.5244
        40.100           7.4004
 123429750.012 8                  23487894.921
        48.900
 109507922.005 9  85330813.15649  20838635.493    20838635.1544   20838635.7034
        54.800          54.1004


 125585397.580 8                  23898101.524
        49.300
 107314993.891 8  83622115.91448  20421363.120    20421362.6024   20421365.3834
        49.500          50.5004
 115816998.023 7  90247007.50144  22039221.131    22039220.8904   22039222.0964
        42.600          26.0004
                  88592644.712 5                                  21293305.073
                        34.600
 106643154.614 8  82944782.622 8  19914828.370    19914829.823    19914835.095
        48.600          49.000
 116896190.167 5  90919155.692 7  21837152.203    21837151.040    21837158.963
        33.600          42.400
 117601590.493 5                  22023009.864    22023011.531
        34.800
 131027473.438 7                  24933701.583
        42.600


                  89948640.654 7                  21634394.964    21634399.907
                        43.600
 127693442.222 5  99501409.13943  24299255.039    24299254.8614   24299254.8804
        35.100          21.5004
 124261757.197 5  96827220.81141  23646211.588    23646211.2984   23646218.1094
        34.800          10.3004
 198899906.352 7                  37849396.021
        43.000
 127438428.593 6  99302645.71643  24250718.277    24250718.4024   24250717.6354
        38.000          19.6004
 121810723.988 6  94917464.12442  23179809.108    23179808.6844   23179808.1504
        36.900          14.2004
 202014977.031 7                  38442177.618
        43.900
 131108752.839 6                  24949166.456
        38.000


 134599357.196 6                  25613401.250
        36.400
 112073091.481 7  87168004.964 7  21024623.253    21024623.058    21024627.535
        47.500          43.500
                  88702120.224 7                                  21327093.200
                        42.400


 25  1  1 11 23 30.0000000  0 29E27G23G02E29G32G24E33G10G28R19R04R03
                                R13E26S35R05G12G25S31G31G21S33E07E30
                                E19R14R20E12R15


 116112812.878 5  90477516.74542  22095530.758    22095530.1374   22095538.0244
        33.700          13.5004
 129034087.786 6 100546031.59241  24554371.035    24554370.7004   24554370.7714
        40.800          10.4004
 123425337.467 8                  23487054.751
        48.400
 109503113.459 9  85327066.23549  20837720.145    20837719.8064   20837721.6054
        54.600          54.4004


 125587065.252 8                  23898418.621
        49.200
 107315526.159 8  83622530.68448  20421464.931    20421464.4044   20421467.1484
        50.800          51.4004
 115771783.309 6  90211775.29744  22030616.744    22030616.5084   22030618.6854
        39.100          25.9004
                  88632485.680 5                                  21302881.464
                        34.900
 106645080.562 8  82946280.565 8  19915188.818    19915189.900    19915194.081
        48.200          48.100
 116929245.008 6  90944864.933 6  21843330.405    21843329.070    21843334.176
        36.500          41.200
 117626373.768 5                  22027653.034    22027649.051
        35.100
 131066033.591 6                  24941039.908
        41.500


 115617276.300 7  89924119.289 7  21628499.397    21628500.006    21628502.159
        45.400          42.900
 127673165.627 4  99485609.22542  24295395.507    24295395.0204   24295394.1754
        26.600          12.7004
 124221473.945 6  96795831.23042  23638546.813    23638546.4694   23638552.5004
        37.000          15.6004
 198899910.800 7                  37849396.012
        42.800
 127378685.803 6  99256092.91942  24239350.071    24239350.1474   24239348.7504
        36.400          15.7004
 121792439.043 6  94903216.22342  23176330.740    23176330.3604   23176329.3714
        36.200          15.0004
 202014976.644 7                  38442175.731
        44.400
 131135289.991 6                  24954216.253
        37.300


 134571805.738 6                  25608159.572
        36.900
 112035387.613 7  87138679.763 7  21017550.311    21017550.280    21017555.579
        46.100          44.500
                  88688671.771 7                                  21323860.838
                        42.300


 125648273.861 5                  23513357.424    23513361.459
        35.000
 25  1  1 11 23 45.0000000  0 28E27G23G02E29G32G24E33G10G28R19R04R03
                                R13E26S35R05G12G25S31G31G21S33E07E30
                                E19R14R20E12


 116149638.786 5  90506212.30741  22102541.731    22102540.8914   22102545.4374
        31.000           9.8004
 128998329.451 6 100518168.02941  24547566.383    24547566.0394   24547566.3654
        40.600          11.2004
 123420970.265 8                  23486223.391
        48.200
 109498368.273 8  85323368.68549  20836816.827    20836816.4924   20836818.9724
        53.500          54.1004


 125588844.184 8                  23898756.912
        48.200
 107316154.355 8  83623020.19148  20421584.481    20421583.9404   20421586.5634
        51.900          52.1004
 115726654.294 6  90176609.86244  22022030.689    22022030.4214   22022031.9764
        37.900          25.1004
 114007395.514 5  88672419.467 5  21312479.714    21312483.791    21312480.759
        34.900          35.300
 106647059.059 7  82947819.388 7  19915559.705    19915558.420    19915563.983
        47.200          47.700
 116962325.449 6  90970594.073 6  21849510.822    21849509.769    21849513.086
        40.600          38.800
 117651339.586 6                  22032325.593    22032324.884
        38.000
 131104657.795 7                  24948390.843
        42.900


 115585779.224 6  89899621.603 6  21622598.776    21622599.097    21622608.534
        40.800          40.900
 127653148.432 6                  24291574.385
        36.400
 124181244.648 4  96764483.69841  23630887.078    23630886.6984   23630896.8594
        26.700           7.5004
 198899914.633 7                  37849396.025
        42.900
 127318963.781 5  99209556.28641  24227985.805    24227985.8184   24227984.6494
        33.100          10.7004
 121774266.097 6  94889055.58442  23172871.275    23172870.9004   23172871.4564
        39.700          15.7004
 202014976.828 7                  38442179.165
        44.700
 131161842.374 6                  24959269.304
        38.300


 134544287.834 6                  25602923.419
        36.600
 111997833.523 7  87109471.046 7  21010512.312    21010508.127    21010510.037
        46.200          44.900
                  88675378.046 6                                  21320664.004
                        40.400


 25  1  1 11 24  0.0000000  0 28E27G23G02E29G32G24E33G10G28R19R04R03
                                R13E26S35R05G12G25S31G31G21S33E07E30
                                E19R14R20E12


 116186542.595 5  90534968.50942  22109564.443    22109563.5494   22109568.0354
        34.900          12.2004
 128962657.834 6 100490371.98041  24540778.718    24540778.4554   24540778.6394
        41.300          10.7004
 123416650.942 8                  23485401.467
        48.700
 109493688.999 8  85319722.48748  20835926.366    20835926.0404   20835928.4264
        52.400          53.4004


 125590737.070 8                  23899117.409
        48.100
 107316881.306 8  83623586.64448  20421722.758    20421722.2224   20421724.4184
        51.100          51.7004
 115681613.844 6  90141513.42144  22013458.328    22013458.0114   22013461.3334
        40.500          24.5004
 114058860.537 5  88712447.718 6  21322099.769    21322097.753    21322101.339
        33.300          36.500
 106649092.912 8  82949401.245 7  19915941.073    19915939.872    19915942.792
        49.400          46.500
 116995434.244 6  90996345.302 5  21855693.130    21855697.448    21855696.312
        40.400          35.900
 117676490.453 6                  22037039.134    22037037.102
        38.600
 131143348.532 7                  24955753.515
        44.200


 115554315.078 6  89875149.448 6  21616719.034    21616716.141    21616722.703
        38.000          40.100
 127633098.908 5  99454302.31041  24287746.107    24287745.8264   24287750.6484
        34.600          10.1004


 198899921.285 7                  37849401.158
        43.500
 127259265.386 5  99163038.1394   24216626.264    24216626.3264   24216625.0154
        32.000           4.6004
 121756208.272 6  94874984.62243  23169435.244    23169434.8514   23169436.0434
        41.100          18.9004
 202014978.971 7                  38442177.336
        44.500
 131188412.513 6                  24964326.250
        39.000


 134516806.208 5                  25597692.674
        34.400
 111960431.978 7  87080380.999 7  21003484.138    21003488.543    21003493.332
        46.500          44.200
                  88662241.300 5                                  21317502.218
                        35.400


 25  1  1 11 24 15.0000000  0 29E27G23G02E29G32G24E33G10G28R19R04R03
                                R13E26S35R05G12G25S31G31G21S33E07E30
                                E19R14R20E12R15


 116223523.349 6  90563784.60942  22116600.089    22116599.1864   22116604.8714
        37.100          13.5004
 128927072.511 7 100462643.17141  24534008.199    24534007.9634   24534007.7534
        42.100           9.2004
 123412378.556 8                  23484588.513
        49.500
 109489074.718 8  85316126.94348  20835048.348    20835048.0184   20835050.2004
        52.400          53.0004


 125592743.033 7                  23899498.819
        46.700
 107317706.270 8  83624229.47048  20421879.493    20421878.9574   20421881.0374
        49.400          50.2004
 115636661.383 7  90106485.53444  22004903.255    22004902.9474   22004906.7664
        42.100          26.6004
 114110445.724 5  88752569.529 5  21331742.318    21331740.476    21331743.329
        31.900          35.700
 106651181.162 8  82951025.434 7  19916331.936    19916330.933    19916332.776
        51.200          45.900
 117028570.695 6  91022118.057 5  21861884.839    21861881.765    21861883.825
        36.000          35.300
 117701825.294 5                  22041778.404    22041777.921
        34.600
 131182104.724 7                  24963128.073
        44.800


 115522883.218 7  89850702.364 6  21610842.444    21610839.695    21610844.173
        44.700          40.300
 127613163.977 5  99438768.46441  24283951.722    24283951.1684   24283953.9854
        32.200           8.8004


 198899930.588 7                  37849400.631
        43.500
 127199590.276 5  99116538.51041  24205269.674    24205269.7504   24205269.1644
        31.300           8.5004
 121738264.551 6  94861002.54843  23166019.997    23166019.5644   23166022.4514
        39.400          20.0004
 202014983.367 7                  38442177.882
        44.800
 131214999.463 6                  24969384.407
        39.900


 134489359.853 4                  25592467.417
        27.500
 111923182.768 7  87051409.491 7  20996501.279    20996500.720    20996504.401
        47.300          42.800
 113977565.566 5  88649260.656 4  21314381.485    21314379.462    21314375.261
        33.300          27.900


 125453745.545 6                  23476952.475    23476953.543
        40.600
 25  1  1 11 24 30.0000000  0 30E27G23G02E29G32G24E33G10G28R19R04R03
                                R13E26R18S35R05G12G25S31G31G21S33E07
                                E30E19R14R20E12R15


 116260576.686 6  90592657.34242  22123652.496    22123651.6514   22123655.1174
        40.600          12.8004
 128891569.383 6 100434978.53341  24527253.768    24527253.3794   24527252.1914
        41.400           9.0004
 123408148.761 8                  23483783.412
        49.600
 109484521.064 8  85312578.62548  20834182.117    20834181.7734   20834183.6134
        51.700          52.2004


 125594857.827 7                  23899901.740
        45.600
 107318625.074 7  83624945.40647  20422054.451    20422053.9014   20422055.4844
        47.800          47.7004
 115591792.861 7  90071523.08544  21996365.993    21996365.7344   21996368.6594
        42.400          26.8004
 114162145.863 5  88792780.738 5  21341406.535    21341405.513    21341409.662
        33.000          35.900
 106653319.274 8  82952688.393 7  19916731.095    19916731.237    19916732.914
        52.500          46.300
 117061730.065 4  91047908.797 6  21868076.390    21868076.035    21868081.155
        28.800          37.500
 117727339.389 4                  22046552.263    22046550.613
        24.300
 131220921.896 7                  24970514.908
        45.300
 127522172.536 5                  23889200.124    23889201.582
        33.900


 115491478.879 7  89826276.710 6  21604966.491    21604965.812    21604968.739
        45.300          39.400
 127593339.437 5  99423320.52041  24280178.456    24280177.8804   24280181.9884
        33.300           6.4004


 198899936.863 7                  37849401.753
        44.300
 127139934.410 4  99070053.41641  24193915.790    24193915.8614   24193917.0694
        29.500          11.3004
 121720430.839 6  94847106.16243  23162627.715    23162627.2774   23162628.6644
        38.600          19.1004
 202014985.411 7                  38442180.734
        45.200
 131241598.824 6                  24974446.256
        39.100


 134461944.550 4                  25587249.087
        26.600
 111886081.908 7  87022553.317 6  20989540.651    20989540.559    20989543.860
        44.300          41.400
 113961073.476 5                  21311295.395    21311294.606
        35.300


 125388895.881 6                  23464817.904    23464816.384
        37.000
 25  1  1 11 24 45.0000000  0 29E27G23G02E29G32G24E33G10G28R19R04R03
                                R13E26R18S35R05G12G25S31G31G21S33E07
                                E30E19R14R20E12


 116297705.350 6  90621588.80542  22130718.442    22130717.6874   22130718.9804
        41.600          15.0004
 128856151.649 6 100407380.46641  24520514.252    24520513.9394   24520511.4484
        38.800           9.0004
 123403964.259 8                  23482987.111
        50.100
 109480030.728 8  85309079.64148  20833327.832    20833327.4844   20833329.0594
        50.700          51.7004


 125597084.223 7                  23900325.657
        45.700
 107319640.689 7  83625736.77847  20422247.817    20422247.2594   20422248.2914
        46.100          45.3004
 115547011.374 7  90036628.46444  21987844.264    21987844.0814   21987845.5674
        42.200          24.6004
 114213963.351 5  88833083.236 6  21351091.877    21351091.271    21351096.811
        30.100          36.400
 106655510.165 8  82954392.437 7  19917139.216    19917140.373    19917143.172
        52.900          46.900
 117094915.736 6  91073719.715 6  21874285.970    21874288.693    21874282.834
        36.800          40.000
 117753035.403 5                  22051367.581    22051365.532
        30.200
 131259802.628 7                  24977912.646
        44.900
 127588541.518 5                  23901629.741    23901631.834
        35.200


 115460104.989 7  89801874.777 6  21599097.465    21599096.490    21599100.060
        46.100          38.800
 127573628.539 5  99407961.19741  24276426.827    24276426.4474   24276432.2964
        33.700           8.8004


 198899943.195 7                  37849404.141
        44.600
 127080300.714 5  99023585.63741  24182567.229    24182567.1714   24182569.3564
        32.500          11.2004
 121702710.179 6  94833297.84243  23159256.479    23159255.9924   23159256.2694
        39.000          19.4004
 202014988.005 7                  38442179.916
        45.100
 131268213.336 6                  24979511.585
        38.500


 134434562.902 5                  25582041.914
        30.500
 111849132.851 6  86993815.228 6  20982607.169    20982605.247    20982611.758
        40.500          39.100
 113944781.111 6  88623737.759 6  21308248.772    21308249.207    21308254.755
        37.600          38.100


 25  1  1 11 25  0.0000000  0 28E27G23G02E29G32G24E33G10G28R19R04R03
                                R13E26S35R05G12G25S31G31G21S33E07E30
                                E19R14R20E12


 116334907.109 6  90650577.17943  22137798.107    22137797.3794   22137797.3574
        41.800          18.5004
 128820817.028 6 100379847.09741  24513787.692    24513787.4244   24513786.1994
        39.100          11.2004
 123399822.790 8                  23482199.153
        49.700
 109475601.509 8  85305628.28348  20832485.175    20832484.8274   20832485.8544
        52.400          52.0004


 125599420.105 7                  23900770.163
        47.100
 107320751.085 7  83626602.01347  20422458.033    20422457.4974   20422459.2584
        47.600          44.2004
 115502315.053 6  90001800.24343  21979339.343    21979339.1244   21979337.7694
        40.400          22.8004
 114265895.326 4  88873474.827 6  21360798.169    21360794.638    21360804.592
        27.800          36.100
 106657751.816 8  82956135.896 7  19917557.044    19917558.259    19917561.537
        51.400          46.700
 117128125.069 5  91099549.290 6  21880475.554    21880480.513    21880485.319
        33.000          39.300
 117778910.788 4                  22056215.466    22056207.440
        27.100
 131298744.524 6                  24985323.819
        41.900


 115428759.468 7  89777494.863 6  21593232.568    21593232.413    21593237.781
        46.100          38.400
 127554029.345 5  99392688.98241  24272699.745    24272699.4464   24272703.4774
        31.700           8.2004


 198899948.417 7                  37849403.680
        43.800
 127020687.360 5  98977133.62042  24171227.627    24171227.3284   24171225.8434
        35.400          13.3004
 121685100.351 6  94819575.88643  23155904.985    23155904.4854   23155905.9064
        40.700          22.3004
 202014988.668 7                  38442180.198
        45.900
 131294840.741 6                  24984579.810
        36.700
 145040619.813 5                  27600313.042
        34.800
 134407212.939 5                  25576837.083
        32.300
 111812333.725 6  86965193.685 6  20975708.920    20975717.298    20975709.290
        40.200          39.100
 113928686.252 6  88611219.494 6  21305236.515    21305237.856    21305245.581
        36.500          41.300


 25  1  1 11 25 15.0000000  0 28E27G23G02E29G32G24E33G10G28R19R04R03
                                R13E26R18S35R05G25S31G31G21S33E07E30
                                E19R14R20E12
 146157173.394 3                  27812788.921
        23.900
 116372186.557 6  90679626.07543  22144892.552    22144891.8954   22144891.4254
        39.700          20.0004
 128785570.649 6 100352382.40642  24507080.736    24507080.3434   24507077.4644
        39.400          12.7004
 123395728.999 8                  23481420.400
        49.700
 109471237.973 8  85302228.09648  20831654.308    20831653.9554   20831655.2284
        53.400          52.4004


 125601870.183 7                  23901235.943
        47.900
 107321961.056 7  83627544.84447  20422687.385    20422686.8584   20422689.4394
        46.700          43.4004
 115457708.796 6  89967042.21243  21970852.230    21970851.9624   21970848.4294
        38.500          21.6004
 114317946.478 4  88913959.056 5  21370525.809    21370524.375    21370533.559
        28.800          34.000
 106660048.761 8  82957922.411 7  19917986.162    19917986.583    19917990.858
        50.300          46.900
 117161362.970 5  91125400.920 6  21886699.782    21886693.873    21886694.386
        34.000          38.400
 117804970.031 5                  22061098.366    22061096.623
        31.500
 131337752.095 6                  24992747.212
        40.900
 127721224.368 5                  23926483.863    23926485.541
        35.400


 115397447.214 7  89753140.962 6  21587374.798    21587373.845    21587381.825
        44.400          39.600


 198899956.324 7                  37849406.247
        43.300
 126961099.580 5  98930701.51742  24159893.626    24159893.2294   24159887.7134
        33.700          15.6004
 121667606.116 7  94805944.02644  23152576.427    23152575.9404   23152577.5924
        42.400          24.7004
 202014992.085 7                  38442179.934
        45.600
 131321485.605 6                  24989650.905
        37.300
 145020491.223 5                  27596476.336
        31.200
 134379899.200 5                  25571639.536
        31.700
                  86936692.839 6                  20968822.124    20968834.788
                        37.400
 113912794.264 5  88598859.064 6  21302264.838    21302265.483    21302272.864
        35.400          41.500


 25  1  1 11 25 30.0000000  0 27E27G23G02E29G32G24E33G10G28R19R04R13
                                E26R18S35R05G25S31G31G21S33E07E30E19
                                R14R20E12


 116409539.811 6  90708732.49343  22152002.062    22152001.4954   22152000.1924
        41.100          22.3004
 128750408.958 6 100324983.76242  24500390.305    24500389.7154   24500385.5924
        39.200          14.4004
 123391678.971 8                  23480649.228
        49.200
 109466936.256 8  85298876.09348  20830835.418    20830835.0614   20830836.8134
        52.900          52.6004


 125604430.605 7                  23901722.592
        47.400
 107323266.930 7  83628562.40046  20422936.866    20422936.3394   20422938.1604
        44.300          41.8004
 115413189.049 6  89932351.54443  21962379.726    21962379.4404   21962377.9114
        38.400          23.2004
 114370111.816 4  88954532.056 5  21380277.791    21380277.149    21380284.111
        29.800          33.100
 106662397.240 8  82959749.043 7  19918424.399    19918424.802    19918430.195
        50.000          47.100
 117831208.933 4                  22066012.846    22066003.352
        25.400
 131376821.300 6                  25000182.538
        41.800
 127787538.163 5                  23938911.345    23938909.529
        32.200


 115366164.197 7  89728809.769 6  21581523.466    21581523.058    21581529.262
        45.700          40.100


 198899963.015 7                  37849407.173
        43.800
 126901533.642 4  98884286.45041  24148556.304    24148556.0364   24148553.6304
        26.300           9.0004
 121650224.075 7  94792399.55244  23149268.014    23149267.4824   23149269.2354
        43.600          25.0004
 202014995.237 7                  38442181.691
        45.100
 131348144.053 6                  24994723.865
        36.000


 134352617.853 5                  25566448.899
        31.000
 111739197.605 7  86908310.174 5  20961987.272    20961986.471    20961988.300
        46.600          33.700
 113897101.153 5  88586653.339 6  21299330.100    21299330.391    21299336.636
        34.600          40.300


 25  1  1 11 25 45.0000000  0 27E27G23G02E29G32G24E33G10G28R19R04R03
                                R13E26R18S35R05G25S31G21S33E07E30E19
                                R14R20E12


 116446964.658 6  90737894.66843  22159125.700    22159125.1504   22159123.3614
        41.100          22.8004
 128715330.063 6 100297649.59042  24493714.299    24493713.5624   24493710.4034
        38.500          14.4004
 123387670.469 8                  23479886.433
        48.400
 109462694.105 8  85295570.50848  20830028.251    20830027.8984   20830029.7534
        52.600          52.2004


 125607099.226 7                  23902230.911
        47.700
 107324666.717 7  83629653.13647  20423204.155    20423203.5654   20423205.1294
        45.600          42.5004
 115368753.947 6  89897726.82444  21953923.970    21953923.6404   21953924.6034
        40.800          24.4004
 114422388.681 5  88995191.779 5  21390051.726    21390057.209    21390057.607
        33.400          35.200
 106664794.942 8  82961613.926 7  19918872.011    19918872.988    19918877.523
        49.600          46.500
                  91177160.477 5                                  21899129.244
                        35.100
 117857625.149 5                  22070957.557    22070954.668
        31.500
 131415949.753 7                  25007627.763
        43.100
 127853829.699 4                  23951352.429
        28.700


 115334908.080 7  89704499.407 6  21575675.865    21575675.329    21575680.443
        46.300          37.300


 198899966.731 7                  37849406.001
        43.900
 121632951.984 7  94778940.79044  23145980.345    23145979.7914   23145980.3214
        44.200          24.4004
 202014994.805 7                  38442183.838
        45.300
 131374813.833 5                  24999796.388
        34.700


 134325366.734 5                  25561263.679
        30.800
 111702855.393 7                  20955166.578    20955166.710
        45.200
 113881605.039 5  88574600.816 6  21296430.989    21296433.137    21296439.771
        34.800          40.900


 25  1  1 11 26  0.0000000  0 26E27G23G02E29G32G24E33G10G28R19R04R13
                                E26R18S35R05G25S31G21S33E07E30E19R14
                                R20E12


 116484470.106 6  90767119.64143  22166267.722    22166267.1904   22166261.5784
        38.700          19.7004
 128680343.497 6 100270387.41542  24487056.590    24487055.8124   24487053.9364
        38.300          14.8004
 123383712.518 7                  23479133.118
        47.800
 109458520.584 8  85292318.40648  20829233.662    20829233.3054   20829235.4274
        52.500          51.7004


 125609885.213 7                  23902760.966
        47.900
 107326169.662 7  83630824.26647  20423490.100    20423489.5104   20423491.4034
        46.900          43.9004
 115324412.869 6  89863175.34644  21945485.949    21945485.5654   21945487.8684
        40.400          25.4004
 114474785.860 5  89035945.037 6  21399850.676    21399851.225    21399855.593
        34.100          36.400
 106667251.207 8  82963524.403 7  19919330.275    19919330.699    19919335.059
        49.200          45.900
 117884227.625 5                  22075937.162    22075938.193
        33.200
 131455146.387 7                  25015086.039
        43.200
 127920107.451 4                  23963771.205    23963766.603
        26.500


 115303688.072 7  89680217.193 5  21569832.577    21569832.998    21569838.241
        45.700          35.200


 198899976.535 7                  37849409.051
        43.700
 121615799.083 7  94765574.88644  23142716.362    23142715.7724   23142714.3914
        44.000          25.0004
 202015000.042 7                  38442184.652
        45.400
 131401504.025 5                  25004874.230
        34.800


 134298154.914 4                  25556081.439
        24.800
 111666673.133 7                  20948380.744    20948379.305
        44.800
 113866315.253 5  88562708.701 6  21293573.751    21293575.211    21293580.468
        35.700          40.800


 25  1  1 11 26 15.0000000  0 26E27G23G02E29G32G24E33G10G28R19R04R03
                                R13E26S35R05G25S31G21S33E07E30E19R14
                                R20E12


 116522045.450 4  90796399.05142  22173412.185    22173411.6984   22173413.0574
        28.700          16.0004
 128645438.670 6 100243188.83142  24480413.202    24480412.4424   24480413.2064
        37.100          13.6004
 123379794.461 8                  23478387.750
        48.100
 109454405.021 8  85289111.46548  20828450.718    20828450.3564   20828451.8784
        52.100          51.2004


 125612777.975 7                  23903311.893
        47.600
 107327765.322 7  83632067.64347  20423793.266    20423792.6944   20423794.4984
        47.000          43.4004
 115280155.528 6  89828689.10544  21937064.290    21937063.9104   21937065.5224
        41.800          24.9004
 114527291.744 5  89076782.925 6  21409668.434    21409665.851    21409674.597
        32.700          37.300
 106669755.230 8  82965471.954 7  19919797.305    19919798.855    19919802.039
        49.900          44.000
 117294330.232 5  91229003.048 5  21911565.963    21911588.308    21911576.261
        34.400          33.700
 117911004.900 5                  22080949.620    22080948.065
        31.400
 131494400.414 7                  25022555.313
        43.200


 115272493.756 7                  21563997.382    21563997.660
        46.300


 198899981.730 7                  37849411.126
        44.000
 121598754.934 7  94752293.74644  23139473.466    23139472.8454   23139470.0864
        43.700          24.7004
 202015002.351 7                  38442182.474
        44.900
 131428203.928 5                  25009958.545
        34.600


 134270971.649 4                  25550910.491
        28.100
 111630640.392 7                  20941621.802    20941622.125
        43.800
 113851221.459 6  88550969.016 6  21290749.814    21290752.169    21290757.117
        36.000          40.100


 25  1  1 11 26 30.0000000  0 27E27G23G02E29G32G24E33G10G28R19R04R03
                                R13E26S35R05G12G25S31G21S33E07E30E19
                                R14R20E12




 128610621.868 6 100216058.87741  24473787.957    24473787.2204   24473788.1754
        37.000          10.2004
 123375922.267 8                  23477651.149
        48.800
 109450353.345 8  85285954.31548  20827679.861    20827679.4904   20827680.5724
        52.900          51.4004


 125615783.528 8                  23903883.875
        48.100
 107329459.820 7  83633388.02846  20424116.265    20424115.7114   20424115.4094
        47.600          41.7004
 115235988.162 6  89794272.97243  21928659.481    21928659.0664   21928660.6254
        38.300          23.6004
 114579912.164 5  89117709.910 6  21419503.751    21419502.276    21419507.959
        33.100          37.400
 106672313.078 8  82967461.353 7  19920274.817    19920276.961    19920278.585
        50.300          43.200
 117327695.339 6  91254953.623 5  21917804.391    21917804.279    21917809.908
        38.400          35.000
 117937963.648 5                  22085999.551    22085998.504
        32.400
 131533717.614 6                  25030036.758
        41.600


 115241331.024 8                  21558169.052    21558169.423
        48.600
 127438793.114 5                  24250789.370
        35.100


 198899988.071 7                  37849412.673
        43.800
 121581825.658 7  94739102.10344  23136251.716    23136251.0994   23136248.6894
        43.500          24.5004
 202015004.096 7                  38442182.791
        44.700
 131454919.491 5                  25015038.440
        33.900


 134243823.170 4                  25545745.563
        28.200
                  86795917.964 5                  20934887.186    20934890.562
                        34.900
 113836329.426 5  88539386.310 6  21287964.791    21287968.096    21287971.404
        35.400          39.300


 25  1  1 11 26 45.0000000  0 29E27G08G23G02E29G32G24E33G10G28R19R04
                                R03R13E26S35R05G12G25S31G21S33E07E30
                                E19R14R20E12R15






 128575891.518 6 100188996.22141  24467178.299    24467177.3834   24467179.2824
        38.500          10.4004
 123372093.815 8                  23476922.541
        48.700
 109446363.474 8  85282845.31648  20826920.776    20826920.4054   20826921.3134
        53.600          52.0004


 125618899.876 8                  23904477.150
        48.000
 107331251.352 7  83634784.01846  20424456.649    20424456.0954   20424454.4434
        47.100          40.2004
 115191909.055 5  89759925.64643  21920272.442    21920272.0224   21920272.6124
        35.900          20.3004
 114632644.324 5  89158723.879 6  21429361.220    21429358.372    21429366.639
        31.700          37.500
 106674922.666 8  82969491.049 7  19920763.128    19920764.381    19920765.857
        50.600          42.400
 117361085.334 7  91280923.615 5  21924052.411    21924054.744    21924043.623
        42.400          33.100
 117965100.551 5                  22091080.988    22091078.347
        32.100
 131573095.781 6                  25037530.908
        39.300


 115210197.772 7                  21552344.254    21552345.278
        47.400
 127419997.413 5  99288305.56641  24247200.553    24247200.3934   24247214.5804
        35.000          11.6004


 198899994.258 7                  37849413.330
        43.900
 121565009.313 6  94725998.45943  23133050.816    23133050.1824   23133048.5324
        41.600          21.9004
 202015006.339 7                  38442183.730
        44.500
 131481648.664 5                  25020127.241
        34.400


 134216707.377 4                  25540583.667
        26.400
 111559041.042 6  86768134.056 6  20928263.620                    20928192.555
        36.600          38.800
 113821637.972 5  88527959.583 6  21285219.294    21285218.639    21285225.054
        32.100          40.800
 143558507.708 5                  27318272.451
        33.100
 124805140.829 6                  23355583.163    23355578.982
        36.600
 25  1  1 11 27  0.0000000  0 29E27G08G23G02E29G32G24E33G10G28R19R04
                                R03R13E26S35R05G12G25S31G21S33E07E30
                                E19R14R20E12R15






 128541252.192 6 100162004.55041  24460587.954    24460586.8684   24460587.5384
        36.300          11.1004
 123368313.371 8                  23476203.424
        49.000
 109442439.657 8  85279787.78148  20826173.947    20826173.5764   20826174.6284
        53.200          51.8004


 125622131.354 8                  23905092.065
        48.000
 107333144.287 8  83636259.01946  20424817.298    20424816.7534   20424814.4624
        48.600          40.2004
 115147922.719 6  89725650.61642  21911900.543    21911900.2264   21911900.6124
        41.300          16.5004
 114685492.170 4  89199827.767 5  21439237.495    21439234.688    21439241.828
        29.600          34.600
 106677588.458 8  82971564.454 6  19921261.082    19921261.505    19921263.227
        50.200          41.100
 117394504.862 6  91306916.484 5  21930292.486    21930287.641    21930286.795
        39.900          33.100
 117992420.354 5                  22096198.480    22096197.506
        31.100
 131612539.020 6                  25045037.722
        41.200




 127401321.231 5  99273752.71842  24243644.854    24243645.3634   24243656.7924
        31.200          14.5004


 198900004.056 7                  37849416.635
        43.700
 121548310.293 6  94712986.20442  23129871.780    23129871.1504   23129869.7004
        37.400          16.5004
 202015012.223 7                  38442184.339
        44.600
 131508395.695 5                  25025224.074
        34.100
 144881807.988 5                  27570091.425
        34.100
 134189628.499 4                  25535429.852
        26.700
                  86740474.122 7                  20921520.938    20921521.144
                        42.400
 113807151.399 5  88516692.185 7  21282513.409    21282509.234    21282516.382
        31.100          42.600
 143523065.437 5                  27311526.244
        31.300
 124740293.215 6                  23343445.806    23343445.552
        38.800
 25  1  1 11 27 15.0000000  0 29E27G08G23G02E29G32G24E33G10G28R19R04
                                R03R13E26S35R05G25S31G31G21S33E07E30
                                E19R14R20E12R15




 116673270.237 5                  22202179.927
        34.200
 128506697.406 5 100135078.73742  24454012.022    24454010.8384   24454011.7544
        35.100          13.6004
 123364574.039 8                  23475491.747
        48.500
 109438575.033 8  85276776.37848  20825438.823    20825438.4664   20825439.1004
        52.700          51.9004


 125625471.131 8                  23905727.681
        49.100
 107335132.019 8  83637807.88147  20425195.690    20425195.1324   20425194.0134
        50.000          42.6004
 115104022.729 7  89691442.87242  21903551.226    21903550.8964   21903544.2144
        42.200          15.2004
 114738448.173 5  89241015.766 5  21449137.697    21449138.634    21449139.519
        33.200          32.400
 106680303.539 8  82973676.191 6  19921768.382    19921768.793    19921770.153
        50.500          40.400
 117427946.921 5  91332927.183 5  21936527.948    21936530.482    21936535.109
        34.800          35.600
 118019915.949 5                  22101352.809    22101352.406
        35.200
 131652040.318 7                  25052554.928
        42.700






 198900010.785 7                  37849414.296
        43.800
 126485245.451 5  98559918.00442  24069340.688    24069340.3134   24069338.1074
        34.100          14.5004
 121531721.880 5  94700060.13642  23126715.570    23126714.8644   23126712.3864
        31.500          12.3004
 202015014.837 7                  38442184.468
        44.800
 131535153.500 5                  25030317.148
        30.900
 144862318.630 5                  27566380.361
        35.600
 134162579.700 4                  25530282.511
        24.900
 111488068.245 6  86712933.175 7  20914876.554    20914872.306    20914879.153
        41.700          44.500
 113792862.431 5  88505578.608 7  21279839.765    21279837.672    21279845.661
        31.200          43.700
 143487682.646 4                  27304793.929
        29.900
 124675444.904 6                  23331312.123    23331310.905
        40.200
 25  1  1 11 27 30.0000000  0 27E27G08G23G02E29G32G24E33G10G28R19R04
                                R03E26S35R05G25S31G31G21S33E07E30E19
                                R14R20E12




 116711213.584 5                  22209389.149
        34.900
 128472225.483 6 100108217.49642  24447452.720    24447451.5984   24447451.6464
        36.800          17.6004
 123360873.956 8                  23474787.967
        48.000
 109434767.702 8  85273809.61048  20824714.242    20824713.8944   20824714.4874
        52.200          51.9004


 125628917.457 8                  23906382.739
        48.500
 107337212.860 8  83639429.29447  20425591.883    20425591.3074   20425591.5724
        52.600          46.1004
 115060207.436 6  89657301.23842  21895206.940    21895206.7264   21895204.1554
        41.600          16.6004
 114791509.953 5  89282285.919 5  21459058.677    21459060.825    21459060.422
        34.000          33.700
 106683065.949 8  82975824.727 6  19922283.694    19922283.481    19922285.538
        49.500          40.100
 117461409.921 6  91358953.900 6  21942783.685    21942784.381    21942787.596
        40.000          38.100
 131691597.705 7                  25060082.589
        42.400


 115116978.657 6                  21534909.413    21534905.812
        37.100


 198900012.902 7                  37849415.767
        43.900
 126425868.348 5  98513650.07241  24058047.565    24058046.4484   24058039.0994
        33.300          11.9004
 121515242.338 4  94687218.9714   23123579.702    23123578.6924   23123575.9724
        27.300           5.4004
 202015013.022 7                  38442184.043
        44.500


 144842905.242 5                  27562686.395
        34.900


 111452809.778 6  86685509.983 7  20908257.387    20908256.863    20908263.839
        40.500          44.300
 113778769.892 5  88494617.786 7  21277202.264    21277199.607    21277209.376
        30.300          43.200
 143452357.877 4                  27298072.143
        24.700
 25  1  1 11 27 45.0000000  0 28E27G23G02E29G32G24E33G10G28R19R04R03
                                R13E26S35R05G25S31G31G21S33E07E30E19
                                R14R20E12R15


 116749239.676 5                  22216628.200
        34.600
 128437849.997 6 100081431.42343  24440911.173    24440910.1814   24440910.1144
        39.300          20.7004
 123357226.635 8                  23474093.726
        48.300
 109431031.164 8  85270898.01748  20824003.134    20824002.7904   20824003.4234
        52.000          51.6004


 125632483.930 7                  23907061.295
        47.500
 107339400.539 8  83641133.95348  20426007.809    20426007.2154   20426009.3424
        52.700          48.7004
 115016490.748 7  89623236.36043  21886890.929    21886890.7334   21886885.8554
        44.700          21.8004
 114844690.653 4  89323648.607 5  21469000.110    21468998.300    21469004.398
        29.300          35.400
 106685889.486 8  82978020.835 6  19922810.294    19922810.390    19922813.047
        49.800          40.300
 117494907.302 7  91385007.389 6  21949043.126    21949045.096    21949045.596
        44.200          39.400
                                                  22111797.821

 131731224.561 7                  25067622.430
        42.200


 115085970.487 6  89510877.165 5  21529108.250    21529112.579    21529109.468
        38.800          33.900


 198900023.274 7                  37849419.447
        43.600
 126366525.591 5  98467408.98442  24046740.750    24046739.0204   24046747.5594
        34.800          16.8004
 121498885.708 4  94674473.54841  23120465.878    23120464.7704   23120462.8864
        28.600           7.0004
 202015019.896 7                  38442185.287
        44.200


 144823581.556 5                  27559010.822
        32.000


 111417717.078 7  86658215.662 7  20901676.215    20901675.050    20901679.554
        43.400          43.500
 113764887.536 5  88483820.422 7  21274605.624    21274604.411    21274613.380
        31.700          42.100


 124545757.128 6                  23307054.402    23307055.027
        38.700
 25  1  1 11 28  0.0000000  0 27E27G23G02E29G32G24E33G10G28R04R03R13
                                E26S35R05G25S31G31G21S33E07E30E19R14
                                R20E12R15




 128403556.314 6 100054709.04343  24434385.005    24434384.0984   24434384.8634
        41.100          22.5004
 123353616.998 8                  23473406.764
        48.400
 109427350.391 8  85268029.87648  20823302.798    20823302.4544   20823303.2484
        51.600          51.7004


 125636155.535 7                  23907760.246
        47.200
 107341680.196 8  83642910.29248  20426442.078    20426441.4934   20426444.1944
        52.900          50.1004
 114972857.922 7  89589236.80044  21878586.332    21878586.0824   21878584.6454
        44.600          25.2004
 106688759.079 8  82980252.740 6  19923348.325    19923349.221    19923350.764
        52.700          41.200
 117528424.127 6  91411076.126 6  21955303.128    21955302.997    21955306.663
        41.600          38.700
 118103469.303 5                  22116984.443    22116977.355
        30.400
 131770905.677 7                  25075173.593
        43.200


 115054986.012 6  89486778.006 6  21523320.091    21523320.464    21523311.782
        41.100          36.800


 198900027.678 7                  37849420.816
        43.500
 126307202.589 5  98421183.14943  24035453.185    24035451.4774   24035459.8254
        33.200          19.8004
 121482637.175 4  94661812.26141  23117374.078    23117372.8534   23117370.5814
        26.400           9.0004
 202015020.407 7                  38442183.569
        44.100


 144804332.918 5                  27555349.750
        30.600


 111382775.476 7  86631038.841 7  20895122.650    20895122.809    20895124.387
        46.100          43.600
 113751200.075 5  88473174.630 6  21272045.971    21272045.919    21272053.546
        33.000          40.800


 124480917.372 5                  23294932.681    23294932.789
        35.300
 25  1  1 11 28 15.0000000  0 29E27G23G02E29G32G24E33G10G28R19R04R03
                                R13E26R18S35R05G12G25S31G31G21S33E07
                                E30E19R14R20E12




 128369352.533 6 100028056.67343  24427876.708    24427875.8054   24427876.7304
        40.800          22.8004
 123350052.800 8                  23472728.729
        48.900
 109423733.128 8  85265211.23248  20822614.889    20822614.5414   20822615.5574
        51.600          51.9004


 125639940.109 8                  23908480.843
        48.200
 107344059.828 8  83644764.55548  20426894.527    20426893.9374   20426897.4424
        53.300          50.9004
 114929317.028 7  89555308.85144  21870300.876    21870300.6314   21870300.9964
        44.700          27.5004
                  89406620.380 6                                  21488947.137
                        36.500
 106691682.703 8  82982526.660 7  19923892.639    19923893.538    19923897.277
        51.400          42.600
 117561968.403 7  91437166.071 6  21961568.347    21961569.493    21961573.066
        44.300          36.700
 118131675.643 5                  22122305.009    22122283.686
        30.100
 131810648.652 7                  25082735.240
        42.400
 128515629.827 5                  24075307.611
        33.200


                  89462703.667 6                  21517519.611    21517524.357
                        40.300




 198900034.021 7                  37849421.585
        43.200
 126247907.231 5  98374978.99243  24024178.046    24024176.6204   24024177.6444
        30.300          18.5004
 121466504.356 4  94649241.22541  23114305.972    23114304.7834   23114300.3744
        27.500          10.9004
 202015022.298 7                  38442185.296
        44.900
 131642311.572 6                  25050700.127
        36.900
 144785167.269 4                  27551703.675
        27.300
 134054675.500 6                  25509758.041
        36.900
 111347993.187 7  86603985.958 7  20888593.496    20888592.764    20888599.664
        42.800          44.900
 113737716.167 5  88462687.098 6  21269525.088    21269525.332    21269530.343
        34.800          38.600
 143346773.692 5                  27277984.751
        34.700
 25  1  1 11 28 30.0000000  0 29E27G23G02E29G32G24E33G10G28R04R03R13
                                E26R18S35R05G12G25S31G31G21S33E07E30
                                E19R14R20E12R15




 128335239.801 6 100001475.29343  24421384.577    24421383.6704   24421385.2084
        40.900          22.1004
 123346534.616 8                  23472059.060
        49.700
 109420179.942 8  85262442.52748  20821938.719    20821938.3714   20821939.9844
        51.600          52.0004


 125643838.324 8                  23909222.136
        48.000
 107346540.152 8  83646697.27748  20427366.729    20427366.1534   20427369.1184
        52.800          51.3004
 114885869.007 7  89521453.27844  21862033.255    21862032.9744   21862034.8124
        43.500          28.8004
 106694660.675 8  82984842.825 7  19924448.740    19924449.853    19924453.685
        52.100          44.200
 117595540.550 7  91463277.585 5  21967842.305    21967845.997    21967843.269
        46.400          33.800
 118160061.523 4                  22127607.565
        25.500
 131850453.915 6                  25090310.250
        39.400
 128581682.053 5                  24087682.018
        32.400


 114993112.589 7  89438654.267 6  21511733.838    21511734.995    21511739.093
        43.700          40.800




 198900041.400 7                  37849421.755
        43.000
 126188640.443 5  98328797.14943  24012901.540    24012900.1864   24012900.6594
        31.600          21.0004
 121450488.143 5  94636761.05242  23111259.689    23111258.4464   23111252.8604
        31.300          14.2004
 202015026.949 7                  38442185.461
        44.400
 131669139.505 6                  25055806.441
        39.800
 144766085.271 5                  27548082.104
        32.200
 134027793.602 6                  25504642.255
        38.400
 111313371.377 6  86577057.903 7  20882097.306    20882095.930    20882105.361
        37.800          46.400
 113724436.284 5  88452358.369 5  21267040.564    21267040.809    21267044.376
        34.000          35.100
 143311708.468 6                  27271311.535
        36.700
 124351257.701 5                  23270651.145    23270646.378
        35.800
 25  1  1 11 28 45.0000000  0 28E27G23G02E29G32G24E33G10G28R04R03R13
                                E26S35R05G12G25S31G31G21S33E07E30E19
                                R14R20E12R15


 116901897.457 6  91092380.93942  22245689.374    22245688.4894   22245688.3494
        38.000          17.7004
 128301212.457 6  99974960.42643  24414908.358    24414907.4874   24414909.3644
        41.100          21.4004
 123343056.684 8                  23471397.116
        49.700
 109416685.052 8  85259719.24548  20821273.437    20821273.0934   20821274.6924
        51.900          51.5004


 125647844.443 7                  23909984.515
        46.700
 107349115.646 8  83648704.16648  20427857.045    20427856.4824   20427858.6184
        52.800          50.7004
 114842508.396 6  89487665.81944  21853783.337    21853783.0654   21853784.5664
        41.200          29.3004
 106697687.482 8  82987196.992 7  19925014.302    19925015.312    19925020.092
        51.300          45.400
 117629134.894 7  91489406.428 5  21974116.039    21974119.107    21974117.425
        45.400          32.500
 118188620.461 4                  22132958.051    22132955.549
        29.200
 131890315.504 5                  25097896.464
        35.600


 114962218.652 7  89414625.640 6  21505952.794    21505952.248    21505958.452
        44.200          39.800




 198900046.118 7                  37849422.971
        42.900
 126129397.177 5  98282633.46543  24001624.600    24001623.2954   24001626.1024
        33.000          20.6004
 121434582.363 5  94624366.95842  23108232.224    23108230.9774   23108227.1954
        34.700          15.6004
 202015027.678 7                  38442187.513
        44.600
 131695977.440 6                  25060913.432
        40.300
 144747081.645 4                  27544470.283
        28.400
 134000941.083 6                  25499532.570
        38.400
 111278904.765 7  86550250.586 7  20875633.439    20875630.872    20875638.836
        42.100          45.900
 113711354.907 5  88442184.016 6  21264595.604    21264594.608    21264602.213
        34.900          37.400
 143276703.647 6                  27264649.801
        36.900
 124286433.433 5                  23258523.455    23258524.118
        35.800
 25  1  1 11 29  0.0000000  0 28E27G23G02E29G32G24E33G10G28R19R04R03
                                R13E26S35R05G12G25S31G31G21S33E07E30
                                E19R14R20E12


 116940289.154 6  91122296.47943  22252997.045    22252996.2364   22252994.9364
        38.900          21.4004
 128267276.796 7  99948517.01343  24408451.241    24408450.4054   24408449.9364
        42.500          20.6004
 123339625.022 8                  23470744.584
        49.900
 109413254.547 8  85257046.13448  20820620.402    20820620.0674   20820620.9004
        52.100          50.8004


 125651964.635 7                  23910768.970
        46.200
 107351792.545 8  83650790.07448  20428366.377    20428365.8194   20428366.9074
        52.700          49.8004
 114799241.610 7  89453951.46544  21845549.173    21845548.9014   21845551.0484
        43.600          28.4004
                  89531712.272 5                                  21519011.345
                        33.900
 106700769.367 8  82989593.983 7  19925590.815    19925591.377    19925594.360
        52.200          44.800
 117662757.685 7  91515557.519 5  21980399.380    21980400.068    21980401.230
        44.500          35.600
 118217359.412 5                  22138342.620    22138338.305
        30.800
 131930239.454 6                  25105494.979
        39.600


 114931357.305 7  89390622.342 6  21500181.548    21500181.538    21500186.701
        46.400          41.000
 127255963.821 5  99160539.22642  24216006.054    24216006.6304   24216014.0494
        35.100          16.9004


 198900053.557 7                  37849425.931
        43.100
 126070183.554 5  98236493.00543  23990351.337    23990350.0634   23990355.0514
        33.100          19.6004
 121418793.732 6  94612064.14943  23105225.025    23105223.7514   23105224.4874
        36.700          18.2004
 202015031.126 7                  38442189.213
        44.400
 131722831.477 6                  25066023.549
        39.300


 133974124.359 6                  25494429.380
        39.300
 111244600.142 7  86523569.264 7  20869199.844    20869198.367    20869203.505
        47.600          45.800
 113698478.077 6  88432168.682 6  21262188.801    21262186.908    21262189.974
        36.200          36.000
 143241765.643 6                  27258000.729
        37.300
 25  1  1 11 29 15.0000000  0 30E27G23G02E29G32G24E33G10G28R19R04R03
                                R13E26R18S35R05G12G25S31G31G21S33E07
                                E30E19R14R20E12R15


 116978757.429 6  91152271.72044  22260317.725    22260317.1754   22260317.2044
        37.500          24.0004
 128233433.681 7  99922145.74943  24402010.809    24402010.0544   24402007.2444
        43.400          19.8004
 123336240.026 8                  23470100.478
        50.500
 109409888.767 8  85254423.45648  20819980.000    20819979.6704   20819979.7774
        51.600          50.3004


 125656199.301 7                  23911574.216
        45.800
 107354571.466 8  83652955.48248  20428895.210    20428894.6564   20428894.5994
        52.100          48.8004
 114756069.304 7  89420310.74644  21837332.835    21837332.5404   21837334.9334
        44.200          27.8004
                  89573579.097 5                                  21529075.613
                        34.000
 106703906.628 8  82992034.022 7  19926177.710    19926177.701    19926181.109
        52.000          45.300
 117696409.279 7  91541731.022 6  21986685.384    21986685.596    21986691.672
        43.400          40.200
 118246277.553 5                  22143733.492    22143736.336
        33.900
 131970225.896 7                  25113102.904
        42.200
 128779684.825 5                  24124769.387
        32.100


 114900529.237 8  89366644.981 6  21494415.681    21494415.193    21494418.455
        48.600          39.900
 127238343.102 5  99146808.82242  24212653.123    24212652.9854   24212656.3744
        31.700          16.6004
 123310644.694 5                  23465233.527
        34.700
 198900063.571 7                  37849426.602
        43.100
 126011000.711 5  98190376.42043  23979080.723    23979079.5344   23979090.7924
        35.700          21.5004
 121403123.037 6  94599853.23843  23102245.013    23102243.7304   23102244.4594
        38.400          21.3004
 202015037.373 7                  38442189.079
        44.600
 131749701.942 6                  25071136.413
        40.100


 133947343.835 6                  25489333.288
        40.200
 111210458.026 8  86497014.300 7  20862794.988    20862795.169    20862799.238
        50.800          46.000
 113685806.731 6  88422313.116 6  21259818.469    21259817.520    21259821.061
        36.500          36.800
 143206895.035 5                  27251363.896
        35.100
 124156812.112 5  96566451.093 5  23234264.700    23234259.985    23234265.160
        31.600          34.200
 25  1  1 11 29 30.0000000  0 27E27G23G02E29G32G24E33G10G28R04R03R13
                                E26S35R05G25S31G31G21S33E07E30E19R14
                                R20E12R15
 145503563.678 5                  27688402.444
        34.300
 117017297.324 6  91182302.82944  22267652.771    22267652.3244   22267653.0314
        36.600          24.2004
 128199678.470 7  99895842.99142  24395587.401    24395586.6594   24395581.2944
        42.900          17.0004
 123332896.716 8                  23469463.884
        49.900
 109406582.726 8  85251847.31048  20819350.818    20819350.4924   20819350.5484
        51.700          50.0004


 125660543.579 7                  23912401.126
        45.300
 107357447.629 8  83655196.64548  20429443.005    20429442.4514   20429441.5504
        52.100          48.8004
 114712986.880 7  89386740.06044  21829134.633    21829134.3474   21829134.8414
        43.800          27.2004
 106707094.351 8  82994513.306 7  19926772.708    19926772.838    19926778.106
        52.200          46.200
 117730084.686 6  91567923.026 6  21992974.907    21992974.911    21992985.212
        40.900          41.500
 118275369.757 5                  22149187.989    22149185.540
        33.100
 132010269.774 7                  25120722.333
        42.900


 114869729.429 7  89342689.623 6  21488653.278    21488651.996    21488655.191
        47.500          38.600
 123271772.067 6  96055916.0474   23457837.325    23457837.0894   23457834.9834
        38.600           5.9004
 198900072.049 7                  37849426.517
        43.000
 125951843.838 6  98144280.04443  23967828.439    23967827.2864   23967832.8124
        36.000          21.5004
 121387565.698 6  94587730.66543  23099285.198    23099283.9204   23099285.3904
        39.500          23.1004
 202015042.374 7                  38442188.493
        44.600
 131776583.883 6                  25076251.659
        39.300


 133920594.405 6                  25484243.423
        39.700
 111176474.189 8  86470582.446 7  20856419.591    20856418.586    20856422.942
        50.800          45.000
 113673335.994 6  88412613.640 6  21257486.500    21257488.248    21257490.424
        38.200          40.100
 143172087.060 5                  27244739.645
        32.100
 124092011.397 4  96516050.924 5  23222130.798    23222130.177    23222136.295
        26.900          33.100
 25  1  1 11 29 45.0000000  0 28E27G23G02E29G32G24E33G10G28R04R03R13
                                E26R18S35R05G25S31G31G21S33E07E30E19
                                R14R20E12R15
 145465168.853 5                  27681096.012
        35.000
 117055906.136 6  91212387.63443  22274997.983    22274997.4834   22275000.4974
        36.500          22.9004
 128166008.775 7  99869606.94042  24389181.239    24389180.4614   24389171.9394
        42.400          14.5004
 123329592.374 8                  23468835.149
        48.900
 109403333.750 8  85249315.62348  20818732.369    20818732.0434   20818732.3194
        51.100          49.2004


 125664994.832 7                  23913248.207
        45.300
 107360418.550 8  83657511.64448  20430007.499    20430006.9544   20430006.8214
        52.800          49.3004
 114669992.011 6  89353237.59244  21820953.156    21820952.9284   21820951.7624
        41.300          25.9004
 106710329.776 8  82997029.729 7  19927375.263    19927376.252    19927381.230
        51.900          44.600
 117763781.066 7  91594131.257 6  21999272.590    21999271.724    21999277.335
        43.300          40.400
 118304633.361 5                  22154668.568    22154668.590
        35.000
 132050368.202 7                  25128353.114
        42.900
 128911553.289 4                  24149467.614
        29.900


 114838955.043 7  89318754.013 6  21482895.956    21482895.802    21482897.324
        47.700          39.400
 123232958.790 6  96025672.20342  23450451.361    23450451.0354   23450456.7784
        39.000          16.4004
 198900076.043 7                  37849427.876
        43.500


 121372118.822 6  94575694.19643  23096346.100    23096344.7954   23096347.0644
        40.800          23.9004
 202015042.892 7                  38442189.843
        44.400
 131803474.556 6                  25081367.666
        39.600


 133893873.391 6                  25479157.620
        36.900
 111142646.289 8  86444271.871 7  20850074.865    20850074.963    20850077.159
        52.800          45.600
 113661062.790 6  88403067.826 7  21255190.814    21255191.404    21255198.136
        37.300          44.200
 143137339.405 4                  27238125.974
        28.500
 124027214.171 5  96465653.054 5  23210003.783    23210001.907    23210007.346
        34.300          31.500
 25  1  1 11 30  0.0000000  0 29E27G23G02E29G32G24E33G10G28R19R04R03
                                R13E26R18S35R05G25S31G31G21S33E07E30
                                E19R14R20E12R15
 145426784.692 5                  27673785.694
        31.200
 117094591.267 4  91242531.87343  22282358.910    22282358.3204   22282361.4274
        28.700          18.4004
 128132432.046 7  99843443.32742  24382792.404    24382791.5554   24382780.3634
        42.200          13.4004
 123326334.291 8                  23468215.296
        48.300
 109400149.144 8  85246834.08948  20818126.435    20818126.0964   20818126.2314
        50.400          48.6004


 125669560.422 7                  23914117.627
        46.100
 107363491.766 8  83659906.35548  20430592.200    20430591.6554   20430591.8574
        52.700          50.0004
 114627092.280 6  89319809.24044  21812790.358    21812790.0774   21812787.2284
        41.100          24.0004
 115328124.377 5  89699663.326 6  21559374.656    21559376.343    21559379.696
        35.100          36.700
 106713620.543 8  82999589.125 7  19927991.346    19927992.554    19927994.160
        52.200          42.300
 117797506.210 6  91620361.892 6  22005570.640    22005570.854    22005579.604
        41.200          40.400
 118334075.131 5                  22160178.099    22160179.494
        32.900
 132090528.424 7                  25135996.025
        42.800
 128977447.526 5                  24161820.331
        30.800


 114808213.564 7  89294843.991 7  21477142.746    21477143.292    21477149.747
        46.400          42.000
 123194212.593 6  95995480.35643  23443078.076    23443077.7414   23443090.0624
        38.600          20.6004
 198900082.735 7                  37849430.153
        44.000


 121356789.887 6  94563749.58943  23093427.991    23093426.6684   23093430.3414
        39.100          22.5004
 202015046.019 7                  38442190.058
        44.500
 131830381.287 6                  25086487.354
        38.200


 133867188.429 5                  25474079.591
        32.600
 111108982.290 8  86418088.805 7  20843759.283    20843759.897    20843762.857
        52.800          46.800
 113648994.999 6  88393681.744 7  21252933.993    21252934.638    21252941.554
        36.000          45.600


 123962428.214 6                  23197883.094    23197881.033
        37.600
 25  1  1 11 30 15.0000000  0 29E27G23G02E29G32G24E33G10G28R19R04R03
                                R13E26R18S35R05G25S31G31G21S33E07E30
                                E19R14R20E12R15
 145388410.275 4                  27666482.278
        28.600
 117133351.228 5  91272734.43343  22289739.046    22289738.3894   22289736.0584
        35.000          19.9004
 128098947.297 6  99817351.37542  24376420.267    24376419.3644   24376407.6704
        41.900          13.9004
 123323121.169 8                  23467603.769
        48.100
 109397027.545 8  85244401.65548  20817532.375    20817532.0314   20817532.2304
        51.000          48.3004


 125674239.101 7                  23915007.768
        47.400
 107366666.055 8  83662379.83448  20431196.421    20431195.8714   20431196.6174
        52.600          50.6004
 114584286.660 7  89286454.23243  21804643.778    21804643.4574   21804641.6854
        42.100          23.7004
 115382372.133 5  89741855.981 6  21569516.247    21569517.102    21569522.320
        34.600          39.200
 106716965.284 8  83002190.540 7  19928615.542    19928616.900    19928620.245
        52.100          43.200
 117831258.985 7  91646614.014 6  22011875.699    22011877.282    22011884.981
        43.300          39.000
 118363694.159 5                  22165724.006    22165723.112
        30.800
 132130748.891 7                  25143650.135
        42.100
 129043315.750 4                  24174151.845
        27.500


 114777504.004 7  89270958.728 7  21471398.810    21471400.700    21471405.755
        46.600          44.400
 123155532.669 6  95965340.20242  23435717.277    23435716.7994   23435730.5724
        39.200          16.5004
 198900091.286 7                  37849431.342
        43.900
 125774452.832 6  98006026.61743  23934085.083    23934085.1634   23934077.7854
        38.700          20.7004
 121341577.700 6  94551895.98843  23090534.428    23090533.1144   23090535.1984
        37.300          20.6004
 202015050.400 7                  38442190.501
        44.700
 131857302.692 5                  25091610.540
        33.500


 133840537.923 5                  25469009.704
        32.200
 111075481.195 8  86392032.436 7  20837473.659    20837474.638    20837477.920
        51.100          46.700
 113637131.504 6  88384454.526 7  21250717.696    21250719.379    21250722.565
        36.700          46.500


 123897652.581 6  96364883.081 5  23185769.362    23185769.701    23185761.430
        36.800          30.200
 25  1  1 11 30 30.0000000  0 28E27G23G02E29G32G24E33G10G28R19R04R03
                                R13E26S35R05G25S31G31G21S33E07E30E19
                                R14R20E12R15
 145350041.074 4                  27659183.194
        29.000
 117172181.167 6  91302991.52143  22297126.349    22297125.6524   22297124.1674
        38.400          22.6004
 128065550.166 6  99791327.71542  24370063.942    24370062.9994   24370052.9094
        41.000          15.4004
 123319948.084 8                  23466999.666
        48.200
 109393964.081 8  85242014.52248  20816949.327    20816948.9704   20816949.6804
        50.800          48.7004


 125679026.047 8                  23915918.594
        48.100
 107369936.808 8  83664928.46748  20431819.102    20431818.5174   20431819.6444
        52.200          51.6004
 114541570.613 7  89253169.05844  21796514.646    21796514.3514   21796512.9554
        43.500          25.2004
 115436720.080 5  89784126.574 6  21579674.597    21579674.907    21579682.696
        32.000          40.100
 106720359.114 8  83004830.218 7  19929249.332    19929249.223    19929253.954
        50.800          44.200
 117865034.168 6  91672883.585 6  22018188.243    22018186.236    22018193.667
        41.600          37.700
 118393484.360 4                  22171302.614    22171299.543
        28.400
 132171024.626 7                  25151314.591
        42.100


 114746821.339 7  89247094.419 7  21465661.706    21465663.711    21465665.757
        47.100          45.200
 123116914.557 6  95935248.28442  23428368.800    23428368.3314   23428380.7984
        40.900          16.3004
 198900096.246 7                  37849433.148
        43.900
 125715407.059 6  97960016.83344  23922849.485    23922849.1284   23922849.9304
        41.400          24.2004
 121326477.543 6  94540129.65943  23087659.835    23087658.4814   23087661.4744
        38.000          21.6004
 202015052.759 7                  38442191.744
        44.500
 131884233.987 5                  25096737.160
        31.700


 133813917.060 5                  25463941.883
        32.100
 111042138.812 7  86366099.523 7  20831214.771    20831213.517    20831222.983
        42.700          46.500
 113625467.624 5  88375382.588 7  21248533.523    21248536.033    21248540.865
        35.100          45.900


 123832882.906 5  96314506.830 5  23173648.718    23173649.637    23173642.765
        34.900          31.700
 25  1  1 11 30 45.0000000  0 28E27G23G02E29G32G24E33G10G28R19R04R03
                                R13E26S35R05G25S31G31G21S33E07E30E19
                                R14R20E12R15
 145311681.963 4                  27651881.751
        25.300
 117211085.713 6  91333306.70344  22304528.663    22304528.0244   22304527.8104
        41.300          25.7004
 128032245.362 6  99765375.93342  24363726.508    24363725.5434   24363717.4424
        40.300          17.5004
 123316819.741 8                  23466404.267
        48.700
 109390963.416 8  85239676.32248  20816378.551    20816378.1984   20816379.5264
        50.600          49.3004


 125683925.996 8                  23916850.743
        48.500
 107373308.872 8  83667556.03948  20432461.027    20432460.4514   20432461.8404
        51.600          52.3004
 114498949.106 7  89219957.54144  21788404.718    21788404.4464   21788403.1624
        43.500          26.3004
 115491172.766 5  89826478.675 6  21589854.534    21589855.423    21589862.421
        32.200          40.200
 106723806.916 8  83007511.855 7  19929893.270    19929893.941    19929896.732
        51.000          44.000
 117898836.891 5  91699174.688 5  22024498.495    22024496.974    22024508.269
        34.900          35.700
                                                  22176916.102

 132211360.118 7                  25158990.673
        43.300


 114716170.300 7  89223254.714 7  21459929.105    21459931.610    21459932.859
        46.300          45.400
 123078363.445 6  95905208.49442  23421033.727    23421033.1424   23421041.5874
        38.800          17.2004
 198900103.527 7                  37849434.727
        43.900
 125656392.156 7  97914031.12743  23911618.576    23911618.1564   23911623.7874
        42.500          21.3004
 121311494.253 6  94528454.39043  23084808.676    23084807.3314   23084809.3574
        41.000          22.7004
 202015055.490 7                  38442191.180
        45.000
 131911179.772 5                  25101864.163
        30.100


 133787330.604 5                  25458885.240
        30.800
 111008960.116 6  86340293.820 7  20824992.355    20824992.323    20824998.449
        41.700          46.200
 113614008.440 5  88366469.914 7  21246390.158    21246392.467    21246397.567
        32.000          44.900


 123768124.523 5  96264139.320 5  23161536.795    23161533.798    23161527.565
        33.900          33.000
 25  1  1 11 31  0.0000000  0 28E27G23G02E29G32G24E33G10G28R19R04R03
                                R13E26S35R05G25S31G31G21S33E07E30E19
                                R14R20E12R15
 145273331.485 4                  27644584.040
        25.900
 117250063.084 6  91363678.64344  22311945.179    22311944.5534   22311945.2984
        41.700          25.2004
 127999031.449 6  99739494.96143  24357405.869    24357404.9264   24357400.2254
        39.500          18.5004
 123313734.274 8                  23465817.104
        48.400
 109388023.744 8  85237385.65548  20815819.256    20815818.8944   20815820.7034
        50.000          49.1004


 125688937.187 8                  23917804.395
        48.100
 107376780.623 8  83670261.29048  20433121.445    20433120.8734   20433123.0014
        51.000          52.5004
 114456420.676 7  89186818.55444  21780312.346    21780312.0964   21780311.2114
        42.500          26.9004
 115545728.192 5  89868910.708 6  21600057.467    21600057.604    21600061.838
        34.600          41.200
 106727307.037 8  83010234.170 7  19930546.364    19930547.827    19930549.061
        51.000          43.500
 117932665.274 5  91725485.688 5  22030817.255    22030815.234    22030827.253
        34.000          35.000
 118453591.014 5                  22182556.590    22182562.447
        32.600
 132251753.440 7                  25166676.729
        44.300


 114685549.189 7  89199438.304 7  21454198.132    21454199.379    21454204.000
        42.200          45.400
 123039877.999 5  95875219.79541  23413709.262    23413708.7044   23413714.7844
        32.600          11.9004
 198900109.913 7                  37849435.152
        43.800
 125597406.801 7  97868068.29643  23900395.282    23900395.0054   23900409.1684
        42.600          22.8004
 121296626.266 6  94516868.97743  23081978.019    23081976.6874   23081978.2744
        40.200          22.3004
 202015058.644 7                  38442193.702
        45.200
 131938138.283 4                  25106996.038
        28.500


 133760776.830 5                  25453831.909
        33.800
 110975943.845 6  86314614.555 7  20818796.303    20818794.636    20818804.147
        37.500          45.300
 113602752.086 5  88357714.995 7  21244289.634    21244291.050    21244291.965
        32.000          43.100


                  96213779.449 5                  23149416.801    23149413.524
                        32.100
 25  1  1 11 31 15.0000000  0 28E27G23G02E29G32G24E33G10G28R19R04R03
                                R13E26S35R05G25S31G31G21S33E07E30E19
                                R14R20E12R15
 145234990.702 4                  27637290.341
        27.400
 117289113.933 6  91394107.86843  22319376.226    22319375.5654   22319376.4954
        38.600          21.9004
 127965909.612 6  99713685.73243  24351102.810    24351101.8804   24351100.9744
        41.100          20.5004
 123310692.408 8                  23465238.513
        48.700
 109385145.725 8  85235143.01048  20815272.288    20815271.9404   20815273.0234
        50.700          49.2004


 125694060.386 7                  23918779.323
        47.700
 107380352.969 8  83673044.92448  20433801.837    20433801.2704   20433802.7864
        50.900          52.6004
 114413986.352 6  89153752.87044  21772237.868    21772237.6544   21772236.9144
        41.700          26.6004
 115600386.145 5  89911422.429 6  21610274.387    21610274.667    21610280.538
        34.300          41.900
 106730859.906 8  83012997.555 7  19931210.360    19931211.894    19931212.369
        51.000          43.700
 117966520.139 6  91751817.259 5  22037142.103    22037142.875    22037148.160
        36.300          34.000
 118483905.596 5                  22188240.927    22188241.332
        34.600
 132292205.141 7                  25174374.041
        44.500


 114654958.539 7  89175645.538 7  21448471.483    21448475.366    21448480.542
        42.400          43.400


 198900116.816 7                  37849435.648
        43.600
 125538452.051 6  97822129.38843  23889177.528    23889177.3504   23889195.9754
        39.800          22.3004
 121281874.072 6  94505373.79843  23079172.726    23079171.3854   23079169.3354
        38.700          18.9004
 202015063.361 7                  38442192.338
        45.200
 131965110.056 5                  25112127.646
        30.700


 133734256.396 5                  25448783.737
        35.000
 110943091.469 6  86289062.746 7  20812634.707    20812633.120    20812641.362
        37.200          44.900
 113591699.701 4  88349118.721 7  21242214.632    21242215.779    21242225.749
        29.400          43.200


 123638638.674 6  96163428.454 5  23137289.481    23137293.369    23137305.001
        36.200          33.700
 25  1  1 11 31 30.0000000  0 28E27G23G02E29G32G24E33G10G28R19R04R03
                                R13E26S35R05G25S31G31G21S33E07E30E19
                                R14R20E12R15
 145196655.441 4                  27629998.218
        28.500
 117328233.691 6  91424590.82742  22326824.238    22326823.5814   22326820.8034
        36.500          17.7004
 127932875.534 6  99687944.91043  24344816.171    24344815.2324   24344817.1504
        40.300          20.9004
 123307689.649 8                  23464667.226
        49.100
 109382324.927 8  85232944.96048  20814734.925    20814734.5814   20814735.6824
        52.000          49.0004


 125699291.190 7                  23919774.363
        46.900
 107384021.627 8  83675903.60848  20434500.102    20434499.5394   20434500.5294
        51.300          52.9004
 114371641.945 7  89120757.25644  21764179.896    21764179.7004   21764179.4124
        44.200          27.8004
 115655141.377 4  89954009.856 6  21620507.773    21620507.314    21620514.436
        29.300          40.200
 106734461.187 8  83015798.583 7  19931882.190    19931883.854    19931885.509
        50.900          44.400
 118000397.020 6  91778165.961 5  22043468.915    22043472.332    22043476.387
        36.700          33.200
 118514389.599 5                  22193946.842    22193947.699
        33.200
 132332710.599 7                  25182081.361
        44.200


 114624394.169 7  89151873.192 7  21442754.798    21442756.684    21442763.381
        44.400          42.800


 198900120.281 7                  37849435.894
        43.600
 125479523.713 5  97776211.11243  23877967.366    23877967.2284   23877980.8284
        34.200          19.3004
 121267233.269 6  94493965.42342  23076388.246    23076386.8654   23076381.8554
        37.700          16.9004
 202015062.073 7                  38442193.505
        45.100
 131992090.824 5                  25117261.822
        30.700


 133707765.015 5                  25443742.991
        33.700
 110910398.772 7  86263635.108 7  20806503.869    20806501.658    20806508.326
        42.300          45.100
 113580846.441 5  88340677.310 7  21240190.501    21240189.584    21240198.428
        30.900          43.800


 123573909.301 6  96113083.342 5  23125174.464    23125177.168    23125192.873
        39.500          31.200
 25  1  1 11 31 45.0000000  0 28E27G23G02E29G32G24E33G10G28R19R04R03
                                R13E26S35R05G25S31G31G21S33E07E30E19
                                R14R20E12R15
 145158334.242 5                  27622710.894
        32.100
 117367430.592 5  91455133.79942  22334279.126    22334278.4334   22334279.6534
        34.300          17.5004
 127899937.705 6  99662279.07843  24338548.487    24338547.5714   24338550.0734
        39.100          20.3004
 123304734.123 8                  23464104.667
        49.600
 109379569.501 8  85230797.85448  20814210.312    20814209.9734   20814210.8564
        52.000          49.2004


 125704637.775 7                  23920792.264
        47.200
 107387794.972 8  83678843.87648  20435217.562    20435216.9994   20435218.4934
        52.700          53.5004
 114329395.972 7  89087838.35544  21756140.123    21756139.9274   21756140.6824
        45.500          29.1004
 115710001.886 4  89996679.031 6  21630768.284    21630763.611    21630768.497
        28.500          39.100
 106738119.229 8  83018643.719 7  19932564.649    19932565.691    19932568.956
        48.900          44.800
 118034304.411 6  91804538.225 5  22049815.869    22049813.633    22049809.832
        40.200          35.100
 118545050.948 4                  22199693.316    22199689.186
        29.300
 132373277.796 7                  25189801.504
        43.900


 114593864.309 7  89128127.773 6  21437046.697    21437045.729    21437051.209
        44.300          41.800
 122924822.469 5                  23391815.755
        35.100
 198900128.154 7                  37849436.060
        42.900
 125420630.253 4  97730320.03642  23866763.638    23866763.4644   23866772.2594
        26.500          13.2004
 121252713.073 6  94482651.01242  23073622.774    23073621.4374   23073617.8024
        37.500          17.9004
 202015067.453 7                  38442195.942
        45.300
 132019088.543 5                  25122401.963
        31.300


 133681310.777 5                  25438709.302
        30.700
 110877874.443 8  86238338.378 7  20800405.668    20800405.585    20800407.955
        48.800          45.800
 113570200.683 5  88332397.268 6  21238198.413    21238197.946    21238205.658
        30.400          40.700


 123509196.116 7  96062750.781 5  23113069.932    23113070.334    23113082.955
        42.200          31.200
 25  1  1 11 32  0.0000000  0 27E27G23G02E29G32G24E33G10G28R19R04R03
                                R13E26S35R05G25S31G21S33E07E30E19R14
                                R20E12R15
 145120021.507 4                  27615420.134
        27.000
 117406698.776 6  91485732.35943  22341753.000    22341752.2944   22341751.9584
        36.300          18.7004
 127867090.662 6  99636684.01043  24332298.703    24332297.8404   24332298.9334
        40.400          18.9004
 123301820.020 8                  23463550.000
        50.000
 109376873.607 8  85228697.15148  20813697.634    20813697.3044   20813698.0914
        51.500          49.7004


 125710094.434 7                  23921830.442
        47.400
 107391667.335 8  83681861.29548  20435953.934    20435953.3764   20435955.6094
        52.200          53.5004
 114287242.901 7  89054991.85044  21748117.866    21748117.6384   21748118.1674
        47.400          28.2004
 115764961.232 4  90039425.144 6  21641040.384    21641035.621    21641041.406
        27.100          37.700
 106741828.270 8  83021528.498 7  19933257.818    19933259.285    19933262.174
        49.300          46.100
 118068236.057 6  91830929.605 5  22056147.465    22056145.800    22056149.819
        36.600          35.400
 118575884.587 5                  22205488.761    22205485.402
        32.300
 132413900.826 7                  25197532.123
        43.800


 114563363.080 8  89104404.640 7  21431341.799    21431341.732    21431345.593
        48.100          42.000
 122886604.302 5  95755812.20443  23384539.174    23384538.5264   23384547.7144
        35.200          18.0004
 198900134.629 7                  37849441.282
        43.200
 121238307.510 6  94471425.92743  23070882.777    23070881.4324   23070876.9984
        37.800          19.1004
 202015070.398 7                  38442195.647
        44.500
 132046097.539 5                  25127547.744
        30.900


 133654887.818 5                  25433680.780
        34.300
 110845513.039 7  86213168.441 7  20794330.841    20794330.908    20794337.141
        47.000          45.400
 113559756.686 4  88324274.250 6  21236246.823    21236243.378    21236250.124
        29.000          38.100


 123444494.102 6  96012426.832 5  23100964.519    23100964.816    23100958.454
        41.900          32.300
 25  1  1 11 32 15.0000000  0 26G23G02E29G32G24E33G10G28R19R04R03R13
                                E26S35R05G25S31G21S33E07E30E19R14R20
                                E12R15
 117446041.578 6  91516389.07643  22349238.667    22349238.0064   22349238.5054
        40.900          20.2004
 127834338.082 6  99611162.54642  24326065.229    24326064.3264   24326064.5434
        39.100          17.9004
 123298950.731 8                  23463003.861
        50.200
 109374240.628 8  85226645.46248  20813196.850    20813196.5294   20813197.3994
        52.700          50.4004


 125715664.600 7                  23922890.179
        47.100
 107395642.339 8  83684958.68948  20436710.413    20436709.8684   20436712.1944
        51.100          52.6004
 114245186.466 7  89022220.64244  21740114.732    21740114.4824   21740112.7914
        46.900          27.1004
 115820022.477 4  90082250.535 6  21651328.830    21651328.089    21651334.299
        29.200          38.400
 106745591.711 7  83024455.615 7  19933960.899    19933960.498    19933966.253
        47.000          46.800
 118102195.907 6  91857342.835 5  22062488.951    22062488.904    22062496.348
        36.600          35.300
                                                  22211282.382

 132454582.877 7                  25205274.277
        45.100


 114532894.087 8  89080706.592 7  21425642.914    21425644.102    21425645.437
        49.800          42.400
 122848456.211 5  95726086.26242  23377281.532    23377281.2064   23377287.6554
        32.700          14.0004
 198900142.691 7                  37849442.136
        43.500
 121224020.020 6  94460292.79143  23068162.741    23068161.3874   23068159.5704
        36.600          20.3004
 202015075.642 7                  38442197.485
        44.200
 132073121.331 4                  25132709.944
        24.500


 133628499.619 5                  25428658.654
        35.300
 110813318.734 7  86188128.451 7  20788289.934    20788289.303    20788296.216
        46.000          44.400
 113549518.829 5  88316311.380 6  21234331.572    21234332.398    21234338.022
        33.100          40.100


 123379806.958 6  95962114.667 5  23088858.413    23088859.405    23088855.154
        40.000          34.500
 25  1  1 11 32 30.0000000  0 26G23G02E29G32G24E33G10G28R19R04R03R13
                                E26S35R05G25S31G21S33E07E30E19R14R20
                                E12R15
 117485454.638 7  91547100.53343  22356738.161    22356737.5494   22356739.7994
        43.400          23.8004
 127801675.900 6  99585711.50843  24319849.431    24319848.5154   24319848.0224
        39.200          18.3004
 123296121.889 8                  23462465.888
        50.400
 109371666.196 8  85224639.41348  20812706.690    20812706.3734   20812707.5194
        53.300          51.1004


 125721343.935 7                  23923970.916
        47.300
 107399715.765 8  83688132.77748  20437485.815    20437485.2344   20437487.5914
        50.300          51.5004
 114203222.584 7  88989521.55744  21732129.531    21732129.2634   21732125.9144
        44.700          26.0004
 115875180.316 5  90125150.961 6  21661645.123    21661644.341    21661646.406
        33.700          40.000
 106749405.413 7  83027421.832 7  19934674.949    19934673.650    19934677.263
        47.000          46.000
 118136179.598 5  91883774.648 5  22068836.121    22068835.473    22068850.296
        34.700          33.100
 118638070.977 5                  22217116.414    22217114.460
        33.700
 132495319.433 7                  25213026.147
        46.000


 114502452.963 8  89057030.235 7  21419947.161    21419948.074    21419951.787
        49.500          43.200
 122810374.163 5  95696411.88842  23370035.214    23370034.4864   23370040.2324
        32.400          12.7004
 198900149.508 7                  37849443.214
        43.300
 121209846.349 6  94449248.35843  23065466.762    23065465.4214   23065463.1154
        38.600          22.0004
 202015078.359 7                  38442196.895
        44.200
 132100155.658 4                  25137840.574
        28.000


 133602141.961 5                  25423643.409
        35.500
 110781287.338 8  86163215.148 7  20782283.190    20782282.081    20782286.825
        48.400          43.900
 113539482.242 5  88308505.116 6  21232454.658    21232456.638    21232461.349
        34.600          40.700


 123315130.847 6  95911811.064 5  23076758.626    23076757.338    23076749.877
        40.900          33.100
