     2.11           OBSERVATION DATA    M (MIXED)           RINEX VERSION / TYPE
teqc  2019Feb25                         20260317 16:18:01UTCPGM / RUN BY / DATE
Linux 2.4.21-27.ELsmp|Opteron|gcc -static|Linux 64|=+       COMMENT
BIT 2 OF LLI FLAGS DATA COLLECTED UNDER A/S CONDITION       COMMENT
-Unknown-                                                   MARKER NAME
-Unknown-           -Unknown-                               OBSERVER / AGENCY
-Unknown-           -Unknown-           -Unknown-           REC # / TYPE / VERS
-Unknown-           -Unknown-                               ANT # / TYPE
        0.0000        0.0000        0.0000                  APPROX POSITION XYZ
        0.0000        0.0000        0.0000                  ANTENNA: DELTA H/E/N
     1     1                                                WAVELENGTH FACT L1/2
     7    L1    L2    C1    P1    P2    S1    S2            # / TYPES OF OBSERV
 SNR is mapped to RINEX snr flag value [0-9]                COMMENT
  L1 & L2: min(max(int(snr_dBHz/6), 0), 9)                  COMMENT
  2025     1     1    16     0    0.0000000     GPS         TIME OF FIRST OBS
    18                                                      LEAP SECONDS
                                                            END OF HEADER
 25  1  1 16  0  0.0000000  0 21G07E29G16G27G04G28G03G26R06G09E04R07
                                E21S35R05S31G31E06S33E19R16
 133249605.233 5 103830908.24042  25356551.028    25356551.5154   25356559.0654
        34.100          16.2004


 105105155.391 8  81899940.09846  20000791.595    20000790.7064   20000791.0724
        49.400          40.5004
 126874204.852 6  98863075.14541  24143361.973    24143361.7374   24143373.0654
        36.700           9.0004
 109466240.653 7  85298373.87045  20830719.823    20830719.5374   20830718.2174
        45.500          30.5004
 126523465.883 6  98589734.77941  24076617.134    24076616.6694   24076620.9884
        38.800          10.1004
 112458163.719 7  87629701.59547  21400074.701    21400074.4964   21400081.3044
        47.100          45.2004
 108609354.677 8  84630681.48547  20667655.383    20667654.8294   20667661.6604
        49.000          44.2004
 102179313.443 7                  19148358.883    19148359.336
        43.000
 119602621.866 5  93196854.30845  22759627.270    22759626.6714   22759629.2914
        34.400          32.5004
 129598436.800 6                  24661743.729
        39.900
 111012170.062 7  86342827.674 7  20738003.689    20738005.131    20738010.693
        47.700          47.400
 125909301.904 7                  23959738.892
        43.400
 200851834.491 5                  38220829.417
        35.800
 121554387.929 6  94542289.329 6  22739260.188    22739261.129    22739266.094
        40.500          39.600
 198905410.571 6                  37850456.126
        40.900
 114896863.707 7  89530041.32945  21864129.070    21864128.7894   21864129.4864
        46.800          35.0004
 140225035.318 6                  26683938.691
        40.400
 202035106.314 7                  38446017.261
        43.200
 121709000.278 7                  23160457.173
        43.500
 105852625.499 8  82329944.458 7  19815838.521    19815837.973    19815845.065
        49.700          46.100
 25  1  1 16  0 15.0000000  0 23E27G07E29G16G27G04G28G03G26R06G09E04
                                R07E21S35R05S31G31E06S33E19R16R15


 133213986.726 6 103803153.69142  25349772.627    25349773.0784   25349781.2844
        37.500          14.6004


 105091842.802 8  81889566.66246  19998258.202    19998257.3044   19998257.8134
        50.200          40.1004
 126822372.483 5  98822686.0324   24133494.563    24133494.1704   24133513.0794
        31.500           4.0004
 109436103.052 7  85274890.01545  20824984.832    20824984.5694   20824983.8934
        45.600          30.0004
 126563999.712 6  98621319.44641  24084329.126    24084328.6484   24084337.2154
        36.700           7.0004
 112490771.917 7  87655110.54147  21406279.881    21406279.6764   21406286.4364
        45.700          44.2004
 108635613.311 8  84651142.79147  20672651.755    20672651.2144   20672659.1634
        49.100          42.7004
 102186407.624 7                  19149688.240    19149688.378
        42.800
 119555847.432 5  93160406.69644  22750724.726    22750724.0834   22750728.5534
        34.200          29.4004
 129570444.194 6                  24656416.516
        40.000
 110964856.746 7  86306028.435 7  20729159.916    20729162.855    20729172.648
        46.100          47.700
 125921568.546 7                  23962073.004
        46.600
 200851803.968 6                  38220818.935
        37.300
 121614713.781 6  94589209.064 6  22750543.596    22750544.620    22750552.009
        41.500          40.900
 198905414.036 7                  37850461.322
        42.900
 114932078.246 7  89557481.22545  21870829.087    21870828.7664   21870828.0174
        44.700          34.0004
 140188214.616 6                  26676931.316
        38.600
 202035135.996 7                  38446024.398
        45.000
 121719337.359 7                  23162424.063
        43.200
 105884714.750 8  82354902.744 7  19821846.460    19821846.604    19821851.142
        51.200          44.600
 127183775.087 5                  23800710.760
        34.500
 25  1  1 16  0 30.0000000  0 22E27G07E29G16G27G04G28G03G26R06G09E04
                                R07E21S35R05S31G31E06S33E19R16


 133178374.942 5 103775404.29742  25342993.140    25342993.5424   25343003.8154
        32.000          13.4004


 105078687.008 8  81879315.41146  19995754.648    19995753.7504   19995754.0534
        50.900          40.2004


 109406036.354 7  85251461.41844  20819262.192    20819261.9334   20819263.3114
        43.200          29.7004
 126604537.401 5  98652907.2194   24092044.960    24092044.5274   24092051.8154
        32.500           5.7004
 112523496.345 7  87680610.01747  21412507.161    21412506.9294   21412512.8854
        44.300          42.6004
 108661988.020 7  84671694.54646  20677670.590    20677670.0494   20677677.6034
        47.700          41.3004
 102193682.635 7                  19151052.996    19151052.643
        42.900
 119509101.728 5  93123981.48544  22741830.970    22741830.3364   22741833.1464
        30.600          27.1004
 129542478.831 7                  24651095.564
        43.300
 110917638.829 7  86269303.376 7  20720344.530    20720341.990    20720350.910
        43.900          47.000
 125933923.158 7                  23964423.917
        47.500


 121675101.873 7  94636177.246 6  22761836.499    22761837.090    22761850.565
        42.200          41.300
 198905413.912 7                  37850456.837
        44.100
 114967323.133 7  89584944.75245  21877536.189    21877535.8904   21877533.7564
        44.600          33.4004
 140151394.271 6                  26669925.526
        40.600
 202035161.461 7                  38446031.821
        44.500
 121729736.079 7                  23164403.102
        44.100
 105916903.189 8  82379938.210 7  19827871.679    19827871.623    19827877.088
        51.000          44.400
 25  1  1 16  0 45.0000000  0 21E27E29G16G27G04G28G03G26R06G09E04R07
                                E21S35R05S31G31E06S33E19R16


 139132371.997 6                  26476011.560
        37.600
 105065689.980 8  81869187.87546  19993280.966    19993280.0634   19993280.5314
        51.300          39.6004


 109376042.622 7  85228089.63245  20813554.613    20813554.3634   20813556.3044
        44.400          30.4004


 112556338.565 7  87706201.31647  21418757.445    21418757.2134   21418762.4244
        45.600          44.0004
 108688480.512 7  84692338.07446  20682713.160    20682712.6374   20682718.0294
        43.700          38.3004
 102201140.532 6                  19152449.986    19152449.587
        41.900
 119462386.940 6  93087580.29845  22732941.352    22732940.7404   22732942.0844
        36.400          32.0004
 129514542.705 7                  24645779.033
        42.000
 110870519.050 8  86232654.541 7  20711548.007    20711548.142    20711549.464
        48.000          46.900
 125946367.540 8                  23966792.648
        48.600


 121735554.082 6  94683195.247 7  22773146.749    22773145.202    22773160.734
        37.000          42.300
 198905411.742 7                  37850452.240
        42.300
 115002600.322 7  89612433.46045  21884248.057    21884247.7674   21884247.7454
        44.700          34.5004
 140114576.291 6                  26662918.928
        40.800
 202035185.867 7                  38446033.274
        44.300
 121740198.391 7                  23166394.127
        43.600
 105949192.398 8  82405052.065 7  19833916.164    19833916.095    19833920.991
        51.700          44.500
 25  1  1 16  1  0.0000000  0 21E27E29G16G27G04G28G03G26R06G09E04R07
                                E21S35R05S31G31E06S33E19R16


 139166555.547 6                  26482517.598
        39.100
 105052855.188 8  81859186.75446  19990838.963    19990838.0604   19990837.6974
        50.500          39.1004


 109346125.642 7  85204777.67745  20807861.192    20807860.9514   20807863.8624
        46.300          32.5004


 112589301.792 7  87731886.91447  21425030.628    21425030.4324   21425035.7984
        47.000          46.2004
 108715093.847 7  84713075.77745  20687778.652    20687778.1524   20687781.2924
        43.900          35.4004
 102208785.067 7                  19153881.743    19153882.237
        42.500
 119415706.640 6  93051206.05045  22724057.984    22724057.4344   22724057.9414
        39.000          32.7004
 129486639.535 7                  24640470.014
        44.100
 110823501.016 7  86196084.940 7  20702762.434    20702763.317    20702764.949
        45.600          45.700
 125958905.010 8                  23969178.481
        48.700
 200851690.994 5                  38220836.634
        31.700


 198905411.430 7                  37850456.542
        42.700
 115037913.155 7  89639949.93845  21890967.639    21890967.3894   21890968.9874
        42.700          34.0004
 140077764.417 6                  26655913.921
        40.400
 202035211.403 7                  38446039.369
        45.500
 121750727.796 7                  23168397.556
        43.600
 105981585.824 8  82430246.953 7  19839981.258    19839981.636    19839984.784
        52.800          43.500
 25  1  1 16  1 15.0000000  0 22E27G07E29G16G04G28G03G26R06G09E04R07
                                E21S35R05S31G31E06S33E19R16R15


 133071537.380 5                  25322671.862
        30.600
 139200778.745 6                  26489030.084
        39.300
 105040181.413 8  81849311.08646  19988427.288    19988426.3854   19988425.7484
        51.100          39.3004
 109316284.340 7  85181524.70345  20802182.903    20802182.6584   20802185.7644
        47.500          32.9004


 112622384.394 7  87757665.54547  21431325.820    21431325.6424   21431331.3464
        47.800          46.2004
 108741826.647 7  84733906.58745  20692863.888    20692863.3474   20692865.6344
        44.800          32.6004
 102216614.931 6                  19155349.240    19155349.618
        41.800
 119369059.873 5  93014857.94644  22715181.590    22715181.1304   22715180.2094
        35.000          29.7004
 129458768.227 7                  24635166.948
        45.300
 110776584.276 7  86159594.151 7  20693994.528    20693996.294    20694000.515
        45.300          45.100
 125971534.189 8                  23971581.211
        48.600
 200851656.421 5                  38220808.789
        30.700
                  94777386.252 6                                  22795813.643
                        37.200
 198905411.044 7                  37850459.395
        42.700
 115073260.137 6  89667493.03145  21897695.160    21897694.9064   21897696.0204
        40.800          34.2004
 140040957.389 6                  26648909.164
        38.300
 202035237.106 7                  38446042.969
        44.500
 121761323.084 7                  23170413.617
        43.700
 106014081.778 8  82455521.597 7  19846063.423    19846064.205    19846068.726
        52.300          43.700
 127416642.606 5                  23844278.120    23844278.798
        34.400
 25  1  1 16  1 30.0000000  0 22E27G07E29G16G27G04G28G03G26R06G09E04
                                E21S35R05S31G31E06S33E19R16R15


 133035965.358 5 103664424.28242  25315901.436    25315901.9864   25315906.2884
        33.900          15.1004
 139235039.377 6                  26495549.253
        36.700
 105027666.473 8  81839559.20746  19986045.648    19986044.7504   19986044.4974
        51.600          40.3004


 109286516.792 7  85158329.22545  20796518.686    20796518.4544   20796520.5454
        47.500          31.9004


 112655583.736 7  87783535.12547  21437643.128    21437642.9544   21437648.1934
        44.500          44.8004
 108768676.095 7  84754828.28245  20697972.709    20697972.1594   20697974.9244
        45.400          32.3004
 102224627.823 7                  19156852.434    19156852.195
        42.800
 119322444.495 5  92978534.23544  22706311.149    22706310.7114   22706310.7064
        32.700          28.9004
 129430926.481 7                  24629869.063
        45.300
 125984252.543 8                  23974001.696
        48.800
 200851620.817 4                  38220815.067
        29.500
                  94824555.867 5                                  22807157.268
                        34.400
 198905408.821 7                  37850453.108
        42.400
 115108638.912 7  89695060.90045  21904427.175    21904426.9124   21904428.7864
        44.300          35.0004
 140004152.960 6                  26641904.920
        36.800
 202035261.270 7                  38446051.545
        44.200
 121771982.008 7                  23172442.271
        43.600
 106046677.082 8  82480873.496 7  19852164.642    19852165.627    19852171.771
        51.500          44.100
 127474786.263 4                  23855149.902    23855149.876
        29.600
 25  1  1 16  1 45.0000000  0 23E27G07E29G16G27G04G28G03G26R06G09E04
                                R07E21S35R05S31G31E06S33E19R16R15


 133000401.271 5 103636712.15342  25309135.705    25309135.8744   25309137.4094
        34.900          16.6004
 139269336.896 5                  26502072.013
        30.600
 105015310.041 8  81829930.84746  19983694.282    19983693.3974   19983693.5874
        51.300          40.5004


 109256822.806 7  85135191.07744  20790868.621    20790868.3984   20790868.2444
        45.900          29.5004
 126807347.433 4                  24130634.992
        29.300
 112688899.044 7  87809495.08347  21443983.634    21443983.4744   21443987.1114
        44.500          43.8004
 108795641.563 7  84775840.37745  20703104.159    20703103.5964   20703106.3614
        44.700          31.2004
 102232823.569 7                  19158387.285    19158387.298
        42.500
 119275860.538 5  92942235.06044  22697444.829    22697444.4454   22697447.3864
        31.200          29.9004
 129403114.129 7                  24624576.483
        45.500
 110683039.732 7  86086844.233 6  20676525.236    20676521.815    20676525.615
        42.200          41.800
 125997059.529 8                  23976438.791
        48.800




 198905403.845 7                  37850447.621
        42.500
 115144048.943 7  89722653.08745  21911164.397    21911164.0584   21911167.2934
        43.500          35.1004
 139967350.860 5                  26634902.065
        35.700
 202035282.624 7                  38446052.382
        45.500
 121782704.340 7                  23174482.745
        44.400
 106079370.989 8  82506301.997 7  19858285.939    19858286.259    19858290.422
        52.100          43.500
 127532913.480 5                  23866031.469    23866031.306
        30.600
 25  1  1 16  2  0.0000000  0 21E27E29G16G27G04G28G03G26R06G09E04R07
                                E21S35R05S31G31E06S33E19R16


 139303677.448 5                  26508609.959
        33.000
 105003118.144 8  81820430.67546  19981374.032    19981373.1384   19981374.3354
        48.700          38.1004


 109227208.755 7  85112115.17545  20785233.905    20785233.6694   20785232.7564
        46.000          30.9004
 126847929.493 5                  24138358.158
        33.600
 112722336.082 7  87835549.86347  21450345.995    21450345.8264   21450349.8954
        45.100          44.9004
 108822729.019 7  84796947.55045  20708259.178    20708258.6114   20708261.8384
        45.400          30.5004
 102241208.077 6                  19159958.941    19159958.524
        41.900
 119229314.529 4  92905965.43644  22688585.780    22688585.4324   22688591.4054
        26.700          29.6004
 129375337.450 7                  24619290.334
        45.600
 110636427.599 7  86050590.288 7  20667814.139    20667811.474    20667816.759
        45.100          42.300
 126009961.264 8                  23978894.429
        49.500


 122038734.162 5  94919044.355 6  22829870.860    22829872.635    22829888.015
        34.600          36.400
 198905402.839 7                  37850447.424
        42.800
 115179496.176 7  89750274.23645  21917910.141    21917909.8154   21917912.8074
        43.400          35.0004
 139930557.359 6                  26627900.172
        39.100
 202035308.271 7                  38446052.766
        44.200
 121793496.092 7                  23176536.139
        43.900
 106112169.604 8  82531811.979 7  19864426.703    19864426.709    19864430.322
        52.800          43.100
 25  1  1 16  2 15.0000000  0 22E27G07E29G16G27G04G28G03G26R06G09E04
                                R07E21S35R05S31G31E06S33E19R16


 132929309.392 4 103581303.79142  25295608.539    25295608.5314   25295611.0554
        28.400          15.0004


 104991086.989 8  81811055.77846  19979084.683    19979083.7894   19979085.2624
        49.100          38.4004


 109197670.909 7  85089098.72144  20779612.883    20779612.6384   20779611.0864
        44.300          28.3004
 126888518.600 5                  24146081.675
        34.900
 112755890.605 7  87861696.24347  21456730.758    21456730.5934   21456735.9004
        44.700          44.9004
 108849934.077 7  84818146.28645  20713435.434    20713434.8444   20713438.5374
        46.500          31.7004
 102249777.655 6                  19161564.617    19161564.431
        40.700
 119182802.658 6  92869722.45546  22679740.112    22679739.7914   22679741.3934
        41.500          36.4004
 129347592.554 7                  24614010.748
        45.100
 110589917.964 8  86014416.109 7  20659126.454    20659128.187    20659131.786
        51.300          43.100
 126022953.509 8                  23981366.502
        49.200
 200851529.493 4                  38220779.603
        28.200
 122099578.674 6  94966364.302 6  22841255.138    22841253.053    22841268.876
        38.100          37.000
 198905401.661 7                  37850453.944
        43.100
 115214976.605 7  89777921.28145  21924661.814    21924661.5014   21924663.6204
        45.500          34.9004
 139893768.641 6                  26620899.483
        39.200
 202035333.519 7                  38446063.140
        44.600
 121804353.401 7                  23178602.178
        43.600
 106145068.431 8  82557399.941 7  19870584.363    19870584.625    19870589.548
        52.600          44.200
 25  1  1 16  2 30.0000000  0 22E27G07E29G16G27G04G28G03G26R06G09E04
                                R07E21S35R05S31G31E06S33E19R16






 104979218.171 8  81801807.35446  19976826.007    19976825.1134   19976826.5524
        49.300          38.7004


 109168211.245 7  85066143.16844  20774006.743    20774006.4894   20774004.9374
        44.700          29.2004
 126929116.347 6  98905833.65641  24153807.235    24153807.2004   24153812.7124
        38.000           9.3004
 112789563.969 7  87887935.19847  21463138.095    21463137.9434   21463144.4594
        44.800          45.0004
 108877258.140 7  84839437.71545  20718634.828    20718634.1984   20718638.9184
        45.200          32.6004
 102258533.961 6                  19163204.501    19163204.542
        39.300
 119136326.592 6  92833507.32046  22670894.200    22670893.9014   22670897.8704
        41.900          38.4004
 129319881.401 7                  24608737.212
        43.700
 110543512.832 8  85978323.310 7  20650456.184    20650456.982    20650462.499
        50.300          42.600
 126036037.827 8                  23983855.902
        48.900


 122160484.070 6  95013734.832 6  22852644.694    22852645.120    22852660.755
        40.700          37.100
 198905401.902 7                  37850451.471
        42.800
 115250491.776 7  89805595.38645  21931418.496    21931418.1974   21931420.6354
        44.700          34.9004
 139856986.447 6                  26613900.198
        40.300
 202035360.644 7                  38446070.563
        43.500
 121815278.062 7                  23180681.393
        43.900
 106178068.767 8  82583066.818 7  19876762.396    19876762.829    19876768.633
        53.400          47.100
 25  1  1 16  2 45.0000000  0 23E27E31G07E29G16G27G04G28G03G26R06G09
                                E04R07E21S35R05S31G31E06S33E19R16


 147208875.180 5                  28012919.193
        31.000




 104967507.346 8  81792682.07046  19974597.443    19974596.5544   19974597.6944
        50.100          39.1004
 126304263.420 5                  24034892.406
        34.000
 109138825.425 7  85043245.13245  20768414.446    20768414.1744   20768413.4014
        46.300          30.1004
 126969718.315 6  98937471.42541  24161532.293    24161532.4364   24161537.8964
        39.000          11.2004
 112823351.312 7  87914262.97047  21469568.536    21469568.4114   21469574.0264
        45.700          44.6004
 108904696.525 7  84860818.27945  20723856.101    20723855.4444   20723859.4524
        45.600          32.7004
 102267472.456 6                  19164879.927    19164879.415
        39.100
 119089882.377 7  92797317.03446  22662055.729    22662055.4084   22662060.3204
        42.300          39.2004
 129292199.447 7                  24603469.253
        44.400
 110497208.373 8  85942308.777 7  20641806.335    20641806.190    20641812.378
        48.600          43.200
 126049209.507 8                  23986362.363
        48.200


 122221449.303 6  95061151.860 6  22864050.565    22864052.251    22864067.533
        40.300          38.500
 198905398.594 7                  37850452.710
        42.900
 115286037.037 7  89833292.94445  21938183.724    21938183.4474   21938184.3674
        44.200          34.6004
 139820206.411 6                  26606901.595
        40.100
 202035383.822 7                  38446071.095
        44.300
 121826265.667 7                  23182771.652
        43.100
 106211165.477 9  82608808.692 7  19882958.790    19882959.340    19882964.576
        54.400          47.800
 25  1  1 16  3  0.0000000  0 24E27E31G07E29G16G27G04G28G03G26R06G09
                                E04R07E21S35R05S31G31E06S33R10E19R16


 147163268.699 5                  28004240.948
        33.200




 104955961.299 8  81783685.18246  19972400.200    19972399.2974   19972400.2224
        49.800          38.6004
 126252482.880 5  98378620.27341  24025041.152    24025040.7554   24025063.2824
        35.800          10.7004
 109109520.606 7  85020410.17545  20762837.013    20762836.7414   20762836.7874
        46.800          30.4004
 127010331.276 6  98969117.79142  24169261.060    24169261.1184   24169266.5374
        38.600          14.1004
 112857259.127 7  87940684.60147  21476020.363    21476020.1804   21476025.7464
        43.500          42.5004
 108932255.668 7  84882292.93945  20729100.998    20729100.3684   20729102.6444
        42.100          33.8004
 102276600.039 6                  19166590.819    19166590.258
        39.900
 119043476.947 7  92761156.96046  22653227.019    22653226.6754   22653229.5234
        42.900          39.1004
 129264553.737 7                  24598208.278
        43.200
 110451011.703 8  85906378.065 7  20633176.471    20633176.258    20633183.300
        48.800          43.300
 126062475.309 7                  23988887.024
        47.400


 122282480.865 6  95108620.527 6  22875466.808    22875466.748    22875484.480
        36.000          38.100
 198905399.357 7                  37850453.166
        43.600
 115321619.184 7  89861019.23845  21944956.492    21944956.2384   21944955.3024
        45.100          35.3004
 139783435.432 6                  26599904.547
        41.200
 202035411.170 7                  38446076.667
        43.100
 123966758.233 5                  23255846.587
        32.200
 121837323.027 7                  23184876.296
        44.500
 106244365.357 9  82634630.838 8  19889174.171    19889174.309    19889179.679
        54.900          48.800
 25  1  1 16  3 15.0000000  0 24E27E31G07E29G16G27G04G28G03G26R06G09
                                E04R07E21S35R05S31G31E06S33R10E19R16


 147117675.383 5                  27995566.242
        31.100




 104944576.077 8  81774813.60946  19970234.009    19970233.1114   19970233.2474
        50.300          38.7004
 126200709.508 6  98338277.62941  24015188.254    24015187.3024   24015210.3984
        36.100          11.0004
 109080293.113 7  84997635.52045  20757275.113    20757274.8544   20757275.5334
        47.200          30.7004
 127050951.094 6  99000769.47141  24176990.948    24176990.9924   24176995.8124
        38.800          11.4004
 112891283.108 6  87967196.72646  21482494.867    21482494.6624   21482499.2514
        41.500          40.0004
 108959931.222 7  84903858.33145  20734368.350    20734367.7654   20734369.8004
        43.100          34.5004
 102285912.890 6                  19168336.454    19168336.753
        41.300
 118997106.809 6  92725024.42946  22644402.009    22644401.6344   22644405.8454
        41.900          38.6004
 129236940.570 7                  24592954.184
        44.500
 110404919.751 8  85870528.784 7  20624566.791    20624567.633    20624573.942
        50.700          44.800
 126075831.236 7                  23991428.840
        47.100
 200851386.197 6                  38220740.669
        36.300
 122343574.747 5  95156137.724 6  22886898.413    22886896.233    22886913.969
        34.900          38.700
 198905400.127 7                  37850451.695
        42.700
 115357234.068 7  89888771.10046  21951733.646    21951733.3604   21951732.6634
        45.200          37.5004
 139746669.714 6                  26592908.568
        40.600
 202035438.426 7                  38446081.103
        42.100
 123913113.424 4                  23245781.475    23245776.055
        28.400
 121848446.162 7                  23186992.623
        44.000
 106277663.862 9  82660529.679 8  19895407.044    19895407.326    19895413.135
        54.100          49.100
 25  1  1 16  3 30.0000000  0 22E27G07E29G16G27G04G28G03G26R06G09E04
                                R07E21S35R05S31G31E06S33E19R16


 132751766.238 6 103442960.39743  25261822.677    25261822.6374   25261828.1174
        36.100          18.1004


 104933351.757 8  81766067.40446  19968098.466    19968097.5724   19968096.7294
        50.400          38.2004
 126148943.339 5  98297940.52241  24005342.331    24005341.3754   24005357.2444
        30.100          11.9004
 109051143.048 7  84974921.14344  20751728.078    20751727.8154   20751727.7794
        47.900          29.8004
 127091577.710 6  99032426.44042  24184723.111    24184723.0494   24184726.2914
        39.400          14.5004
 112925422.763 6  87993798.99846  21488991.474    21488991.2334   21488995.4554
        41.000          39.2004
 108987723.049 7  84925514.36045  20739656.121    20739655.5544   20739660.2214
        45.700          35.7004
 102295410.871 6                  19170115.860    19170115.667
        40.200
 118950771.947 6  92688919.37246  22635584.321    22635583.9504   22635588.0694
        40.800          37.4004
 129209359.705 7                  24587705.331
        42.800
 110358932.549 8  85834760.957 7  20615974.827    20615976.560    20615981.465
        50.000          44.300
 126089276.906 8                  23993987.605
        48.100
 200851352.023 5                  38220730.777
        33.200
 122404730.355 6  95203702.764 6  22898339.127    22898339.392    22898354.468
        36.500          39.000
 198905400.436 6                  37850450.407
        41.500
 115392881.462 7  89916548.25646  21958516.637    21958516.3334   21958516.0614
        45.800          37.9004
 139709909.295 7                  26585913.078
        43.000
 202035464.792 7                  38446085.606
        45.000
 121859635.216 7                  23189121.619
        43.700
 106311060.547 9  82686504.874 8  19901658.736    19901659.097    19901664.959
        54.100          48.700
 25  1  1 16  3 45.0000000  0 23E27E31G07E29G16G27G04G28G03G26R06G09
                                E04R07E21S35R05S31G31E06S33E19R16
 145971405.714 4                  27777435.021
        29.400


 132716301.890 6                  25255072.084    25255071.7804
        36.700
 139545167.959 5                  26554564.247
        34.700
 104922286.179 8  81757444.90546  19965992.015    19965991.1124   19965991.1444
        49.400          37.9004
 126097237.683 4  98257626.55141  23995499.978    23995500.0134   23995516.0084
        24.700           6.8004
 109022068.643 7  84952265.72745  20746195.685    20746195.4444   20746194.0474
        45.600          30.3004
 127132209.047 6  99064087.18442  24192453.878    24192453.7584   24192457.6064
        37.000          12.7004
 112959675.884 6  88020489.73446  21495510.549    21495510.3044   21495513.8294
        38.000          38.4004
 109015628.578 7  84947258.91445  20744965.819    20744965.2654   20744971.8164
        45.000          34.7004
 102305091.803 6                  19171929.439    19171929.898
        40.700
 118904470.411 7  92652840.29746  22626773.183    22626772.8214   22626775.7574
        42.300          37.0004
 129181809.489 7                  24582462.841
        46.200
 110313048.529 8  85799073.391 7  20607402.656    20607404.196    20607410.290
        50.600          43.200
 126102810.140 8                  23996562.336
        49.200




 198905397.802 6                  37850455.670
        40.200
 115428559.226 7  89944349.09246  21965306.646    21965306.3384   21965304.7944
        45.600          38.1004
 139673152.164 6                  26578918.802
        41.600
 202035489.221 7                  38446098.377
        46.400
 121870887.973 7                  23191263.357
        42.600
 106344552.758 8  82712554.422 8  19907928.389    19907928.970    19907934.881
        53.200          48.500
 25  1  1 16  4  0.0000000  0 23E27E31G07E29G16G27G04G28G03G26R06G09
                                E04R07E21S35R05S31G31E06S33E19R16
 146012790.168 4                  27785307.549
        26.600




 139579821.041 5                  26561158.212
        34.200
 104911382.696 8  81748948.70446  19963917.234    19963916.3274   19963916.9334
        48.900          38.2004


 108993073.372 6  84929671.99744  20740678.186    20740677.9764   20740677.9614
        40.400          29.6004
 127172848.201 5  99095753.94042  24200187.879    24200187.8084   24200190.8794
        33.700          12.5004
 112994045.118 6  88047270.89946  21502050.863    21502050.6584   21502054.7574
        41.600          40.2004
 109043650.830 7  84969094.42446  20750299.439    20750298.8984   20750305.4694
        47.200          36.2004
 102314959.284 6                  19173778.703    19173778.941
        39.900
 118858205.804 7  92616789.93146  22617969.125    22617968.7504   22617971.7454
        44.500          37.4004
 129154293.174 7                  24577226.734
        44.900
 110267271.354 8  85763468.946 7  20598851.988    20598852.615    20598857.627
        50.100          43.600
 126116434.051 8                  23999154.871
        50.000
 200851239.055 6                  38220714.112
        38.800
 122527250.631 5  95298973.065 6  22921255.151    22921254.772    22921268.471
        35.000          37.300
 198905396.680 7                  37850458.246
        43.400
 115464270.413 7  89972175.95946  21972101.996    21972101.6924   21972100.2604
        47.500          39.6004
 139636401.659 6                  26571924.717
        41.300
 202035514.413 7                  38446098.238
        42.900
 121882207.866 7                  23193417.416
        43.000
 106378143.483 9  82738680.556 7  19914217.403    19914217.895    19914222.514
        54.300          47.600
 25  1  1 16  4 15.0000000  0 23E27E31G07E29G16G27G04G28G03G26R06G09
                                E04R07E21S35R05S31G31E06S33E19R16
 146054196.579 5                  27793184.707
        33.400




 139614511.488 5                  26567758.505
        32.900
 104900639.042 8  81740577.03446  19961872.607    19961871.6864   19961873.0354
        48.700          38.5004


 108964155.192 7  84907138.31044  20735175.232    20735174.9824   20735175.5674
        42.600          27.1004
 127213492.807 5  99127424.93641  24207923.231    24207923.2354   24207925.3424
        35.600          11.7004
 113028527.994 7  88074140.66746  21508613.489    21508613.3114   21508617.5794
        43.600          40.9004
 109071787.175 7  84991018.82645  20755652.902    20755652.3484   20755658.9894
        45.300          34.2004
 102325010.757 6                  19175662.958    19175662.881
        40.400
 118811976.161 6  92580766.87145  22609172.848    22609172.4734   22609173.5024
        41.800          33.5004
 129126808.682 7                  24571997.507
        43.600
 110221599.222 8  85727946.138 7  20590319.220    20590319.356    20590326.402
        48.200          44.400
 126130146.160 8                  24001764.576
        51.100
 200851201.866 5                  38220702.758
        32.800
 122588586.920 6  95346678.750 6  22932728.974    22932728.522    22932743.879
        38.800          37.400
 198905393.895 6                  37850460.446
        41.300
 115500012.529 7  90000026.88346  21978903.186    21978902.8734   21978902.9224
        45.500          41.5004
 139599655.697 6                  26564932.039
        39.500
 202035538.036 7                  38446097.652
        43.400
 121893592.656 7                  23195584.122
        44.200
 106411830.086 8  82764881.262 8  19920522.573    19920522.995    19920529.085
        52.800          48.800
 25  1  1 16  4 30.0000000  0 22E27E31E29G16G27G04G28G03G26R06G09E04
                                R07E21S35R05S31G31E06S33E19R16
 146095624.298 4                  27801072.271
        29.900


 139649239.470 4                  26574366.619
        26.500
 104890055.448 8  81732330.08846  19959859.362    19959858.4414   19959858.8154
        48.800          38.5004


 108935314.490 7  84884665.03144  20729687.017    20729686.7764   20729687.9524
        45.500          29.8004
 127254143.129 6  99159100.38142  24215658.194    24215658.1234   24215660.7974
        36.100          12.2004
 113063124.163 7  88101098.66646  21515196.905    21515196.7364   21515201.2604
        46.600          41.0004
 109100037.521 7  85013032.06345  20761029.107    20761028.5494   20761031.4294
        44.900          31.9004
 102335246.433 6                  19177581.153    19177580.697
        38.800
 118765781.826 7  92544771.25945  22600381.223    22600380.7994   22600379.3224
        42.200          30.3004
 129099356.328 7                  24566773.126
        45.100
 110176032.947 8  85692505.687 7  20581808.159    20581808.208    20581812.008
        49.900          42.000
 126143946.480 8                  24004390.768
        51.400


 122649982.344 6  95394430.380 5  22944211.435    22944215.096    22944230.145
        38.800          35.600
 198905389.157 6                  37850444.817
        40.200
 115535785.716 7  90027902.03746  21985709.893    21985709.5944   21985710.3284
        46.400          40.8004
 139562914.317 6                  26557940.285
        38.900
 202035560.587 7                  38446109.135
        43.600
 121905042.349 7                  23197762.634
        44.000
 106445612.062 8  82791156.139 8  19926846.423    19926846.683    19926853.059
        52.000          48.100
 25  1  1 16  4 45.0000000  0 24E27E31G07E29G16G27G04G28G03G26R06R10
                                G09E04R07E21S35R05S31G31E06S33E19R16
 146137076.804 4                  27808955.510
        29.400


 132574467.274 6                  25228083.717
        36.500
 139684007.942 4                  26580985.568
        28.400
 104879634.938 7  81724210.25846  19957876.022    19957875.1104   19957876.1604
        47.900          38.5004
 125890156.549 5                  23956101.795
        32.800
 108906554.658 7  84862254.78445  20724213.577    20724213.3274   20724216.0584
        45.000          30.9004
 127294802.047 5  99190782.52841  24223394.942    24223394.8584   24223397.9344
        30.500           7.9004
 113097836.509 7  88128147.19346  21521802.129    21521801.9334   21521806.7734
        47.600          41.3004
 109128404.637 7  85035136.19545  20766427.898    20766427.3714   20766426.2994
        46.600          32.0004
 102345669.613 6                  19179534.214    19179533.897
        38.600
 123592575.349 5                  23185642.121    23185642.967
        30.700
 118719626.211 6  92508805.85645  22591598.396    22591597.9904   22591594.8204
        40.700          30.4004
 129071939.306 7                  24561555.308
        46.500
 110130576.179 8  85657150.472 6  20573315.953    20573316.082    20573320.996
        49.600          41.200
 126157837.983 8                  24007034.184
        51.200


 122711439.909 6  95442230.262 5  22955722.283    22955716.320    22955727.617
        39.700          35.400
 198905386.316 6                  37850449.137
        41.300
 115571592.901 7  90055803.69846  21992523.826    21992523.5584   21992524.5354
        45.700          41.1004
 139526180.986 6                  26550949.852
        38.700
 202035584.321 7                  38446109.498
        46.300
 121916560.271 7                  23199954.398
        43.300
 106479492.388 8  82817507.485 7  19933188.972    19933188.991    19933195.117
        51.200          47.100
 25  1  1 16  5  0.0000000  0 24E27E31G07E29G16G27G04G28G03G26R06R10
                                G09E04R07E21S35R05S31G31E06S33E19R16
 146178552.927 4                  27816850.507
        29.800


 132539039.431 5 103277201.25241  25221340.239    25221340.5784   25221349.8804
        35.400           6.6004
 139718816.121 5                  26587609.967
        34.700
 104869376.443 8  81716216.62746  19955924.270    19955923.3314   19955924.1504
        48.300          38.3004
 125838443.825 5  98055991.16142  23946265.035    23946264.8974   23946277.7744
        35.000          12.5004
 108877874.866 7  84839906.86444  20718755.867    20718755.5994   20718758.4484
        44.500          29.4004
 127335468.620 5  99222470.7284   24231132.538    24231132.2844   24231136.4344
        33.600           5.6004
 113132663.662 7  88155285.19646  21528429.285    21528429.0754   21528433.8474
        46.300          41.6004
 109156887.103 7  85057330.32944  20771847.700    20771847.1734   20771842.6284
        46.300          29.9004
 102356279.074 6                  19181521.627    19181522.262
        39.600
 123539374.659 4                  23175668.126    23175662.704
        29.900
 118673508.397 7  92472869.91645  22582822.375    22582822.0044   22582818.8724
        42.600          30.7004
 129044556.733 7                  24556344.598
        45.000
 110085228.227 8  85621879.908 7  20564846.564    20564846.883    20564850.790
        50.700          44.800
 126171819.421 8                  24009694.937
        50.400


 122772957.722 4  95490077.248 5  22967218.708    22967221.116    22967234.564
        27.800          30.200
 198905384.557 6                  37850448.851
        41.600
 115607432.884 7  90083730.90446  21999344.001    21999343.7514   21999345.0034
        44.200          40.2004
 139489454.571 6                  26543961.727
        38.200
 202035608.871 7                  38446113.115
        42.400
 121928145.318 6                  23202159.301
        41.600
 106513469.516 8  82843934.125 7  19939549.591    19939549.955    19939556.291
        52.000          47.900
 25  1  1 16  5 15.0000000  0 24E27E31G07E29G16G27G04G28G03G26R06R10
                                G09E04R07E21S35R05S31G31E06S33E19R16




 132503621.115 4 103249603.61541  25214600.680    25214601.2654   25214609.4594
        28.100           7.4004
 139753662.366 6                  26594239.083
        36.200
 104859279.050 8  81708348.55646  19954002.407    19954001.4644   19954002.5414
        48.100          39.8004


 108849274.254 7  84817620.65745  20713314.412    20713314.1624   20713315.9514
        45.500          30.9004
 127376142.713 4                  24238871.490
        28.100
 113167604.064 7  88182511.42046  21535078.662    21535078.4524   21535082.4124
        46.800          40.8004
 109185483.626 7  85079613.28145  20777289.086    20777288.5774   20777284.7714
        47.000          31.7004
 102367073.857 6                  19183544.719    19183545.533
        40.800
 123486235.720 5                  23165697.607
        30.400
 118627427.658 6  92436962.85945  22574054.092    22574053.7714   22574051.8714
        39.100          30.2004
 129017207.655 7                  24551139.884
        44.000
 110039988.338 8  85586693.360 7  20556394.263    20556395.574    20556398.418
        52.100          44.400
 126185889.582 8                  24012372.504
        51.400




 198905382.354 7                  37850453.693
        44.500
 115643304.512 6  90111682.77346  22006170.152    22006169.9204   22006171.1184
        41.500          38.4004
 139452734.217 6                  26536974.839
        40.500
 202035632.884 7                  38446115.168
        46.400
 121939796.597 6                  23204376.198
        41.300
 106547541.979 8  82870434.923 7  19945929.137    19945929.100    19945933.527
        52.500          46.500
 25  1  1 16  5 30.0000000  0 21E31E29G16G27G04G28G03G26R06G09E04R07
                                E21S35R05S31G31E06S33E19R16
 146707928.939 4                  27917594.147
        26.000
 139788550.465 5                  26600886.779
        32.800
 104849345.836 8  81700608.39646  19952112.136    19952111.1844   19952112.4634
        48.500          40.2004
 125735052.731 5  97975442.03941  23926590.068    23926589.7824   23926597.5904
        32.700           6.8004
 108820756.478 8  84795399.00345  20707887.035    20707886.7724   20707889.2394
        49.500          33.4004
 127416825.142 4  99285854.34841  24246616.242    24246616.1354   24246620.2774
        27.400           7.4004
 113202660.691 7  88209828.21847  21541748.811    21541748.5884   21541753.3444
        45.300          42.3004
 109214197.112 7  85101987.39245  20782753.450    20782752.9364   20782751.8714
        46.600          34.5004
 102378057.209 6                  19185603.346    19185602.529
        39.900
 118581387.451 6  92401087.38845  22565293.455    22565293.1604   22565292.8524
        38.400          30.1004
 128989895.467 7                  24545942.891
        44.000
 109994860.254 7  85551593.756 7  20547962.266    20547963.454    20547968.886
        47.400          45.800
 126200051.593 8                  24015067.568
        51.800


 122896203.556 5  95586010.711 4  22990278.850                    22990296.032
        31.600          29.000
 198905382.549 7                  37850455.446
        45.800
 115679210.886 6  90139661.71746  22013002.029    22013001.7704   22013003.6904
        40.800          36.4004
 139416023.408 7                  26529988.809
        43.200
 202035659.560 7                  38446119.818
        45.400
 121951517.220 6                  23206606.178
        40.700
 106581712.473 8  82897011.960 7  19952325.583    19952325.890    19952330.013
        52.900          45.700
 25  1  1 16  5 45.0000000  0 22E31G07E29G16G27G04G28G03G26R06G09E04
                                R07E21S35R05S31G31E06S33E19R16
 146662476.399 5                  27908943.422
        30.200
 132432859.806 5                  25201129.350
        31.400
 139823475.671 5                  26607526.082
        33.200
 104839573.047 8  81692993.25047  19950252.426    19950251.4704   19950252.8944
        48.100          42.0004
 125683374.374 5  97935173.36043  23916755.725    23916755.2164   23916762.1274
        35.500          18.0004
 108792317.595 8  84773238.81045  20702474.966    20702474.6894   20702477.0604
        48.900          33.6004
 127457508.433 4                  24254358.235
        28.600
 113237829.265 7  88237232.25646  21548439.575    21548439.3744   21548446.1154
        43.200          39.5004
 109243023.319 7  85124449.28446  20788238.856    20788238.3564   20788239.6974
        45.900          36.3004
 102389225.154 6                  19187697.828    19187696.657
        41.900
 118535384.186 6  92365240.68944  22556537.453    22556537.1674   22556540.3264
        37.500          27.6004
 128962616.260 7                  24540752.370
        45.800
 109949840.642 8  85516578.466 7  20539553.404    20539555.091    20539559.097
        48.400          46.500
 126214301.233 8                  24017778.826
        51.700


 122957900.585 5                  23001823.961    23001821.230
        31.700
 198905381.975 7                  37850451.587
        43.300
 115715148.048 7  90167664.68646  22019841.635    22019841.3854   22019842.6524
        42.800          38.9004
 139379318.007 6                  26523003.684
        40.100
 202035685.286 7                  38446130.872
        44.200
 121963303.320 6                  23208849.773
        40.900
 106615976.924 8  82923662.034 7  19958739.838    19958740.106    19958744.694
        53.300          44.300
 25  1  1 16  6  0.0000000  0 24E27E31G07E29G16G27G04G28G03G26R06R10
                                G09E04R07E21S35R05S31G31E06S33E19R16


 146617036.845 5                  27900302.273
        31.400
 132397471.588 4                  25194393.494
        28.800
 139858437.573 5                  26614180.663
        32.200
 104829959.677 8  81685502.30846  19948422.924    19948421.9594   19948423.5664
        48.600          41.7004
 125631705.895 5  97894912.44243  23906923.922    23906923.2344   23906931.4084
        35.200          19.1004
 108763957.196 8  84751139.81145  20697078.977    20697078.7144   20697080.7104
        48.300          35.8004


 113273108.362 7  88264722.39946  21555153.597    21555153.4374   21555159.9624
        42.100          38.2004
 109271961.187 7  85146998.31046  20793746.043    20793745.5474   20793749.0584
        44.300          38.2004
 102400576.751 7                  19189824.259    19189824.308
        42.700
 123327161.736 5                  23135862.491    23135862.727
        33.400
 118489421.086 5  92329430.11044  22547789.046    22547788.7384   22547791.6774
        34.600          26.9004
 128935369.376 7                  24535566.999
        44.200
 109904929.251 7  85481647.369 7  20531159.408    20531160.411    20531169.304
        43.300          46.200
 126228637.598 8                  24020506.919
        50.300




 198905379.115 7                  37850449.946
        43.400
 115751114.959 7  90195690.85046  22026686.549    22026686.3174   22026686.8954
        43.800          39.9004
 139342617.393 6                  26516020.009
        40.200
 202035709.504 7                  38446140.490
        43.800
 121975154.314 6                  23211104.904
        41.400
 106650333.775 8  82950384.066 7  19965171.063    19965171.605    19965175.223
        52.900          42.800
 25  1  1 16  6 15.0000000  0 22E31E29G16G27G04G28G03G26R06R10G09E04
                                R07E21S35R05S31G31E06S33E19R16
 146571609.886 4                  27891652.857
        25.300
 139893435.292 5                  26620837.785
        35.000
 104820505.128 8  81678135.14947  19946623.958    19946622.9884   19946624.2034
        49.500          42.5004
 125580046.995 5  97854658.85142  23897093.275    23897092.4084   23897101.1044
        33.400          17.7004
 108735674.793 7  84729101.57945  20691697.396    20691697.1374   20691699.3004
        46.700          34.9004
 127538918.424 5                  24269850.140
        31.700
 113308497.151 6  88292298.03645  21561887.266    21561887.0924   21561894.6104
        40.500          35.1004
 109301009.660 7  85169633.47746  20799273.948    20799273.4524   20799278.6534
        43.000          38.1004
 102412111.565 6                  19191985.977    19191985.658
        41.600
 123274282.123 5                  23125945.986    23125943.926
        35.500
 118443489.792 6  92293639.45644  22539051.226    22539051.2524   22539052.7414
        38.000          26.6004
 128908154.360 7                  24530387.914
        47.200
 109860125.980 7  85446800.276 7  20522792.819    20522792.713    20522800.403
        44.400          47.800
 126243059.914 8                  24023251.295
        48.500




 198905373.324 6                  37850445.917
        39.200
 115787110.546 7  90223739.31446  22033536.564    22033536.3504   22033536.9564
        44.700          41.7004
 139305921.023 6                  26509036.880
        40.500
 202035729.996 7                  38446143.129
        43.600
 121987069.375 7                  23213372.029
        42.100
 106684781.981 8  82977177.036 6  19971620.391    19971620.334    19971623.486
        53.300          41.900
 25  1  1 16  6 30.0000000  0 24E27E31G07E29G16G27G04G28G03G26R06R10
                                G09E04R07E21S35R05S31G31E06S33E19R16


 146526202.153 3                  27883015.375
        23.800
 132326670.908 6 103111737.23941  25180932.903    25180932.3314   25180942.2244
        38.800           8.4004
 139928475.718 5                  26627506.845
        33.400
 104811216.090 8  81670896.93247  19944855.352    19944854.3964   19944856.2804
        48.300          42.2004


 108707477.384 7  84707129.56245  20686332.061    20686331.8074   20686332.9424
        46.900          34.7004


 113344002.140 7  88319964.18845  21568644.673    21568644.4374   21568649.9664
        42.000          33.6004
 109330175.085 7  85192359.77346  20804824.560    20804824.0554   20804828.8624
        45.300          39.3004
 102423836.281 7                  19194182.401    19194182.897
        42.000
 123221472.001 5                  23116034.528    23116031.828
        33.800
 118397601.318 6  92257882.22144  22530318.258    22530318.1384   22530320.2034
        38.200          26.2004
 128880978.132 7                  24525216.671
        47.200
 109815437.658 7  85412042.704 7  20514445.360    20514445.969    20514452.519
        47.300          47.700
 126257574.647 7                  24026013.035
        47.900




 198905372.445 6                  37850450.867
        40.100
 115823141.861 7  90251815.65947  22040392.897    22040392.6614   22040393.7024
        46.700          43.4004
 139269235.796 6                  26502056.609
        37.000
 202035755.353 7                  38446148.982
        42.200
 121999055.285 6                  23215652.375
        41.700
 106719328.265 9  83004046.351 7  19978087.722    19978088.039    19978091.008
        54.200          42.900
 25  1  1 16  6 45.0000000  0 24E27E31G07E29G16G27G04G28G03G26R06R10
                                G09E04R07E21S35R05S31G31E06S33E19R16




 132291314.425 6 103084186.84841  25174201.372    25174201.0864   25174218.1834
        37.300          10.8004
 139963554.910 5                  26634185.844
        32.600
 104802088.919 8  81663784.84247  19943119.095    19943118.1564   19943119.2794
        49.200          42.1004
 125476776.006 5  97774157.43243  23877444.439    23877443.7114   23877450.8724
        34.100          22.5004
 108679361.527 7  84685221.10145  20680981.031    20680980.7904   20680982.7484
        47.900          33.0004
 127620317.840 6                  24285339.745
        37.400
 113379619.026 6  88347717.61844  21575424.502    21575424.1894   21575424.7514
        41.300          29.3004
 109359453.569 7  85215174.18146  20810395.304    20810394.8224   20810399.0374
        46.700          38.0004
 102435747.127 7                  19196414.465    19196414.514
        42.000
 123168728.244 5                  23106140.111    23106139.821
        34.100
 118351752.376 6  92222155.93944  22521591.498    22521591.3244   22521594.2974
        36.800          27.6004
 128853837.001 6                  24520050.991
        41.000
 109770860.976 7  85377371.901 7  20506118.751    20506120.210    20506123.930
        46.900          47.400
 126272178.011 8                  24028792.346
        48.100
 200850842.582 5                  38220668.023
        33.200
 123205325.324 5                  23048102.769
        35.200
 198905371.253 7                  37850444.621
        43.500
 115859205.041 8  90279916.83947  22047255.302    22047255.0704   22047255.9744
        48.800          44.4004
 139232558.201 5                  26495076.285
        35.300
 202035781.113 7                  38446144.788
        44.600
 122011108.487 7                  23217946.776
        42.400
 106753968.172 9  83030988.427 7  19984572.851    19984572.992    19984577.253
        54.600          45.600
 25  1  1 16  7  0.0000000  0 24E27E31G07E29G16G27G04G28G03G26R06R10
                                G09E04R07E21S35R05S31G31E06S33E19R16




 132255966.366 4 103056642.92741  25167473.305    25167473.1004   25167491.9054
        29.600           9.2004


 104793121.714 7  81656797.43346  19941412.022    19941411.1014   19941413.1894
        47.700          41.7004
 125425158.964 5  97733936.59643  23867622.538    23867621.9804   23867631.1894
        33.900          22.6004
 108651325.607 7  84663374.93945  20675645.155    20675644.9144   20675647.0524
        47.100          31.1004
 127661037.426 5  99476159.1894   24293091.028    24293091.0244   24293093.1124
        31.500           5.6004
 113415345.635 7  88375556.46845  21582222.250    21582221.9734   21582220.3754
        42.700          31.3004
 109388842.761 7  85238074.80146  20815987.467    20815987.0074   20815990.3234
        46.700          37.1004
 102447842.152 6                  19198680.788    19198681.412
        41.900
 123116048.621 4                  23096253.642    23096252.379
        26.700
 118305940.964 6  92186458.84045  22512877.037    22512876.8904   22512878.7064
        39.300          33.6004
 128826729.072 7                  24514893.896
        43.200
 109726394.380 7  85342786.795 7  20497810.728    20497811.435    20497817.462
        44.600          47.200
 126286867.904 8                  24031587.856
        48.700


 123267309.746 5                  23059684.452
        30.100
 198905368.443 6                  37850440.127
        41.800
 115895297.745 7  90308040.98747  22054122.920    22054122.6704   22054124.2124
        46.600          44.1004
 139195886.143 5                  26488098.496
        35.800
 202035804.828 7                  38446149.782
        45.200
 122023227.047 7                  23220252.569
        42.600
 106788699.675 9  83058001.803 7  19991074.944    19991075.411    19991079.681
        55.100          47.200
 25  1  1 16  7 15.0000000  0 23E27E31E29G16G27G04G28G03G26R06R10G09
                                E04R07E21S35R05S31G31E06S33E19R16


 146390125.495 5                  27857113.071
        30.900
 140033827.150 5                  26647558.036
        31.900
 104784317.993 8  81649937.43146  19939737.671    19939736.7734   19939737.9904
        48.600          41.1004
 125373557.760 6  97693728.14944  23857795.576    23857794.8254   23857812.5034
        37.400          26.2004
 108623373.304 6  84641593.97044  20670325.113    20670324.8724   20670327.6414
        40.500          26.8004


 113451185.032 6  88403483.23245  21589040.701    21589040.4734   21589040.3414
        41.800          30.9004
 109418345.972 7  85261064.27346  20821601.925    20821601.4654   20821603.8544
        45.900          37.7004
 102460124.954 7                  19200984.063    19200983.770
        42.500
 123063436.799 5                  23086383.905    23086383.419
        30.800
 118260171.122 6  92150794.03346  22504167.227    22504166.9734   22504170.8474
        39.000          36.4004
 128799658.267 7                  24509741.702
        43.000
 109682042.456 7  85308290.903 7  20489526.103    20489526.439    20489531.863
        44.500          46.000
 126301647.633 8                  24034400.100
        48.000
 200850804.183 5                  38220642.490
        33.900
                                                  23071290.784

 198905367.889 6                  37850450.474
        41.500
 115931423.318 8  90336190.75747  22060997.399    22060997.1454   22060998.7064
        48.100          43.6004
 139159223.361 5                  26481119.958
        35.100
 202035830.989 7                  38446154.330
        44.800
 122035414.371 7                  23222571.641
        42.500
 106823525.657 8  83085088.679 7  19997593.662    19997594.075    19997599.065
        53.000          46.700
 25  1  1 16  7 30.0000000  0 22E27E31E29G16G27G04G28G03G26R06R10G09
                                E04R07E21S35S31G31E06S33E19R16


 146344781.694 5                  27848487.014
        33.700
 140069021.382 4                  26654252.846
        28.700
 104775675.552 7  81643203.08046  19938093.236    19938092.3244   19938092.9514
        47.100          40.3004
 125321970.700 6  97653530.65944  23847981.570    23847980.8514   23847994.3584
        38.700          28.2004
 108595502.676 6  84619876.59544  20665022.338    20665022.0974   20665024.6864
        39.700          26.2004


 113487134.765 6  88431495.93045  21595882.893    21595882.7064   21595885.0184
        39.300          33.4004
 109447960.752 7  85284140.72946  20827237.101    20827236.6324   20827238.1304
        46.000          38.3004
 102472593.109 7                  19203320.035    19203319.545
        42.300
 123010891.314 5                  23076532.388    23076530.315
        35.200
 118214440.820 6  92115160.01546  22495464.642    22495464.3924   22495468.9544
        36.900          36.4004
 128772622.458 7                  24504596.674
        43.500
 109637803.224 7  85273882.637 7  20481262.613    20481262.541    20481267.790
        45.400          45.500
 126316514.858 7                  24037229.329
        47.800
 200850769.423 6                  38220634.521
        36.300
 198905366.782 6                  37850446.047
        41.800
 115967579.604 7  90364364.45847  22067877.625    22067877.3754   22067879.0894
        45.900          43.0004
 139122567.876 5                  26474145.203
        35.200
 202035856.565 7                  38446162.240
        45.000
 122047668.539 7                  23224903.377
        42.500
 106858443.528 8  83112247.036 7  20004130.111    20004130.013    20004135.089
        50.700          46.200
 25  1  1 16  7 45.0000000  0 22E27E31E29G16G27G04G28G03G26R06R10G09
                                E04R07E21S35S31G31E06S33E19R16


 146299452.853 5                  27839859.462
        30.600
 140104252.581 5                  26660959.505
        32.300
 104767193.360 8  81636593.59646  19936479.492    19936478.5854   19936478.4104
        49.600          40.8004
 125270397.027 5  97613343.57944  23838167.168    23838166.4224   23838179.5314
        33.700          27.2004
 108567712.847 6  84598222.19243  20659735.208    20659734.9224   20659735.8024
        39.600          23.6004


 113523193.412 6  88459593.53145  21602744.033    21602743.8104   21602750.1574
        40.500          31.4004
 109477685.609 7  85307302.95746  20832894.398    20832893.9204   20832895.3324
        46.200          39.3004
 102485245.855 7                  19205692.683    19205692.407
        43.200
 122958410.912 6                  23066686.583    23066687.102
        38.200
 118168749.324 6  92079556.26046  22486768.343    22486768.1074   22486774.2054
        37.000          36.6004
 128745620.639 7                  24499458.466
        43.700
 109593675.719 7  85239561.317 7  20473018.812    20473016.753    20473023.929
        43.900          45.800
 126331468.453 7                  24040075.013
        47.700


 198905363.964 6                  37850446.217
        40.900
 116003765.651 7  90392561.34446  22074763.500    22074763.2014   22074764.8424
        45.500          41.7004
 139085918.663 5                  26467169.792
        35.200
 202035880.457 7                  38446166.345
        45.600
 122059988.373 7                  23227247.962
        42.100
 106893451.719 8  83139475.630 7  20010683.081    20010683.002    20010688.743
        49.700          46.500
 25  1  1 16  8  0.0000000  0 22E27E31G07E29G16G27G04G03G26R06R10G09
                                E04R07E21S35S31G31E06S33E19R16


 146254137.603 4                  27831239.915
        26.200


 140139518.985 5                  26667669.961
        31.200
 104758869.871 8  81630107.79446  19934895.076    19934894.1644   19934894.2304
        48.200          40.5004


 108540002.617 6  84576629.79043  20654461.135    20654460.8094   20654460.8444
        37.300          23.8004
 113559359.071 7  88487774.52745  21609626.877    21609626.6544   21609634.3594
        42.900          33.5004
 109507518.785 6  85330549.58046  20838569.911    20838569.4334   20838573.9804
        38.700          38.3004
 102498081.355 7                  19208096.545    19208096.472
        43.100
 122905994.115 6                  23056851.378    23056851.330
        38.400
 118123095.436 6  92043981.85546  22478081.867    22478081.6314   22478086.1924
        39.500          38.3004
 128718651.386 7                  24494327.083
        46.300
 109549659.363 7  85205326.336 7  20464795.091    20464796.582    20464801.845
        47.200          44.800
 126346506.728 7                  24042936.445
        45.600
 200850639.142 5                  38220595.859
        35.100
 198905358.740 6                  37850439.930
        41.400
 116039979.624 7  90420780.02347  22081655.507    22081655.1684   22081656.0774
        46.200          42.1004
 139049274.327 4                  26460197.982
        29.300
 202035901.715 7                  38446157.952
        43.000
 122072372.499 7                  23229605.361
        44.200
 106928548.243 8  83166772.871 8  20017253.809    20017253.881    20017260.039
        48.600          48.500
 25  1  1 16  8 15.0000000  0 23E27G07E29G16G27G04G28G03G26R06R10G09
                                E04R07E21S35S31G31E06S33E19R16R15


 132079374.188 6                  25133872.763
        36.300
 140174828.936 5                  26674392.933
        35.700
 104750713.323 8  81623752.05646  19933343.145    19933342.2424   19933342.3004
        48.600          39.9004


 108512380.470 7  84555106.03843  20649205.589    20649205.2364   20649203.8974
        42.000          23.4004


 113595639.509 7  88516045.05845  21616531.284    21616531.0924   21616537.7844
        45.300          32.6004
 109537468.120 7  85353886.74346  20844269.991    20844269.5004   20844274.3774
        44.400          38.2004
 102511107.984 7                  19210538.666    19210538.425
        42.300
 122853649.496 5                  23047032.068    23047033.811
        33.000
 118077487.269 6  92008443.01146  22469402.093    22469401.7984   22469405.6274
        36.700          36.3004
 128691723.256 7                  24489201.911
        44.800
 109505762.799 7  85171184.566 7  20456592.770    20456593.798    20456599.825
        47.300          43.600
 126361637.589 7                  24045816.393
        47.400


 198905358.563 6                  37850442.067
        40.500
 116076229.685 7  90449026.77646  22088553.237    22088552.9074   22088553.5024
        44.800          41.3004
 139012642.188 6                  26453229.122
        37.000
 202035927.529 7                  38446172.686
        45.700
 122084829.206 7                  23231975.368
        42.700
 106963741.424 8  83194145.390 7  20023841.089    20023841.301    20023848.134
        48.400          47.500
 129038346.084 5                  24147765.385
        31.200
 25  1  1 16  8 30.0000000  0 24E27E31G07E29G16G27G04G28G03G26R06R10
                                G09E04R07E21S35R05S31G31E06S33E19R16


 146163541.606 5                  27813994.046
        30.600
 132044084.811 5 102891590.90843  25127155.074    25127154.5694   25127169.5594
        34.200          18.3004


 104742715.073 8  81617519.65246  19931820.427    19931819.5334   19931820.4864
        48.300          40.1004


 108484837.897 7  84533644.35344  20643963.884    20643963.5494   20643963.5454
        42.700          28.9004


 113632025.796 7  88544397.83444  21623453.865    21623453.6824   21623461.1574
        42.600          29.5004
 109567524.552 6  85377307.36046  20849989.452    20849988.9434   20849994.1334
        41.000          38.5004
 102524317.028 7                  19213013.357    19213013.290
        42.400
 122801368.585 5                  23037222.671    23037220.558
        32.000
 118031916.868 6  91972933.61546  22460732.361    22460732.0084   22460733.8414
        37.300          36.4004
 128664827.562 7                  24484084.576
        45.300
 109461977.252 8  85137129.081 7  20448416.022    20448416.474    20448420.033
        49.700          43.400
 126376852.307 7                  24048711.443
        44.600


 123640373.986 5                  23129485.263    23129485.607
        31.800
 198905355.011 7                  37850447.223
        42.300
 116112506.943 7  90477294.70947  22095457.821    22095457.4554   22095457.0654
        45.500          42.1004
 138976015.516 5                  26446256.894
        33.700
 202035950.634 7                  38446179.823
        44.300
 122097349.615 7                  23234358.426
        43.100
 106999021.720 8  83221585.630 8  20030445.937    20030446.581    20030452.345
        48.600          48.300
 25  1  1 16  8 45.0000000  0 22E27G07E29G16G27G04G28G03G26R06R10G09
                                E04R07E21S35S31G31E06S33E19R16


 132008806.661 5 102864101.48843  25120442.713    25120442.4944   25120451.9124
        32.100          18.1004
 140245639.354 4                  26687861.032
        24.300
 104734879.697 7  81611414.17546  19930329.648    19930328.7504   19930329.3654
        46.200          38.6004


 108457380.011 7  84512248.56945  20638739.237    20638738.9244   20638739.7554
        47.500          30.7004


 113668522.300 7  88572836.77544  21630398.899    21630398.7254   21630403.7364
        42.100          26.5004
 109597692.703 6  85400815.01645  20855729.793    20855729.3024   20855734.5074
        38.700          35.5004
 102537713.411 6                  19215522.874    19215523.274
        40.900
 122749126.386 5                  23027422.357    23027423.783
        31.800
 117986388.849 6  91937457.23546  22452067.520    22452067.1494   22452068.4674
        40.700          36.8004
 128637969.195 7                  24478973.803
        46.000
 109418308.715 8  85103164.587 7  20440258.515    20440259.233    20440262.036
        49.400          43.700
 126392155.440 7                  24051623.447
        45.900


 198905352.817 7                  37850449.852
        42.800
 116148816.125 7  90505587.55047  22102367.476    22102367.1194   22102366.9474
        42.700          42.6004
 138939398.355 5                  26439288.321
        32.700
 202035974.746 7                  38446194.476
        43.000
 122109938.777 7                  23236753.236
        43.000
 107034393.722 7  83249097.195 7  20037066.796    20037065.638    20037073.266
        44.100          46.900
 25  1  1 16  9  0.0000000  0 22E27G07E29G16G27G04G28G03G26R06R10G09
                                E04R07E21S35S31G31E06S33E19R16


 131973542.386 5 102836622.90643  25113731.907    25113731.8184   25113739.0094
        35.400          23.1004


 104727210.428 7  81605438.12046  19928870.015    19928869.1034   19928869.9844
        47.600          37.9004


 108430010.009 7  84490921.33345  20633530.487    20633530.2064   20633532.3724
        47.300          32.5004


 113705131.604 7  88601363.36844  21637366.543    21637366.3654   21637369.1334
        42.200          26.4004
 109627975.139 6  85424411.66745  20861492.928    20861492.4374   20861497.0064
        36.100          34.8004
 102551299.878 6                  19218069.910    19218069.143
        40.700
 122696985.999 5                  23017648.657    23017643.308
        32.900
 117940906.630 7  91902016.49545  22443410.741    22443410.3264   22443413.1594
        42.100          34.7004
 128611151.350 7                  24473870.074
        47.000
 109374760.475 8  85069293.784 7  20432123.225    20432124.292    20432128.540
        51.500          46.600
 126407549.775 7                  24054552.775
        46.500


 198905355.128 6                  37850455.017
        40.600
 116185160.053 7  90533907.47047  22109283.308    22109282.9694   22109283.4834
        45.900          42.8004
 138902794.000 6                  26432324.690
        39.200
 202036003.332 7                  38446189.522
        44.400
 122122599.650 6                  23239162.889
        40.400
 107069860.020 8  83276682.048 7  20043708.773    20043709.163    20043712.588
        48.000          46.500
 25  1  1 16  9 15.0000000  0 23E27E31G07E29G16G27G04G28G03G26R06R10
                                G09E04R07E21S35S31G31E06S33E19R16


 146027781.907 5                  27788161.893
        30.500
 131938284.289 6 102809149.18343  25107025.438    25107025.5404   25107027.3544
        36.300          23.1004


 104719698.770 7  81599584.86646  19927440.524    19927439.6214   19927441.2164
        46.200          38.0004
 124961264.950 5  97372487.88843  23779341.987    23779341.9114   23779354.9834
        33.400          22.0004
 108402719.913 8  84469656.34845  20628338.124    20628337.8654   20628339.6874
        48.400          32.0004


 113741845.025 6  88629971.19945  21644352.701    21644352.5274   21644355.5874
        39.800          30.8004
 109658267.040 5  85448021.57345  20867274.703    20867274.3324   20867279.6104
        34.600          32.2004
 102565068.089 6                  19220650.049    19220650.168
        40.700
 122644909.079 5                  23007878.514    23007875.379
        32.000
 117895462.276 7  91866605.35445  22434763.171    22434762.7424   22434765.6624
        42.600          34.9004
 128584365.821 7                  24468773.439
        47.600
 109331324.439 7  85035510.303 7  20424006.470    20424006.786    20424015.192
        47.700          47.200
 126423026.917 7                  24057497.287
        45.000
 200850398.952 5                  38220591.294
        30.800
 198905352.898 6                  37850450.134
        41.400
 116221530.186 7  90562247.80046  22116203.607    22116203.2774   22116204.0754
        47.600          41.1004
 138866194.002 5                  26425360.584
        35.400
 202036028.417 7                  38446191.364
        43.000
 122135323.912 6                  23241583.879
        39.800
 107105411.440 7  83304333.213 7  20050361.406    20050362.155    20050368.607
        47.700          47.900
 25  1  1 16  9 30.0000000  0 24E27E31G07E29G16G27G04G28G03G26R06R10
                                G09E04R07E21S35R05S31G31E06S33E19R16


 145982571.053 4                  27779559.453
        29.600
 131903035.378 5 102781682.65143  25100314.466    25100314.4974   25100318.3014
        32.500          19.1004


 104712348.132 7  81593857.08846  19926042.104    19926041.2014   19926042.8954
        47.400          39.0004
 124909805.773 5  97332390.09844  23769550.477    23769550.2004   23769560.8734
        35.400          24.2004
 108375513.486 7  84448456.48345  20623160.683    20623160.4114   20623162.8184
        44.000          33.8004


 113778665.799 7  88658662.67746  21651359.779    21651359.6014   21651364.0644
        43.400          37.3004
 109688764.107 5  85471785.50745  20873077.786    20873077.5854   20873083.3024
        31.900          33.0004
 102579021.613 6                  19223264.842    19223264.082
        38.500
 122592899.491 5                  22998121.920    22998119.779
        33.300
 117850059.532 6  91831226.74145  22426125.734    22426125.3324   22426123.7334
        36.500          35.5004
 128557616.447 7                  24463681.767
        44.500
 109288005.039 8  85001817.482 7  20415918.151    20415917.876    20415920.862
        50.900          45.500
 126438590.229 7                  24060459.222
        46.100


 123890221.289 6                  23176234.568    23176232.142
        36.800
 198905350.459 6                  37850441.942
        40.900
 116257930.176 7  90590611.37646  22123131.052    22123130.7224   22123130.5874
        45.100          40.3004
 138829602.197 6                  26418396.695
        37.600
 202036052.116 7                  38446197.414
        44.500
 122148115.242 6                  23244016.843
        37.800
 107141051.750 7  83332053.460 7  20057035.999    20057033.682    20057040.863
        44.600          47.900
 25  1  1 16  9 45.0000000  0 24E27E31G07E29G16G27G04G28G03G26R06R10
                                G09E04R07E21S35R05S31G31E06S33E19R16


 145937378.169 5                  27770963.552
        34.000
 131867800.961 4 102754155.23941  25093605.506    25093605.2874   25093614.9014
        27.300          10.4004


 104705159.690 7  81588255.68646  19924674.434    19924673.5274   19924674.9504
        46.900          39.7004


 108348391.983 7  84427322.83145  20618000.139    20617999.8534   20618001.4654
        45.000          35.5004
 128109421.815 5                  24378412.324
        34.600
 113815594.647 7  88687438.37246  21658387.383    21658387.1964   21658392.6724
        45.400          39.1004


 102593161.535 6                  19225914.769    19225914.793
        40.900
 122540958.331 5                  22988373.912    22988372.889
        30.900
 117804699.611 4  91795881.24745  22417489.956    22417489.5054   22417492.3664
        26.200          30.7004
 128530904.363 7                  24458598.801
        44.400
 109244803.552 8  84968216.340 7  20407845.693    20407846.628    20407851.528
        50.800          46.300
 126454240.620 7                  24063437.412
        44.300


 123952811.884 5                  23187935.329    23187938.443
        32.100
 198905348.520 7                  37850448.059
        44.800
 116294360.861 7  90618998.90346  22130062.521    22130062.1734   22130063.5114
        44.200          36.1004
 138793019.618 5                  26411434.910
        35.000
 202036077.007 7                  38446205.302
        47.000
 122160974.707 6                  23246464.579
        37.300
 107176781.195 8  83359843.012 8  20063723.255    20063724.070    20063729.682
        48.600          48.800
 25  1  1 16 10  0.0000000  0 23E27E31G07E29G16G27G04G28G03G26R06R10
                                G09E04R07E21S35S31G31E06S33E19R16


 145892202.263 4                  27762363.179
        29.500


 140423092.110 5                  26721622.858
        30.200
 104698132.390 7  81582779.85446  19923336.981    19923336.0784   19923336.9874
        47.500          38.8004


 108321354.438 7  84406254.63846  20612854.342    20612854.0654   20612856.2424
        46.900          36.5004
 128150217.950 6                  24386176.576
        38.100
 113852629.949 7  88716297.00646  21665435.156    21665434.9824   21665440.3254
        46.300          38.0004
 109750079.724 6  85519564.72445  20884749.351    20884749.4764   20884751.5054
        36.000          32.5004
 102607486.547 6                  19228600.118    19228599.104
        40.200
 122489084.680 4                  22978641.387
        25.400
 117759373.635 6  91760561.57645  22408867.420    22408867.3854   22408868.1404
        40.000          35.5004
 128504228.429 7                  24453523.114
        45.000
 109201719.111 8  84934706.270 7  20399796.949    20399797.757    20399803.350
        49.800          46.600
 126469976.795 7                  24066431.904
        43.300


 198905346.057 7                  37850443.087
        42.900
 116330820.918 6  90647409.31845  22137000.152    22136999.8134   22137001.0244
        41.400          33.5004
 138756445.214 5                  26404475.155
        32.500
 202036100.916 7                  38446212.036
        45.200
 122173900.959 6                  23248924.455
        36.600
 107212598.385 8  83387700.816 8  20070427.511    20070427.448    20070433.815
        48.600          48.700
 25  1  1 16 10 15.0000000  0 22E27E31G07E29G16G27G04G28G03G26R06G09
                                E04R07E21S35S31G31E06S33E19R16


 145847044.309 5                  27753784.274
        31.400
 131797394.237 5 102699279.03042  25080213.284    25080213.3064   25080210.4394
        33.100          12.1004
 140458703.296 5                  26728402.625
        32.500
 104691266.855 7  81577430.08946  19922030.642    19922029.7484   19922030.1824
        47.200          37.5004
 124755533.905 6  97212159.87645  23740193.513    23740192.8164   23740206.1154
        41.400          33.6004
 108294401.847 7  84385252.63145  20607725.070    20607724.7934   20607726.9644
        45.800          35.4004
 128191020.119 5                  24393941.785
        34.900
 113889772.110 7  88745238.95346  21672502.649    21672502.4754   21672509.1334
        43.800          38.0004
 109780903.264 6  85543583.05945  20890616.170    20890616.1704   20890616.7364
        39.600          34.6004
 102621997.399 6                  19231318.445    19231318.293
        40.300
 117714098.612 6  91725282.36346  22400253.002    22400252.5604   22400254.3104
        37.300          37.9004
 128477589.452 7                  24448453.555
        45.700
 109158753.040 8  84901288.302 7  20391771.100    20391772.102    20391776.408
        50.700          46.800
 126485799.199 7                  24069442.628
        42.200
 200850338.392 5                  38220564.174
        33.400
 198905343.702 7                  37850445.215
        42.800
 116367310.903 7  90675843.01145  22143943.669    22143943.3344   22143942.9584
        42.500          31.7004
 138719879.956 5                  26397517.206
        35.500
 202036125.835 7                  38446215.032
        44.500
 122186895.181 5                  23251398.536
        31.600
 107248503.608 8  83415627.104 8  20077150.379    20077150.778    20077155.174
        51.300          48.500
 25  1  1 16 10 30.0000000  0 22E27E31G07E29G16G27G04G28G03G26R06G09
                                E04R07E21S35S31G31E06S33E19R16


 145801903.579 4                  27745175.815
        28.300


 140494351.194 5                  26735188.440
        34.900
 104684561.690 7  81572205.29546  19920754.667    19920753.7734   19920754.0304
        47.200          37.0004
 124704148.297 6  97172119.36045  23730414.045    23730413.2364   23730428.5644
        40.800          35.5004
 108267533.307 7  84364316.11245  20602612.733    20602612.4384   20602613.6014
        45.200          33.9004


 113927019.422 6  88774262.81445  21679592.494    21679592.2934   21679597.5454
        40.300          34.1004
 109811833.836 7  85567684.77546  20896501.332    20896501.3324   20896500.9484
        42.600          36.2004
 102636692.676 6                  19234072.893    19234072.754
        41.300
 117668865.674 6  91690035.90246  22391644.714    22391644.5184   22391647.4344
        40.600          37.3004
 128450986.593 7                  24443390.884
        44.900
 109115904.493 8  84867961.738 7  20383765.371    20383766.458    20383771.662
        50.600          45.800
 126501706.528 7                  24072468.379
        43.500


 198905340.072 7                  37850441.616
        42.200
 116403829.578 6  90704299.09445  22150894.290    22150894.0094   22150891.5914
        41.300          30.9004
 138683322.618 5                  26390560.776
        33.300
 202036147.973 7                  38446221.583
        46.100
 122199955.872 5                  23253883.827
        32.000
 107284495.250 8  83443620.568 8  20083887.525    20083888.432    20083892.746
        51.000          48.900
 25  1  1 16 10 45.0000000  0 23E27E31E29G16G27G04G28G03G26R06R10G09
                                E04R07E21S35R05S31G31E06S33E19R16




 140530039.849 5                  26741979.496
        30.700
 104678021.265 7  81567108.87545  19919509.247    19919508.3534   19919509.2204
        45.500          35.4004
 124652785.378 6  97132096.51146  23720642.137    23720641.5614   23720654.7914
        40.500          38.1004
 108240753.284 7  84343448.57945  20597516.303    20597516.0174   20597517.2574
        46.300          34.9004


 113964376.003 6  88803371.81045  21686699.555    21686699.3814   21686707.2014
        40.700          32.2004
 109842875.514 6  85591873.03046  20902407.639    20902407.3314   20902407.3544
        41.000          36.9004
 102651576.895 6                  19236861.674    19236862.005
        41.600
 122333930.033 5                  22949534.965
        32.600
 117623679.134 6  91654825.64446  22383046.525    22383046.3654   22383049.0094
        40.900          38.6004
 128424424.025 7                  24438335.942
        45.500
 109073178.615 8  84834730.528 7  20375783.501    20375784.451    20375790.008
        48.500          45.400
 126517702.789 7                  24075513.295
        45.700


 124203689.299 5                  23234872.960
        33.000
 198905339.672 7                  37850444.741
        42.600
 116440381.008 6  90732780.69845  22157850.696    22157850.4014   22157847.7914
        40.600          33.4004
 138646777.588 6                  26383606.318
        37.100
 202036175.118 7                  38446225.657
        46.100
 122213087.332 5                  23256381.323
        31.300
 107320577.095 8  83471684.181 8  20090643.683    20090644.217    20090647.423
        52.700          48.700
 25  1  1 16 11  0.0000000  0 23E27E31G07E29G16G27G04G28G03G26R06R10
                                G09E04R07E21S35S31G31E06S33E19R16




 131691810.343 5 102617026.82241  25060117.217    25060117.1194   25060126.0344
        34.200          11.5004
 140565762.993 5                  26748777.210
        35.100
 104671639.356 7  81562135.93645  19918295.934    19918295.0454   19918294.9464
        44.600          34.9004
 124601439.490 6  97092086.99046  23710870.652    23710870.1564   23710883.7814
        39.200          37.2004
 108214055.712 7  84322645.29045  20592435.811    20592435.5164   20592436.6404
        47.300          34.8004
 128313508.061 5                  24417234.736
        30.600
 114001835.029 6  88832560.51745  21693828.936    21693828.7844   21693835.7324
        37.100          30.3004
 109874021.528 6  85616142.65246  20908334.460    20908334.0894   20908335.8664
        40.100          36.3004
 102666643.419 6                  19239685.306    19239684.869
        40.700
 122282274.204 5                  22939849.860
        31.900
 117578533.177 7  91619646.96346  22374455.755    22374455.5774   22374458.4454
        42.800          40.4004
 128397895.741 8                  24433289.146
        48.600
 109030568.932 8  84801589.677 7  20367824.263    20367824.497    20367830.838
        48.900          46.900
 126533781.719 7                  24078573.524
        44.900


 198905335.971 7                  37850446.825
        43.600
 116476958.869 7  90761282.88645  22164809.811    22164809.5394   22164809.4504
        46.200          35.7004
 138610238.685 5                  26376651.918
        35.100
 202036197.707 7                  38446225.089
        47.100
 122226283.399 5                  23258894.730
        32.600
 107356742.557 8  83499812.867 8  20097414.391    20097415.457    20097418.765
        53.500          48.600
 25  1  1 16 11 15.0000000  0 24E27E31G07E29G16G27G04G28G03G26R06R10
                                G09E04R07E21S35R05S31G31E06S33E19R16




 131656627.138 5 102589611.37542  25053416.113    25053416.0644   25053433.8494
        33.400          14.0004
 140601522.895 5                  26755581.430
        35.500
 104665418.186 7  81557288.28745  19917112.102    19917111.1864   19917110.8254
        45.900          34.0004
 124550113.150 6  97052092.68746  23701104.702    23701104.2514   23701116.5104
        40.000          36.0004
 108187443.303 7  84301908.36245  20587371.423    20587371.1064   20587372.5104
        46.900          34.1004
 128354285.428 4                  24425009.407
        29.800
 114039398.456 6  88861830.59944  21700973.780    21700973.6604   21700981.8724
        37.900          26.2004
 109905274.046 6  85640495.23446  20914280.773    20914280.3444   20914284.2654
        41.400          38.1004
 102681894.824 6                  19242543.655    19242543.734
        39.900
 122230742.590 5                  22930175.708    22930178.764
        34.100
 117533430.306 7  91584501.86846  22365872.592    22365872.3964   22365875.0674
        45.500          38.6004
 128371404.258 8                  24428247.831
        48.600
 108988078.805 8  84768541.784 7  20359887.710    20359887.229    20359894.280
        48.800          47.600
 126549945.290 7                  24081649.958
        44.800


 124329467.896 6  96700737.163 5  23258390.624                    23258407.925
        39.100          34.400
 198905331.452 7                  37850439.322
        43.400
 116513565.398 7  90789807.46546  22171776.426    22171776.1674   22171777.0964
        46.200          37.3004
 138573708.427 6                  26369700.906
        36.900
 202036219.451 7                  38446233.107
        46.200
 122239546.683 4                  23261415.896
        28.300
 107392993.660 8  83528008.209 8  20104200.022    20104201.282    20104205.638
        53.000          49.900
 25  1  1 16 11 30.0000000  0 24E27E31G07E29G16G27G04G28G03G26R06R10
                                G09E04R07E21S35R05S31G31E06S33E19R16




 131621458.170 5 102562206.98741  25046730.021    25046730.2664   25046740.6704
        32.100          10.1004
 140637324.954 6                  26762395.558
        36.200
 104659363.290 7  81552570.20245  19915959.313    19915958.3924   19915958.3364
        45.600          34.9004
 124498812.465 5  97012118.34745  23691350.172    23691349.7974   23691354.3864
        34.200          31.9004
 108160921.811 7  84281242.26445  20582325.307    20582324.9774   20582325.3544
        45.500          33.1004
 128395120.613 4                  24432778.420
        26.700
 114077071.615 6  88891186.23744  21708148.703    21708148.6194   21708148.3414
        41.100          27.1004
 109936638.332 7  85664934.86946  20920248.261    20920247.8554   20920253.3044
        43.100          39.6004
 102697336.594 6                  19245436.835    19245437.410
        39.900
 122179285.182 6                  22920527.084    22920526.396
        36.400
 117488376.454 7  91549395.00046  22357297.923    22357297.7224   22357300.8114
        42.100          38.3004
 128344955.320 8                  24423214.836
        48.800
 108945714.211 8  84735591.547 7  20351973.495    20351972.551    20351980.300
        48.300          47.600
 126566199.110 7                  24084743.146
        44.700


 124392423.706 5  96749702.524 6  23270161.237    23270162.205    23270185.848
        35.400          36.300
 198905331.980 6                  37850430.772
        40.600
 116550206.011 7  90818358.58146  22178748.923    22178748.7044   22178749.8094
        47.100          37.0004
 138537192.441 6                  26362752.112
        39.500
 202036245.985 7                  38446237.122
        46.700


 107429335.666 8  83556274.239 8  20111002.504    20111003.081    20111008.558
        50.600          48.800
 25  1  1 16 11 45.0000000  0 23E27E31G07E29G16G27G04G28G03G26R06R10
                                G09E04R07E21S35S31G31E06S33E19R16


 145576509.471 5                  27702289.534
        33.400
 131586292.869 5 102534805.28742  25040032.561    25040032.7444   25040044.9304
        34.100          15.0004
 140673158.359 5                  26769215.347
        34.000
 104653463.827 7  81547973.25846  19914836.326    19914835.4144   19914836.4464
        47.600          36.4004


 108134480.599 7  84260638.73945  20577293.711    20577293.3584   20577293.8214
        44.700          33.1004


 114114843.258 6  88920618.60644  21715330.630    21715330.5594   21715336.5324
        40.200          29.2004
 109968103.037 7  85689452.78946  20926236.459    20926236.0574   20926240.4224
        43.500          39.9004
 102712957.585 6                  19248363.593    19248364.516
        40.300
 122127890.961 6                  22910883.590    22910884.294
        36.000
 117443360.892 7  91514317.98346  22348732.347    22348732.1824   22348734.6904
        42.200          37.8004
 128318538.071 8                  24418187.347
        48.500
 108903464.378 8  84702730.560 7  20344082.353    20344081.331    20344087.072
        50.100          47.100
 126582531.995 7                  24087850.620
        44.800


 198905325.789 6                  37850434.644
        41.700
 116586869.655 8  90846927.64146  22185725.414    22185725.2274   22185726.7384
        48.100          37.6004
 138500680.060 6                  26355805.133
        41.900
 202036267.426 7                  38446242.005
        46.200
 122266302.946 5                  23266503.160
        32.900
 107465756.779 8  83584601.811 8  20117820.970    20117820.253    20117826.057
        48.400          48.900
 25  1  1 16 12  0.0000000  0 24E27E31G07E29G16G27G04G28G03G26R06R10
                                G09E04R07E21S35R05S31G31E06S33E19R16


 145531483.132 4                  27693728.021
        28.400
 131551143.163 4 102507415.80041  25033352.280    25033352.5214   25033353.9204
        25.700          11.1004
 140709035.068 4                  26776036.691
        28.700
 104647731.768 7  81543506.75146  19913745.542    19913744.6484   19913746.2784
        46.300          36.0004
 124396395.250 6  96932258.69443  23671840.623    23671839.8284   23671843.9634
        36.100          23.9004
 108108131.941 7  84240107.35545  20572279.135    20572278.7824   20572280.1264
        46.500          34.4004


 114152724.967 6  88950136.73544  21722543.849    21722543.7514   21722546.1344
        39.000          28.6004
 109999679.964 6  85714058.15446  20932244.992    20932244.6264   20932249.5634
        41.800          39.8004
 102728769.987 6                  19251327.535    19251327.798
        39.200
 122076572.506 6                  22901259.041    22901260.383
        37.800
 117398395.884 7  91479280.34246  22340175.646    22340175.4774   22340179.0004
        45.400          39.8004
 128292164.679 7                  24413168.560
        45.700
 108861342.342 8  84669969.023 7  20336212.331    20336211.199    20336217.852
        48.900          47.500
 126598955.744 7                  24090976.035
        43.700


 124518437.603 6  96847745.423 4  23293749.469    23293751.744    23293774.435
        36.200          28.700
 198905325.523 7                  37850442.313
        43.000
 116623568.315 7  90875523.98946  22192708.714    22192708.5494   22192710.5684
        45.400          36.3004
 138464183.300 7                  26348859.560
        42.200
 202036293.439 7                  38446245.582
        46.400
 122279774.313 5                  23269067.296
        31.200
 107502269.116 7  83613000.340 8  20124655.174    20124654.623    20124661.057
        47.600          48.700
 25  1  1 16 12 15.0000000  0 24E27E31G07E29G16G27G04G28G03G26R06R10
                                G09E04R07E21S35R05S31G31E06S33E19R16


 145486470.625 5                  27685155.115
        31.400
 131515963.329 5                  25026654.127    25026653.9894
        33.900
 140744943.697 5                  26782874.717
        31.400
 104642155.827 7  81539161.88346  19912685.200    19912684.3114   19912685.6494
        46.600          36.9004
 124345153.903 6  96892330.70044  23662074.242    23662073.2774   23662088.3004
        39.900          26.5004
 108081864.904 7  84219639.56346  20567279.996    20567279.6344   20567282.3324
        47.000          36.1004


 114190704.968 6  88979731.47345  21729767.550    21729767.4074   21729774.4624
        37.600          32.1004
 110031357.533 6  85738741.97146  20938273.197    20938272.8844   20938277.3014
        40.000          36.6004
 102744762.462 6                  19254325.385    19254325.225
        40.100
 122025318.486 5                  22891639.922    22891639.607
        34.300
 117353470.635 7  91444273.68646  22331627.386    22331627.1994   22331631.1134
        42.300          40.1004
 128265824.200 7                  24408156.538
        47.400
 108819336.827 8  84637298.071 7  20328365.519    20328364.799    20328370.200
        49.200          45.300
 126615459.095 7                  24094116.583
        45.200


 124581538.058 6                  23305571.779    23305560.235
        36.100
 198905320.577 7                  37850432.042
        42.500
 116660290.551 7  90904138.72945  22199698.187    22199698.0134   22199697.0804
        44.200          34.5004
 138427691.195 6                  26341915.694
        39.800
 202036314.731 7                  38446252.227
        46.900
 122293308.231 5                  23271638.517
        30.600
 107538860.842 7  83641460.565 7  20131503.701    20131504.236    20131510.604
        46.400          47.800
 25  1  1 16 12 30.0000000  0 24E27E31G07E29G16G27G04G28G03G26R06R10
                                G09E04R07E21S35R05S31G31E06S33E19R16


 145441480.618 4                  27676590.433
        27.500
 131480830.759 5 102452632.68343  25019968.434    25019968.0454   25019974.7854
        34.100          20.6004
 140780893.019 5                  26789712.984
        32.000
 104636745.038 7  81534945.68246  19911655.992    19911655.0944   19911655.6964
        47.300          36.8004
 124293938.732 5  96852423.04844  23652323.980    23652323.1444   23652339.7884
        35.400          25.4004
 108055688.534 7  84199242.41046  20562299.337    20562298.9534   20562301.3744
        44.400          36.0004


 114228792.036 6  89009409.63145  21737016.588    21737016.3784   21737022.5514
        39.800          34.3004
 110063144.287 7  85763510.81046  20944322.013    20944321.6964   20944326.4944
        42.600          39.1004
 102760943.818 6                  19257355.378    19257357.204
        38.700
 121974138.131 5                  22882041.583    22882039.507
        34.700
 117308594.222 6  91409305.08046  22323087.576    22323087.3624   22323091.8034
        40.000          38.4004
 128239525.537 7                  24403151.701
        46.600
 108777457.496 8  84604725.266 7  20320541.739    20320540.729    20320547.422
        48.300          46.500
 126632050.674 7                  24097273.431
        46.300


 124644691.035 6  96945970.163 5  23317358.254    23317369.209    23317388.421
        37.300          32.800
 198905318.178 6                  37850428.925
        40.900
 116697045.329 7  90932778.77045  22206691.637    22206691.4234   22206690.8054
        45.300          33.8004
 138391212.726 7                  26334974.669
        42.000
 202036338.637 7                  38446254.588
        46.700
 122306913.819 4                  23274230.923
        27.000
 107575540.482 8  83669989.189 7  20138371.097    20138371.052    20138377.473
        49.200          47.300
 25  1  1 16 12 45.0000000  0 25E27E31G07E29G16G27G04G28G03G26R06R10
                                G09E04R07E21S35R05S31G31E06S33R08E19
                                R16


 145396509.705 4                  27668043.661
        26.200
 131445707.585 5 102425264.07644  25013286.869    25013286.4494   25013288.9584
        33.500          24.3004
 140816879.328 5                  26796560.044
        31.200
 104631495.297 8  81530854.98946  19910656.514    19910655.6254   19910656.3824
        49.200          38.2004
 124242746.288 6  96812533.05444  23642587.567    23642586.9064   23642596.6944
        36.200          25.0004
 108029599.368 7  84178913.18246  20557334.963    20557334.5794   20557336.9794
        45.600          36.6004


 114266981.957 6  89039167.94645  21744283.514    21744283.3454   21744289.1484
        39.800          34.7004
 110095036.264 7  85788361.66946  20950391.898    20950391.5944   20950395.5514
        42.300          38.9004
 102777310.354 6                  19260425.015    19260424.272
        39.300
 121923027.805 5                  22872450.279    22872450.904
        35.400
 117263763.212 6  91374371.89046  22314556.087    22314555.8424   22314560.3144
        41.500          37.4004
 128213265.117 7                  24398154.736
        45.700
 108735701.128 7  84572248.106 7  20312741.934    20312740.198    20312746.909
        47.400          45.700
 126648726.702 7                  24100446.144
        46.000


 124707892.740 4  96995126.984 5  23329179.273    23329182.131    23329216.990
        29.300          30.200
 198905315.916 7                  37850438.074
        43.000
 116733828.846 7  90961441.23045  22213691.204    22213690.9634   22213689.9324
        45.200          33.5004
 138354744.192 6                  26328034.211
        40.400
 202036363.272 7                  38446260.576
        46.600
 131382366.200 4                  24534723.234
        27.300
 122320587.045 4                  23276833.672
        27.900
 107612304.041 8  83698583.072 7  20145253.490    20145254.315    20145259.640
        50.400          47.100
 25  1  1 16 13  0.0000000  0 23E27E31G07E29G16G27G04G28G03G26R06R10
                                G09E04R07E21S35S31G31E06S33E19R16




 131410594.170 5 102397903.08943  25006601.644    25006601.4214   25006606.2444
        35.000          23.6004
 140852903.118 4                  26803415.856
        27.900
 104626407.315 8  81526890.35446  19909687.958    19909687.0784   19909688.0264
        49.900          38.2004
 124191577.419 6  96772661.42944  23632851.161    23632850.4464   23632858.8514
        38.800          27.3004
 108003598.278 7  84158652.59746  20552387.755    20552387.3714   20552389.3434
        45.200          36.4004


 114305274.972 7  89069006.60746  21751570.059    21751569.9434   21751576.4804
        42.900          36.3004
 110127033.753 6  85813294.75746  20956480.442    20956480.1294   20956484.0674
        40.400          36.8004
 102793862.573 6                  19263526.622    19263525.888
        39.800
 121871988.059 5                  22862875.474    22862874.938
        35.500
 117218978.343 6  91339474.56646  22306032.337    22306032.0834   22306037.1874
        41.100          38.5004
 128187043.671 7                  24393165.660
        46.400
 108694068.624 8  84539867.189 7  20304963.434    20304964.521    20304970.118
        49.100          47.000
 126665487.552 7                  24103636.340
        47.400


 198905313.918 7                  37850425.898
        42.400
 116770641.333 7  90990126.25045  22220695.935    22220695.7034   22220692.6314
        44.600          31.7004
 138318286.324 6                  26321095.357
        41.000
 202036387.771 7                  38446262.329
        43.900
 122334328.836 5                  23279451.395
        35.500
 107649151.576 8  83727242.278 7  20152151.568    20152151.247    20152157.208
        50.900          47.000
 25  1  1 16 13 15.0000000  0 24E27E31G07E29G16G27G04G28G03G26R06R10
                                G09E04R07E21S35R05S31G31E06S33E19R16




 131375490.253 6 102370549.45643  24999921.842    24999921.9854   24999925.3184
        38.300          23.7004
 140888964.099 5                  26810279.564
        32.400
 104621480.726 8  81523051.47946  19908750.733    19908749.8624   19908750.7654
        49.600          38.6004
 124140432.566 6  96732808.49844  23623117.786    23623117.0844   23623127.9704
        39.800          29.3004
 107977685.275 7  84138460.65846  20547456.665    20547456.3034   20547457.7704
        47.700          36.7004


 114343670.388 5  89098924.97745  21758876.365    21758876.2814   21758883.9124
        32.700          32.1004
 110159136.209 6  85838309.68046  20962590.601    20962590.3064   20962592.7734
        41.800          36.0004
 102810600.055 6                  19266661.806    19266661.739
        38.400
 121821019.108 5                  22853314.820    22853312.753
        34.200
 117174239.636 6  91304613.24046  22297519.526    22297519.2724   22297522.6014
        38.500          36.3004
 128160861.165 7                  24388183.123
        46.800
 108652560.288 8  84507582.951 7  20297208.686    20297210.749    20297216.633
        49.700          46.700
 126682332.743 7                  24106841.651
        47.700


 124834409.340 4                  23352853.577
        29.600
 198905311.549 7                  37850431.917
        42.800
 116807482.591 7  91018833.73145  22227705.840    22227705.6124   22227702.8844
        44.300          31.9004
 138281838.965 6                  26314160.032
        39.700
 202036412.058 7                  38446270.619
        44.600
 122348139.010 5                  23282077.057
        34.900
 107686082.099 8  83755965.986 7  20159064.728    20159065.127    20159071.387
        51.800          46.700
 25  1  1 16 13 30.0000000  0 24E27E31G07E29G16G27G04G28G03G26R06R10
                                G09E04R07E21S35R05S31G31E06S33E19R16




 131340394.242 5 102343201.99643  24993241.467    24993241.5654   24993245.9254
        34.900          21.7004
 140925060.416 5                  26817149.254
        32.800
 104616713.894 8  81519337.08346  19907843.572    19907842.7014   19907843.9554
        48.400          38.5004
 124089310.192 7  96692973.12245  23613390.419    23613389.7404   23613399.9194
        42.400          30.6004
 107951858.905 7  84118336.21846  20542541.519    20542541.1664   20542542.6344
        47.600          36.5004


 114382166.232 5  89128921.65544  21766205.381    21766205.3504   21766210.0394
        32.600          28.8004
 110191341.575 7  85863404.76646  20968717.611    20968717.2854   20968720.7614
        43.500          36.0004
 102827521.152 6                  19269833.804    19269833.640
        40.100
 121770119.162 6                  22843766.739    22843765.427
        36.400
 117129545.817 6  91269786.89346  22289015.092    22289014.8874   22289016.4614
        40.800          36.3004
 128134716.003 7                  24383207.687
        46.600
 108611174.772 8  84475394.273 7  20289476.347    20289477.906    20289484.263
        48.200          45.500
 126699260.491 7                  24110063.311
        47.900


                                                  23364728.316

 198905308.119 7                  37850429.645
        43.300
 116844350.783 7  91047562.22945  22234721.741    22234721.5184   22234719.9064
        43.600          33.9004
 138245400.637 6                  26307226.262
        39.000
 202036435.013 7                  38446269.501
        44.300
 122362015.689 6                  23284718.711
        36.000
 107723093.856 8  83784752.792 7  20165995.061    20165995.806    20165999.871
        53.500          46.900
 25  1  1 16 13 45.0000000  0 24E27E31G07E29G16G27G04G28G03G26R06R10
                                G09E04R07E21S35R05S31G31E06S33E19R16




 131305309.730 6 102315863.47443  24986568.331    24986568.3574   24986569.2564
        36.300          20.1004
 140961195.832 5                  26824024.805
        35.400
 104612110.523 8  81515750.05246  19906967.546    19906966.6834   19906967.7414
        48.400          38.0004
 124038214.515 6  96653158.54744  23603666.903    23603666.2644   23603673.6484
        41.600          27.5004
 107926123.143 7  84098282.38746  20537644.007    20537643.6774   20537645.2144
        47.100          36.0004


 114420765.652 5  89158999.06644  21773544.912    21773544.7874   21773554.8454
        34.600          26.6004
 110223653.141 7  85888582.58145  20974865.955    20974865.6254   20974868.7994
        42.900          34.3004
 102844629.464 6                  19273039.499    19273040.214
        41.000
 121719292.372 6                  22834233.325    22834232.478
        37.700
 117084900.686 6  91234998.47546  22280519.197    22280518.9874   22280519.3774
        40.900          36.9004
 128108612.103 7                  24378240.087
        46.500
 108569916.452 7  84443304.484 7  20281770.813    20281770.747    20281775.222
        47.700          44.400
 126716274.285 8                  24113301.446
        48.000


 124961149.128 5                  23376565.796    23376571.623
        32.700
 198905306.718 7                  37850434.448
        44.300
 116881249.439 6  91076314.46145  22241743.898    22241743.7734   22241743.2784
        41.600          33.7004
 138208975.092 6                  26300294.200
        38.300
 202036459.840 7                  38446280.130
        44.600
 122375962.699 6                  23287371.416
        36.500
 107760190.168 9  83813605.415 8  20172939.803    20172940.442    20172945.387
        54.500          48.000
 25  1  1 16 14  0.0000000  0 24E27E31G07E29G16G27G04G28G03G26R06R10
                                G09E04R07E21S35S31G31E06S33R08E19R16




 131270234.046 5 102288531.82043  24979892.207    24979892.2744   24979897.2694
        31.700          18.4004
 140997367.539 5                  26830908.801
        35.400
 104607667.795 7  81512288.18846  19906122.023    19906121.1524   19906121.9744
        47.200          37.5004
 123987143.366 6  96613363.07644  23593949.672    23593949.0514   23593953.1464
        37.800          24.6004
 107900475.568 7  84078297.26345  20532762.825    20532762.5124   20532764.3674
        46.000          34.3004
 128803896.972 5                  24510555.809
        33.600
 114459465.727 4  89189154.87044  21780907.535    21780907.3484   21780918.7624
        29.800          25.0004
 110256068.070 6  85913840.97245  20981035.295    20981034.9914   20981036.3474
        41.800          32.7004
 102861922.378 6                  19276280.992    19276281.402
        41.700
 121668536.071 5                  22824709.095    22824708.553
        33.000
 117040301.926 7  91200246.17246  22272033.661    22272033.3984   22272032.4694
        43.500          37.8004
 128082546.823 7                  24373279.473
        45.200
 108528782.708 8  84411311.610 7  20274088.187    20274086.728    20274091.986
        48.300          45.400
 126733371.240 7                  24116555.033
        47.500


 198905304.194 7                  37850436.263
        43.600
 116918175.872 7  91105088.32445  22248770.928    22248770.8304   22248771.0094
        43.500          35.2004
 138172559.910 6                  26293364.529
        37.400
 202036483.566 7                  38446283.994
        46.500
 131064096.531 5                  24475293.123    24475295.148
        32.400
 122389977.381 5                  23290038.733
        35.100
 107797368.224 9  83842521.646 8  20179899.873    20179900.625    20179905.437
        54.500          48.500
 25  1  1 16 14 15.0000000  0 24E31G07E29G16G27G04G28G03G26R06R10G09
                                E04R07E21S35R05S31G31E06S33R08E19R16


 131235170.133 5 102261209.30342  24973219.013    24973219.1964   24973225.7474
        33.900          12.4004
 141033578.582 6                  26837801.587
        37.200
 104603388.851 7  81508953.95446  19905307.910    19905307.0214   19905307.7854
        46.000          37.2004
 123936100.138 5  96573589.38943  23584233.949    23584233.2704   23584241.1214
        35.000          23.4004
 107874919.498 7  84058383.43645  20527899.873    20527899.5434   20527901.1464
        45.100          34.4004
 128844795.302 4                  24518321.479
        27.400
 114498293.139 5  89219498.38245  21788302.368    21788302.2884   21788312.0894
        35.900          31.0004
 110288589.038 7  85939181.98045  20987223.091    20987222.7784   20987224.2144
        43.200          30.4004
 102879402.817 6                  19279557.040    19279556.928
        41.600
 121617853.592 5                  22815200.018    22815199.097
        32.500
 116995752.987 6  91165532.74446  22263555.550    22263555.2734   22263555.9414
        41.800          38.9004
 128056523.601 7                  24368326.968
        45.100
 108487777.731 8  84379418.880 7  20266426.731    20266426.995    20266433.273
        48.100          46.600
 126750554.349 8                  24119825.156
        48.400


 125088093.579 5                  23400317.459
        32.500
 198905304.575 7                  37850439.344
        44.300
 116955133.124 7  91133886.20746  22255803.953    22255803.8774   22255803.5704
        43.500          37.8004
 138136158.115 5                  26286436.070
        35.700
 202036509.673 7                  38446286.891
        46.300
 131000437.581 4                  24463405.306    24463408.663
        24.500
 122404062.866 6                  23292718.493
        36.700
 107834630.478 8  83871503.336 8  20186874.918    20186875.382    20186880.792
        53.400          48.000
 25  1  1 16 14 30.0000000  0 22E31G07E29G16G27G04G28G03G26R06R10G09
                                E04R07E21S35S31G31E06S33E19R16


 131200111.715 6 102233891.11741  24966550.043    24966550.1054   24966555.5214
        39.400          10.7004
 141069822.545 6                  26844698.382
        38.800
 104599267.122 7  81505742.23746  19904523.124    19904522.2354   19904523.9774
        46.400          38.4004
 123885078.791 6  96533832.69244  23574525.891    23574525.2254   23574534.8744
        41.000          24.6004
 107849448.773 7  84038536.10745  20523052.983    20523052.6174   20523054.2214
        45.500          34.3004
 128885695.360 5                  24526109.736
        35.500
 114537193.374 6  89249810.15545  21795700.945    21795700.4404   21795709.4544
        38.300          32.3004
 110321209.266 6  85964600.35544  20993430.344    20993430.0274   20993431.5644
        36.000          27.0004
 102897064.163 6                  19282865.719    19282866.045
        41.500
 121567238.686 5                  22805708.198    22805705.959
        34.800
 116951247.624 7  91130853.25046  22255087.113    22255086.8504   22255087.8464
        44.400          40.5004
 128030536.007 7                  24363382.207
        45.300
 108446895.135 8  84347621.317 7  20258789.391    20258789.884    20258797.208
        49.600          47.900
 126767816.972 8                  24123110.003
        48.200


 198905300.724 7                  37850432.292
        42.400
 116992114.474 7  91162702.83346  22262842.696    22262842.5804   22262841.0684
        45.100          39.6004
 138099763.437 5                  26279511.158
        32.500
 202036532.760 7                  38446290.978
        46.200
 122418212.816 6                  23295411.710
        38.800
 107871970.227 8  83900545.353 7  20193864.547    20193864.590    20193870.408
        52.700          47.700
 25  1  1 16 14 45.0000000  0 23E31G07E29G16G27G04G28G03G26R06R10G09
                                E04R07E21S35R05S31G31E06S33E19R16


 131165063.048 6 102206580.72441  24959878.203    24959878.2204   24959886.6694
        38.400          11.3004
 141106103.652 5                  26851601.606
        34.600
 104595306.929 7  81502656.39346  19903769.978    19903769.0754   19903770.9474
        44.700          37.5004
 123834084.240 6  96494096.85944  23564815.900    23564815.1364   23564832.2764
        36.900          27.8004
 107824067.988 7  84018758.88645  20518223.241    20518222.8484   20518224.5374
        47.800          35.8004
 128926601.202 5                  24533892.166
        35.100
 114576194.103 5  89280200.28945  21803122.542    21803122.2884   21803128.9094
        35.900          30.0004
 110353932.805 5  85990099.05243  20999655.106    20999654.8474   20999656.8994
        30.800          19.4004
 102914910.892 6                  19286212.026    19286211.239
        41.700
 121516695.673 6                  22796225.896    22796224.956
        38.300
 116906790.481 7  91096211.32346  22246625.987    22246625.6704   22246628.3774
        44.800          41.7004
 128004588.637 7                  24358445.170
        46.100
 108406139.738 8  84315922.664 8  20251175.372    20251176.563    20251183.721
        49.700          48.400
 126785163.368 8                  24126410.415
        48.300


                  97389705.118 5                                  23424116.822
                        31.400
 198905297.213 7                  37850436.804
        42.900
 117029124.277 7  91191541.63246  22269884.894    22269884.7784   22269884.3304
        46.300          41.7004
 138063380.470 5                  26272589.416
        30.700
 202036554.875 7                  38446293.599
        45.400
 122432431.587 6                  23298116.447
        37.400
 107909391.083 8  83929650.394 7  20200869.826    20200870.322    20200875.764
        53.400          47.700
 25  1  1 16 15  0.0000000  0 24E27E31G07E29G16G27G04G28G03G26R06R10
                                G09E04R07E21S35R05S31G31E06S33E19R16




 131130021.376 6 102179275.72741  24953210.806    24953210.8144   24953219.0954
        39.600          11.5004
 141142419.423 5                  26858513.291
        32.800
 104591505.786 7  81499694.46146  19903046.140    19903045.2334   19903047.3764
        44.500          37.6004
 123783114.347 6  96454380.22244  23555120.205    23555119.4814   23555133.2914
        38.200          28.8004
 107798775.005 7  83999050.09746  20513410.191    20513409.8024   20513411.7214
        47.800          36.6004
 128967510.599 3                  24541676.527
        23.900
 114615292.477 6  89310666.49045  21810557.726    21810557.5214   21810567.0194
        36.400          31.7004


 102932940.380 6                  19289589.488    19289589.331
        40.800
 121466222.490 6                  22786754.390    22786754.914
        36.000
 116862379.292 7  91061605.17047  22238175.958    22238175.6014   22238177.3284
        44.600          42.3004
 127978679.160 7                  24353514.237
        45.500
 108365509.791 7  84284321.556 7  20243586.106    20243585.863    20243592.283
        47.300          46.700
 126802590.915 7                  24129726.554
        47.600




 198905291.781 7                  37850438.517
        43.700
 117066160.037 7  91220400.68046  22276931.728    22276931.6124   22276932.2154
        44.100          40.9004


 202036575.384 7                  38446297.337
        44.400
 122446716.855 6                  23300834.042
        36.600
 107946890.675 8  83958816.695 7  20207890.516    20207890.747    20207895.648
        52.600          47.700
 25  1  1 16 15 15.0000000  0 24E27E31G07E29G16G27G04G28G03G26R06R10
                                G09E04R07E21S35R05S31G31E06S33E19R16




 131094993.722 6 102151981.33142  24946544.480    24946544.5024   24946554.2674
        36.000          12.0004
 141178776.433 5                  26865432.077
        30.200
 104587870.536 7  81496861.82146  19902354.017    19902353.1144   19902354.9004
        45.500          36.9004
 123732176.297 4  96414688.43844  23545424.934    23545424.2064   23545438.3794
        29.100          26.2004
 107773576.729 8  83979415.07546  20508614.862    20508614.4964   20508616.0274
        48.900          36.6004


 114654495.184 6  89341213.97345  21818021.510    21818021.6124   21818025.0734
        40.000          31.5004
 110419681.280 5  86041336.13243  21012169.476    21012169.1724   21012172.6084
        31.700          23.4004
 102951159.366 6                  19293003.405    19293002.355
        37.800
 121415825.799 6                  22777300.622    22777299.185
        36.100
 116818021.304 7  91027040.48346  22229734.932    22229734.5524   22229735.8264
        46.900          41.3004
 127952814.401 7                  24348592.436
        45.100
 108325012.532 8  84252823.685 7  20236020.899    20236021.035    20236027.505
        49.300          47.500
 126820106.158 7                  24133058.775
        45.500




 198905290.820 6                  37850431.845
        40.800
 117103228.293 7  91249285.02946  22283986.697    22283986.5954   22283986.0034
        42.100          40.3004
 137990649.622 4                  26258745.513
        29.400
 202036601.387 7                  38446306.602
        44.600
 122461075.360 6                  23303568.270
        37.100
 107984475.105 8  83988049.028 7  20214925.749    20214925.673    20214931.044
        52.900          46.700
 25  1  1 16 15 30.0000000  0 24E27E31G07E29G16G27G04G28G03G26R06R10
                                G09E04R07E21S35R05S31G31E06S33E19R16


 144903172.511 4                  27574151.601
        27.000
 131059974.350 4 102124692.91541  24939881.198    24939881.4034   24939890.5834
        29.200           9.6004
 141215168.722 5                  26872358.336
        31.900
 104584395.168 7  81494153.75546  19901693.662    19901692.7464   19901693.2934
        44.000          37.5004
 123681264.615 5  96375017.15244  23535737.593    23535736.8334   23535748.7134
        34.500          25.8004
 107748467.639 8  83959849.58346  20503837.456    20503837.0944   20503837.6694
        48.300          37.7004


 114693795.613 6  89371837.61245  21825500.558    21825500.7184   21825502.0374
        39.400          31.4004


 102969561.738 6                  19296452.372    19296451.761
        36.700
 121365500.239 5                  22767862.618    22767860.824
        31.200
 116773710.760 7  90992512.73347  22221303.230    22221302.8244   22221304.1474
        43.600          42.4004
 127926988.704 7                  24343678.932
        46.700
 108284642.411 8  84221424.679 7  20228478.629    20228478.539    20228485.023
        48.200          47.100
 126837703.097 7                  24136408.105
        46.000


 125406321.744 3                  23459843.220
        22.600
 198905288.724 7                  37850431.125
        42.800
 117140323.169 6  91278190.12846  22291045.617    22291045.5104   22291045.0904
        39.900          39.4004
 137954303.038 5                  26251829.077
        32.400
 202036624.471 7                  38446302.886
        44.600
 122475501.188 6                  23306313.924
        38.200
 108022138.202 8  84017342.552 8  20221976.407    20221976.684    20221982.350
        52.300          48.300
 25  1  1 16 15 45.0000000  0 22E27E31E29G16G27G04G28G03G26R06G09E04
                                R07E21S35R05S31G31E06S33E19R16




 141251597.646 4                  26879288.070
        28.600
 104581080.544 7  81491570.92846  19901063.479    19901062.5764   19901062.4544
        46.300          38.5004
 123630380.726 6  96335367.57945  23526057.380    23526056.6164   23526065.0394
        41.900          31.9004
 107723448.908 7  83940354.49046  20499076.393    20499076.0364   20499077.2154
        47.900          37.1004


 114733194.360 5  89402537.89444  21832996.295    21832996.4734   21832997.5954
        34.600          29.4004
 110485846.156 7  86092886.00845  21024762.485    21024762.5114   21024762.4934
        44.900          32.4004
 102988148.692 6                  19299934.719    19299934.166
        36.900
 116729449.056 7  90958023.11547  22212880.848    22212880.4374   22212882.1684
        44.300          43.1004
 127901203.233 7                  24338771.476
        47.100
 108244400.653 7  84190125.572 7  20220961.440    20220959.748    20220968.283
        46.500          47.800
 126855382.469 7                  24139772.504
        44.500




 198905286.186 7                  37850434.555
        42.100
 117177445.529 6  91307116.62846  22298108.181    22298108.0614   22298109.4624
        39.400          37.7004


 202036647.929 7                  38446309.902
        42.900
 122489995.385 6                  23309071.703
        36.500
 108059880.294 8  84046697.511 7  20229041.672    20229042.349    20229046.995
        51.800          46.000
 25  1  1 16 16  0.0000000  0 22E27E31E29G16G27G04G28G03G26R06G09E04
                                R07E21S35R05S31G31E06S33E19R16




 141288063.212 4                  26886229.446
        28.500
 104577927.115 7  81489113.70846  19900462.600    19900461.6934   19900461.6424
        47.100          38.2004
 123579525.490 6  96295740.31445  23516378.879    23516378.1244   23516388.3004
        37.800          32.8004
 107698521.284 7  83920930.36346  20494333.333    20494332.9624   20494333.5614
        47.500          37.2004


 114772691.813 7  89433315.04545  21840514.008    21840514.1864   21840515.4254
        43.700          35.1004
 110519081.481 7  86118783.64045  21031085.170    21031085.0324   21031087.4294
        43.900          33.9004
 103006920.430 6                  19303452.058    19303451.853
        36.300
 116685236.745 7  90923571.94247  22204466.915    22204466.4914   22204468.8554
        47.300          42.2004
 127875458.591 7                  24333872.373
        45.500
 108204288.745 8  84158927.437 7  20213470.517    20213469.230    20213475.718
        49.800          47.700
 126873144.710 7                  24143152.761
        45.000


 125533764.264 5                  23483692.975
        35.900
 198905284.217 6                  37850426.882
        37.800
 117214595.809 7  91336064.89146  22305177.049    22305176.9204   22305178.8064
        42.000          37.1004
 137881776.987 5                  26238021.313
        32.500
 202036672.148 7                  38446315.622
        42.700
 122504558.529 6                  23311842.951
        38.500
 108097701.841 8  84076114.292 7  20236121.205    20236121.929    20236127.586
        51.400          45.400
 25  1  1 16 16 15.0000000  0 23E27E31G07E29G16G27G04G28G03G26R06R10
                                G09E04R07E21S35S31G31E06S33E19R16




 130954940.180 5 102042866.95742  24919899.488    24919899.7204   24919910.3184
        35.600          15.0004
 141324562.996 5                  26893176.171
        32.400
 104574932.729 7  81486780.38246  19899892.658    19899891.7424   19899891.2874
        47.700          38.1004
 123528697.062 7  96256133.95745  23506707.868    23506707.1714   23506716.4134
        42.200          33.1004
 107673682.800 7  83901575.70146  20489607.918    20489607.5434   20489606.6634
        47.600          36.2004


 114812285.138 6  89464166.94746  21848047.799    21848048.0044   21848051.3934
        39.800          36.3004
 110552415.876 7  86144758.51946  21037428.804    21037428.4694   21037432.8274
        44.600          37.1004
 103025874.636 5                  19307003.830    19307002.116
        33.900
 121214938.164 6                  22739618.551    22739619.952
        38.200
 116641072.013 7  90889157.90946  22196062.478    22196062.0404   22196064.8704
        45.800          41.6004
 127849752.764 7                  24328980.904
        46.900
 108164304.354 8  84127828.494 8  20205999.528    20205999.814    20206005.877
        48.700          48.000
 126890987.335 7                  24146547.980
        43.800


 198905279.896 6                  37850427.253
        41.900
 117251771.567 7  91365032.99446  22312252.494    22312252.3784   22312252.8244
        42.700          36.7004


 202036693.886 7                  38446318.501
        42.400
 122519188.358 6                  23314627.418
        39.700
 108135600.166 8  84105590.840 7  20243216.269    20243216.538    20243221.296
        52.800          44.500
 25  1  1 16 16 30.0000000  0 23E27E31G07E29G16G27G04G28G03G26R06R10
                                G09E04R07E21S35S31G31E06S33E19R16


 144724335.358 6                  27540126.134
        37.000
 130919958.094 5 102015608.03242  24913241.149    24913241.0964   24913251.3574
        31.800          15.2004


 104572101.707 7  81484574.39646  19899354.359    19899353.4384   19899352.7524
        47.500          38.9004
 123477900.380 7  96216552.30745  23497039.534    23497038.8414   23497051.6544
        42.400          34.2004
 107648938.127 7  83882294.14546  20484897.846    20484897.4624   20484897.9154
        47.800          36.3004


 114851978.510 5  89495096.75045  21855599.645    21855599.8594   21855605.9444
        35.900          31.1004
 110585853.520 7  86170813.83646  21043791.367    21043790.9834   21043796.2504
        46.600          37.7004
 103045015.625 5                  19310591.086    19310590.311
        35.800
 121164903.454 5                  22730230.238    22730229.071
        31.600
 116596959.500 8  90854784.51347  22187668.192    22187667.7594   22187670.8344
        48.400          42.1004
 127824090.180 7                  24324097.511
        46.500
 108124452.911 8  84096832.945 7  20198555.157    20198554.428    20198560.612
        48.900          47.200
 126908914.617 7                  24149959.648
        43.300


 198905278.248 6                  37850434.036
        40.100
 117288977.155 6  91394024.32045  22319333.473    22319333.3664   22319332.7084
        37.500          35.3004
 137809027.748 4                  26224186.836
        27.600
 202036717.520 7                  38446322.539
        43.300
 122533889.504 6                  23317425.484
        38.200
 108173579.117 8  84135130.017 7  20250326.222    20250326.499    20250331.869
        51.700          44.000
 25  1  1 16 16 45.0000000  0 23E27E31G07E29G16G27G04G28G03G26R06R10
                                G09E04R07E21S35S31G31E06S33E19R16


 144679700.876 4                  27531630.189
        28.500
 130884989.538 6 101988359.77343  24906588.532    24906588.3984   24906593.8754
        37.200          20.5004


 104569436.032 7  81482497.24346  19898846.964    19898846.0484   19898845.8894
        47.900          39.7004
 123427137.594 6  96176997.08945  23487380.270    23487379.5464   23487392.4754
        41.100          31.1004
 107624289.258 8  83863087.27046  20480207.256    20480206.8724   20480207.1784
        48.800          37.2004




 110619395.930 7  86196950.73646  21050174.936    21050174.5394   21050179.4024
        43.500          38.6004
 103064345.236 6                  19314215.435    19314215.930
        40.600
 121114946.185 6                  22720861.797    22720859.854
        36.900
 116552901.294 7  90820453.44246  22179283.971    22179283.5564   22179286.1794
        46.300          39.4004
 127798472.856 7                  24319222.343
        46.900
 108084736.210 8  84065942.157 7  20191136.302    20191135.751    20191140.522
        51.200          46.400
 126926928.177 7                  24153387.559
        43.400


 198905280.630 7                  37850436.330
        43.000
 117326214.131 6  91423040.15845  22326418.894    22326418.8454   22326418.3964
        38.300          33.1004
 137772745.036 5                  26217280.634
        35.100
 202036746.247 7                  38446326.577
        46.200
 122548663.480 7                  23320235.904
        42.300
 108211640.338 8  84164733.200 7  20257452.126    20257452.436    20257456.322
        53.300          44.800
 25  1  1 16 17  0.0000000  0 22E31G07E29G16G27G04G28G03G26R06G09E04
                                R07E21S35R05S31G31E06S33E19R16
 144635083.833 5                  27523140.814
        35.700
 130850025.294 6 101961114.90944  24899932.748    24899932.4134   24899937.8654
        39.600          26.8004
 141434325.990 5                  26914058.690
        31.900
 104566926.226 8  81480541.54346  19898369.567    19898368.6694   19898368.7094
        48.500          40.7004
 123376400.063 6  96137461.57844  23477724.529    23477723.8014   23477737.1114
        36.800          28.8004
 107599727.601 8  83843948.31146  20475533.071    20475532.6914   20475533.3274
        48.100          36.9004




 110653033.722 7  86223162.01346  21056576.705    21056576.2854   21056580.0334
        46.200          38.4004
 103083854.268 6                  19317872.389    19317872.291
        39.100
 116508888.759 7  90786157.93946  22170909.341    22170908.9304   22170909.8424
        45.300          40.4004
 127772892.052 7                  24314354.059
        47.800
 108045146.039 8  84035149.761 7  20183740.654    20183740.832    20183743.868
        50.700          44.200
 126945018.791 6                  24156828.600
        41.000


 125789478.490 5                  23531523.305    23531524.644
        34.300
 198905277.855 6                  37850437.077
        39.600
 117363473.489 6  91451985.40245  22333506.947    22333506.9344   22333508.6644
        37.800          32.0004
 137736471.260 6                  26210380.870
        38.900
 202036769.643 7                  38446329.260
        43.400
 122563501.455 6                  23323059.651
        40.000
 108249774.265 8  84194392.927 7  20264589.845    20264590.054    20264596.081
        52.400          44.800
 25  1  1 16 17 15.0000000  0 23E31G07E29G16G27G04G28G03G26R06R10G09
                                E04R07E21S35R05S31G31E06S33E19R16
 144590484.022 4                  27514650.958
        26.500
 130815065.129 6 101933873.21844  24893280.605    24893280.3194   24893283.6174
        39.700          26.7004


 104564572.344 8  81478707.35046  19897921.069    19897920.1574   19897920.9924
        48.200          39.9004
 123325688.378 5  96097946.13343  23468073.005    23468072.2054   23468084.7914
        33.600          21.1004
 107575253.168 8  83824877.32546  20470875.106    20470874.7494   20470876.1364
        50.300          37.4004
 129335835.722 4                  24611792.428
        29.500
 114971642.342 6  89588339.03345  21878371.329    21878372.0574   21878379.3234
        38.500          32.9004
 110686766.550 7  86249447.32546  21062995.302    21062994.8964   21062996.5434
        47.600          37.0004
 103103542.600 6                  19321560.411    19321560.235
        38.100
 121015243.897 5                  22702162.430    22702165.422
        32.300
 116464922.018 7  90751898.16946  22162541.877    22162541.4534   22162542.4534
        45.700          38.6004
 127747347.701 7                  24309494.219
        44.700
 108005682.480 8  84004455.933 7  20176366.337    20176366.358    20176371.459
        50.200          45.400
 126963186.318 6                  24160286.102
        41.100


 125853495.273 5  97886119.067 4  23543504.012    23543509.814    23543514.963
        31.900          28.000
 198905270.464 6                  37850433.518
        39.300
 117400755.294 6  91481036.12545  22340606.644    22340606.5514   22340603.1124
        36.400          30.7004
 137700205.072 6                  26203479.927
        40.600
 202036788.185 7                  38446342.013
        43.100
 122578403.470 6                  23325895.302
        40.500
 108287980.307 8  84224108.740 7  20271742.290    20271742.544    20271747.780
        51.000          44.400
 25  1  1 16 17 30.0000000  0 22E31G07E29G16G27G04G28G03G26R06G09E04
                                R07E21S35R05S31G31E06S33E19R16
 144545908.110 5                  27506170.413
        30.400
 130780115.871 6 101906640.06144  24886630.872    24886630.6184   24886632.4854
        36.300          26.3004


 104562380.601 7  81476999.50846  19897504.062    19897503.1644   19897503.9334
        46.700          39.3004
 123275009.188 5  96058456.02843  23458427.432    23458426.4044   23458440.4414
        34.500          19.4004
 107550872.892 8  83805879.73146  20466236.436    20466236.0884   20466235.8984
        49.800          37.6004
 129376798.424 5                  24619590.027
        35.200
 115011718.527 7  89619567.14846  21885997.603    21885998.1614   21886003.6994
        42.000          37.2004
 110720600.701 7  86275811.55045  21069433.044    21069432.6334   21069434.2534
        45.300          35.9004
 103123416.760 6                  19325285.139    19325285.132
        39.400
 116421008.025 7  90717679.54746  22154186.151    22154185.7494   22154183.6624
        44.100          37.9004
 127721846.691 7                  24304641.186
        46.000
 107966353.022 8  83973866.380 7  20169019.676    20169018.883    20169025.429
        48.800          46.300
 126981437.204 7                  24163760.348
        42.600




 198905265.046 6                  37850433.687
        40.200
 117438065.733 6  91510109.20145  22347706.199    22347706.3684   22347703.3564
        38.900          31.1004
 137663953.490 6                  26196582.103
        41.100
 202036808.289 7                  38446343.905
        44.900
 122593376.132 6                  23328744.894
        41.800
 108326265.079 8  84253885.788 7  20278909.368    20278909.285    20278914.633
        51.300          46.000
 25  1  1 16 17 45.0000000  0 22E31G07E29G16G27G04G28G03G26R06G09E04
                                R07E21S35R05S31G31E06S33E19R16
 144501359.070 5                  27497691.564
        30.700
 130745180.002 6 101879417.29443  24879982.114    24879981.7934   24879986.2144
        37.500          23.6004
 141544393.615 5                  26934998.876
        34.700
 104560353.807 7  81475420.19546  19897118.235    19897117.3554   19897117.9384
        47.300          38.7004
 123224365.844 5  96018993.85542  23448789.393    23448788.3924   23448801.4114
        31.000          16.3004
 107526589.551 8  83786957.64646  20461615.651    20461615.3074   20461616.3004
        49.100          39.3004
 129417770.633 5                  24627384.676
        34.900
 115051894.726 5  89650873.20146  21893642.665    21893643.0584   21893648.8014
        35.000          36.0004
 110754538.412 7  86302256.52245  21075890.939    21075890.4974   21075892.9984
        42.100          33.4004
 103143479.316 6                  19329045.207    19329044.868
        39.800
 116377149.586 7  90683504.18746  22145839.625    22145839.2284   22145839.1544
        46.200          41.9004
 127696391.628 7                  24299796.717
        44.900
 107927160.576 8  83943383.233 7  20161699.437    20161699.865    20161704.640
        49.500          46.700
 126999773.702 6                  24167249.719
        41.900




 198905263.527 7                  37850428.997
        43.800
 117475407.456 6  91539206.61045  22354809.694    22354809.7524   22354810.4414
        41.400          33.7004
 137627719.167 6                  26189687.208
        39.800
 202036832.674 7                  38446351.623
        44.400
 122608421.972 7                  23331608.383
        43.400
 108364630.376 8  84283725.468 7  20286091.540    20286091.359    20286097.749
        51.000          46.100
 25  1  1 16 18  0.0000000  0 22E31G07E29G16G27G04G28G03G26R06G09E04
                                R07E21S35R05S31G31E06S33E19R16


 130710249.669 6 101852198.85743  24873333.946    24873333.5624   24873338.6824
        36.700          20.1004
 141581146.204 6                  26941992.530
        39.600
 104558483.991 7  81473963.16746  19896761.858    19896760.9784   19896762.1534
        45.300          36.9004
 123173750.706 6  95979553.64543  23439161.097    23439160.1674   23439165.6554
        38.900          19.0004
 107502395.627 8  83768105.22746  20457011.008    20457010.6644   20457013.0784
        49.700          38.6004
 129458744.391 6                  24635183.324
        38.600
 115092162.668 6  89682250.76045  21901307.003    21901307.6554   21901311.0164
        36.400          33.3004
 110788571.387 7  86328775.77245  21082368.243    21082367.8054   21082369.3384
        45.300          33.5004
 103163722.101 6                  19332837.677    19332837.689
        40.200
 116333339.061 7  90649366.14147  22137502.838    22137502.4274   22137504.0854
        45.400          42.6004
 127670974.871 7                  24294960.122
        45.400
 107888097.607 8  83913000.949 8  20154401.164    20154401.913    20154408.182
        49.400          48.400
 127018187.835 7                  24170752.978
        42.900




 198905258.313 7                  37850431.586
        43.100
 117512772.438 7  91568322.12945  22361917.749    22361917.7494   22361921.4124
        43.600          34.4004
 137591494.300 7                  26182794.858
        42.800
 202036853.206 7                  38446353.027
        43.400
 122623533.411 7                  23334484.112
        43.800
 108403068.095 8  84313621.467 7  20293287.439    20293287.519    20293292.804
        50.900          44.700
 25  1  1 16 18 15.0000000  0 23E31G07E29G16G27G04G28G03G26R06R10G09
                                E04R07E21S35R05S31G31E06S33E19R16


 130675334.909 5 101824992.60842  24866690.222    24866689.8384   24866692.8324
        32.500          16.6004
 141617941.382 6                  26948993.516
        38.400
 104556781.222 7  81472636.31746  19896437.758    19896436.8874   19896438.1134
        45.200          37.2004
 123123174.369 6  95940143.75743  23429537.164    23429536.3104   23429539.6424
        41.600          22.4004
 107478301.446 8  83749330.52046  20452426.668    20452426.3334   20452427.7824
        48.900          38.7004
 129499729.847 5                  24642980.598
        32.400


 110822709.622 7  86355377.00745  21088864.039    21088863.5664   21088866.1854
        46.600          35.1004
 103184155.260 6                  19336667.532    19336667.080
        40.000
 120816700.210 5                  22664911.074
        31.900
 116289586.891 7  90615273.54747  22129176.935    22129176.5424   22129179.8604
        44.500          42.3004
 127645606.762 7                  24290132.386
        46.600
 107849174.948 8  83882727.738 7  20147130.349    20147132.513    20147135.468
        50.700          45.300
 127036689.676 6                  24174273.719
        40.400




 198905259.976 6                  37850429.046
        39.900
 117550170.634 7  91597463.53746  22369035.747    22369035.7824   22369037.9414
        42.200          36.1004
 137555289.248 7                  26175904.846
        43.000
 202036880.831 6                  38446359.515
        39.400
 122638720.346 7                  23337374.158
        45.000
 108441588.259 8  84343581.589 7  20300498.560    20300498.431    20300503.193
        51.000          44.200
 25  1  1 16 18 30.0000000  0 22E31G07E29G16G27G04G28G03G26R06R10G09
                                E04R07E21S35S31G31E06S33E19R16




 141654766.677 6                  26956001.130
        36.600
 104555233.100 7  81471430.00046  19896142.733    19896141.8534   19896144.0104
        46.500          37.8004
 123072624.775 5  95900754.65044  23419916.071    23419915.2174   23419922.9534
        35.900          25.2004
 107454294.906 7  83730624.15046  20447857.981    20447857.6514   20447859.4564
        47.600          37.9004
 129540714.700 5                  24650781.000
        30.300


 110856940.273 7  86382050.19346  21095378.074    21095377.6054   21095381.5944
        43.400          36.1004
 103204766.487 6                  19340529.311    19340529.368
        37.900
 120767268.617 5                  22655633.817    22655633.544
        33.900
 116245881.031 7  90581217.02447  22120860.730    22120860.3554   22120863.3264
        47.300          45.1004
 127620275.118 7                  24285311.654
        47.700
 107810380.454 7  83852554.304 7  20139883.138    20139884.880    20139887.343
        47.500          45.600
 127055266.597 6                  24177809.415
        41.100


 198905255.485 7                  37850431.009
        42.300
 117587589.853 6  91626621.33745  22376158.355    22376158.3684   22376158.0124
        36.100          34.3004
 137519091.758 6                  26169015.165
        40.200
 202036902.133 7                  38446356.895
        43.200
 122653970.543 7                  23340275.873
        44.000
 108480177.788 8  84373595.714 7  20307722.728    20307722.033    20307727.971
        51.300          44.900
 25  1  1 16 18 45.0000000  0 23E31G07E29G16G27G04G28G03G26R06R10G09
                                E04R07E21S35R05S31G31E06S33E19R16


 130605521.498 6 101770548.32143  24853406.676    24853406.7434   24853408.3434
        38.100          22.1004
 141691629.780 5                  26963017.638
        33.200
 104553847.440 8  81470350.27346  19895880.165    19895879.2894   19895880.4794
        48.500          40.5004
 123022110.566 6  95861393.09344  23410304.567    23410303.7134   23410313.8074
        38.900          28.0004
 107430384.251 8  83711992.42246  20443307.686    20443307.3694   20443309.3884
        48.200          38.6004
 129581706.585 5                  24658583.499
        32.100
 115213565.867 5  89776843.97344  21924400.367    21924399.8044   21924415.5504
        33.600          28.3004
 110891271.071 7  86408801.31145  21101911.367    21101910.9074   21101915.7714
        42.700          34.8004
 103225563.340 6                  19344425.351    19344426.132
        38.300
 120717897.439 4                  22646372.974    22646370.833
        29.700
 116202229.840 8  90547203.12247  22112553.465    22112553.0944   22112556.2814
        48.100          44.5004
 127594987.929 7                  24280499.951
        46.600
 107771722.801 8  83822487.232 7  20132662.527    20132662.763    20132666.254
        48.900          45.200
 127073926.467 7                  24181359.030
        43.300


 126238537.795 5                  23615525.442    23615525.183
        32.400
 198905253.680 7                  37850434.515
        43.000
 117625037.604 6  91655801.35845  22383283.159    22383283.1764   22383284.1954
        40.400          34.9004
 137482909.890 6                  26162130.555
        41.500
 202036925.873 6                  38446364.080
        40.700
 122669291.833 7                  23343191.074
        44.100
 108518844.408 8  84403669.647 7  20314961.537    20314961.326    20314964.961
        52.700          44.900
 25  1  1 16 19  0.0000000  0 22E31G07E29G16G27G04G28G03G26R06R10G09
                                E04R07E21S35S31G31E06S33E19R16


 130570626.621 6 101743357.60643  24846767.060    24846766.9174   24846768.4494
        40.600          23.8004


 104552618.374 8  81469392.56546  19895646.685    19895645.8144   19895646.6984
        48.700          40.4004
 122971626.065 5  95822054.67044  23400696.660    23400695.8154   23400709.3524
        35.100          25.9004
 107406563.757 7  83693431.00046  20438775.568    20438775.2644   20438776.0624
        46.900          36.6004
 129622700.044 5                  24666381.674
        33.500
 115254210.381 6  89808514.91443  21932139.437    21932139.0084   21932145.5904
        36.400          21.3004
 110925695.899 7  86435625.87845  21108462.031    21108461.5844   21108466.6004
        43.400          34.7004
 103246539.816 6                  19348358.245    19348357.945
        38.400
 120668596.799 5                  22637121.400    22637120.490
        33.100
 116158627.370 8  90513227.12847  22104256.585    22104256.2284   22104257.9024
        48.200          43.8004
 127569739.514 7                  24275695.544
        46.600
 107733196.220 7  83792522.096 7  20125463.026    20125463.629    20125470.537
        46.000          45.900
 127092663.216 7                  24184924.940
        43.100


 198905247.779 7                  37850426.291
        42.900
 117662508.178 7  91684999.17846  22390414.804    22390414.8174   22390414.3314
        43.600          36.3004
 137446737.960 6                  26155246.530
        41.200
 202036945.256 7                  38446367.998
        45.800
 122684678.551 7                  23346118.832
        43.400
 108557581.458 8  84433798.348 7  20322212.468    20322213.144    20322216.001
        52.800          43.700
 25  1  1 16 19 15.0000000  0 24E31G07E29G16G27G04G28G03G26R06R10G09
                                E04R07E21S35R05S31G31E06S33R08E19R16


 130535742.117 5 101716174.87243  24840130.524    24840130.3774   24840128.6934
        31.900          19.9004


 104551550.910 8  81468560.78246  19895443.323    19895442.4384   19895443.6824
        50.300          41.5004
 122921176.829 6  95782743.74944  23391097.292    23391096.4124   23391111.0954
        41.700          27.7004
 107382838.923 7  83674944.13246  20434260.727    20434260.4374   20434261.0114
        44.300          36.0004


 115294949.676 6  89840259.83843  21939892.685    21939892.1274   21939893.9194
        39.300          20.7004
 110960219.440 6  86462527.30945  21115032.076    21115031.6434   21115036.0574
        40.900          34.8004
 103267701.125 6                  19352322.708    19352323.254
        37.900
 120619372.111 5                  22627885.965    22627884.291
        33.300
 116115079.362 7  90479293.62347  22095969.869    22095969.5074   22095970.1214
        46.300          43.4004
 127544535.037 7                  24270898.914
        44.800
 107694806.529 7  83762663.456 8  20118292.033    20118292.958    20118299.776
        44.900          48.300
 127111481.721 6                  24188505.775
        40.400


 126367163.623 5                  23639590.675
        32.400
 198905242.901 7                  37850428.192
        42.500
 117700006.402 7  91714218.52546  22397548.833    22397548.7984   22397550.7104
        44.200          36.4004
 137410581.076 6                  26148365.784
        37.800
 202036965.910 7                  38446370.247
        44.900
 129727078.545 5                  24225615.298    24225616.647
        35.300
 122700135.731 7                  23349059.945
        42.200
 108596394.084 9  84463985.801 7  20329478.764    20329479.955    20329483.729
        54.100          45.100
 25  1  1 16 19 30.0000000  0 25E31G07E29G16G27G04G28G03G26R06R10E09
                                G09E04R07E21S35R05S31G31E06S33R08E19
                                R16


 130500868.006 5 101689000.27242  24833492.991    24833492.6204   24833492.9484
        35.200          16.9004


 104550645.125 8  81467854.99246  19895270.564    19895269.6754   19895270.9264
        50.100          40.9004
 122870763.491 6  95743460.86844  23381503.879    23381502.9634   23381518.5214
        38.100          28.3004
 107359210.013 7  83656531.98445  20429764.373    20429764.0834   20429764.9554
        44.900          34.7004


 115335783.491 6  89872078.26243  21947662.151    21947661.5934   21947665.8994
        39.300          23.6004
 110994841.517 7  86489505.57445  21121620.479    21121620.0234   21121623.7594
        43.800          35.1004
 103289047.269 6                  19356324.578    19356324.131
        38.700
 120570223.859 6                  22618670.217    22618668.764
        38.600


 116071586.013 7  90445402.66946  22087693.209    22087692.8474   22087693.1034
        46.400          41.7004
 127519374.921 7                  24266112.069
        47.200
 107656554.334 7  83732911.750 7  20111145.577    20111145.941    20111153.757
        44.700          47.900
 127130381.860 6                  24192102.529
        41.900


                  98335765.043 5                                  23651665.371
                        33.700
 198905240.164 6                  37850424.878
        41.400
 117737532.470 7  91743459.57445  22404689.886    22404689.8374   22404691.7534
        45.300          35.3004
 137374439.621 6                  26141489.112
        36.100
 202036988.831 7                  38446379.074
        44.600
 129663433.911 5                  24213731.929    24213732.760
        35.900
 122715663.677 7                  23352014.446
        42.000
 108635282.126 8  84494231.966 7  20336759.435    20336760.164    20336764.483
        53.900          46.200
 25  1  1 16 19 45.0000000  0 26E27E31G07E29G16G27G04G28G03G26R06R10
                                E09G09E04R07E21S35R05S31G31E06S33R08
                                E19R16




 130466003.190 5 101661832.97442  24826855.675    24826855.0004   24826857.8254
        31.800          12.2004


 104549899.562 8  81467274.03746  19895129.401    19895128.5124   19895128.5454
        51.200          40.8004
 122820385.134 6  95704205.20444  23371917.126    23371916.2104   23371930.5484
        41.400          26.3004
 107335676.161 7  83638193.87945  20425285.217    20425284.9314   20425286.9924
        45.000          35.5004


 115376710.258 6  89903969.14944  21955452.300    21955451.8044   21955458.1624
        41.500          26.6004
 111029560.720 7  86516559.56345  21128227.091    21128226.6494   21128230.0984
        43.700          35.0004
 103310576.751 6                  19360358.852    19360358.939
        40.100
 120521150.814 6                  22609461.561    22609461.559
        37.200


 116028146.602 5  90411553.75545  22079425.073    22079424.6714   22079426.1424
        35.600          35.7004
 127494258.023 7                  24261332.341
        44.700
 107618438.869 8  83703266.360 7  20104028.251    20104028.307    20104032.693
        49.600          47.000
 127149362.419 6                  24195714.708
        41.000




 198905237.246 7                  37850423.081
        42.800
 117775084.996 7  91772721.24845  22411835.412    22411835.3504   22411836.6284
        42.000          32.2004
 137338312.505 6                  26134613.339
        39.600
 202037010.611 7                  38446381.399
        45.300
 129599794.699 5                  24201839.895    24201840.976
        32.200
 122731261.176 7                  23354982.699
        42.800
 108674243.801 8  84524535.458 7  20344052.259    20344052.379    20344059.390
        52.700          47.700
 25  1  1 16 20  0.0000000  0 24E27E31G07G16G27G04G28G03G26R06R10E09
                                G09E04R07E21S35R05S31G31E06S33E19R16




 130431149.076 5 101634673.96642  24820221.557    24820220.9404   24820224.5574
        34.400          14.1004
 104549315.798 8  81466819.15046  19895017.711    19895016.8174   19895017.2734
        49.700          39.6004
 122770043.665 6  95664978.27243  23362337.070    23362336.1674   23362347.3964
        39.000          23.0004
 107312238.874 7  83619931.07446  20420825.205    20420824.9284   20420827.4524
        46.900          36.7004


 115417731.034 6  89935933.29344  21963257.220    21963256.7694   21963265.6554
        40.000          29.3004
 111064378.081 6  86543690.00245  21134852.934    21134852.4694   21134855.8094
        41.000          35.7004
 103332290.958 6                  19364426.913    19364427.584
        38.700
 120472154.795 6                  22600273.074    22600273.989
        39.200


 115984762.597 7  90377748.03546  22071171.639    22071171.1884   22071170.0424
        44.600          38.4004
 127469185.986 8                  24256561.439
        48.000
 107580461.732 7  83673728.666 7  20096930.413    20096929.964    20096939.287
        42.000          47.400
 127168424.458 7                  24199342.380
        43.300


 126560472.059 5                  23675744.427    23675745.861
        30.500
 198905235.851 6                  37850423.997
        38.300
 117812665.344 7  91802004.56645  22418987.242    22418987.1754   22418988.4834
        42.400          32.8004
 137302201.123 6                  26127742.411
        40.400
 202037034.866 7                  38446388.965
        42.000
 122746929.501 7                  23357964.541
        42.500
 108713280.212 8  84554897.075 7  20351359.767    20351360.025    20351366.044
        52.200          47.400
 25  1  1 16 20 15.0000000  0 23E27E31G07G16G27G04G28G03G26R06R10E09
                                G09E04R07E21S35S31G31E06S33E19R16




 130396301.133 6 101607519.91343  24813592.770    24813592.1184   24813593.9504
        37.300          18.7004
 104548889.474 8  81466486.96146  19894936.790    19894935.8874   19894935.9924
        50.200          39.2004
 122719735.318 7  95625777.16843  23352763.683    23352762.7894   23352769.6954
        42.000          20.7004
 107288894.336 7  83601740.45746  20416382.198    20416381.9304   20416384.9624
        44.200          36.3004


 115458841.077 6  89967966.93144  21971078.036    21971077.6254   21971085.0384
        40.500          25.9004
 111099288.844 7  86570893.19646  21141496.582    21141496.1134   21141499.1024
        45.500          38.2004
 103354185.555 6                  19368531.509    19368531.639
        39.800
 120423231.378 5                  22591089.453    22591090.909
        34.200


 115941430.269 7  90343982.59446  22062924.572    22062924.0904   22062924.6924
        42.900          37.0004
 127444154.754 8                  24251797.329
        48.200
 107542619.608 8  83644295.806 7  20089864.952    20089865.682    20089868.941
        50.700          46.700
 127187563.652 7                  24202984.816
        42.400


 198905232.030 7                  37850420.067
        42.300
 117850269.216 6  91831306.22345  22426143.376    22426143.2874   22426145.0824
        40.700          30.7004
 137266101.604 6                  26120872.909
        41.700
 202037056.544 7                  38446387.109
        44.700
 122762664.756 7                  23360958.835
        43.200
 108752386.348 8  84585312.885 8  20358680.264    20358679.718    20358687.852
        50.200          48.200
 25  1  1 16 20 30.0000000  0 24E27E31G07E29G16G27G04G28G03G26R06R10
                                E09G09E04R07E21S35S31G31E06S33E19R16




 130361464.300 5 101580374.41844  24806963.815    24806963.1054   24806966.8404
        32.600          25.4004


 104548625.325 8  81466281.15846  19894886.102    19894885.2044   19894885.8664
        48.900          38.5004
 122669465.438 7  95586606.18844  23343198.968    23343198.1144   23343206.3744
        42.200          24.4004
 107265647.713 7  83583626.21346  20411959.434    20411959.1844   20411961.4764
        47.800          39.1004


 115500045.016 6  90000073.78245  21978918.506    21978918.1934   21978924.4994
        41.500          30.1004
 111134297.736 7  86598172.87046  21148158.364    21148157.9044   21148161.5334
        44.600          38.9004
 103376265.287 6                  19372670.102    19372669.030
        39.800
 120374386.057 5                  22581926.128    22581927.150
        31.900


 115898154.581 7  90310261.27046  22054688.842    22054688.4044   22054688.6874
        46.300          39.8004
 127419169.336 7                  24247043.007
        46.500
 107504917.653 8  83614972.093 7  20082822.300    20082822.742    20082825.357
        52.100          46.100
 127206784.861 7                  24206642.728
        44.100


 198905230.476 7                  37850419.253
        42.100
 117887901.225 7  91860629.77544  22433304.417    22433304.3414   22433307.5574
        43.200          29.6004
 137230018.949 7                  26114006.285
        42.900
 202037080.580 7                  38446393.405
        45.300
 122778471.436 7                  23363967.205
        42.700
 108791567.003 8  84615786.588 7  20366016.023    20366015.513    20366021.818
        51.200          47.900
 25  1  1 16 20 45.0000000  0 24E27E31G07G16G27G04G28G03G26R06R10E09
                                G09E04R07E21S35S31G31E06S33R08E19R16


 143968541.337 4                  27396301.345
        28.100


 104548521.199 8  81466200.01946  19894867.045    19894866.1474   19894866.2354
        49.400          37.7004
 122619232.445 6  95547463.55742  23333636.761    23333635.9074   23333642.6604
        36.500          15.8004
 107242497.186 7  83565586.85746  20407553.459    20407553.2004   20407555.8374
        45.500          37.9004


 115541340.484 7  90032252.00443  21986777.487    21986777.2284   21986780.9574
        44.200          22.8004
 111169402.582 7  86625527.29045  21154837.835    21154837.3844   21154839.8844
        42.300          33.5004
 103398528.137 6                  19376840.771    19376839.842
        38.900
 120325616.528 5                  22572785.522    22572782.422
        32.100


 115854934.080 7  90276582.96546  22046463.515    22046463.0864   22046463.2544
        44.400          37.3004
 127394227.943 7                  24242297.153
        46.400
 107467354.197 8  83585756.052 7  20075804.845    20075805.487    20075808.693
        50.400          46.700
 127226085.917 7                  24210315.498
        42.300


 198905229.201 7                  37850417.567
        42.600
 117925559.530 7  91889973.82244  22440470.102    22440470.0624   22440473.2564
        44.200          26.0004
 137193951.210 6                  26107142.430
        41.100
 202037104.245 7                  38446395.275
        44.700
 129345220.777 4                  24154319.269    24154317.971
        29.400
 122794347.952 6                  23366987.758
        41.100
 108830820.132 8  84646316.696 7  20373363.617    20373364.285    20373370.375
        52.100          47.500
 25  1  1 16 21  0.0000000  0 24E27E31G07G16G27G04G28G03G26R06R10E09
                                G09E04R07E21S35R05S31G31E06S33E19R16




 130291817.665 5 101526097.56244  24793710.081    24793709.1474   24793711.8384
        35.400          24.0004
 104548575.442 8  81466242.30746  19894876.963    19894876.0604   19894876.8024
        48.900          38.3004
 122569035.022 5  95508348.90042  23324085.158    23324084.3804   23324089.2624
        31.500          14.1004
 107219441.387 7  83547621.32546  20403167.155    20403166.9194   20403168.5494
        46.900          38.7004


 115582725.345 7  90064499.85744  21994652.480    21994652.2484   21994654.5324
        42.600          25.5004
 111204601.122 7  86652954.65045  21161536.256    21161535.8234   21161537.0014
        45.000          35.0004
 103420972.326 6                  19381045.759    19381045.345
        36.200
 120276921.289 5                  22563645.850    22563643.772
        31.800


 115811767.261 7  90242946.49447  22038250.277    22038249.8174   22038250.4804
        45.700          42.1004
 127369329.105 7                  24237558.592
        46.300
 107429928.268 8  83556647.034 7  20068811.609    20068811.530    20068818.478
        49.100          46.400
 127245464.915 7                  24214003.292
        43.200
 200848787.122 5                  38220279.050
        32.000
 126818722.688 5                  23724062.961
        30.800
 198905226.739 7                  37850426.193
        43.000
 117963242.450 7  91919337.12643  22447640.797    22447640.8054   22447641.1154
        42.200          22.7004
 137157897.061 7                  26100282.093
        42.000
 202037127.355 7                  38446404.352
        45.900
 122810292.648 7                  23370022.803
        42.300
 108870143.708 8  84676901.653 8  20380725.468    20380726.042    20380732.034
        52.100          48.000
 25  1  1 16 21 15.0000000  0 24E27E31G07E29G16G27G04G28G03G26R06R10
                                E09G09E04R07E21S35S31G31E06S33E19R16


 143880097.425 5                  27379470.579
        34.700
 130257006.755 6 101498972.22644  24787085.940    24787085.1044   24787088.0014
        36.800          24.7004


 104548789.694 7  81466409.27446  19894917.680    19894916.8004   19894917.3464
        47.800          36.9004
 122518875.278 6  95469263.63542  23314541.025    23314540.1984   23314544.7454
        36.800          17.3004
 107196482.179 7  83529731.06246  20398797.799    20398797.5714   20398799.6044
        47.800          38.4004


 115624200.972 6  90096818.45644  22002543.038    22002542.8554   22002548.6764
        39.200          26.2004
 111239895.024 7  86680456.42145  21168250.925    21168250.4694   21168253.2804
        43.600          33.1004
 103443599.209 6                  19385286.318    19385286.845
        38.400
 120228302.793 5                  22554529.780    22554531.406
        34.700
 149804892.617 5                  28506916.962
        32.400
 115768656.019 7  90209353.29447  22030046.893    22030046.4064   22030049.0104
        45.600          44.7004
 127344474.510 7                  24232828.799
        46.300
 107392641.836 8  83527646.460 7  20061846.377    20061846.772    20061851.655
        49.600          44.800
 127264923.316 7                  24217705.428
        43.800


 198905224.339 7                  37850413.279
        43.600
 118000951.342 6  91948720.61043  22454817.531    22454817.5894   22454817.6894
        38.600          22.0004
 137121858.033 6                  26093423.723
        40.500
 202037150.848 7                  38446407.290
        45.000
 122826307.191 7                  23373069.951
        43.700
 108909538.842 8  84707542.287 7  20388100.144    20388099.721    20388105.740
        50.900          47.000
 25  1  1 16 21 30.0000000  0 25E27E31G07E29G16G27G04G28G03G26R06R10
                                E09G09E04R07E21S35S31G31E06S33R08E19
                                R16


 143835900.109 5                  27371056.633
        33.900
 130222201.911 6 101471851.61043  24780462.501    24780461.6744   24780463.6814
        38.900          23.8004


 104549160.702 8  81466698.37246  19894988.204    19894987.3194   19894987.6444
        48.800          36.0004
 122468750.551 5  95430205.45242  23304999.086    23304998.1074   23305008.5134
        31.400          14.5004
 107173616.649 8  83511913.77946  20394446.822    20394446.5904   20394448.0674
        48.500          37.4004


 115665763.794 6  90129205.06644  22010455.054    22010454.8584   22010459.5404
        40.400          29.8004
 111275280.509 6  86708029.46345  21174984.476    21174983.9894   21174987.2714
        39.700          30.5004
 103466405.668 6                  19389560.883    19389561.662
        38.700
 120179757.198 5                  22545432.389    22545429.708
        34.800


 115725597.554 7  90175801.24647  22021853.093    22021852.6204   22021856.6044
        45.900          44.6004
 127319661.216 7                  24228107.047
        44.100
 107355492.189 8  83498752.301 7  20054907.029    20054907.601    20054910.757
        50.100          43.200
 127284457.793 7                  24221423.048
        44.600


 198905219.235 7                  37850423.260
        43.400
 118038682.902 7  91978121.79343  22461996.285    22461996.3694   22462006.4574
        42.500          19.8004
 137085831.198 6                  26086568.376
        41.600
 202037170.299 7                  38446412.611
        45.700
                 100453520.160 5                                  24118692.631
                        30.900
 122842388.145 7                  23376129.740
        42.700
 108949001.835 8  84738235.785 8  20395486.903    20395487.164    20395494.247
        51.400          48.200
 25  1  1 16 21 45.0000000  0 26E31G07E29G08G16G27G04G28G03G26R06R10
                                E09G09E04R07E21S35R05S31G31E06S33R08
                                E19R16
 143791731.663 5                  27362652.751
        33.300
 130187409.719 5 101444740.84343  24773842.451    24773841.9154   24773843.3364
        34.200          21.5004


 130586493.821 4                  24849789.454
        28.500
 104549695.258 7  81467114.88345  19895089.814    19895088.9204   19895089.0034
        46.200          35.8004
 122418667.913 5  95391180.17743  23295476.351    23295475.4124   23295479.5444
        35.300          18.0004
 107150851.788 7  83494174.92746  20390115.283    20390115.0474   20390116.1784
        46.700          38.0004
 130074019.448 5                  24752264.077
        33.300
 115707420.084 6  90161664.46045  22018383.421    22018383.1934   22018388.3754
        40.500          31.1004
 111310764.379 6  86735679.30644  21181739.209    21181738.6514   21181740.1284
        38.300          25.2004
 103489398.302 6                  19393870.549    19393870.965
        39.700
 120131291.780 4                  22536336.341    22536336.002
        28.500
 149725100.430 4                  28491733.746
        28.000
 115682598.842 7  90142295.73047  22013670.500    22013670.0624   22013674.0174
        44.900          43.6004
 127294896.158 7                  24223395.520
        44.500
 107318486.883 8  83469970.382 7  20047994.044    20047995.242    20047997.808
        49.100          43.000
 127304074.832 7                  24225155.240
        44.100


                                                  23760371.739

 198905218.193 7                  37850422.276
        42.600
 118076443.889 7  92007545.78943  22469182.436    22469182.5434   22469199.4074
        42.100          20.9004
 137049823.560 6                  26079715.266
        38.000
 202037194.686 7                  38446418.818
        44.600
 129090869.019 5 100404065.959 5  24106810.299    24106813.001    24106821.591
        35.400          30.300
 122858542.544 7                  23379204.058
        42.300
 108988539.108 8  84768986.917 7  20402889.670    20402889.389    20402896.092
        52.200          47.000
 25  1  1 16 22  0.0000000  0 24E31G07E29G16G27G04G28G03G26R06E09G09
                                E04R07E21S35R05S31G31E06S33R08E19R16


 130152625.060 6 101417635.99343  24767222.307    24767221.8834   24767223.6674
        39.200          19.2004


 104550387.796 7  81467654.56145  19895221.620    19895220.7174   19895221.1444
        43.600          35.4004


 107128182.791 8  83476510.76046  20385801.427    20385801.1864   20385802.5744
        48.200          38.5004
 130115075.019 5                  24760076.319
        33.300
 115749164.350 7  90194192.36545  22026327.282    22026327.0814   22026332.4764
        42.400          34.9004
 111346340.921 5  86763387.24044  21188510.232    21188509.8174   21188506.8784
        35.300          25.5004
 103512571.800 6                  19398212.854    19398212.678
        37.000


 115639655.186 7  90108833.16847  22005499.499    22005499.0704   22005501.5064
        45.900          44.6004
 127270174.330 7                  24218689.866
        45.500
 107281620.717 8  83441296.717 6  20041106.708    20041108.111    20041108.544
        50.600          39.700
 127323769.281 7                  24228902.895
        42.200


 127077662.733 5                  23772471.339    23772470.706
        33.700
 198905215.633 6                  37850417.415
        41.300
 118114229.023 6  92036988.64544  22476372.662    22476372.6754   22476391.7924
        40.900          24.1004
 137013830.026 6                  26072866.528
        38.500
 202037217.209 7                  38446421.554
        46.400
 129027292.769 5                  24094948.690    24094947.300
        34.600
 122874765.302 7                  23382290.841
        42.000
 109028145.288 8  84799791.694 7  20410303.851    20410304.010    20410309.077
        53.800          46.100
 25  1  1 16 22 15.0000000  0 25E31G07E29G16G27G04G28G03G26R06R10E09
                                G09E04R07E21S35R05S31G31E06S33R08E19
                                R16
 143703442.105 4                  27345855.881
        26.100
 130117850.598 6 101390539.14142  24760602.782    24760602.3934   24760605.6394
        39.900          16.0004


 104551241.092 7  81468319.52046  19895383.998    19895383.0954   19895384.0184
        46.500          36.7004
 122318476.989 6                  23276440.055
        36.600
 107105612.420 8  83458923.45846  20381505.794    20381505.5354   20381507.7424
        49.500          39.1004
 130156136.506 4                  24767885.926
        26.300
 115790998.897 7  90226790.60846  22034288.719    22034288.5504   22034293.1944
        44.100          36.4004
 111382012.403 6  86791183.21944  21195297.558    21195297.3934   21195298.0024
        41.900          25.9004
 103535928.607 6                  19402589.143    19402590.361
        38.400
 120034594.934 5                  22518188.474    22518186.938
        32.600


 115596769.447 7  90075415.68547  21997337.948    21997337.4834   21997340.4324
        43.600          43.9004
 127245498.608 7                  24213994.474
        46.300
 107244897.144 8  83412733.985 6  20034245.545    20034246.246    20034249.536
        49.700          41.500
 127343543.519 7                  24232666.502
        44.200


 127142270.074 6                  23784592.208    23784594.326
        39.900
 198905214.326 7                  37850419.182
        43.200
 118152041.019 6  92066452.45342  22483567.044    22483567.0934   22483586.1234
        41.500          16.9004
 136977853.268 6                  26066020.707
        38.700
 202037241.388 7                  38446424.058
        46.000
 128963726.551 5                  24083069.913    24083069.159
        35.900
 122891059.065 7                  23385391.651
        43.700
 109067822.627 8  84830651.804 7  20417731.896    20417732.212    20417736.464
        52.700          46.600
 25  1  1 16 22 30.0000000  0 25E31G07E29G08G16G27G04G28G03G26R06R10
                                E09G09E04R07E21S35S31G31E06S33R08E19
                                R16


 130083079.426 5 101363444.90142  24753986.284    24753985.9044   24753988.9304
        35.900          14.7004


 130424798.462 5                  24819010.027
        32.500
 104552248.057 7  81469104.18646  19895575.883    19895575.0074   19895575.8914
        44.900          36.6004
 122268506.508 6  95274228.55342  23266925.359    23266924.7424   23266934.8924
        38.700          13.6004
 107083134.219 8  83441407.95446  20377228.526    20377228.2674   20377229.7674
        49.900          39.3004
 130197197.606 5                  24775708.221
        31.100
 115832916.436 7  90259453.50746  22042264.235    22042264.0704   22042270.0774
        47.100          38.1004
 111417771.887 7  86819047.59343  21202101.820    21202101.2754   21202106.6924
        42.400          21.9004
 103559461.725 6                  19407001.163    19407001.518
        38.200
 119986354.338 5                  22509134.738    22509134.563
        34.700
 149605338.186 4                  28468945.221
        27.500
 115553934.969 7  90042038.15847  21989185.846    21989185.3954   21989189.0364
        45.800          42.5004
 127220862.199 7                  24209306.450
        46.400
 107208309.667 8  83384277.028 7  20027412.179    20027413.110    20027414.598
        50.900          42.200
 127363390.560 7                  24236441.904
        43.600
 200848558.653 5                  38220211.242
        34.000
 198905208.194 6                  37850412.487
        38.600
 118189872.942 6  92095931.64343  22490767.006    22490767.1264   22490780.4634
        39.800          19.2004
 136941886.872 6                  26059177.693
        37.800
 202037260.358 7                  38446430.851
        45.400
 128900164.237 6 100255730.924 5  24071200.388    24071203.431    24071208.797
        38.900          30.100
 122907416.898 7                  23388504.243
        43.500
 109107563.658 8  84861561.476 7  20425170.892    20425171.431    20425175.804
        52.200          44.500
 25  1  1 16 22 45.0000000  0 26E31G07E29G08G16G27G04G28G03G26R06R10
                                E09G09E04R07E21S35S31G31E06S33R08R17
                                E19R16
 143615276.956 5                  27329078.238
        34.600
 130048323.323 5 101336362.33141  24747372.181    24747371.7924   24747375.2934
        32.200          11.0004
 142286264.428 5                  27076172.949
        33.400
 130370834.797 5                  24808736.497
        30.500
 104553420.651 7  81470017.90446  19895798.728    19895797.8574   19895799.5124
        44.300          39.1004
 122218582.051 5  95235326.45943  23257429.164    23257428.7404   23257435.8784
        35.100          18.0004
 107060760.070 8  83423973.56746  20372970.500    20372970.2504   20372971.4864
        50.300          38.8004
 130238269.530 5                  24783515.437
        32.000
 115874928.257 7  90292189.87046  22050258.026    22050257.8484   22050264.4484
        44.700          39.3004
 111453630.547 6  86846989.32644  21208925.668    21208925.0564   21208935.0474
        41.500          29.2004
 103583182.914 6                  19411443.816    19411443.700
        36.200
 119938196.604 5                  22500101.282    22500101.971
        34.200


 115511163.816 7  90008709.95847  21981047.987    21981047.5634   21981050.3204
        44.900          43.9004
 127196277.027 7                  24204627.505
        45.900
 107171870.467 8  83355935.500 7  20020604.525    20020605.217    20020609.562
        50.800          43.800
 127383321.892 7                  24240234.992
        43.300
 200848524.410 5                  38220187.945
        32.100
 198905207.962 6                  37850421.690
        40.700
 118227736.186 6  92125435.35843  22497972.183    22497972.3614   22497985.3254
        40.100          20.9004
 136905942.439 5                  26052333.919
        34.200
 202037284.508 7                  38446435.801
        45.000
 128836617.646 5 100206305.560 5  24059332.299    24059339.425    24059340.592
        32.400          31.200
 129543296.365 5                  24208260.977
        33.900
 122923850.751 7                  23391631.824
        42.200
 109147379.760 8  84892529.526 7  20432625.159    20432625.595    20432630.187
        52.300          45.700
 25  1  1 16 23  0.0000000  0 24E31G07E29G16G27G04G28G03G26R06R10E09
                                G09E04R07E21S35S31G31E06S33R08E19R16
 143571234.212 5                  27320697.754
        32.200
 130013573.660 6 101309284.72442  24740762.411    24740762.0454   24740762.7474
        38.600          14.4004
 142323726.920 5                  27083300.971
        32.900
 104554750.083 7  81471053.81546  19896052.122    19896051.2554   19896052.6784
        42.600          38.2004
 122168695.974 4  95196454.42642  23247925.025    23247924.3954   23247944.1664
        29.700          15.8004
 107038481.954 8  83406614.01246  20368731.809    20368731.5504   20368731.8644
        50.600          40.3004
 130279343.987 5                  24791333.247
        34.600
 115917025.768 7  90324993.04146  22058269.352    22058269.1604   22058275.1054
        43.300          36.0004
 111489579.796 7  86875001.76445  21215766.481    21215765.8644   21215777.8554
        42.900          30.6004
 103607083.459 6                  19415924.095    19415923.313
        38.600
 119890113.965 5                  22491083.319    22491081.474
        33.800


 115468448.006 7  89975424.91547  21972919.055    21972918.6314   21972921.0454
        46.500          43.1004
 127171734.954 7                  24199957.058
        44.700
 107135571.630 8  83327703.023 7  20013823.183    20013823.286    20013829.416
        49.800          46.700
 127403329.080 7                  24244041.944
        44.600
 200848487.919 6                  38220196.316
        38.900
 198905205.398 7                  37850419.410
        43.700
 118265622.340 6  92154956.95543  22505182.122    22505182.2334   22505200.6284
        40.700          19.0004
 136870011.803 5                  26045498.741
        35.300
 202037307.529 7                  38446435.559
        45.300
                 100156886.806 5                                  24047479.663
                        32.100
 122940352.145 7                  23394771.251
        42.300
 109187262.466 8  84923549.325 7  20440090.014    20440091.040    20440096.339
        51.400          46.700
 25  1  1 16 23 15.0000000  0 24E31G07E29G16G27G04G03G26R06R10E09G09
                                E04R07E21S35R05S31G31E06S33R08E19R16
 143527220.203 5                  27312321.138
        31.900
 129978835.469 5 101282216.03542  24734149.997    24734149.6084   24734152.1244
        34.200          14.8004
 142361226.819 4                  27090438.699
        28.900
 104556241.230 7  81472215.76046  19896335.902    19896335.0264   19896336.4694
        44.100          39.0004


 107016305.012 8  83389333.26846  20364511.892    20364511.6514   20364511.9494
        49.400          40.4004
 115959213.435 6  90357866.44745  22066296.463    22066296.2314   22066302.8444
        36.800          32.0004
 111525624.252 6  86903088.37845  21222624.880    21222624.2414   21222636.7344
        41.800          30.8004
 103631168.430 6                  19420436.117    19420436.155
        36.500
 119842111.412 6                  22482074.941    22482075.519
        36.100


 115425792.719 7  89942187.04247  21964801.656    21964801.2234   21964803.1994
        46.700          43.0004
 127147241.062 7                  24195296.208
        44.600
 107099418.674 8  83299584.030 8  20007068.724    20007069.951    20007077.324
        49.600          48.000
 127423416.904 7                  24247865.149
        43.400
 200848454.537 5                  38220192.175
        31.000


 198905205.982 7                  37850415.483
        42.900
 118303536.417 6  92184500.72742  22512396.558    22512396.6924   22512419.9334
        40.100          12.1004
 136834100.293 6                  26038666.517
        38.000
 202037333.487 7                  38446446.752
        46.000
                 100107478.416 5                                  24035619.596
                        32.100
 122956926.244 7                  23397925.972
        42.600
 109227216.342 8  84954624.577 7  20447569.925    20447570.625    20447576.272
        51.500          46.700
 25  1  1 16 23 30.0000000  0 24E31G07E29G16G27G04G03G26R06R10E09G09
                                E04R07E21S35R05S31G31E06S33R08E19R16
 143483228.024 5                  27303947.635
        33.000
 129944101.681 5 101255150.81342  24727541.937    24727541.5354   24727542.5024
        35.900          16.2004
 142398757.157 4                  27097579.677
        28.500
 104557886.830 7  81473498.04546  19896649.455    19896648.5754   19896649.3044
        45.100          39.1004


 106994222.403 8  83372126.03746  20360309.164    20360308.9234   20360310.2794
        50.700          40.8004
 116001483.720 6  90390804.25745  22074343.139    22074342.9614   22074346.5734
        39.200          31.7004
 111561756.462 7  86931243.37345  21229500.196    21229499.5754   21229512.9094
        42.000          31.4004
 103655430.363 6                  19424982.508    19424982.208
        36.600
 119794181.730 6                  22473085.847    22473085.429
        38.300


 115383191.078 7  89908990.98047  21956695.674    21956695.2504   21956695.7674
        47.500          43.0004
 127122788.370 7                  24190643.216
        43.300
 107063404.674 8  83271573.101 7  20000342.067    20000342.945    20000348.744
        49.800          47.100
 127443578.046 6                  24251701.305
        41.900
 200848416.588 4                  38220209.574
        29.100


 198905202.315 7                  37850416.838
        42.600
 118341471.211 6  92214060.48643  22519615.882    22519615.9314   22519639.1084
        40.600          21.4004
 136798200.728 6                  26031835.886
        39.800
 202037353.935 7                  38446448.648
        45.500
 128646044.249 6 100058075.229 5  24023745.272    24023744.956    24023761.537
        36.100          33.100
 122973565.723 6                  23401092.430
        41.700
 109267233.740 8  84985749.186 7  20455060.633    20455061.429    20455068.212
        51.000          47.200
 25  1  1 16 23 45.0000000  0 23E31G07E29G16G27G04G03G26R06R10E09G09
                                E04R07E21S35S31G31E06S33R08E19R16
 143439259.992 5                  27295581.629
        31.700
 129909374.771 6 101228090.86642  24720933.630    24720933.2554   24720934.4684
        36.300          16.3004
 142436320.105 4                  27104731.005
        28.600
 104559689.307 7  81474902.57246  19896991.959    19896991.0884   19896992.1974
        46.700          40.1004


 106972236.808 8  83354994.38546  20356125.326    20356125.0764   20356126.9864
        49.700          40.9004
 116043838.765 7  90423808.12245  22082403.741    22082403.4824   22082406.2034
        42.600          33.6004
 111597978.668 6  86959468.51244  21236391.895    21236391.2564   21236404.6724
        37.700          27.9004
 103679871.603 6                  19429565.711    19429565.509
        40.900
 119746327.812 6                  22464106.420    22464105.351
        36.400


 115340645.915 7  89875838.91547  21948599.623    21948599.1994   21948599.9124
        47.700          43.6004
 127098379.539 7                  24185998.034
        43.100
 107027532.825 8  83243672.783 7  19993640.421    19993640.671    19993646.238
        48.400          45.800
 127463814.746 7                  24255552.792
        42.700


 198905196.463 7                  37850410.122
        42.400
 118379429.111 6  92243638.13843  22526837.697    22526837.7194   22526857.4114
        38.400          19.2004
 136762315.698 7                  26025007.605
        42.600
 202037373.727 7                  38446448.961
        45.900
 128582535.148 6 100008679.239 4  24011885.794    24011886.455    24011904.690
        37.200          29.000
 122990273.185 6                  23404271.685
        41.600
 109307316.797 8  85016924.873 7  20462565.655    20462566.300    20462571.572
        52.100          47.200
 25  1  1 16 24  0.0000000  0 23E31G07E29G16G27G04G03G26R06R10E09G09
                                E04R07E21S35S31G31E06S33R08E19R16
 143395320.902 5                  27287221.234
        30.900
 129874659.261 4 101201039.72742  24714326.689    24714326.4124   24714327.8914
        29.500          14.6004
 142473919.966 5                  27111881.294
        30.900
 104561653.083 7  81476432.77846  19897365.431    19897364.5734   19897365.8284
        45.200          39.5004
 121969575.597 6  95041286.61643  23210036.482    23210035.9954   23210052.2804
        36.100          23.9004
 106950352.902 8  83337941.99046  20351961.103    20351960.8444   20351963.1234
        49.000          40.7004
 116086282.485 7  90456881.07645  22090480.106    22090479.8254   22090481.7124
        44.600          35.1004
 111634294.808 5  86987766.81643  21243302.257    21243301.5244   21243313.3964
        31.800          23.4004
 103704496.464 6                  19434179.676    19434179.414
        40.900
 119698554.269 6                  22455144.189    22455145.959
        36.600


 115298161.873 7  89842734.46247  21940515.138    21940514.7364   21940516.2294
        47.400          44.3004
 127074019.073 7                  24181361.990
        42.400
 106991807.701 7  83215886.564 7  19986967.535    19986967.195    19986972.649
        47.900          45.300
 127484131.216 7                  24259419.550
        43.500


 198905193.774 7                  37850420.702
        42.000
 118417414.206 6  92273236.83443  22534066.839    22534066.8704   22534077.1724
        36.000          22.2004
 136726449.730 6                  26018181.392
        41.800
 202037395.370 7                  38446459.085
        47.800
 128519040.663 6                  24000025.538    24000026.781
        36.300
 123007052.988 6                  23407464.690
        40.400
 109347469.641 8  85048154.853 8  20470082.430    20470083.442    20470088.289
        51.900          48.100
 25  1  1 16 24 15.0000000  0 23E31G07E29G16G27G04G03G26R06R10E09G09
                                E04R07E21S35S31G31E06S33R08E19R16
 143351408.522 4                  27278867.059
        29.100
 129839952.548 6 101173995.55643  24707722.651    24707722.4954   24707722.2684
        37.100          22.1004


 104563775.957 7  81478086.93746  19897769.969    19897769.1154   19897769.5844
        44.600          38.0004
 121919897.512 5  95002576.54943  23200580.179    23200579.3304   23200595.8584
        32.000          23.2004
 106928568.736 8  83320967.31646  20347816.074    20347815.8064   20347817.9614
        48.100          39.9004
 116128812.462 6  90490021.25245  22098572.796    22098572.5374   22098574.6744
        39.500          34.6004
 111670814.630 6  87016242.49243  21250240.624    21250240.4954   21250255.1834
        41.800          20.5004
 103729302.614 6                  19438827.967    19438827.608
        40.500
 119650859.072 6                  22446196.311    22446198.099
        37.700
 149325562.164 5                  28415711.335
        34.200
 115255737.068 8  89809676.17747  21932441.838    21932441.4364   21932444.0024
        49.500          45.1004
 127049705.118 6                  24176735.592
        41.800
 106956227.979 7  83188213.374 7  19980321.151    19980320.155    19980325.144
        47.600          44.200
 127504525.128 7                  24263300.076
        42.100


 198905191.225 7                  37850419.262
        43.400
 118455424.535 6  92302855.22543  22541300.815    22541300.8114   22541303.4844
        36.100          23.2004
 136690600.952 6                  26011358.687
        38.700
 202037417.687 6                  38446462.465
        41.600
 128455557.392 6                  23988178.848    23988179.745
        37.600
 123023903.012 6                  23410672.054
        40.400
 109387689.675 8  85079437.068 8  20477611.923    20477612.729    20477618.372
        52.300          49.500
 25  1  1 16 24 30.0000000  0 22E31G07E29G16G27G04G03G26R06R10E09G09
                                E04R07E21S35S31G31E06S33E19R16
 143307523.283 5                  27270514.318
        30.100
 129805255.052 6 101146958.58544  24701118.637    24701118.4454   24701118.4954
        41.700          24.4004


 104566057.683 7  81479864.89346  19898203.791    19898202.9334   19898203.2294
        47.400          36.8004


 106906884.624 8  83304070.58546  20343689.460    20343689.1744   20343691.4094
        50.600          40.6004
 116171428.179 6  90523228.21445  22106681.260    22106681.0914   22106685.3564
        36.500          32.9004
 111707214.340 5  87044637.16243  21257178.128    21257178.1414   21257186.9624
        33.100          22.9004
 103754289.752 6                  19443510.360    19443510.135
        41.400
 119603242.161 5                  22437259.190    22437262.402
        34.200
 149285559.228 5                  28408095.157
        32.000
 115213371.877 7  89776664.34047  21924379.915    21924379.5004   21924382.6644
        47.400          45.3004
 127025437.578 6                  24172118.036
        38.700
 106920793.919 8  83160653.589 7  19973702.881    19973702.766    19973705.556
        48.700          44.800
 127524996.308 6                  24267193.345
        40.400
 200848176.769 6                  38220150.034
        36.000
 198905188.702 7                  37850413.708
        43.500
 118493323.977 7  92332474.16944  22548537.798    22548537.9234   22548535.7844
        42.400          28.0004
 136654769.418 6                  26004540.936
        39.300
 202037440.848 7                  38446459.456
        42.900
 123040823.231 6                  23413890.578
        39.100
 109427976.335 8  85110771.112 8  20485152.886    20485153.477    20485159.813
        52.800          48.900
 25  1  1 16 24 45.0000000  0 22E31G07E29G16G27G04G03G26R06R10E09G09
                                E04R07E21S35S31G31E06S33E19R16
 143263666.794 5                  27262167.045
        32.900
 129770568.030 6 101119929.80144  24694518.611    24694518.4954   24694521.5774
        38.800          28.5004


 104568499.661 7  81481767.75646  19898667.636    19898666.7734   19898667.5584
        47.400          36.7004


 106885302.370 8  83287253.26546  20339582.363    20339582.0954   20339584.0044
        50.200          39.2004
 116214131.053 6  90556503.11145  22114803.850    22114803.7304   22114813.4964
        37.100          31.7004
 111743805.802 6  87073149.95544  21264142.077    21264142.1174   21264147.0744
        36.800          24.0004
 103779459.550 6                  19448228.204    19448227.495
        41.500
 119555705.589 5                  22428347.728    22428345.151
        34.700


 115171068.260 7  89743700.46647  21916329.771    21916329.3564   21916333.4394
        45.900          44.7004
 127001218.444 6                  24167509.531
        38.100
 106885507.549 8  83133208.596 7  19967109.959    19967109.944    19967114.782
        48.200          44.600
 127545546.317 6                  24271105.663
        36.100


 198905189.106 7                  37850421.596
        43.600
 118531386.000 7  92362132.86045  22555780.379    22555780.2364   22555782.0974
        42.900          31.9004
 136618956.808 6                  25997727.006
        41.500
 202037465.607 7                  38446470.577
        47.100
 123057815.536 6                  23417124.183
        40.100
 109468331.291 8  85142158.254 7  20492707.959    20492708.323    20492713.564
        53.400          47.600
 25  1  1 16 25  0.0000000  0 22E31G07E29G16G27G04G03G26R06R10E09G09
                                E04R07E21S35S31G31E06S33E19R16
 143219835.662 5                  27253825.166
        31.200
 129735888.206 6 101092906.59044  24687919.289    24687919.1604   24687924.8074
        39.000          29.3004


 104571098.437 7  81483792.76046  19899162.246    19899161.3754   19899162.3924
        47.200          36.9004


 106863818.788 8  83270512.81546  20335494.355    20335494.0964   20335495.3054
        49.200          39.1004
 116256916.786 5  90589842.62444  22122947.029    22122946.9404   22122955.8514
        34.500          25.2004
 111780485.894 6  87101731.90144  21271121.934    21271121.9604   21271126.7324
        37.300          24.4004
 103804808.369 6                  19452977.983    19452977.678
        40.900
 119508245.516 5                  22419438.318    22419440.755
        33.200


 115128822.836 7  89710781.96347  21908290.593    21908290.1824   21908293.8294
        44.600          44.0004
 126977044.287 7                  24162910.064
        42.000
 106850365.895 7  83105876.185 7  19960544.115    19960544.051    19960548.888
        47.600          44.100
 127566171.383 5                  24275030.115
        32.900


 198905187.369 7                  37850410.569
        44.200
 118569471.093 7  92391809.51645  22563028.900    22563028.5614   22563030.9964
        43.400          34.9004
 136583160.004 5                  25990913.499
        35.800
 202037488.743 7                  38446473.193
        46.100
 123074876.292 6                  23420371.146
        39.000
 109508750.441 9  85173595.337 8  20500275.983    20500276.450    20500280.949
        54.300          48.700
 25  1  1 16 25 15.0000000  0 22E31G07E29G16G27G04G03G26R06R10E09G09
                                E04R07E21S35S31G31E06S33E19R16
 143176028.444 5                  27245495.844
        35.300
 129701213.731 6 101065887.56644  24681320.235    24681320.0704   24681327.7104
        41.400          29.1004
 142662481.143 4                  27147764.595
        29.800
 104573852.458 8  81485938.76046  19899686.487    19899685.6164   19899686.4264
        48.700          37.5004


 106842432.425 8  83253848.10746  20331424.614    20331424.3514   20331425.6234
        48.200          37.7004
 116299743.768 5  90623221.42344  22131106.404    22131106.2754   22131114.9934
        35.300          28.9004
 111817252.642 5  87130381.29443  21278116.325    21278116.1424   21278123.4574
        35.100          23.4004
 103830334.082 6                  19457760.871    19457760.440
        39.900
 119460860.793 5                  22410553.871    22410554.353
        33.900


 115086634.393 7  89677907.86247  21900263.105    21900262.6764   21900264.9104
        47.000          45.9004
 126952913.700 6                  24158317.373
        41.200
 106815367.726 8  83078655.384 7  19954006.665    19954007.008    19954012.973
        48.600          45.400
 127586869.706 6                  24278970.461
        37.000


 198905182.790 7                  37850417.138
        43.100
 118607577.102 7  92421502.45446  22570280.671    22570280.4794   22570283.3234
        45.300          37.2004
 136547377.242 6                  25984106.322
        40.400
 202037508.306 7                  38446477.803
        44.700
 123092003.849 6                  23423630.834
        38.900
 109549231.409 8  85205080.452 8  20507853.296    20507854.084    20507859.267
        53.800          48.600
 25  1  1 16 25 30.0000000  0 23E31G07E29G16G27G04G03G26R06R10E09G09
                                E04R07E21S35S31G31E06S33R08E19R16
 143132249.921 6                  27237162.270
        38.300
 129666549.109 6 101038876.26944  24674723.327    24674723.2164   24674730.8694
        39.800          28.6004
 142700286.215 5                  27154957.102
        34.800
 104576765.712 8  81488208.82246  19900240.998    19900240.1314   19900240.8724
        48.300          38.0004
 121672143.594 6  94809539.88743  23153438.149    23153438.7434   23153455.5484
        37.300          18.7004
 106821147.995 8  83237262.83246  20327374.005    20327373.7334   20327375.3354
        48.000          37.0004
 116342696.007 5  90656690.59944  22139279.075    22139279.0794   22139286.7984
        31.100          27.8004
 111854110.387 6  87159101.60744  21285130.779    21285130.6954   21285139.0224
        37.200          25.2004
 103856041.335 6                  19462578.893    19462578.296
        40.200
                                                  22401677.981



 115044507.511 7  89645081.69447  21892246.012    21892245.5974   21892247.9254
        46.700          46.0004
 126928831.216 7                  24153734.802
        43.400
 106780518.026 7  83051550.091 7  19947496.683    19947496.724    19947502.639
        47.300          46.300
 127607645.544 6                  24282922.905
        38.800


 198905179.940 7                  37850416.673
        45.200
 118645708.886 7  92451215.50546  22577536.351    22577536.1594   22577539.9844
        44.300          38.9004
 136511613.425 6                  25977299.779
        41.000
 202037530.178 7                  38446476.855
        44.000
 128138399.225 4                  23928944.482    23928946.410
        27.300
 123109202.765 7                  23426904.154
        42.100
 109589778.913 8  85236617.340 8  20515444.138    20515444.364    20515450.043
        53.000          48.900
 25  1  1 16 25 45.0000000  0 22E31G07E29G16G27G04G03G26R06R10E09G09
                                E04R07E21S35S31G31E06S33E19R16
 143088495.117 5                  27228834.158
        34.200
 129631889.416 6 101011868.76244  24668127.693    24668127.6444   24668135.0204
        38.000          28.7004


 104579833.441 8  81490599.30446  19900825.046    19900824.1704   19900824.8214
        48.700          38.2004
 121622725.854 6  94771032.75743  23144035.067    23144035.2544   23144046.0204
        36.900          23.3004
 106799961.081 7  83220753.52946  20323342.386    20323342.1184   20323343.7024
        46.900          36.9004
 116385729.333 4  90690222.41243  22147487.768    22147487.9284   22147474.3934
        28.200          22.4004
 111891053.905 6  87187888.78743  21292162.551    21292162.4584   21292167.1744
        38.900          21.4004
 103881925.052 6                  19467428.461    19467428.965
        40.300
 119366317.125 5                  22392820.598    22392820.457
        32.200


 115002437.972 7  89612300.27347  21884240.562    21884240.1604   21884242.8804
        46.800          45.7004
 126904792.405 6                  24149159.920
        37.300
 106745812.121 8  83024556.523 7  19941015.127    19941015.246    19941018.853
        49.800          46.200
 127628494.101 5                  24286890.910
        34.600
 200847969.665 6                  38220101.844
        37.300
 198905172.985 7                  37850417.438
        45.400
 118683861.656 7  92480944.93146  22584797.234    22584797.0514   22584800.0754
        44.700          40.2004
 136475863.659 5                  25970494.323
        33.200
 202037548.299 7                  38446483.196
        46.000
 123126468.163 7                  23430189.215
        42.600
 109630387.441 8  85268201.721 7  20523043.983    20523044.079    20523052.195
        50.700          47.700
 25  1  1 16 26  0.0000000  0 23E31G07E29G16G27G04G03G26R06R10E09G09
                                E04R07E21S35S31G31E06S33R08E19R16
 143044769.428 4                  27220513.076
        28.600
 129597239.758 6 100984869.19144  24661535.699    24661535.6104   24661538.8764
        40.000          24.4004


 104583060.500 8  81493113.90246  19901438.929    19901438.0584   19901438.9984
        50.600          38.2004
 121573355.172 5  94732562.26843  23134641.609    23134641.2834   23134649.0584
        31.800          22.4004
 106778876.830 8  83204324.22646  20319330.223    20319329.9644   20319331.6994
        48.000          36.7004
 116428918.810 5  90723849.39943  22155679.553    22155679.9464   22155688.2094
        33.300          23.4004
 111928087.897 6  87216746.46143  21299209.547    21299209.4404   21299211.3434
        39.600          22.2004
 103907990.000 6                  19472314.951    19472313.761
        40.400
 119319168.023 4                  22383973.687    22383970.302
        27.700
 149045347.310 5                  28362383.035
        32.100
 114960430.899 7  89579567.52947  21876246.656    21876246.2454   21876248.3084
        47.600          45.5004
 126880802.273 6                  24144594.750
        39.200
 106711255.845 8  82997679.419 7  19934558.131    19934559.148    19934563.637
        50.600          46.300
 127649419.958 6                  24290871.875
        37.200


 198905167.685 6                  37850398.903
        40.000
 118722040.103 7  92510694.32146  22592061.883    22592061.7184   22592063.7744
        45.300          38.8004
 136440133.161 5                  25963696.809
        35.400
 202037568.025 7                  38446490.220
        45.800
 128011637.669 5                  23905269.003
        33.000
 123143805.145 7                  23433488.235
        42.400
 109671061.949 8  85299837.410 7  20530658.674    20530659.234    20530664.600
        51.400          46.900
 25  1  1 16 26 15.0000000  0 22E31G07E29G16G27G04G03G26R06E09G09E04
                                R07E21S35S31G31E06S33R08E19R16
 143001070.911 5                  27212197.649
        31.400
 129562598.198 6 100957875.87644  24654943.909    24654943.7404   24654943.7914
        40.600          24.0004


 104586444.833 8  81495751.07046  19902083.029    19902082.1584   19902082.6884
        51.100          38.6004
 121524029.958 5  94694127.29342  23125254.255    23125253.9924   23125260.9534
        33.300          16.0004
 106757893.461 7  83187973.55346  20315337.345    20315337.0864   20315338.9214
        47.100          36.7004


 111965210.028 6  87245672.74144  21306274.092    21306274.0084   21306276.7354
        39.200          29.0004
 103934234.368 6                  19477232.673    19477232.546
        39.300
 149005282.691 5                  28354758.968
        35.600
 114918484.605 7  89546882.12547  21868264.456    21868264.0234   21868265.5994
        47.100          43.6004
 126856858.895 7                  24140039.354
        43.200
 106676847.812 8  82970917.603 7  19928131.673    19928132.765    19928135.344
        50.100          45.300
 127670421.015 6                  24294868.858
        39.100


 198905162.249 7                  37850407.542
        44.000
 118760242.175 7  92540462.11146  22599331.025    22599330.8784   22599331.1134
        46.400          37.8004
 136404420.058 6                  25956902.471
        39.800
 202037586.847 6                  38446487.385
        41.200
 127948282.634 5                  23893430.428    23893429.099
        34.300
 123161211.828 6                  23436800.162
        40.400
 109711800.046 8  85331522.694 7  20538285.234    20538286.360    20538291.458
        51.300          46.100
 25  1  1 16 26 30.0000000  0 22E31G07E29G16G27G04G03G26R06E09G09E04
                                R07E21S35S31G31E06S33R08E19R16


 129527968.093 5 100930891.50843  24648353.295    24648353.1214   24648353.7564
        32.200          20.2004


 104589989.640 8  81498513.27446  19902757.796    19902756.9334   19902757.3714
        51.100          38.6004
 121474754.469 5  94655731.03142  23115874.169    23115873.8614   23115884.8594
        34.600          17.4004
 106737014.723 7  83171704.37745  20311364.704    20311364.4364   20311365.3524
        47.400          35.4004
 116515402.256 6  90791238.82744  22172131.840    22172132.2734   22172135.4544
        39.200          28.8004
 112002423.391 7  87274670.14945  21313355.916    21313355.8144   21313360.3754
        42.200          30.8004
 103960660.861 6                  19482184.456    19482184.559
        40.200
 148965213.072 5                  28347134.509
        33.600
 114876602.865 8  89514247.01947  21860295.397    21860294.9684   21860295.9644
        48.400          46.0004
 126832966.075 6                  24135492.482
        41.300
 106642591.380 8  82944273.765 7  19921731.091    19921731.852    19921736.336
        50.000          46.700
 127691500.663 6                  24298879.348
        40.400


 198905159.831 7                  37850413.011
        43.600
 118798471.211 7  92570250.89546  22606606.097    22606605.9504   22606605.0704
        46.400          37.9004
 136368728.074 5                  25950108.282
        35.300
 202037609.227 7                  38446494.379
        43.400
 127884927.315 5                  23881586.298
        34.100
 123178691.460 6                  23440126.270
        40.400
 109752604.505 8  85363259.516 7  20545923.792    20545924.853    20545930.161
        53.200          45.400
 25  1  1 16 26 45.0000000  0 23E31G07E29G16G27G04G28G03G26R06E09G09
                                E04R07E21S35S31G31E06S33R08E19R16


 129493348.557 6 100903915.35443  24641768.402    24641768.1924   24641768.3214
        36.700          23.3004


 104593693.930 8  81501399.74546  19903463.019    19903462.1614   19903461.8444
        49.800          37.9004
 121425528.443 5  94617335.57442  23106507.749    23106507.4014   23106520.0124
        32.600          15.4004
 106716239.742 8  83155516.07445  20307410.712    20307410.4404   20307410.9264
        48.300          35.7004
 130896024.305 5                  24908686.880
        34.300
 116558770.219 6  90825031.94645  22180385.467    22180386.0434   22180387.9774
        40.400          31.1004
 112039726.582 7  87303737.45245  21320454.284    21320454.1284   21320458.9874
        45.800          31.3004
 103987268.680 6                  19487170.567    19487171.058
        40.100
 148925137.760 4                  28339507.338
        28.700
 114834784.812 8  89481661.51847  21852337.458    21852337.0204   21852339.0744
        48.300          46.9004
 126809122.813 6                  24130954.702
        41.100
 106608486.507 8  82917747.758 7  19915359.372    19915359.566    19915366.170
        48.900          45.700
 127712657.433 6                  24302906.381
        41.400


 198905159.088 7                  37850407.922
        42.300
 118836726.017 7  92600059.79346  22613885.964    22613885.7954   22613885.9724
        46.800          38.7004
 136333056.291 6                  25943319.547
        36.900
 202037632.816 7                  38446500.885
        45.200
 127821590.241 6                  23869779.064    23869773.572
        37.100
 123196243.116 6                  23443466.532
        40.200
 109793473.737 8  85395046.480 7  20553575.514    20553575.938    20553581.482
        52.500          46.700
 25  1  1 16 27  0.0000000  0 22E31G07E29G16G27G04G03G26R06E09G09E04
                                R07E21S35S31G31E06S33R08E19R16


 129458735.902 5 100876944.54743  24635177.377    24635177.1494   24635185.3194
        32.600          22.0004


 104597554.263 8  81504407.79346  19904196.968    19904196.0974   19904196.7784
        48.600          38.2004
 121376347.592 5  94579012.98244  23097146.935    23097147.0464   23097161.6794
        33.300          24.8004
 106695565.358 8  83139406.12046  20303476.566    20303476.2764   20303476.2874
        48.400          36.6004
 116602218.233 6  90858887.49545  22188653.239    22188653.7754   22188657.0494
        39.000          31.5004
 112077115.975 7  87332871.89745  21327567.730    21327567.5344   21327574.2994
        44.700          31.5004
 104014054.046 6                  19492191.100    19492190.177
        39.400


 114793027.404 8  89449123.29847  21844390.936    21844390.4854   21844393.5564
        48.300          46.3004
 126785325.832 7                  24126427.471
        42.300
 106574529.647 8  82891336.900 7  19909017.012    19909016.136    19909022.767
        48.300          44.100
 127733888.012 7                  24306947.306
        42.600


 198905157.239 6                  37850407.466
        40.800
 118875003.368 7  92629886.26746  22621170.234    22621170.0474   22621170.1914
        42.800          38.1004
 136297401.303 6                  25936534.264
        36.200
 202037655.419 7                  38446506.707
        46.800
 127758268.437 6                  23857948.719    23857951.134
        38.600
 123213863.455 6                  23446819.830
        40.700
 109834404.537 8  85426881.486 7  20561238.748    20561239.181    20561243.594
        52.500          46.300
 25  1  1 16 27 15.0000000  0 24E31G07E29G16G27G04G28G03G26R06R10E09
                                G09E04R07E21S35S31G31E06S33R08E19R16


 129424128.294 6 100849970.53543  24628593.704    24628593.5264   24628594.3224
        37.300          20.6004


 104601568.272 8  81507535.57946  19904960.314    19904959.4384   19904961.3944
        48.100          38.9004


 106674989.915 8  83123373.26446  20299561.127    20299560.8284   20299560.7564
        48.600          36.5004
 130978318.945 5                  24924350.575
        33.200
 116645744.029 6  90892803.57245  22196935.305    22196935.7874   22196941.2174
        37.100          30.0004
 112114589.203 7  87362071.70945  21334699.159    21334698.9494   21334702.4424
        46.300          34.0004
 104041014.810 6                  19497242.498    19497242.230
        38.500
 119084634.742 6                  22339975.560    22339976.758
        36.100


 114751329.109 7  89416631.08647  21836456.221    21836455.7654   21836459.5964
        43.200          45.5004
 126761573.512 7                  24121906.731
        43.200
 106540719.463 8  82865040.035 7  19902699.634    19902700.363    19902707.646
        49.100          47.300
 127755190.108 7                  24311000.187
        42.800


 198905152.083 7                  37850409.612
        43.600
 118913300.992 7  92659728.55446  22628459.133    22628458.9594   22628458.8474
        45.200          39.8004
 136261761.351 6                  25929754.240
        39.300
 202037674.170 7                  38446509.529
        45.100
 127694960.104 6  99318258.524 4  23846114.421    23846119.999    23846115.970
        37.200          28.900
 123231550.609 6                  23450185.939
        41.800
 109875394.300 8  85458762.363 7  20568911.460    20568912.217    20568918.294
        51.700          47.600
 25  1  1 16 27 30.0000000  0 24E31G07E29G16G27G04G28G03G26R06R10E09
                                G09E04R07E21S35S31G31E06S33R08E19R16
 142783016.346 5                  27170705.005
        31.800
 129389527.309 5 100823008.74143  24622008.016    24622007.4984   24622012.5764
        32.900          20.1004
 143003910.571 5                  27212740.354
        31.300
 104605737.607 8  81510784.39946  19905754.016    19905753.1454   19905755.3844
        48.300          39.5004


 106654515.377 8  83107419.07446  20295664.718    20295664.4234   20295665.2894
        49.600          38.0004
 131019469.415 5                  24932175.370
        32.100
 116689348.647 6  90926781.04345  22205235.647    22205236.0854   22205238.1344
        40.000          32.7004
 112152147.726 7  87391337.98245  21341845.589    21341845.3484   21341849.1184
        46.700          35.6004
 104068152.595 6                  19502328.960    19502328.454
        39.800
 119037959.409 4                  22331217.021    22331214.283
        27.900
 148804820.016 5                  28316615.846
        35.800
 114709691.754 7  89384186.34347  21828533.593    21828533.1424   21828537.0974
        42.600          43.6004
 126737867.566 6                  24117395.919
        41.200
 106507058.361 8  82838859.126 8  19896413.738    19896414.469    19896419.074
        51.600          48.000
 127776565.327 6                  24315067.813
        41.700


 198905145.015 7                  37850407.748
        42.300
 118951620.571 7  92689587.95746  22635750.660    22635750.4914   22635750.3604
        47.500          40.8004
 136226138.373 6                  25922974.119
        39.400
 202037691.865 7                  38446508.657
        42.600
 127631667.177 5                  23834313.799    23834308.248
        33.100
 123249306.260 7                  23453565.597
        42.500
 109916444.231 8  85490689.983 7  20576594.983    20576595.685    20576602.835
        50.600          47.100
 25  1  1 16 27 45.0000000  0 24E31G07E29G16G27G04G28G03G26R06R10E09
                                G09E04R07E21S35S31G31E06S33R08E19R16
 142739487.745 5                  27162424.779
        30.100
 129354937.718 4 100796055.96142  24615426.447    24615426.3764   24615430.7684
        28.300          17.1004
 143042017.766 4                  27219990.390
        27.500
 104610066.845 7  81514157.81246  19906578.179    19906577.3034   19906579.5094
        47.600          40.6004
 121229061.141 5  94464261.03344  23069125.031    23069124.2004   23069135.6964
        33.500          24.8004
 106634146.616 8  83091547.27246  20291788.679    20291788.3804   20291789.7384
        48.500          37.2004
 131060627.085 4                  24940012.244
        24.800
 116733036.552 6  90960823.50545  22213547.614    22213547.9804   22213549.5074
        40.300          30.4004
 112189796.032 7  87420674.25646  21349010.114    21349009.8864   21349013.3204
        45.100          37.3004
 104095471.710 6                  19507446.961    19507447.385
        38.900
                                                  22322480.895

 148764710.796 6                  28308983.587
        36.800
 114668120.338 7  89351793.04146  21820623.103    21820622.6344   21820626.1844
        42.100          41.0004
 126714212.848 7                  24112895.203
        43.800
 106473551.329 8  82812798.122 7  19890152.242    19890153.826    19890158.968
        50.000          47.000
 127798018.104 7                  24319150.334
        44.600


 198905140.686 6                  37850402.476
        40.800
 118989966.634 7  92719467.95746  22643046.735    22643046.5524   22643046.4654
        45.500          39.2004
 136190537.087 6                  25916199.949
        39.500
 202037712.012 7                  38446522.671
        42.500
 127568438.486 4                  23822502.503
        27.200
 123267134.965 7                  23456958.141
        42.700
 109957559.010 7  85522668.140 8  20584291.448    20584289.559    20584300.921
        44.500          48.200
 25  1  1 16 28  0.0000000  0 20E31E29G16G27G04G03G26R06E09G09E04R07
                                E21S35S31G31E06S33E19R16
 142695987.853 5                  27154145.495
        32.500
 143080158.115 4                  27227246.071
        29.000
 104614552.685 8  81517653.27446  19907432.026    19907431.1464   19907433.0664
        49.200          41.8004
 121180071.390 6  94426087.35244  23059802.349    23059801.7374   23059811.7054
        40.100          27.9004
 106613880.751 8  83075755.67946  20287932.925    20287932.6124   20287933.7954
        49.800          38.5004
 116776804.084 7  90994927.93645  22221875.255    22221875.5764   22221878.1554
        43.500          34.4004
 112227530.522 7  87450077.72746  21356190.537    21356190.2924   21356193.9584
        44.500          37.1004
 104122969.073 6                  19512602.179    19512601.766
        41.400
 148724594.296 6                  28301350.277
        36.200
 114626612.086 7  89319448.90246  21812723.093    21812722.6154   21812727.1254
        44.500          41.8004
 126690606.417 7                  24108402.295
        43.200
 106440195.620 8  82786854.783 8  19883921.097    19883922.298    19883928.397
        51.800          48.200
 127819545.025 7                  24323247.277
        46.200


 198905136.415 7                  37850411.240
        43.400
 119028336.071 7  92749366.14046  22650349.383    22650349.1874   22650347.1264
        45.300          36.7004
 136154954.520 6                  25909429.795
        41.800
 202037731.995 7                  38446531.538
        45.100
 123285033.637 7                  23460364.129
        44.000
 109998735.092 8  85554693.958 7  20592001.906    20592001.279    20592008.411
        49.500          46.100
 25  1  1 16 28 15.0000000  0 22E31G07E29G16G27G04G03G26R06E09G09E04
                                R07E21S35S31G31E06S33R08E19R16
 142652516.695 5                  27145880.696
        30.300
 129285775.085 4 100742190.57042  24602265.423    24602265.0664   24602270.4884
        29.800          12.7004


 104619195.162 8  81521270.80746  19908315.338    19908314.4674   19908316.2784
        49.000          41.4004
 121131130.967 6  94387952.09544  23050490.734    23050489.8544   23050497.3744
        38.900          28.4004
 106593718.163 8  83060044.56446  20284095.868    20284095.5554   20284097.1384
        49.600          38.4004
 116820651.012 6  91029094.24345  22230218.415    22230218.6784   22230222.8424
        39.600          32.2004
 112265350.930 7  87479548.17246  21363387.940    21363387.6904   21363391.5674
        43.600          37.6004
 104150644.374 6                  19517787.382    19517787.158
        41.200
 148684470.323 5                  28293715.085
        35.100
 114585167.391 7  89287154.35246  21804836.516    21804835.9984   21804839.8364
        42.400          40.8004
 126667048.519 7                  24103920.128
        43.200
 106406991.595 8  82761029.382 8  19877718.500    19877719.594    19877726.744
        51.000          48.100
 127841146.111 7                  24327357.217
        46.400


 198905131.917 7                  37850404.653
        42.800
 119066728.813 7  92779282.54246  22657654.498    22657654.2844   22657652.0184
        46.800          37.2004
 136119391.001 7                  25902661.574
        42.400
 202037752.156 7                  38446524.648
        45.800
 127441964.948 4                  23798878.764
        24.700
 123303002.575 7                  23463783.052
        43.700
 110039972.015 8  85586767.207 7  20599719.494    20599720.538    20599728.516
        50.400          46.600
 25  1  1 16 28 30.0000000  0 21E31E29G16G27G04G03G26R06E09G09E04R07
                                E21S35R05S31G31E06S33E19R16
 142609075.811 4                  27137615.406
        28.800


 104623996.025 8  81525011.73847  19909228.788    19909227.9124   19909229.5894
        48.400          42.3004
 121082242.255 5  94349857.09344  23041187.855    23041187.0154   23041192.4824
        35.300          25.2004
 106573660.943 8  83044415.59146  20280279.157    20280278.8404   20280280.0684
        49.500          39.1004
 116864578.891 5  91063323.68645  22238578.258    22238578.4944   22238583.8914
        33.700          32.0004
 112303258.933 7  87509086.90445  21370601.422    21370601.1414   21370605.6944
        42.000          35.9004
 104178499.536 6                  19523008.031    19523008.528
        40.800
 148644341.246 6                  28286078.790
        38.300
 114543788.378 7  89254910.98446  21796961.973    21796961.4414   21796964.8844
        44.200          40.8004
 126643541.145 7                  24099445.605
        44.500
 106373941.709 8  82735323.939 7  19871545.660    19871547.105    19871550.928
        52.100          46.000
 127862823.108 7                  24331482.496
        47.300


 128772492.744 5                  24089560.562
        35.600
 198905129.698 7                  37850406.558
        43.000
 119105146.803 7  92809218.57146  22664965.070    22664964.8424   22664963.1434
        46.200          36.7004
 136083848.488 6                  25895897.294
        40.100
 202037774.061 7                  38446525.868
        46.500
 123321043.374 7                  23467216.126
        43.800
 110081271.222 8  85618888.807 7  20607450.982    20607451.670    20607457.273
        49.100          43.600
 25  1  1 16 28 45.0000000  0 23E31G07E29G16G27G04G03G26R06R10E09G09
                                E04R07E21S35S31G31E06S33R08E19R16


 129216715.052 5 100688364.33042  24589118.428    24589117.7764   24589124.9334
        34.700          17.1004


 104628955.837 8  81528876.52547  19910172.908    19910172.0454   19910173.6434
        48.800          42.0004
 121033406.353 6  94311803.29444  23031894.692    23031893.9194   23031899.0644
        37.100          24.5004
 106553710.027 8  83028869.42746  20276482.968    20276482.6514   20276483.8254
        49.500          39.2004
 116908587.867 6  91097616.27145  22246954.049    22246954.3264   22246959.5714
        37.500          31.9004
 112341254.967 6  87538694.26145  21377832.304    21377831.9604   21377835.6154
        39.700          33.6004
 104206534.989 6                  19528262.093    19528262.421
        40.800
 118805778.839 5                  22287666.230    22287666.922
        32.200
 148604207.739 6                  28278440.821
        37.900
 114502476.215 7  89222719.75146  21789101.607    21789101.0844   21789102.3144
        45.900          38.8004
 126620085.274 7                  24094981.610
        44.800
 106341047.374 8  82709739.460 7  19865398.396    19865399.715    19865405.291
        48.900          44.900
 127884576.527 7                  24335621.543
        47.000


 198905129.463 6                  37850399.122
        40.700
 119143590.541 7  92839174.67646  22672280.673    22672280.4324   22672278.6554
        47.100          37.5004
 136048327.796 6                  25889136.442
        37.500
 202037797.958 7                  38446533.819
        45.100
                  99023090.342 5                                  23775254.865
                        32.100
 123339156.967 7                  23470662.881
        43.800
 110122633.387 8  85651059.446 7  20615193.997    20615194.423    20615202.472
        50.200          44.300
 25  1  1 16 29  0.0000000  0 24E31G07E29G16G27G04G03G26R06R10E09G09
                                E04R07E21S35R05S31G31E06S33R08E19R16
 142522281.924 4                  27121086.857
        26.300
 129182165.707 5 100661443.08842  24582558.285    24582557.8124   24582547.0064
        33.000          12.6004


 104634067.429 8  81532859.59646  19911145.728    19911144.8654   19911146.3824
        48.600          40.9004
 120984616.759 6  94273785.52643  23022607.856    23022607.0744   23022616.0744
        39.200          22.9004
 106533858.686 8  83013400.84546  20272704.937    20272704.6204   20272706.4804
        48.500          39.2004
 116952670.750 6  91131966.51845  22255343.894    22255344.1534   22255349.0464
        41.000          33.2004
 112379331.444 6  87568364.26945  21385078.203    21385077.7834   21385080.4484
        39.500          32.0004
 104234743.469 6                  19533548.502    19533548.009
        40.100
 118759586.732 4                  22279017.198
        29.700
 148564062.787 5                  28270802.141
        35.000
 114461223.893 7  89190575.12946  21781251.088    21781250.5384   21781251.8394
        45.400          39.9004
 126596674.054 6                  24090526.512
        41.100
 106308302.039 8  82684270.871 7  19859282.307    19859283.050    19859288.232
        48.100          44.000
 127906399.138 7                  24339774.338
        45.700


 128903679.302 5                  24114097.895    24114100.913
        30.100
 198905124.568 7                  37850401.004
        42.000
 119182052.919 7  92869145.29346  22679600.477    22679600.2414   22679597.2574
        46.800          38.6004
 136012822.262 6                  25882380.275
        36.600
 202037817.657 7                  38446539.762
        45.600
 127252252.658 5  98973952.671 5  23763465.332    23763466.004    23763459.356
        34.900          35.100
 123357336.316 7                  23474122.443
        43.500
 110164050.877 8  85683272.987 7  20622948.271    20622947.729    20622955.894
        50.000          42.900
 25  1  1 16 29 15.0000000  0 24E31G07E29G16G27G04G28G03G26R06E09G09
                                E04R07E21S35R05S31G31E06S33R08E19R16


 129147663.201 5                  24575978.090    24575977.7334
        33.500
 143271363.963 5                  27263632.414
        33.000
 104639334.687 8  81536963.95046  19912147.600    19912146.7244   19912148.3924
        48.200          38.9004
 120935877.761 7  94235807.33742  23013334.502    23013333.7424   23013340.3554
        42.000          14.4004
 106514111.135 8  82998013.13546  20268946.882    20268946.5744   20268948.6544
        49.300          39.9004


 116996830.970 7  91166376.98245  22263744.963    22263745.1324   22263751.8064
        43.000          32.5004
 112417492.235 6  87598099.97644  21392338.577    21392338.2204   21392341.3034
        36.400          29.9004
 104263128.827 6                  19538867.548    19538867.357
        39.400
 148523910.764 6                  28263160.648
        36.100
 114420035.937 7  89158480.65046  21773413.772    21773413.2224   21773414.3464
        46.700          41.0004
 126573311.588 7                  24086081.692
        44.500
 106275709.607 7  82658921.172 7  19853194.897    19853195.159    19853199.340
        47.200          43.100
 127928294.757 7                  24343941.392
        46.500


 128969307.276 4                  24126380.716
        28.200
 198905119.711 6                  37850396.922
        41.200
 119220537.986 7  92899133.57546  22686923.716    22686923.4804   22686921.5874
        46.600          39.3004
 135977335.769 6                  25875627.593
        38.000
 202037836.959 7                  38446539.498
        45.200
 127189128.300 6  98924830.061 5  23751673.276                    23751663.327
        36.700          35.100
 123375585.515 7                  23477595.053
        43.300
 110205527.110 8  85715532.139 7  20630713.485    20630714.048    20630719.695
        52.000          42.200
 25  1  1 16 29 30.0000000  0 24E31G07E29G16G27G04G28G03G26R06E09G09
                                E04R07E21S35R05S31G31E06S33R08E19R16
 142435603.618 4                  27104590.152
        24.500
 129113133.295 5 100607629.70341  24569388.989    24569388.6594   24569409.1554
        32.600           9.3004
 143309705.156 5                  27270929.156
        34.500
 104644761.155 7  81541192.36446  19913179.923    19913179.0434   19913180.2734
        47.900          39.1004
 120887193.654 6  94197871.72443  23004069.210    23004068.4234   23004074.5624
        41.300          21.6004
 106494471.325 8  82982709.37446  20265209.149    20265208.8324   20265211.8404
        48.700          39.7004


 117041071.864 7  91200850.30546  22272163.580    22272163.7364   22272169.6314
        44.400          36.0004
 112455740.602 6  87627903.92745  21399617.725    21399617.4534   21399620.2154
        41.800          30.2004
 104291694.533 6                  19544218.811    19544219.451
        38.200
 148483755.443 5                  28255520.354
        31.500
 114378916.187 7  89126439.27247  21765588.771    21765588.2214   21765590.0714
        47.500          43.2004
 126550001.697 6                  24081645.883
        41.900
 106243274.597 8  82633693.965 7  19847136.117    19847135.154    19847139.594
        48.800          42.600
 127950266.920 7                  24348121.527
        44.800


 129034962.829 4                  24138666.172    24138671.218
        28.900
 198905118.277 6                  37850397.266
        41.400
 119259049.237 7  92929142.28546  22694252.654    22694252.3954   22694251.4664
        44.600          40.3004
 135941872.427 5                  25868879.410
        34.700
 202037858.940 7                  38446547.605
        44.000
 127125994.984 5  98875726.399 6  23739880.456    23739882.144    23739876.090
        33.800          37.300
 123393908.127 7                  23481081.849
        43.600
 110247065.762 8  85747839.920 7  20638489.460    20638489.672    20638495.158
        50.200          42.100
 25  1  1 16 29 45.0000000  0 25E31G07E29G08G16G27G04G03G26R06R10E09
                                G09E04R07E21S35R05S31G31E06S33R08E19
                                R16
 142392308.117 5                  27096350.830
        33.600
 129078609.481 6 100580728.14642  24562825.764    24562825.6084   24562836.1384
        37.100          13.6004
 143348076.902 4                  27278227.714
        28.900


 104650341.350 7  81545540.58746  19914240.771    19914239.9084   19914241.2724
        45.700          36.7004
 120838559.383 7  94159975.08343  22994815.663    22994814.9034   22994821.5144
        42.400          18.7004
 106474934.108 8  82967485.56346  20261491.691    20261491.3784   20261494.1514
        48.500          39.6004
 117085387.752 7  91235382.07245  22280596.867    22280597.0234   22280601.7524
        42.300          34.6004


 104320435.010 6                  19549605.806    19549605.494
        38.600
 118621532.725 4                  22253094.576
        27.600
 148443591.322 5                  28247879.230
        33.400
 114337859.786 7  89094447.25347  21757775.354    21757774.8004   21757777.4764
        47.800          42.3004
 126526739.374 6                  24077217.857
        40.300
 106210991.873 7  82608585.182 7  19841105.767    19841104.205    19841110.563
        46.600          44.000
 127972310.168 7                  24352316.021
        42.400
 200847523.247 5                  38220018.014
        31.400
 129100640.638 5                  24150944.662    24150946.797
        30.200
 198905113.941 6                  37850393.805
        41.300
 119297581.297 7  92959167.19046  22701585.085    22701584.8044   22701585.5714
        44.200          41.7004
 135906426.835 5                  25862134.091
        35.800
 202037879.558 7                  38446549.702
        46.400
 127062880.782 5  98826637.548 5  23728091.164    23728091.307    23728086.545
        31.200          35.000
 123412299.006 7                  23484581.013
        42.200
 110288661.430 8  85780192.034 7  20646275.311    20646275.567    20646281.872
        48.400          42.600
 25  1  1 16 30  0.0000000  0 24E31G07E29G16G27G04G03G26R06R10E09G09
                                E04R07E21S35R05S31G31E06S33R08E19R16
 142349046.463 5                  27088117.860
        34.600
 129044097.874 5 100553835.9404   24556252.964    24556252.9064   24556268.2954
        35.700           5.4004
 143386485.356 5                  27285543.832
        33.000
 104656081.236 7  81550013.25146  19915334.069    19915333.2024   19915333.8024
        45.800          36.3004
 120789981.607 7  94122123.02942  22985570.752    22985570.0284   22985580.4104
        42.200          16.3004
 106455505.957 8  82952346.72446  20257794.591    20257794.2784   20257797.1434
        49.600          40.1004
 117129784.374 6  91269976.72845  22289047.287    22289047.4214   22289050.0964
        38.800          33.9004


 104349356.358 6                  19555026.608    19555025.941
        39.100
 118575668.023 5                  22244488.988
        32.800
 148403424.970 6                  28240234.406
        37.100
 114296873.062 7  89062509.53547  21749975.502    21749974.9394   21749978.0984
        47.600          43.3004
 126503530.767 7                  24072803.165
        42.800
 106178868.184 8  82583600.086 7  19835104.197    19835104.678    19835109.932
        48.800          45.000
 127994430.485 7                  24356526.146
        43.700


 129166349.999 5                  24163235.321    24163232.705
        30.500
 198905113.778 7                  37850399.690
        42.200
 119336140.329 7  92989213.12246  22708921.476    22708921.1994   22708923.8844
        44.300          41.0004
 135871005.365 6                  25855395.440
        36.900
 202037903.580 7                  38446552.318
        42.100
 126999712.295 5  98777568.512 5  23716311.333    23716316.121    23716304.249
        31.500          34.300
 123430764.194 6                  23488095.138
        41.500
 110330319.643 7  85812592.900 7  20654073.316    20654073.482    20654080.466
        46.500          43.100
 25  1  1 16 30 15.0000000  0 23E31E29G08G16G27G04G03G26R06R10E09G09
                                E04R07E21S35S31G31E06S33R08E19R16
 142305810.264 5                  27079890.841
        30.100




 104661972.236 7  81554603.66346  19916454.644    19916453.7864   19916454.9634
        45.400          36.5004
 120741452.294 6  94084307.84144  22976337.826    22976337.1474   22976349.4114
        41.400          24.4004
 106436178.577 8  82937286.43446  20254116.545    20254116.2374   20254118.8404
        48.700          39.9004
 117174252.782 7  91304627.31445  22297508.786    22297508.9204   22297512.3864
        42.400          33.7004


 104378449.640 7                  19560478.789    19560479.523
        43.100
 118529879.944 6                  22235899.159    22235900.307
        37.000
 148363247.837 5                  28232590.623
        35.800
 114255947.865 7  89030619.78547  21742188.067    21742187.5004   21742190.8484
        44.700          44.3004
 126480367.622 7                  24068395.314
        43.500
 106146895.528 8  82558732.465 6  19829130.128    19829131.364    19829135.035
        50.500          41.700
 128016619.028 7                  24360747.777
        42.400


 198905109.354 7                  37850402.525
        42.100
 119374717.766 7  93019273.40246  22716262.731    22716262.4724   22716264.9204
        44.700          40.1004
 135835599.731 6                  25848657.036
        41.200
 202037923.626 6                  38446560.027
        40.100
                  98728513.367 5                                  23704528.732
                        32.500
 123449295.120 6                  23491621.966
        41.500
 110372031.235 8  85845035.246 7  20661881.330    20661881.624    20661888.461
        48.300          44.500
 25  1  1 16 30 30.0000000  0 22E31G07E29G08G16G27G04G03R06R10E09G09
                                E04R07E21S35S31G31E06S33E19R16
 142262604.394 5                  27071669.849
        31.300
 128974968.147 5 100500043.60143  24543125.593    24543125.3654   24543135.8464
        32.600          20.1004




 104668018.966 8  81559315.37946  19917605.781    19917604.9144   19917606.2534
        48.100          38.3004
 120692976.609 6  94046534.73644  22967111.919    22967111.2534   22967127.0254
        40.000          28.6004
 106416956.908 7  82922308.50146  20250458.821    20250458.5174   20250461.0174
        47.300          39.6004
 117218797.246 6  91339337.21046  22305984.394    22305984.5284   22305989.7784
        41.400          36.5004
 104407719.512 6                  19565963.403    19565963.172
        41.800
 118484173.240 6                  22227326.435    22227325.398
        36.300
 148323064.886 5                  28224942.470
        32.300
 114215089.199 7  88998781.87047  21734413.034    21734412.4894   21734415.9844
        47.100          44.5004
 126457254.726 7                  24063996.474
        43.800
 106115079.067 8  82533986.296 7  19823187.508    19823188.421    19823191.859
        50.400          43.500
 128038880.509 6                  24364984.501
        41.800


 198905105.186 7                  37850409.527
        42.100
 119413317.992 7  93049351.44946  22723608.483    22723608.2064   22723609.6724
        42.000          39.3004
 135800214.838 6                  25841923.746
        38.000
 202037942.822 7                  38446559.267
        44.100
 123467896.651 7                  23495161.723
        43.000
 110413800.858 7  85877522.660 7  20669700.419    20669700.260    20669707.884
        47.300          42.500
 25  1  1 16 30 45.0000000  0 24E31G07G26E29G08G16G27G04G03R06R10E09
                                G09E04R07E21S35S31G31E06S33R08E19R16
 142219431.202 5                  27063453.085
        35.900
 128940479.499 6 100473169.42043  24536564.800    24536564.5864   24536567.6324
        37.700          20.3004
 112648257.530 6  87777836.73544  21436247.736    21436248.1604   21436247.6514
        37.800          27.9004




 104674223.787 7  81564150.34046  19918786.472    19918785.6094   19918787.4334
        47.800          38.4004
 120644557.309 6  94008805.46844  22957897.543    22957896.8684   22957915.6084
        40.900          26.1004
 106397843.619 8  82907415.04346  20246821.846    20246821.5384   20246823.4684
        49.600          39.0004
 117263419.881 6  91374107.96946  22314474.236    22314474.4144   22314482.9944
        39.500          36.0004
 104437168.273 6                  19571482.212    19571482.608
        41.000
 118438550.478 4                  22218768.149    22218767.611
        27.300
 148282878.413 5                  28217294.010
        33.100
 114174299.721 8  88966997.85747  21726651.062    21726650.5174   21726653.7444
        48.500          45.0004
 126434194.835 7                  24059608.936
        43.800
 106083421.525 7  82509363.811 7  19817272.717    19817272.603    19817279.122
        46.700          44.300
 128061217.076 6                  24369233.499
        36.900


 198905102.969 7                  37850388.949
        42.000
 119451943.484 7  93079449.19446  22730957.998    22730957.7124   22730959.7314
        44.000          37.4004
 135764853.112 6                  25835195.365
        40.400
 202037965.080 6                  38446562.388
        40.900
 126810616.481 4  98630475.128 5  23680979.432                    23680984.262
        29.500          34.400
 123486571.319 6                  23498715.130
        41.600
 110455630.804 8  85910057.241 7  20677532.528    20677533.179    20677538.639
        48.000          44.300
 25  1  1 16 31  0.0000000  0 22E31G07G26E29G08G16G27G04G03R06E09G09
                                E04R07E21S35S31G31E06S33E19R16
 142176286.327 6                  27055244.563
        37.100
 128905996.508 6 100446299.63743  24530003.836    24530003.4974   24530001.3144
        36.000          20.4004
 112687003.978 5  87808028.73144  21443619.955    21443620.2594   21443624.6754
        34.600          26.2004




 104680581.633 8  81569104.50346  19919996.906    19919996.0434   19919997.7354
        49.100          40.0004
 120596190.131 6  93971116.61044  22948692.426    22948691.7604   22948711.6234
        41.600          26.9004
 106378834.198 8  82892602.49546  20243204.351    20243204.0564   20243205.4884
        49.600          38.9004
 117308115.545 7  91408935.61146  22322979.930    22322980.1134   22322989.5544
        42.000          37.1004
 104466790.706 6                  19577032.668    19577032.844
        40.600
 148242683.914 5                  28209644.350
        32.400
 114133575.096 7  88935264.42147  21718901.248    21718900.6764   21718903.4164
        47.400          43.7004
 126411183.170 7                  24055229.164
        46.300
 106051918.588 8  82484861.476 7  19811387.316    19811388.279    19811394.436
        48.700          44.500
 128083623.754 6                  24373496.362
        37.300


 198905099.334 6                  37850406.491
        38.100
 119490589.580 7  93109562.99046  22738309.359    22738309.0464   22738313.9054
        42.500          36.4004
 135729510.024 6                  25828468.097
        40.200
 202037985.447 7                  38446580.440
        42.500
 123505314.258 7                  23502281.900
        43.100
 110497515.824 8  85942634.591 7  20685372.464    20685373.154    20685380.514
        49.600          44.900
 25  1  1 16 31 15.0000000  0 23E31G07G26E29G08G16G27G04G03R06E09G09
                                E04R07E21S35S31G31E06S33R08E19R16
 142133173.589 5                  27047037.923
        33.500
 128871523.143 6 100419437.31943  24523442.961    24523442.4294   24523440.0884
        38.000          21.4004
 112725834.208 6  87838286.02144  21451009.712    21451010.0294   21451014.9974
        41.300          29.7004
 143579033.072 4                  27322179.003
        29.200


 104687096.358 8  81574180.92246  19921236.706    19921235.8614   19921237.3454
        48.500          39.8004
 120547879.294 7  93933471.86144  22939499.227    22939498.5844   22939515.3424
        43.100          28.7004
 106359932.649 8  82877874.04746  20239607.719    20239607.4244   20239608.5814
        50.100          39.8004
 117352887.517 7  91443822.73046  22331500.378    22331500.5564   22331510.1954
        42.100          36.9004
 104496590.669 6                  19582617.269    19582617.968
        39.700
 148202485.285 6                  28201996.776
        36.600
 114092919.332 8  88903584.60347  21711165.496    21711164.9154   21711165.6004
        48.600          44.1004
 126388223.766 7                  24050861.486
        47.100
 106020574.558 8  82460482.844 7  19805533.216    19805533.418    19805538.318
        49.500          43.900
 128106104.243 6                  24377775.437
        40.100


 198905097.309 6                  37850397.360
        40.900
 119529259.806 5  93139695.58845  22745671.122    22745670.9174   22745672.6174
        34.500          34.9004
 135694189.505 6                  25821748.097
        40.100
 202038007.061 7                  38446569.516
        43.500
 126684603.916 6                  23657463.078    23657460.057
        36.100
 123524129.319 7                  23505862.763
        44.300
 110539459.111 8  85975257.149 7  20693226.150    20693225.636    20693233.314
        48.900          47.100
 25  1  1 16 31 30.0000000  0 21E31G07G26E29G16G27G04G03R06E09G09E04
                                R07E21S35S31G31E06S33E19R16
 142090090.982 5                  27038843.285
        34.900
 128837057.500 6 100392581.04343  24516884.011    24516883.4934   24516883.0984
        40.100          22.0004
 112764746.040 6  87868606.94744  21458414.679    21458414.7144   21458420.2724
        39.700          29.2004
 143617633.690 5                  27329519.577
        30.000
 104693765.352 8  81579377.55846  19922505.669    19922504.8064   19922506.7184
        48.600          40.6004
 120499623.139 7  93895869.77645  22930316.344    22930315.6694   22930330.2714
        42.400          33.0004
 106341137.178 8  82863228.21446  20236031.509    20236031.2144   20236032.1644
        49.100          39.7004
 117397733.368 7  91478767.38046  22340035.026    22340035.2314   22340043.7064
        44.800          38.0004
 104526565.749 6                  19588235.606    19588235.609
        40.300
 148162280.560 5                  28194345.954
        30.200
 114052330.635 8  88871957.07347  21703441.648    21703441.0764   21703441.8824
        48.500          44.9004
 126365314.711 7                  24046501.880
        47.300
 105989387.910 8  82436226.532 7  19799707.106    19799707.189    19799712.975
        51.300          46.000
 128128656.175 6                  24382068.128
        36.300


 198905094.656 7                  37850395.974
        42.900


 135658889.626 6                  25815031.916
        40.600
 202038028.233 7                  38446575.950
        45.700
 123543014.257 7                  23509455.778
        45.000
 110581458.281 8  86007923.142 7  20701089.631    20701089.114    20701094.502
        50.100          46.600
 25  1  1 16 31 45.0000000  0 23E31G07G26E29G16G27G04G28G03R06R10E09
                                G09E04R07E21S35S31G31E06S33E19R16
 142047039.750 4                  27030644.592
        27.200
 128802600.494 6 100365731.44543  24510325.297    24510324.8194   24510327.7264
        39.400          23.1004
 112803739.921 6  87898991.76644  21465835.132    21465835.2084   21465839.7994
        39.900          26.5004
 143656249.030 5                  27336879.273
        30.800
 104700589.508 8  81584695.09546  19923804.221    19923803.3634   19923805.0854
        50.300          40.2004
 120451422.973 6  93858311.31144  22921144.712    22921144.0244   22921156.6624
        38.800          29.7004
 106322448.910 8  82848665.92546  20232475.059    20232474.7694   20232476.1694
        48.600          39.4004


 117442653.617 6  91513770.07346  22348583.098    22348583.2764   22348591.2884
        40.100          36.1004
 104556716.585 6                  19593885.229    19593885.719
        38.700
 118256827.113 6                  22184683.838    22184683.129
        37.900
 148122070.698 6                  28186695.522
        38.000
 114011810.329 7  88840382.83047  21695730.829    21695730.2714   21695731.3874
        47.800          43.6004
 126342457.165 7                  24042152.026
        47.300
 105958359.639 8  82412093.422 7  19793910.580    19793911.251    19793916.393
        51.000          43.600
 128151280.466 6                  24386375.170
        37.500


 198905092.375 6                  37850405.208
        41.700
 119606693.421 6  93200032.10844  22760403.184    22760403.6084   22760401.3244
        37.700          29.8004
 135623611.540 6                  25808317.931
        39.400
 202038050.647 7                  38446588.010
        45.100
 123561970.132 7                  23513063.463
        43.100
 110623513.821 8  86040633.145 7  20708961.067    20708959.644    20708967.460
        48.200          47.700
 25  1  1 16 32  0.0000000  0 25E31G07G26E29G08G16G27G04G28G03R06R10
                                E09G09E04R07E21S35S31G31E06S33R08E19
                                R16
 142004015.989 5                  27022462.882
        34.100
 128768148.107 5 100338885.60243  24503769.405    24503768.9854   24503773.6644
        32.700          18.0004
 112842811.747 6  87929437.36243  21473270.379    21473270.4954   21473275.5974
        36.400          21.8004
 143694911.353 5                  27344233.823
        35.100


 104707564.919 8  81590130.47246  19925131.267    19925130.4094   19925131.2214
        49.200          38.0004
 120403275.764 5  93820775.05442  22911979.293    22911978.4804   22911992.0804
        33.000          15.6004
 106303864.344 8  82834184.46646  20228939.357    20228939.0624   20228940.2924
        49.600          39.8004


 117487644.124 6  91548827.50745  22357146.103    22357146.2414   22357151.2844
        38.900          34.0004
 104587039.232 6                  19599569.160    19599568.422
        40.600
 118211609.210 5                  22176198.683    22176195.998
        31.500


 113971354.809 8  88808859.07747  21688031.892    21688031.3514   21688032.8104
        48.100          43.9004
 126319647.384 7                  24037811.201
        47.700
 105927486.463 8  82388081.018 7  19788143.633    19788143.936    19788148.800
        52.500          45.500
 128173972.950 6                  24390692.541
        41.700


 198905087.386 6                  37850397.870
        39.200
 119645427.648 6  93230214.61344  22767769.556    22767769.7304   22767772.2254
        36.600          28.2004
 135588351.451 6                  25801608.000
        41.500
 202038069.256 7                  38446582.586
        43.800
                                                  23622208.280

 123580993.293 7                  23516683.372
        46.300
 110665621.825 8  86073383.756 8  20716844.067    20716844.626    20716850.672
        50.000          49.000
 25  1  1 16 32 15.0000000  0 23E31G26E29G08G16G27G04G28G03R06R10E09
                                G09E04R07E21S35S31G31E06S33E19R16


 112881967.174 5  87959948.10842  21480719.641    21480719.6414   21480726.6844
        34.800          15.4004
 143733608.099 5                  27351591.014
        33.300


 104714697.558 8  81595688.37646  19926488.645    19926487.7824   19926487.9924
        48.700          39.4004


 106285389.732 8  82819788.62746  20225423.410    20225423.1154   20225424.1974
        48.700          38.1004


 117532710.511 6  91583944.00545  22365720.702    22365720.8134   22365725.8894
        40.200          30.7004
 104617539.533 6                  19605283.171    19605283.438
        40.100
 118166476.507 6                  22167732.340    22167730.434
        36.700
 148041631.270 5                  28171388.389
        34.900
 113930970.535 7  88777390.83247  21680347.061    21680346.5254   21680348.6444
        46.200          42.3004
 126296891.684 7                  24033480.812
        46.600
 105896774.982 8  82364194.293 7  19782405.773    19782406.017    19782413.573
        50.400          47.000
 128196739.610 6                  24395024.326
        40.100
 200847063.228 6                  38219916.589
        39.700
 198905084.735 6                  37850392.142
        41.400
 119684272.312 4  93260481.03542  22775152.925    22775153.0634   22775157.8974
        27.600          16.5004
 135553115.794 6                  25794902.868
        40.200
 202038089.947 7                  38446589.772
        44.800
 123600089.673 7                  23520317.720
        45.300
 110707788.134 8  86106179.753 7  20724735.209    20724736.633    20724743.948
        48.500          47.900
 25  1  1 16 32 30.0000000  0 24E31G07G26E29G08G16G27G04G03R06R10E09
                                G09E04R07E21S35S31G31E06S33R08E19R16


 128699300.559 5 100285200.81342  24490666.834    24490666.5444   24490673.7604
        34.400          13.9004
 112921199.598 5  87990518.94942  21488188.543    21488188.7304   21488193.2564
        30.400          12.9004




 104721981.138 8  81601363.88746  19927874.558    19927873.7044   19927873.8774
        48.200          38.5004


 106267019.117 7  82805473.84646  20221928.000    20221927.7054   20221927.3524
        47.400          36.9004
 117577846.277 6  91619114.62844  22374310.862    22374311.0314   22374313.3894
        39.500          28.5004
 104648210.952 6                  19611031.957    19611031.364
        41.500
 118121422.138 5                  22159280.114    22159279.917
        35.600
 148001401.790 5                  28163730.240
        32.800
 113890651.510 7  88745973.42146  21672674.901    21672674.3784   21672677.4994
        43.300          39.0004
 126274183.937 7                  24029159.986
        46.800
 105866219.389 8  82340428.783 8  19776699.277    19776699.354    19776706.343
        51.200          48.100
 128219573.959 7                  24399369.874
        42.400


 198905078.552 6                  37850399.497
        39.000


 135517898.370 6                  25788200.718
        40.500
 202038108.289 7                  38446590.734
        44.200
 126370193.966 6                  23598734.536
        36.800
 123619253.096 7                  23523964.669
        46.500
 110750005.569 8  86139015.510 7  20732639.140    20732639.765    20732646.486
        48.400          47.500
 25  1  1 16 32 45.0000000  0 24E31G07G26E29G16G27G04G28G03R06R10E09
                                G09E04R07E21S35S31G31E06S33R08E19R16


 128664877.812 5 100258377.89041  24484125.756    24484125.3504   24484128.3374
        32.200           8.8004
 112960519.146 4  88021157.56642  21495670.132    21495670.2304   21495676.9604
        27.600          14.5004


 104729425.252 7  81607164.50546  19929291.082    19929290.2244   19929291.1854
        47.800          38.2004


 106248762.471 8  82791247.89346  20218453.527    20218453.2414   20218452.9694
        49.500          37.9004


 117623060.597 6  91654346.44344  22382913.378    22382913.4764   22382918.0084
        38.600          27.5004
 104679063.270 7                  19616814.069    19616813.713
        42.100
 118076456.758 5                  22150839.121    22150840.924
        33.200
 147961173.535 5                  28156076.107
        31.700
 113850407.926 7  88714614.77546  21665016.520    21665016.0154   21665018.7144
        45.600          38.7004
 126251534.172 7                  24024848.953
        46.300
 105835829.641 8  82316792.277 8  19771020.929    19771021.234    19771029.153
        50.900          48.500
 128242485.630 7                  24403730.708
        44.100


 198905078.988 6                  37850403.151
        41.300


 135482709.079 6                  25781504.195
        41.800
 202038131.751 7                  38446601.667
        46.200
 126307253.594 4                  23586990.371
        28.300
 123638493.398 7                  23527625.381
        45.500
 110792283.937 8  86171898.536 7  20740554.770    20740555.365    20740561.473
        50.100          47.800
 25  1  1 16 33  0.0000000  0 23E31G26E29G08G16G27G04G28G03R06E09G09
                                E04R07E21S35S31G31E06S33R08E19R16
 141832213.144 5                  26989772.943
        32.900
 112999914.927 6  88051855.67842  21503165.326    21503165.2864   21503175.1824
        37.400          13.9004




 104737019.863 7  81613082.37746  19930736.676    19930735.8094   19930737.0134
        47.700          38.4004


 106230610.350 8  82777103.39146  20214998.639    20214998.3534   20214998.6224
        49.100          37.9004


 117668343.451 7  91689631.64845  22391530.513    22391530.6154   22391538.0304
        42.700          31.4004
 104710086.246 7                  19622627.806    19622627.954
        42.900
 147920936.824 5                  28148420.983
        31.700
 113810230.279 7  88683307.44646  21657370.190    21657369.6764   21657372.8434
        46.700          36.7004
 126228932.804 7                  24020548.724
        46.300
 105805597.043 8  82293277.974 7  19765374.673    19765375.350    19765379.714
        50.200          46.500
 128265464.760 7                  24408102.169
        42.200


 198905076.018 7                  37850392.003
        43.500
 119800604.707 6  93351146.44344  22797299.526    22797299.4194   22797301.7034
        39.200          29.0004
 135447538.514 6                  25774810.564
        40.000
 202038152.504 7                  38446596.949
        43.200
 126244454.722 6                  23575269.399    23575265.535
        37.400
 123657800.741 7                  23531299.567
        45.000
 110834613.306 8  86204821.174 7  20748479.019    20748479.929    20748485.899
        50.200          47.900
 25  1  1 16 33 15.0000000  0 24E31G26E29G08G16G27G04G28G03R06R10E09
                                G09E04R07E21S35S31G31E06S33R08E19R16
 141789348.154 4                  26981616.354
        27.200
 113039390.326 6  88082615.62144  21510678.824    21510678.7484   21510689.9674
        37.100          24.2004




 104744768.263 7  81619120.08546  19932211.287    19932210.4204   19932211.7724
        47.900          38.8004
 120163393.628 6  93633874.54243  22866335.655    22866335.4814   22866348.8654
        39.200          23.7004
 106212566.259 8  82763043.04546  20211565.159    20211564.8964   20211565.3964
        48.400          38.3004


 117713697.822 6  91724972.58844  22400159.342    22400159.4224   22400172.0494
        37.600          28.4004
 104741283.165 6                  19628474.738    19628474.753
        41.900
 117986765.496 5                  22134019.240    22134018.465
        33.000
 147880694.992 4                  28140778.969
        27.700
 113770122.091 8  88652054.48145  21649738.369    21649737.8694   21649735.2854
        48.200          33.3004
 126206383.245 7                  24016258.107
        46.600
 105775524.765 8  82269888.453 7  19759757.062    19759758.344    19759761.205
        50.400          44.200
 128288514.528 6                  24412488.115
        40.200
 200846980.680 5                  38219917.680
        33.200
 198905072.737 7                  37850387.585
        42.900
 119839451.683 7  93381416.75345  22804694.436    22804694.2674   22804694.4044
        43.800          31.9004
 135412389.901 6                  25768121.977
        38.800
 202038173.808 7                  38446602.176
        46.100
 126181683.054 5  98141327.825 6  23563549.936    23563549.414    23563551.606
        32.400          37.100
 123677178.545 6                  23534985.774
        39.000
 110876996.957 8  86237786.287 7  20756412.899    20756414.806    20756420.082
        50.800          47.600
 25  1  1 16 33 30.0000000  0 24E31G26E29G08G16G27G04G28G03R06R10E09
                                G09E04R07E21S35S31G31E06S33R08E19R16


 113078943.648 5  88113436.47743  21518220.028    21518220.0114   21518217.7834
        33.000          18.2004
 143927566.868 5                  27388507.319
        34.200


 104752668.627 7  81625276.20446  19933714.388    19933713.5254   19933715.3864
        47.200          38.2004
 120115591.715 6  93596626.39444  22857240.354    22857239.9254   22857250.0164
        38.800          27.9004
 106194628.942 8  82749065.91146  20208151.452    20208151.1984   20208153.1414
        49.100          39.4004


 117759121.543 5  91760367.52844  22408804.234    22408804.2514   22408816.5414
        33.600          26.5004
 104772652.181 6                  19634352.427    19634352.647
        40.700
 117942042.483 6                  22125631.762    22125631.047
        39.400


 113730082.244 8  88620854.60545  21642118.969    21642118.4784   21642114.3444
        48.100          33.5004
 126183884.199 7                  24011976.735
        45.300
 105745611.696 8  82246622.756 7  19754167.975    19754169.509    19754173.104
        49.700          44.300
 128311633.144 6                  24416888.477
        37.600
 200846942.409 5                  38219892.742
        33.900
 198905068.051 7                  37850393.805
        43.700
 119878318.917 6  93411702.87545  22812090.369    22812090.2764   22812090.6604
        41.800          33.1004
 135377262.062 6                  25761436.634
        39.600
 202038192.119 7                  38446610.239
        46.700
 126118937.379 5  98092525.633 6  23551840.211    23551838.574    23551833.996
        35.000          38.700
 123696625.305 6                  23538687.208
        40.500
 110919432.119 8  86270791.279 8  20764357.327    20764357.986    20764364.067
        51.100          48.100
 25  1  1 16 33 45.0000000  0 24E31G07G26E29G08G16G27G04G03R06R10E09
                                G09E04R07E21S35S31G31E06S33R08E19R16




 113118576.036 5  88144318.83642  21525758.768    21525758.7244   21525759.8184
        32.500          12.1004
 143966452.095 6                  27395907.016
        36.300


 104760722.665 8  81631552.06946  19935246.809    19935245.9384   19935247.9414
        48.400          38.4004
 120067849.020 6  93559424.57844  22848155.781    22848155.3484   22848163.4744
        39.100          26.5004
 106176800.402 8  82735173.54946  20204758.933    20204758.6884   20204760.8524
        48.000          38.9004
 117804616.152 6  91795817.74643  22417464.602    22417464.6644   22417472.8824
        38.700          22.1004
 104804194.722 6                  19640260.481    19640260.962
        36.800
 117897402.421 6                  22117258.414    22117257.420
        36.400


 113690112.828 7  88589709.62446  21634513.975    21634513.4934   21634510.7124
        45.900          37.1004
 126161437.607 7                  24007705.241
        44.800
 105715860.428 7  82223482.833 7  19748609.019    19748609.802    19748616.178
        47.400          43.400
 128334822.205 6                  24421301.746
        36.700


 198905063.484 7                  37850386.570
        44.400
 119917208.175 7  93442006.18845  22819490.729    22819490.3724   22819491.5674
        42.000          34.2004
 135342156.738 6                  25754757.580
        37.700
 202038211.825 7                  38446612.211
        43.200
                  98043745.259 5                                  23540116.203
                        33.200
 123716142.692 6                  23542401.177
        40.400
 110961920.969 8  86303838.120 7  20772311.942    20772312.779    20772318.171
        51.100          47.100
 25  1  1 16 34  0.0000000  0 23E31G07G26E29G08G16G27G04G03R06R10E09
                                G09E04R07E21S35S31G31E06S33E19R16






 144005366.295 5                  27403309.767
        33.300


 104768927.660 8  81637945.55246  19936808.238    19936807.3754   19936809.1454
        48.600          38.7004
 120020163.194 6  93522267.03544  22839082.042    22839081.3544   22839088.6514
        39.100          24.6004
 106159078.216 8  82721364.04146  20201387.034    20201386.7894   20201388.2024
        50.500          39.3004
 117850178.738 7  91831320.88344  22426133.297    22426133.3734   22426139.9114
        42.400          27.5004
 104835908.206 6                  19646207.132    19646206.909
        37.500
 117852843.024 5                  22108895.371    22108897.077
        34.800


 113650211.506 7  88558617.72046  21626920.484    21626920.0024   21626921.1974
        47.800          39.8004
 126139041.016 7                  24003442.235
        44.200
 105686268.315 8  82200466.717 7  19743081.154    19743082.769    19743087.965
        49.400          42.800
 128358078.885 6                  24425727.343
        39.400


 198905056.470 6                  37850370.977
        38.200
 119956116.672 6  93472324.44745  22826894.959    22826894.6114   22826895.7024
        39.700          33.6004
 135307071.886 5                  25748080.040
        34.600
 202038228.893 7                  38446617.805
        44.000
 123735728.319 6                  23546128.178
        40.800
 111004459.998 8  86336923.945 7  20780275.076    20780275.174    20780281.903
        50.000          47.600
 25  1  1 16 34 15.0000000  0 24E31G07G26E29G08G16G27G04G03R06R10E09
                                G09E04R07E21S35S31G31E06S33R08E19R16


 128458499.626 6 100097525.94042  24444837.797    24444837.6234   24444838.0904
        36.500          14.5004
 113198106.179 5  88206332.34241  21540876.072    21540876.0014   21540886.3344
        35.000           9.3004
 144044317.364 4                  27410724.630
        29.500
 127861789.632 4                  24331292.297
        29.200
 104777291.179 8  81644462.56546  19938399.594    19938398.7364   19938400.5824
        48.200          38.0004
 119972542.699 6  93485160.33244  22830020.787    22830020.1214   22830026.4344
        38.400          27.7004
 106141470.526 8  82707643.74246  20198035.821    20198035.5764   20198037.3784
        50.600          39.7004
 117895816.503 7  91866882.53544  22434818.028    22434818.1084   22434826.3914
        44.200          28.8004
 104867800.185 6                  19652183.198    19652184.056
        41.200
 117808371.803 5                  22100549.363    22100550.329
        33.300


 113610386.423 7  88527585.17546  21619341.581    21619341.0674   21619345.1684
        45.800          40.5004
 126116702.340 6                  23999192.822
        41.000
 105656843.848 8  82177580.982 7  19737584.629    19737584.565    19737593.843
        48.000          45.100
 128381410.912 6                  24430167.490
        41.100


 198905055.012 7                  37850384.231
        44.200
 119995052.324 6  93502663.87845  22834305.049    22834304.7194   22834303.8704
        38.100          31.5004


 202038249.933 7                  38446620.658
        45.800
 125930893.647 6  97946274.045 5  23516709.469    23516709.177    23516710.765
        40.900          34.200
 123755389.746 6                  23549869.708
        40.400
 111047057.370 8  86370055.277 7  20788249.811    20788250.500    20788255.540
        50.100          46.800
 25  1  1 16 34 30.0000000  0 24E31G07G26G08G16G27G04G28G03R06R10E09
                                G09E04R07E21S35S31G31E06S33R08E19R16


 128424126.785 5 100070741.90242  24438294.836    24438294.7694   24438296.3304
        35.900          15.0004
 113237973.425 6  88237397.77042  21548467.657    21548467.5684   21548470.0274
        41.100          12.2004
 127806795.407 5                  24320819.152
        35.600
 104785804.447 8  81651096.28146  19940019.684    19940018.8264   19940020.2674
        48.400          37.2004
 119924978.950 5  93448097.97444  22820971.327    22820970.8044   22820974.7254
        33.800          24.0004
 106123968.782 8  82694006.02446  20194705.396    20194705.1424   20194707.0434
        49.600          40.2004


 117941520.451 7  91902495.93245  22443515.058    22443515.1024   22443527.5074
        43.600          35.0004
 104899861.505 6                  19658191.193    19658192.025
        41.100
 117763980.237 6                  22092226.949    22092226.046
        37.100


 113570629.160 7  88496605.54546  21611776.502    21611775.9264   21611780.3274
        42.900          38.8004
 126094413.125 7                  23994950.632
        44.900
 105627578.706 8  82154819.211 7  19732119.024    19732120.372    19732125.344
        48.300          44.800
 128404809.301 7                  24434618.676
        42.800


 198905049.668 6                  37850387.147
        37.400
 120034006.240 6  93533017.50145  22841714.867    22841714.4964   22841716.1794
        38.000          32.3004
 135236966.550 4                  25734741.842
        28.600
 202038269.424 7                  38446620.631
        47.000
 125868262.718 6                  23505011.445    23505010.876
        40.300
 123775118.474 6                  23553624.513
        41.400
 111089703.500 8  86403224.426 7  20796233.732    20796234.895    20796239.148
        51.100          46.600
 25  1  1 16 34 45.0000000  0 24E31G07G26G08G16G27G04G28G03R06R10E09
                                G09E04R07E21S35S31G31E06S33R08E19R16


 128389765.991 5 100043967.33542  24431754.376    24431754.3414   24431756.7034
        35.400          14.6004
 113277922.766 6  88268527.31343  21556064.046    21556063.9354   21556069.9614
        37.900          20.3004


 104794474.892 7  81657852.47345  19941669.569    19941668.7154   19941669.6164
        47.100          35.0004


 106106580.767 8  82680456.92046  20191397.668    20191397.4144   20191398.2664
        51.200          41.6004


 117987297.647 7  91938166.33545  22452226.993    22452227.0334   22452241.2914
        43.800          33.1004
 104932099.688 6                  19664231.211    19664231.305
        39.200
 117719676.347 6                  22083917.264    22083915.482
        39.600


 113530947.480 7  88465684.68446  21604225.589    21604225.0394   21604228.7274
        45.900          40.5004
 126072181.095 6                  23990719.068
        40.900
 105598480.734 7  82132187.494 7  19726681.997    19726679.548    19726689.881
        44.800          44.600
 128428281.383 7                  24439086.607
        43.200


 198905049.074 7                  37850389.418
        43.000
 120072985.939 6  93563391.25045  22849133.913    22849133.5384   22849134.0154
        38.500          30.9004
 135201956.687 4                  25728079.247
        29.900
 202038291.401 7                  38446623.113
        46.400
 125805665.775 6                  23493316.059    23493320.516
        40.200
 123794921.963 6                  23557392.903
        41.200
 111132405.865 8  86436437.412 7  20804227.188    20804227.196    20804232.124
        48.600          45.900
 25  1  1 16 35  0.0000000  0 24E31G07G26E29G08G16G27G04G28G03R06R10
                                E09G09E04R07E21S35S31G31E06S33E19R16
 141490164.633 5                  26924681.946
        35.400
 128355405.581 6 100017193.12643  24425217.557    24425217.4864   24425216.2484
        36.700          19.8004
 113317942.169 5  88299711.24243  21563678.081    21563677.8004   21563683.5024
        34.400          20.9004




 104803290.300 7  81664721.62545  19943346.548    19943345.6944   19943346.5554
        46.900          34.2004
 119830107.327 6  93374128.55244  22802908.729    22802908.1754   22802913.0504
        36.200          24.4004
 106089295.027 8  82666987.54147  20188107.957    20188107.7034   20188108.7314
        51.800          42.0004


 118033136.072 7  91973884.50245  22460950.915    22460950.9194   22460964.6844
        45.000          35.2004
 104964502.512 6                  19670305.325    19670305.342
        40.800
 117675448.252 6                  22075615.221    22075616.620
        38.900


 113491330.066 7  88434813.95946  21596686.279    21596685.7794   21596687.8104
        44.800          38.9004
 126049994.605 6                  23986497.362
        41.300
 105569538.811 8  82109677.038 7  19721276.193    19721276.339    19721281.355
        48.900          42.700
 128451815.282 7                  24443565.364
        45.600


 198905040.701 7                  37850384.665
        42.500
 120111979.594 6  93593775.83945  22856552.821    22856552.4644   22856554.7894
        39.900          32.7004
 135166962.576 6                  25721419.649
        36.100
 202038306.513 7                  38446627.334
        45.000
 123814788.633 7                  23561173.878
        42.200
 111175152.237 7  86469684.659 7  20812230.237    20812228.700    20812234.642
        46.500          45.900
 25  1  1 16 35 15.0000000  0 23E31G07G26G08G16G27G04G03R06R10E09G09
                                E04R07E21S35S31G31E06S33R08E19R16
 141447557.500 6                  26916576.832
        36.000
 128321058.223 6  99990428.96543  24418681.867    24418681.8984   24418679.2014
        38.900          20.7004
 113358043.999 5  88330959.37043  21571310.537    21571310.3054   21571315.2564
        32.800          20.3004
 127641772.402 5                  24289408.369
        31.000
 104812263.386 7  81671713.65245  19945054.471    19945053.6264   19945054.2994
        46.500          34.8004
 119782729.060 4  93337210.69243  22793881.415    22793881.0134   22793891.0514
        29.500          20.3004
 106072124.587 8  82653607.95746  20184840.270    20184840.0164   20184840.9904
        50.800          41.9004
 118079048.069 7  92009659.97946  22469687.370    22469687.3964   22469699.3554
        45.800          37.2004
 104997082.813 6                  19676410.259    19676410.113
        40.300
 117631308.853 5                  22067333.897    22067329.617
        32.100


 113451790.056 7  88404003.50446  21589161.913    21589161.4534   21589162.3424
        47.600          38.6004
 126027866.674 6                  23982286.548
        41.200
 105540766.191 8  82087298.335 7  19715901.114    19715901.350    19715905.423
        50.300          44.500
 128475423.754 7                  24448056.421
        42.600


 198905037.423 7                  37850377.341
        42.100
 120150999.947 7  93624181.22945  22863978.596    22863978.2074   22863980.2724
        42.600          35.2004
 135131997.116 6                  25714770.216
        38.700
 202038327.352 7                  38446634.135
        44.700
                                                  23469946.808

 123834731.142 6                  23564968.423
        41.200
 111217955.200 8  86502975.881 7  20820241.374    20820240.385    20820248.510
        48.300          47.200
 25  1  1 16 35 30.0000000  0 22E31G07G26G08G16G27G04G03R06R10E09G09
                                E04R07E21S35S31G31E06S33E19R16
 141404982.579 6                  26908474.538
        37.400
 128286718.219 5  99963670.55543  24412148.617    24412148.7104   24412146.7294
        33.000          19.4004
 113398221.779 5  88362266.75643  21578955.321    21578954.9774   21578960.2594
        33.600          22.1004
 127586727.566 5                  24278931.593
        34.600
 104821388.193 8  81678823.91445  19946791.209    19946790.3734   19946790.7824
        48.100          35.8004


 106055063.753 8  82640313.80347  20181593.822    20181593.5684   20181595.2764
        48.600          42.2004
 118125027.380 7  92045487.86046  22478436.757    22478436.7924   22478447.1324
        46.200          36.4004
 105029834.259 6                  19682549.554    19682549.866
        41.600
 117587252.829 4                  22059070.349    22059067.060
        28.900


 113412321.784 7  88373248.97946  21581650.076    21581649.5894   21581649.9674
        43.800          36.1004
 126005791.577 7                  23978086.107
        42.900
 105512157.076 8  82065046.844 7  19710556.657    19710557.247    19710560.918
        51.200          43.800
 128499100.607 7                  24452561.819
        42.100


 198905034.058 6                  37850390.639
        41.800
 120190040.926 7  93654602.78446  22871408.995    22871408.6064   22871410.1094
        43.300          37.1004
 135097054.728 5                  25708117.568
        34.600
 202038346.995 7                  38446636.639
        43.600
 123854743.678 6                  23568776.332
        40.200
 111260808.411 8  86536306.146 7  20828264.741    20828263.648    20828270.386
        49.100          46.800
 25  1  1 16 35 45.0000000  0 22E31G07G26G08G16G27G04G03R06R10E09G09
                                E04R07E21S35S31G31E06S33E19R16
 141362439.903 5                  26900378.616
        35.900
 128252385.169 5  99936917.56543  24405613.416    24405613.4334   24405615.5534
        35.500          21.8004
 113438475.704 5  88393633.51044  21586616.437    21586616.0574   21586620.3014
        32.900          24.4004
 127531670.175 5                  24268456.760
        34.700
 104830664.512 8  81686052.24046  19948556.198    19948555.3764   19948557.2124
        48.800          36.7004
 119688199.916 5  93263493.27542  22775886.153    22775886.1794   22775897.4164
        31.600          16.5004
 106038112.858 8  82627105.30347  20178368.139    20178367.8714   20178370.3554
        49.400          42.1004
 118171073.627 7  92081367.88746  22487197.749    22487197.7804   22487207.0494
        43.800          36.1004
 105062756.638 6                  19688718.294    19688718.035
        38.500
 117543279.811 6                  22050822.575    22050821.781
        39.300


 113372925.554 7  88342550.65945  21574153.934    21574153.4114   21574151.3064
        45.100          35.1004
 125983769.534 7                  23973895.507
        43.200
 105483712.046 8  82042922.994 7  19705242.545    19705242.616    19705247.602
        49.800          44.300
 128522845.746 6                  24457079.641
        40.800


 198905030.217 6                  37850380.019
        40.300
 120229102.704 6  93685040.47946  22878841.388    22878841.0084   22878844.0974
        41.000          37.1004
 135062135.388 6                  25701474.867
        41.800
 202038366.134 7                  38446646.522
        44.700
 123874826.178 6                  23572598.376
        40.700
 111303711.684 8  86569675.384 7  20836294.776    20836294.807    20836302.623
        48.400          47.500
 25  1  1 16 36  0.0000000  0 24E31G07G26E29G08G16G27G04G03R06R10E09
                                G09E04R07R09E21S35S31G31E06S33E19R16
 141319930.331 6                  26892288.025
        37.700
 128218059.740 7  99910170.49244  24399082.059    24399082.0374   24399086.6444
        42.300          24.4004
 113478805.647 5  88425013.41344  21594290.415    21594290.1344   21594292.9974
        35.300          25.2004


 127476600.779 6                  24257979.709
        38.000
 104840092.726 8  81693398.92845  19950350.191    19950349.3644   19950352.0004
        48.500          35.8004
 119641007.932 5  93226720.62643  22766906.942    22766906.5134   22766915.3354
        34.300          23.8004
 106021272.442 8  82613982.89947  20175163.061    20175162.7804   20175165.6824
        48.600          42.1004
 118217186.680 7  92117300.03645  22495973.470    22495973.4964   22495980.4584
        43.400          33.4004
 105095850.253 6                  19694918.789    19694918.231
        38.400
 117499389.930 7                  22042589.452    22042588.871
        42.500


 113333602.231 7  88311909.10546  21566670.697    21566670.1654   21566669.1104
        45.300          36.4004
 125961801.123 7                  23969715.582
        44.400
 105455432.065 8  82020927.482 6  19699960.402    19699960.396    19699962.913
        50.100          41.300
 104050485.033 8  80928169.601 8  19485301.487    19485301.644    19485306.186
        50.900          49.300
 128546659.248 5                  24461613.070
        34.600


 198905025.240 6                  37850385.524
        38.400
 120268185.508 6  93715494.59046  22886279.121    22886278.7684   22886281.3264
        39.200          36.0004
 135027239.842 6                  25694833.032
        41.300
 202038385.006 7                  38446643.830
        45.500
 123894979.136 6                  23576432.696
        41.400
 111346664.896 7  86603083.485 7  20844335.205    20844334.409    20844341.371
        45.700          46.200
 25  1  1 16 36 15.0000000  0 23E31G07G26G08G16G27G04G03R06R10E09G09
                                E04R07R09E21S35S31G31E06S33E19R16
 141277457.860 5                  26884204.836
        35.000
 128183745.970 6  99883432.66443  24392552.360    24392552.3954   24392560.3644
        39.300          22.1004
 113519215.373 6  88456501.51844  21601979.026    21601978.8484   21601984.8184
        37.100          25.5004


 104849676.687 7  81700866.95345  19952174.811    19952173.9624   19952175.7964
        45.800          34.6004
 119593883.304 6  93190000.34743  22757936.859    22757936.1354   22757945.2924
        41.200          20.6004
 106004546.990 8  82600950.06046  20171980.383    20171980.0934   20171982.6074
        48.700          41.6004
 118263370.506 7  92153287.31645  22504761.755    22504761.7514   22504768.1134
        43.100          33.3004
 105129119.076 6                  19701153.062    19701152.236
        38.500
 117455588.361 7                  22034370.708    22034370.199
        42.300
 147397465.925 5                  28048803.241
        34.800
 113294356.122 7  88281327.71546  21559202.303    21559201.8124   21559201.3174
        43.400          36.7004
 125939890.579 7                  23965545.911
        46.300
 105427321.775 8  81999063.906 7  19694708.450    19694708.238    19694713.662
        49.400          46.300
 104042441.855 8  80921913.839 8  19483796.166    19483796.402    19483799.419
        52.400          49.100
 128570545.326 6                  24466157.103
        41.900


 198905025.426 6                  37850382.393
        41.700
 120307293.573 6  93745968.35646  22893721.453    22893721.0874   22893723.9494
        39.900          37.2004
 134992372.446 6                  25688198.929
        41.700
 202038407.536 7                  38446653.466
        46.900
 123915206.708 6                  23580281.442
        40.600
 111389671.787 8  86636533.283 7  20852386.477    20852385.471    20852394.513
        48.500          47.400
 25  1  1 16 36 30.0000000  0 24E31G07G26E29G08G16G27G04G03R06R10E09
                                G09E04R07E21S35S31G31E06S33R08E19R16
 141235015.165 5                  26876127.855
        35.600
 128149436.147 6  99856697.91642  24386021.831    24386021.8754   24386029.3994
        40.800          15.6004
 113559696.805 6  88488045.51144  21609683.363    21609683.3854   21609689.7644
        37.600          26.2004




 104859408.544 7  81708450.23345  19954026.523    19954025.6604   19954026.7894
        47.300          33.4004
 119546818.833 6  93153327.02743  22748981.725    22748980.7604   22748990.5594
        39.400          22.7004
 105987928.936 8  82588000.90747  20168817.965    20168817.6754   20168819.8504
        50.500          42.7004
 118309616.792 6  92189323.26545  22513561.540    22513561.5094   22513568.9194
        37.600          32.5004
 105162554.764 6                  19707420.291    19707420.919
        40.000
 117411867.067 7                  22026169.466    22026168.134
        43.300
 147357171.630 5                  28041136.043
        33.600
 113255179.871 7  88250800.76346  21551748.760    21551748.2644   21551747.6104
        44.900          39.0004
 125918030.426 7                  23961386.692
        46.200
 105399373.381 7  81977326.245 7  19689486.620    19689486.908    19689493.212
        47.000          47.300
 128594495.951 6                  24470714.280
        41.300


 198905021.314 7                  37850381.651
        42.600
 120346419.068 7  93776455.69746  22901166.305    22901165.8904   22901170.3004
        44.400          37.6004
 134957525.506 6                  25681566.704
        41.000
 202038427.451 7                  38446647.098
        45.200
                  97508721.883 5                                  23411659.052
                        30.900
 123935501.168 7                  23584143.713
        42.500
 111432724.502 8  86670018.644 7  20860446.464    20860446.188    20860453.924
        48.600          46.500
 25  1  1 16 36 45.0000000  0 23E31G07G26E29G08G16G27G04G03R06R10E09
                                G09E04R07E21S35S31G31E06S33E19R16
 141192606.497 6                  26868059.524
        37.100
 128115134.465 6  99829969.50343  24379498.761    24379498.9084   24379497.3644
        39.200          20.5004
 113600254.194 5  88519648.66943  21617400.669    21617400.8704   21617408.1514
        34.200          23.3004




 104869292.514 8  81716152.01345  19955907.153    19955906.2864   19955907.0574
        48.100          34.1004
 119499819.031 6  93116704.12542  22740038.376    22740037.5494   22740049.8094
        40.800          17.0004
 105971422.851 8  82575139.01447  20165676.792    20165676.4974   20165678.5894
        50.900          42.7004


 105196161.665 6                  19713718.387    19713719.293
        41.400
 117368230.523 7                  22017982.679    22017982.624
        42.300
 147316874.720 5                  28033467.726
        33.500
 113216078.133 7  88220331.92046  21544307.227    21544306.7044   21544308.9904
        45.800          41.2004
 125896225.104 7                  23957236.857
        45.200
 105371591.848 8  81955718.344 8  19684298.402    19684298.471    19684304.842
        52.100          49.500
 128618515.115 6                  24475285.413
        38.700


 198905017.414 7                  37850379.174
        43.000
 120385566.041 7  93806959.76446  22908616.193    22908615.7824   22908619.0084
        42.400          37.8004
 134922703.545 6                  25674940.588
        40.900
 202038446.371 7                  38446650.063
        44.900
 123955866.576 6                  23588018.245
        40.600
 111475826.981 7  86703542.777 7  20868514.233    20868512.539    20868521.867
        44.200          44.600
 25  1  1 16 37  0.0000000  0 22E31G07G26E29G16G27G04G03R06R10E09G09
                                E04R07E21S35S31G31E06S33E19R16
 141150231.949 3                  26859998.660
        23.100


 113640886.697 5  88551310.28043  21625134.746    21625134.9334   21625140.3964
        35.000          20.5004


 104879328.031 7  81723971.90645  19957816.788    19957815.9254   19957816.3154
        45.100          32.8004
 119452884.292 6  93080131.56944  22731107.245    22731106.4674   22731115.9094
        40.300          29.5004
 105955028.733 8  82562364.37047  20162557.571    20162557.2814   20162558.5104
        51.800          42.8004
 118402232.130 7  92261532.13345  22531201.286    22531201.5494   22531209.3404
        44.900          34.2004
 105229939.074 6                  19720047.273    19720047.538
        40.000
 117324678.159 5                  22009809.199    22009807.017
        32.800
 147276575.150 5                  28025799.382
        34.200
 113177050.887 7  88189921.09846  21536880.558    21536880.0174   21536883.6374
        45.000          40.9004
 125874474.572 7                  23953098.250
        47.600
 105343977.323 8  81934240.474 8  19679138.082    19679138.237    19679145.444
        48.500          48.600
 128642602.694 6                  24479869.501
        40.500
 200846250.449 6                  38219770.568
        38.100
 198905014.159 6                  37850378.932
        41.500
 120424734.259 7  93837480.39045  22916069.657    22916069.2244   22916070.3734
        43.700          34.6004
 134887906.464 6                  25668320.460
        40.400
 202038466.478 7                  38446655.116
        43.700
 123976303.157 7                  23591909.129
        44.800
 111518978.889 8  86737105.371 7  20876594.616    20876594.523    20876599.504
        49.500          43.600
 25  1  1 16 37 15.0000000  0 25E31G07G26E29G08G16G27G04G03R06R10E09
                                G09E04R07E21S35R17S31G31E06S33R08E19
                                R16
 141107893.793 5                  26851939.278
        33.600
 128046558.023 6  99776533.46944  24366450.504    24366450.6784   24366448.3164
        40.400          26.1004






 104889517.553 7  81731911.81545  19959755.773    19959754.9334   19959754.3784
        45.600          30.3004
 119406017.401 6  93043612.11843  22722188.445    22722187.6814   22722194.6874
        41.400          23.9004
 105938749.350 8  82549679.14747  20159459.367    20159459.0864   20159460.3874
        50.400          42.2004
 118448678.721 6  92297724.11145  22540039.292    22540039.4664   22540048.9204
        36.800          31.0004
 105263889.609 6                  19726410.933    19726411.211
        40.600
 117281213.126 5                  22001656.111    22001653.693
        31.000
 147236275.650 5                  28018129.745
        34.200
 113138101.026 7  88159570.50346  21529468.154    21529467.6314   21529471.9094
        44.000          39.2004
 125852781.535 7                  23948969.278
        45.900
 105316532.974 8  81912894.818 8  19674012.083    19674011.933    19674019.722
        49.200          50.600
 128666760.762 6                  24484467.112
        40.900


 128622215.769 5                  24036134.424    24036135.510
        34.900
 198905014.324 7                  37850391.229
        42.200
 120463926.176 7  93868019.48345  22923527.092    22923526.6594   22923527.5594
        44.000          34.2004
 134853137.027 6                  25661702.971
        39.500
 202038489.038 7                  38446672.287
        45.300
 125181712.138 6                  23376742.939    23376744.900
        37.900
 123996813.134 6                  23595810.762
        40.300
 111562182.178 8  86770707.870 7  20884681.537    20884682.069    20884687.560
        50.700          44.700
 25  1  1 16 37 30.0000000  0 23E31G07G26E29G08G16G27G04G03R06E09G09
                                E04R07E21S35S31G31E06S33R08E19R16
 141065585.170 6                  26843887.640
        36.500
 128012278.168 6  99749821.84844  24359925.801    24359925.9214   24359926.1144
        36.100          24.3004




 127145927.208 5                  24195064.739
        33.700
 104899853.388 7  81739965.69745  19961722.278    19961721.4564   19961721.2444
        45.700          31.3004
 119359211.599 5  93007140.33644  22713279.497    22713278.6704   22713286.0304
        35.900          25.0004
 105922577.425 8  82537077.62947  20156382.128    20156381.8474   20156383.1554
        50.600          42.0004
 118495185.342 7  92333962.99045  22548889.417    22548889.5604   22548900.1754
        42.900          33.2004
 105298005.206 6                  19732803.722    19732803.812
        39.900
 147195968.901 5                  28010460.535
        30.200
 113099221.403 6  88129274.73646  21522070.684    21522070.1884   21522073.2214
        41.400          38.7004
 125831138.747 7                  23944850.980
        42.700
 105289251.516 8  81891675.892 8  19668916.932    19668915.848    19668922.667
        49.800          49.100
 128690981.905 7                  24489076.004
        42.200


 198905009.291 6                  37850379.456
        40.500
 120503134.219 6  93898571.14845  22930989.078    22930988.6584   22930988.9804
        39.700          33.0004
 134818387.882 6                  25655090.184
        41.000
 202038507.803 7                  38446667.037
        44.300
 125119468.145 5                  23365111.706    23365113.383
        32.200
 124017389.261 6                  23599726.884
        40.500
 111605429.248 8  86804344.509 7  20892777.014    20892778.519    20892784.658
        49.300          45.300
 25  1  1 16 37 45.0000000  0 22E31G07G26E29G08G16G27G04G03R06E09G09
                                E04R07E21S35S31G31E06S33E19R16
 141023308.805 6                  26835842.823
        36.700
 127978004.240 6  99723114.88844  24353398.582    24353398.6224   24353403.7524
        37.600          27.1004


 144592890.029 4                  27515110.846
        27.500


 104910338.284 7  81748135.77645  19963716.908    19963716.0954   19963717.1264
        44.900          30.2004
 119312469.936 6  92970718.50044  22704386.718    22704385.9634   22704393.7884
        38.900          29.3004
 105906516.129 8  82524562.32647  20153325.829    20153325.5394   20153327.0064
        50.400          42.4004
 118541754.597 7  92370250.54845  22557751.895    22557751.8994   22557760.2664
        43.800          33.6004
 105332288.619 6                  19739229.179    19739227.812
        38.300


 113060415.274 7  88099036.24846  21514686.984    21514686.5284   21514689.0744
        46.200          41.9004
 125809549.145 7                  23940742.029
        45.200
 105262136.216 8  81870586.218 8  19663852.026    19663852.867    19663857.530
        52.300          50.200
 128715268.659 6                  24493695.830
        40.300


 198905002.730 7                  37850384.204
        42.200
 120542361.425 6  93929137.73444  22938453.570    22938453.1464   22938453.8174
        40.100          29.4004
 134783662.224 6                  25648481.117
        41.100
 202038523.923 6                  38446670.109
        40.300
 124038034.322 7                  23603656.238
        43.100
 111648722.257 8  86838016.868 7  20900882.941    20900883.688    20900888.973
        49.100          44.300
 25  1  1 16 38  0.0000000  0 24E31G07G26E29G08G16G27G04G03R06R10E09
                                G09E04R07E21S35S31G31E06S33R08E19R16
 140981069.279 5                  26827803.548
        35.700
 127943740.510 6  99696415.86844  24346880.148    24346880.1084   24346882.0694
        37.500          28.5004
 113804118.478 5  88678559.29443  21656201.681    21656201.7484   21656210.1334
        35.700          20.1004
 144632299.092 4                  27522609.782
        29.200


 104920976.400 7  81756425.21945  19965741.869    19965741.0654   19965742.0874
        45.000          30.8004
 119265797.400 6  92934350.41844  22695503.332    22695502.5904   22695514.2734
        36.100          29.8004
 105890569.964 8  82512136.73847  20150291.412    20150291.1224   20150293.1364
        50.400          42.5004
 118588390.246 7  92406589.89645  22566626.425    22566626.4384   22566630.1364
        43.700          31.7004
 105366743.983 6                  19745686.157    19745684.969
        37.700
 117151302.611 6                  21977289.665    21977289.213
        40.200


 113021687.117 7  88068858.46347  21507315.910    21507315.4544   21507319.4604
        46.700          42.7004
 125788017.286 7                  23936644.647
        44.100
 105235191.851 8  81849629.483 7  19658818.039    19658818.683    19658822.318
        52.200          47.500
 128739625.108 6                  24498330.620
        37.400


 198904998.849 6                  37850381.347
        41.100
 120581611.901 6  93959722.46444  22945923.415    22945923.0264   22945921.6154
        41.100          29.0004
 134748964.278 6                  25641878.190
        40.500
 202038543.074 7                  38446667.382
        42.500
 124994749.946 5  97218206.288 5  23341890.421    23341893.597    23341896.598
        34.500          32.200
 124058752.591 6                  23607597.936
        41.600
 111692065.628 8  86871728.413 7  20908997.504    20908998.346    20909002.643
        49.700          44.600
 25  1  1 16 38 15.0000000  0 24E31G07G26E29G08G16G27G04G03R06R10E09
                                G09E04R07E21S35S31G31E06S33R08E19R16
 140938866.027 6                  26819774.586
        36.600
 127909486.272 7  99669724.31345  24340361.969    24340361.9654   24340362.8864
        43.400          32.1004
 113845122.201 5  88710510.22243  21664004.520    21664004.6894   21664013.0294
        34.200          20.4004




 104931766.790 7  81764833.31345  19967795.352    19967794.5304   19967794.9914
        46.800          31.9004
 119219193.716 4  92898035.94144  22686636.162    22686635.4924   22686648.2704
        24.500          27.3004
 105874738.459 8  82499800.49747  20147278.440    20147278.1544   20147280.6444
        50.300          42.2004
 118635091.328 7  92442980.18044  22575512.525    22575512.5964   22575515.3484
        42.500          28.6004
 105401370.322 6                  19752174.169    19752174.174
        39.800
 117108174.105 6                  21969198.486    21969197.924
        40.400
 147075028.447 5                  27987446.742
        35.400
 112983036.645 7  88038741.23746  21499960.964    21499960.5264   21499963.0594
        44.100          40.4004
 125766542.689 7                  23932559.060
        44.400
 105208418.000 8  81828805.413 7  19653815.380    19653815.479    19653819.028
        51.200          45.300
 128764050.479 6                  24502980.616
        38.700


 198904996.810 7                  37850375.990
        43.300
 120620884.959 7  93990324.80745  22953396.328    22953395.8994   22953395.3734
        44.700          32.3004
 134714293.648 6                  25635280.426
        39.900
 202038564.343 7                  38446674.836
        44.900
 124932615.865 5  97169879.679 5  23330281.539    23330284.540    23330293.712
        32.500          33.500
 124079543.544 6                  23611554.603
        38.900
 111735457.870 8  86905477.843 7  20917119.572    20917120.181    20917124.943
        50.400          43.800
 25  1  1 16 38 30.0000000  0 23E31G07G26E29G08G16G27G04G03R06R10E09
                                G09E04R07E21S35S31G31E06S33E19R16
 140896695.529 6                  26811749.668
        38.800
 127875237.980 6  99643037.40045  24333844.103    24333844.0904   24333844.4774
        41.700          31.6004
 113886197.108 6  88742516.60044  21671822.771    21671822.9494   21671828.3974
        36.900          28.0004




 104942705.549 7  81773357.04745  19969876.606    19969875.7884   19969876.0264
        45.200          31.4004
 119172655.389 5  92861772.38843  22677777.457    22677776.7874   22677792.4954
        32.800          23.3004
 105859018.255 8  82487550.99346  20144286.636    20144286.3644   20144288.6634
        49.600          41.6004
 118681853.745 6  92479418.27844  22584412.304    22584412.3484   22584413.8374
        40.700          27.5004
 105436163.579 6                  19758695.453    19758694.426
        39.700
 117065128.961 6                  21961124.697    21961124.856
        41.000
 147034713.175 5                  27979776.395
        35.700
 112944460.511 7  88008681.89946  21492619.717    21492619.3244   21492622.0464
        43.800          40.1004
 125745121.751 7                  23928482.710
        44.000
 105181811.781 8  81808111.650 7  19648845.786    19648845.565    19648849.012
        51.500          45.100
 128788541.014 6                  24507640.381
        39.100


 198904992.989 7                  37850379.670
        43.200
 120660177.052 7  94020942.00545  22960872.159    22960871.7394   22960873.0124
        44.900          33.3004
 134679646.901 6                  25628687.590
        41.000
 202038583.228 7                  38446677.653
        45.000
 124100403.643 5                  23615524.632
        35.300
 111778895.466 8  86939262.556 7  20925251.434    20925252.260    20925256.960
        50.600          44.600
 25  1  1 16 38 45.0000000  0 24E31G07G26E29G08G16G27G04G03R06R10E09
                                G09E04R07E21S35S31G31E06S33R08E19R16
 140854559.199 5                  26803730.788
        32.800
 127840996.856 6  99616356.08245  24327328.789    24327328.7854   24327328.6484
        40.600          31.4004
 113927344.442 6  88774579.43945  21679652.722    21679652.9364   21679658.4184
        40.200          31.0004




 104953793.869 7  81781997.31445  19971987.291    19971986.4874   19971986.6504
        44.200          32.2004
 119126184.441 6  92825561.31144  22668937.378    22668936.6904   22668948.1574
        36.600          27.0004
 105843410.860 8  82475389.38146  20141317.088    20141316.8164   20141318.5364
        49.200          41.1004
 118728678.405 6  92515904.90044  22593324.394    22593324.4294   22593323.4824
        41.400          28.6004
 105471124.906 6                  19765246.665    19765246.055
        40.200
 117022168.313 6                  21953063.080    21953065.119
        40.400
 146994395.411 5                  27972102.901
        34.800
 112905960.441 7  87978681.83446  21485293.622    21485293.2294   21485296.3124
        43.600          39.0004
 125723756.098 7                  23924417.281
        45.600
 105155374.563 8  81787549.395 7  19643907.076    19643908.438    19643911.272
        52.000          44.700
 128813097.680 6                  24512315.152
        38.300


 198904989.174 6                  37850368.907
        41.000
 120699489.295 7  94051574.92145  22968354.044    22968353.6694   22968355.1504
        45.900          35.3004
 134645025.417 6                  25622098.078
        39.500
 202038602.301 7                  38446685.161
        46.000
 124808532.059 5                  23307106.141
        30.800
 124121333.898 5                  23619506.117
        34.700
 111822378.957 8  86973082.889 7  20933390.923    20933391.937    20933397.920
        50.200          45.500
 25  1  1 16 39  0.0000000  0 22E31G07G26G08G16G27G04G03R06R10E09G09
                                E04R07E21S35S31G31E06S33E19R16
 140812457.313 6                  26795719.358
        36.700
 127806762.860 6  99589680.31144  24320812.352    24320812.3524   24320814.0214
        41.800          29.6004
 113968563.785 6  88806698.33545  21687497.767    21687497.9144   21687501.2194
        41.400          32.3004


 104965031.633 7  81790754.07445  19974125.758    19974124.9314   19974126.3484
        42.100          30.8004
 119079781.321 6  92789403.12344  22660104.568    22660103.8754   22660116.6634
        38.500          27.9004
 105827916.600 8  82463315.92546  20138369.149    20138368.8684   20138370.1584
        48.800          41.5004
 118775564.967 6  92552439.69744  22602244.095    22602244.1214   22602247.4824
        41.800          28.7004
 105506253.914 6                  19771829.993    19771830.014
        40.700
 116979292.486 6                  21945021.210    21945020.849
        39.300
 146954075.397 5                  27964431.909
        33.600
 112867536.679 7  87948741.21746  21477979.294    21477978.8384   21477984.5924
        42.600          37.7004
 125702445.858 7                  23920360.773
        45.600
 105129106.767 7  81767118.887 7  19638999.798    19638998.261    19639003.040
        46.700          44.200
 128837720.585 5                  24516999.270
        35.200


 198904984.690 7                  37850381.750
        43.700
 120738821.711 7  94082223.53546  22975837.971    22975837.6234   22975841.3044
        45.800          36.1004
 134610429.376 6                  25615515.827
        38.600
 202038620.996 7                  38446684.624
        45.700
 124142334.478 6                  23623502.387
        39.200
 111865908.427 8  87006939.081 7  20941541.723    20941541.545    20941546.616
        51.300          45.600
 25  1  1 16 39 15.0000000  0 23E31G07G26G08G16G27G04G03R06R10E09G09
                                E04R07E21S35S31G31E06S33R08E19R16
 140770391.459 5                  26787711.371
        35.300
 127772537.739 7  99563011.43645  24314301.440    24314301.4364   24314300.9914
        42.200          32.2004
 114009856.372 7  88838874.32745  21695354.623    21695354.7394   21695357.3464
        42.600          32.7004


 104976420.286 6  81799628.36744  19976291.494    19976290.6724   19976293.7534
        40.300          29.9004


 105812537.106 8  82451331.88847  20135442.320    20135442.0254   20135443.6874
        50.300          42.1004
 118822514.589 7  92589023.70045  22611178.495    22611178.5214   22611185.1784
        45.000          32.0004
 105541552.141 6                  19778444.636    19778445.078
        40.100
 116936502.888 6                  21936993.532    21936993.352
        37.300
 146913754.561 4                  27956759.780
        27.700
 112829191.038 7  87918861.48046  21470684.055    21470683.5904   21470688.3214
        42.500          41.3004
 125681192.749 7                  23916316.892
        46.400
 105103010.431 8  81746821.757 7  19634125.184    19634125.758    19634130.801
        48.500          47.000
 128862410.923 5                  24521696.236
        33.900


 198904981.160 7                  37850375.181
        42.300
 120778175.691 7  94112888.95145  22983326.535    22983326.1384   22983330.5384
        42.700          34.2004
 134575860.624 7                  25608937.779
        42.600
 202038640.614 7                  38446685.769
        44.200
 124684522.863 5                  23283955.597    23283952.127
        31.700
 124163406.923 6                  23627510.941
        39.300
 111909484.805 8  87040831.562 7  20949698.342    20949698.607    20949703.902
        51.800          44.900
