     2.11           OBSERVATION DATA    M (MIXED)           RINEX VERSION / TYPE
teqc  2019Feb25                         20260317 16:18:01UTCPGM / RUN BY / DATE
Linux 2.4.21-27.ELsmp|Opteron|gcc -static|Linux 64|=+       COMMENT
BIT 2 OF LLI FLAGS DATA COLLECTED UNDER A/S CONDITION       COMMENT
-Unknown-                                                   MARKER NAME
-Unknown-           -Unknown-                               OBSERVER / AGENCY
-Unknown-           -Unknown-           -Unknown-           REC # / TYPE / VERS
-Unknown-           -Unknown-                               ANT # / TYPE
        0.0000        0.0000        0.0000                  APPROX POSITION XYZ
        0.0000        0.0000        0.0000                  ANTENNA: DELTA H/E/N
     1     1                                                WAVELENGTH FACT L1/2
     7    L1    L2    C1    P1    P2    S1    S2            # / TYPES OF OBSERV
 SNR is mapped to RINEX snr flag value [0-9]                COMMENT
  L1 & L2: min(max(int(snr_dBHz/6), 0), 9)                  COMMENT
  2025     1     1     3     0    0.0000000     GPS         TIME OF FIRST OBS
    18                                                      LEAP SECONDS
                                                            END OF HEADER
 25  1  1  3  0  0.0000000  0 27G09G06G19G12G11G20E27G25G05E34G29R13
                                E05E15R22R23S31S33R07R12E21E13R14E30
                                R24R08S35


 115312717.823 5  89854090.91543  21943265.579    21943265.7084   21943269.6794
        32.100          22.8004
 116618363.280 6  90871426.93142  22191732.072    22191730.9554   22191733.0854
        40.200          12.1004
 108789511.950 8  84771104.99148  20701929.822    20701929.3984   20701928.9274
        50.000          48.9004
 108197177.555 7  84309514.58146  20589233.133    20589232.9504   20589232.9714
        47.700          36.1004
 107841918.685 7  84032644.07146  20521636.991    20521635.8474   20521636.2844
        47.600          37.0004
 126248449.853 8                  24024256.066
        48.600
 115629779.948 6  90101197.60246  22003614.322    22003613.8044   22003615.3404
        39.800          37.2004
 119202353.105 7  92884930.26445  22683459.899    22683459.6544   22683463.4404
        43.200          33.6004
 131072318.540 5                  24942225.859
        30.800
 132013006.805 5 102867329.39441  25121244.007    25121244.0074   25121246.5114
        31.700           8.2004
 109816244.822 7                  20565036.528    20565036.521
        45.700
 138238424.223 5                  26305898.377
        30.400
 123442670.551 8                  23490356.320
        51.100
 114770758.182 6  89266171.681 5  21500435.409    21500433.996    21500430.739
        36.500          35.400
 107011988.263 8                  20004715.720    20004715.786
        49.700
 198907176.405 6                  37850764.520
        39.000
 202055549.174 7                  38449900.155
        45.000
 115001255.577 7  89445439.761 7  21483190.404    21483191.055    21483198.768
        46.900          45.400
 120526065.718 7  93742566.172 7  22562730.785    22562729.867    22562738.569
        45.600          44.800
 143670302.992 6                  27339549.715
        36.900
 138551049.477 5                  26365389.133
        35.800
                  91241217.783 6                  22007083.485    22007082.833
                        40.900
 131051884.362 6                  24938328.191
        38.800
 120910584.280 7  94041638.185 5  22610892.751    22610893.139    22610897.497
        44.900          31.600
 117792928.319 7  91616745.263 6  21996988.803    21996989.878    21996996.657
        44.900          39.600
 200857850.483 5                  38221974.362
        32.600
 25  1  1  3  0 15.0000000  0 26G09G06G19G12G11G20E27G25G05E34R13E05
                                E15R22R23S31S33R07R12E21E13R14E30R24
                                R08S35


 115347819.948 5  89881443.34343  21949946.994    21949947.1324   21949949.0764
        33.900          19.7004
 116655326.946 6  90900229.6934   22198763.459    22198762.4044   22198766.7774
        38.800           3.8004
 108796080.234 8  84776223.13048  20703179.443    20703179.0144   20703178.6204
        49.300          49.0004
 108204171.972 7  84314964.78945  20590564.475    20590564.3064   20590563.1184
        47.100          35.6004
 107820224.403 7  84015739.45746  20517508.310    20517507.1614   20517508.1944
        47.800          38.2004
 126244413.703 8                  24023487.834
        48.700
 115601721.140 7  90079333.60946  21998275.127    21998274.5104   21998276.7244
        43.400          39.7004
 119149139.178 7  92843464.86845  22673332.640    22673332.3954   22673338.1714
        42.300          33.2004
 131100177.059 5                  24947527.075
        33.900
 109848871.859 7                  20571145.708    20571145.768
        45.000
 138214423.767 5                  26301331.950
        30.200
 123440393.977 8                  23489923.002
        49.800
 114804240.641 6  89292213.483 5  21506698.746    21506700.430    21506699.525
        41.600          31.700
 107012826.324 8                  20004871.434    20004871.828
        49.400
 198907171.638 7                  37850776.549
        43.000
 202055532.026 7                  38449885.461
        43.600
 114994272.310 7  89440008.341 7  21481887.129    21481887.796    21481893.841
        47.900          45.400
 120590272.336 7  93792504.664 7  22574750.560    22574748.753    22574758.129
        44.400          44.300
 143632523.425 5                  27332362.952
        34.800
 138521246.297 5                  26359732.271
        35.500
                  91215756.077 6                  22000928.033    22000942.486
                        40.000
 131087246.880 6                  24945057.936
        38.900
 120874145.789 7  94013297.242 5  22604081.396    22604081.252    22604089.787
        47.700          34.600
 117741182.944 7  91576498.948 6  21987326.143    21987327.099    21987333.995
        45.400          40.200
 200857879.916 6                  38221988.783
        38.500
 25  1  1  3  0 30.0000000  0 25G09G06G19G12G11G20E27G25G05E34R13E15
                                R22R23S31S33R07R12E21E13R14E30R24R08
                                S35


 115382962.228 5  89908826.93143  21956636.559    21956636.6214   21956636.6874
        34.300          23.1004
 116692361.624 5  90929087.86841  22205809.125    22205808.2184   22205813.4954
        35.100           7.3004
 108802812.993 7  84781469.42747  20704460.867    20704460.4254   20704459.5974
        46.800          47.0004
 108211253.087 7  84320482.53445  20591912.268    20591912.1034   20591910.0964
        46.400          34.0004
 107798666.136 8  83998940.82046  20513405.889    20513404.7364   20513406.3474
        48.500          39.2004
 126240489.117 8                  24022740.930
        49.700
 115573801.633 7  90057578.16146  21992962.433    21992961.8124   21992964.1054
        45.200          39.1004
 119095995.243 7  92802054.08545  22663220.718    22663220.4994   22663224.4024
        42.900          32.6004
 131128059.974 5                  24952831.087
        31.300
 109881677.361 7                  20577288.504    20577288.812
        45.700
 123438176.680 8                  23489501.230
        50.500
 114837753.678 7  89318279.195 5  21512979.901    21512980.649    21512981.108
        44.900          34.100
 107013729.308 8                  20005040.116    20005040.471
        48.200
 198907174.606 7                  37850766.640
        42.900
 202055522.357 7                  38449889.883
        45.600
 114987491.512 8  89434734.380 7  21480620.806    21480620.923    21480626.324
        48.600          44.600
 120654523.487 7  93842477.722 7  22586777.657    22586775.848    22586785.980
        44.500          44.100
 143594799.616 5                  27325183.205
        32.000
 138491488.327 5                  26354053.433
        35.400
 117244808.636 5  91190432.016 6  21994830.241    21994830.081    21994834.495
        35.600          40.000
 131122685.311 6                  24951802.361
        41.900
 120837744.126 7  93984984.752 5  22597271.024    22597272.272    22597284.031
        44.200          33.400
 117689536.781 7  91536329.774 7  21977678.756    21977680.392    21977688.947
        43.900          42.600
 200857917.579 6                  38221998.764
        36.500
 25  1  1  3  0 45.0000000  0 24G06G19G12G11G20E27G25G05E34R13E15R22
                                R23S31S33R07R12E21E13R14E30R24R08S35
 115418130.797 6  89936231.05044  21963328.317    21963328.4464   21963330.1924
        36.200          24.1004
 116729453.617 5  90957990.80841  22212870.829    22212869.7654   22212871.1564
        35.800           7.5004
 108809696.603 7  84786833.30447  20705771.654    20705771.1854   20705769.5504
        46.600          46.4004
 108218407.124 8  84326057.13945  20593272.941    20593272.7764   20593270.9134
        48.100          34.0004
 107777230.329 8  83982237.59146  20509326.781    20509325.6324   20509327.6464
        48.500          39.3004
 126236662.426 8                  24022012.958
        50.300
 115546008.058 7  90035920.84646  21987673.469    21987672.8434   21987673.7424
        45.200          36.8004
 119042907.772 6  92760687.28044  22653118.811    22653118.5394   22653117.8204
        41.100          28.5004
 131155953.663 5                  24958141.989
        32.600
 109914646.980 7                  20583463.084    20583462.665
        45.000
 123436004.898 8                  23489087.683
        50.300
 114871283.604 7  89344358.034 5  21519258.472    21519260.404    21519266.988
        43.200          35.200
 107014683.339 8                  20005218.283    20005218.705
        48.200
 198907171.666 7                  37850773.616
        44.100
 202055507.322 7                  38449888.935
        44.900
 114980898.773 7  89429606.716 7  21479388.802    21479387.211    21479395.639
        46.200          45.700
 120718804.713 7  93892474.218 7  22598811.705    22598810.156    22598818.853
        44.800          42.300
 143557118.105 5                  27318013.061
        34.800
 138461762.007 5                  26348398.005
        30.200
 117212412.117 7  91165234.820 7  21988753.052    21988754.327    21988760.538
        45.000          43.600
 131158185.985 6                  24958556.629
        39.900
 120801365.178 6  93956690.059 5  22590469.521    22590465.738    22590473.276
        40.100          31.800
 117637976.590 7  91496227.424 7  21968051.725    21968051.428    21968061.145
        42.800          43.000
 200857949.190 6                  38222009.746
        36.100
 25  1  1  3  1  0.0000000  0 24G06G19G12G11G20E27G25G05E34R13E15R22
                                R23S31S33R07R12E21E13R14E30R24R08S35
 115453331.855 5  89963660.38443  21970023.201    21970023.3844   21970029.3004
        35.300          20.6004
 116766609.059 6  90986943.11242  22219939.999    22219938.8954   22219941.3634
        36.900          13.2004
 108816737.389 8  84792319.64048  20707110.569    20707110.0914   20707109.6014
        48.900          48.3004
 108225640.277 8  84331693.38045  20594649.048    20594648.8794   20594647.2564
        48.400          35.0004
 107755923.473 7  83965634.84246  20505272.332    20505271.1744   20505273.1994
        47.400          39.0004
 126232940.034 8                  24021304.195
        50.000
 115518346.977 7  90014366.77346  21982409.679    21982409.0404   21982409.6674
        45.400          36.6004
 118989883.830 6  92719369.97244  22643029.075    22643028.7314   22643023.7094
        40.200          26.8004
 131183864.092 5                  24963449.027
        34.700
 109947786.731 7                  20589669.139    20589667.989
        43.900
 123433884.875 8                  23488684.208
        49.600
 114904836.805 6  89370454.901 5  21525543.782    21525542.778    21525551.760
        39.900          32.900
 107015694.746 7                  20005408.125    20005408.570
        47.600
 198907170.284 7                  37850769.846
        44.000
 202055493.277 7                  38449888.278
        44.700
 114974500.903 7  89424630.574 7  21478194.651    21478193.986    21478200.978
        47.700          45.400
 120783121.938 7  93942498.715 7  22610851.864    22610851.113    22610859.372
        43.700          42.200
 143519485.495 6                  27310851.331
        36.100
 138432073.697 5                  26342748.330
        31.400
 117180185.463 7  91140169.714 7  21982705.724    21982704.933    21982715.459
        45.200          44.600
 131193754.907 6                  24965326.366
        41.200
 120765015.757 7  93928418.326 5  22583674.219    22583669.248    22583697.636
        44.000          35.200
 117586509.411 7  91456197.415 7  21958442.072    21958440.641    21958450.064
        42.500          43.000
 200857981.687 5                  38222013.869
        34.600
 25  1  1  3  1 15.0000000  0 25G06G19G12G11G20E27G25G05E34R13E05E15
                                R22R23S31S33R07R12E21E13R14E30R24R08
                                S35


 116803828.082 5  91015944.94242  22227023.448    22227022.3534   22227023.8724
        33.400          13.7004
 108823935.275 8  84797928.37848  20708479.951    20708479.4734   20708479.3754
        48.800          48.3004
 108232952.334 8  84337391.09446  20596040.395    20596040.2174   20596039.0584
        49.600          36.2004
 107734745.574 7  83949132.57546  20501242.545    20501241.3834   20501242.8634
        47.200          38.9004
 126229321.997 8                  24020616.038
        50.300
 115490818.592 7  89992916.10445  21977171.486    21977170.8204   21977171.0684
        43.500          33.3004
 118936923.304 6  92678102.07444  22632952.013    22632951.6564   22632943.4514
        40.500          27.1004
 131211791.356 5                  24968763.281
        35.200
 109981096.062 7                  20595907.154    20595905.187
        42.700


 123431816.480 8                  23488291.140
        49.800
 114938413.185 7  89396569.875 5  21531835.413    21531834.427    21531841.692
        42.000          31.500
 107016763.675 7                  20005609.153    20005608.711
        46.000
 198907168.842 7                  37850766.573
        42.900
 202055479.579 7                  38449882.885
        44.500
 114968298.260 7  89419806.305 7  21477035.564    21477035.692    21477041.442
        47.800          45.100
 120847474.496 7  93992550.659 6  22622898.347    22622898.384    22622905.257
        45.400          40.200
 143481901.941 6                  27303699.971
        37.600
 138402423.255 4                  26337107.886
        28.200
 117148129.334 7  91115237.176 7  21976691.006    21976689.737    21976700.331
        45.100          43.800
 131229391.965 6                  24972107.210
        40.700
 120728695.507 7  93900169.335 6  22576881.919    22576879.961    22576888.156
        44.900          36.700
 117535135.746 7  91416240.100 7  21948850.463    21948849.807    21948855.612
        45.200          42.300
 200858015.171 5                  38222015.220
        33.300
 25  1  1  3  1 30.0000000  0 25G06G19G12G11G20E27G25G05E34R13E05E15
                                R22R23S31S33R07R12E21E13R14E30R24R08
                                S35
 115523829.353 5  90018593.23642  21983440.097    21983440.4014   21983442.7724
        31.300          15.0004
 116841109.036 5  91044995.01142  22234120.400    22234119.2874   22234117.7444
        35.900          14.4004
 108831288.810 8  84803658.39647  20709879.647    20709879.1784   20709878.4844
        48.500          47.8004
 108240341.740 8  84343149.07546  20597446.248    20597446.0704   20597446.3004
        50.500          38.1004
 107713695.430 7  83932729.86546  20497237.124    20497235.9624   20497236.7954
        45.900          38.4004
 126225806.977 8                  24019947.056
        49.500
 115463421.786 7  89971567.97745  21971957.606    21971956.9404   21971956.8474
        42.300          30.6004
 118884024.926 7  92636882.60244  22622884.445    22622884.1194   22622877.0464
        42.900          28.3004
 131239733.875 5                  24974082.730
        34.400
 110014573.236 7                  20602173.795    20602173.458
        43.700


 123429798.217 8                  23487907.214
        49.900
 114972011.139 6  89422701.649 5  21538126.303    21538127.038    21538131.619
        39.400          32.900
 107017888.329 7                  20005819.563    20005819.105
        45.400
 198907167.047 7                  37850769.310
        43.100
 202055465.175 7                  38449877.926
        45.000
 114962289.408 7  89415132.797 7  21475911.910    21475912.474    21475918.698
        46.200          44.500
 120911860.525 7  94042628.668 6  22634951.241    22634951.777    22634958.471
        44.400          39.600
 143444366.299 6                  27296557.215
        37.500
 138372809.265 4                  26331473.984
        29.000
 117116242.445 7  91090436.290 6  21970708.411    21970708.549    21970716.714
        45.600          41.400
 131265095.574 6                  24978900.984
        39.600
 120692403.188 7  93871941.969 6  22570095.624    22570093.876    22570103.211
        45.700          37.800
 117483854.694 7  91376354.840 6  21939273.339    21939275.097    21939276.918
        46.100          40.700
 200858047.710 5                  38222035.606
        35.900
 25  1  1  3  1 45.0000000  0 25G06G19G12G11G20E27G25G05E34R13E05E15
                                R22R23S31S33R07R12E21E13R14E30R24R08
                                S35
 115559126.694 5  90046097.44742  21990157.890    21990158.3684   21990159.3154
        32.000          14.2004
 116878454.833 6  91074095.61242  22241225.628    22241224.4174   22241223.6934
        39.000          15.1004
 108838800.622 8  84809511.75247  20711309.302    20711308.8374   20711307.6724
        49.000          47.7004
 108247811.122 8  84348969.36346  20598867.779    20598867.6054   20598868.6744
        50.100          38.7004
 107692775.899 7  83916428.94746  20493256.654    20493255.5144   20493255.4954
        46.700          37.6004
 126222397.761 8                  24019298.332
        49.000
 115436159.470 6  89950324.66244  21966768.657    21966767.9294   21966767.4984
        39.000          26.8004
 118831191.497 7  92595713.72644  22612830.925    22612830.6264   22612823.6314
        43.900          28.8004
 131267694.378 5                  24979404.695
        33.300
 110048220.740 7                  20608476.136    20608475.893
        44.700


 123427832.712 8                  23487532.818
        50.500
 115005633.452 6  89448852.320 5  21544423.886    21544424.088    21544433.057
        37.100          33.100
 107019071.360 7                  20006039.569    20006039.896
        44.300
 198907167.653 7                  37850766.072
        42.400
 202055453.447 7                  38449873.566
        44.100
 114956477.193 7  89410612.201 7  21474827.787    21474825.937    21474834.692
        45.200          45.200
 120976282.219 7  94092734.393 6  22647012.394    22647011.600    22647018.651
        44.000          39.600
 143406881.485 6                  27289424.593
        38.100
 138343234.512 5                  26325845.012
        31.900
 117084527.987 7  91065769.505 6  21964761.645    21964760.754    21964764.104
        47.600          37.600
 131300868.291 6                  24985707.872
        38.700
 120656141.442 7  93843738.343 6  22563314.259    22563314.252    22563321.503
        46.400          36.100
 117432669.498 7  91336544.151 6  21929712.805    21929714.853    21929717.586
        46.100          40.300
 200858082.416 5                  38222036.048
        34.700
 25  1  1  3  2  0.0000000  0 25G06G19G12G11G20E27G25G05E34R13E05E15
                                R22R23S31S33R07R12E21E13R14E30R24R08
                                S35


 116915862.060 6  91103244.02942  22248343.664    22248342.4754   22248340.9204
        38.100          14.8004
 108846467.304 8  84815485.77548  20712767.927    20712767.4674   20712766.4684
        50.800          48.4004
 108255357.008 8  84354849.26546  20600304.111    20600303.9244   20600304.8204
        49.600          38.7004
 107671983.745 7  83900227.29746  20489298.871    20489297.7364   20489298.4624
        47.800          37.5004
 126219091.092 8                  24018668.675
        48.100
 115409028.632 6  89929183.80643  21961606.392    21961605.5884   21961600.6644
        39.700          23.8004
 118778420.550 7  92554593.56744  22602787.704    22602787.3874   22602781.7844
        42.000          28.1004
 131295669.253 6                  24984729.132
        37.900
 110082034.638 7                  20614809.126    20614808.185
        44.500


 123425916.573 8                  23487168.142
        50.500
 115039276.790 5  89475019.363 5  21550726.872    21550723.929    21550734.633
        33.800          34.800
 107020309.475 7                  20006271.593    20006271.929
        44.200
 198907166.684 7                  37850772.382
        43.200
 202055439.845 7                  38449873.683
        44.100
 114950858.460 7  89406242.059 7  21473777.199    21473777.521    21473784.719
        44.800          43.300
 121040735.701 6  94142864.896 6  22659076.439    22659075.188    22659083.550
        40.900          39.300
 143369444.371 6                  27282300.772
        37.400
 138313695.662 5                  26320223.538
        33.600
 117052982.870 7  91041234.486 5  21958844.022    21958843.644    21958846.698
        47.300          34.900
 131336706.624 6                  24992528.609
        37.200
 120619906.760 7  93815555.802 6  22556535.154    22556534.369    22556543.346
        44.200          36.000
 117381577.710 7  91296806.150 6  21920171.491    21920173.363    21920176.521
        44.300          40.400
 200858115.920 5                  38222041.566
        35.200
 25  1  1  3  2 15.0000000  0 25G06G19G12G11G20E27G25G05E34R13E05E15
                                R22R23S31S33R07R12E21E13R14E30R24R08
                                S35


 116953328.945 6  91132438.98442  22255472.185    22255470.9784   22255470.5644
        37.400          15.8004
 108854287.269 8  84821579.25848  20714255.794    20714255.3294   20714254.9064
        52.300          49.7004
 108262977.624 8  84360787.40246  20601754.116    20601753.9204   20601754.8164
        49.000          38.4004
 107651317.581 7  83884123.81246  20485366.402    20485365.2714   20485365.7334
        46.200          37.3004
 126215885.413 7                  24018058.968
        47.800
 115382027.856 7  89908144.34044  21956468.779    21956467.9164   21956459.5094
        42.100          25.5004
 118725710.950 5  92513521.21444  22592756.675    22592756.3404   22592753.0624
        33.800          25.7004
 131323656.923 6                  24990054.730
        41.700
 110116012.765 7                  20621171.688    20621170.606
        44.900


 123424048.051 8                  23486812.746
        50.300
 115072939.351 6  89501201.254 5  21557037.393    21557035.857    21557039.576
        38.200          32.900
 107021600.863 6                  20006509.396    20006510.333
        40.800
 198907162.420 6                  37850763.300
        40.600
 202055423.565 7                  38449874.125
        45.600
 114945431.670 6  89402021.322 6  21472765.651    21472760.043    21472768.740
        37.800          40.300
 121105218.886 7  94193018.397 6  22671147.366    22671147.424    22671154.122
        43.500          38.300
 143332053.550 6                  27275184.828
        36.900
 138284191.060 6                  26314607.713
        36.800
 117021605.542 7  91016829.888 5  21952955.484    21952955.568    21952958.855
        44.800          32.900
 131372608.796 6                  24999361.003
        39.400
 120583697.512 7  93787393.045 6  22549764.235    22549762.351    22549770.698
        42.200          36.600
 117330577.930 7  91257139.721 6  21910648.162    21910647.269    21910653.190
        43.700          41.000
 200858145.845 5                  38222054.856
        31.400
 25  1  1  3  2 30.0000000  0 25G06G19G12G11G20E27G25G05E34R13E05E15
                                R22R23S31S33R07R12E21E13R14E30R24R08
                                S35


 116990861.169 6  91161684.83942  22262616.687    22262615.5074   22262612.9484
        38.700          14.9004
 108862265.873 8  84827796.34248  20715773.820    20715773.3514   20715773.5004
        51.800          50.1004
 108270678.359 8  84366787.96046  20603219.682    20603219.4864   20603220.0994
        49.100          38.4004
 107630782.904 7  83868122.78946  20481459.159    20481458.0154   20481458.2284
        46.500          37.4004
 126212786.276 7                  24017468.414
        46.700
 115355162.867 7  89887210.62544  21951356.414    21951355.5074   21951347.0144
        45.000          27.5004
 118673068.536 6  92472501.18743  22582740.837    22582740.5384   22582738.0854
        39.200          23.6004
 131351662.701 7                  24995384.270
        43.700
 110150160.394 7                  20627565.573    20627565.482
        45.100


 123422232.540 8                  23486467.064
        50.400
 115106626.628 6  89527402.432 5  21563344.419    21563344.762    21563350.681
        40.900          34.700
 107022951.008 6                  20006763.142    20006762.917
        40.300
 198907160.948 7                  37850773.236
        42.000
 202055409.374 7                  38449871.612
        45.900
 114940202.236 6  89397953.999 6  21471787.376    21471784.268    21471794.615
        39.400          39.100
 121169736.689 7  94243198.907 6  22683228.362    22683229.753    22683231.791
        47.700          39.500
 143294714.754 5                  27268078.792
        34.100
 138254726.170 6                  26309003.241
        41.200
 116990402.170 7  90992560.607 5  21947101.745    21947101.364    21947107.562
        45.900          32.500
 131408580.112 6                  25006204.908
        41.000
 120547519.359 6  93759254.545 5  22542997.806    22542997.314    22543001.516
        40.300          34.700
 117279676.350 7  91217549.674 6  21901143.050    21901144.382    21901148.166
        45.000          41.900


 25  1  1  3  2 45.0000000  0 25G06G19G12G11G20E27G25G05E34R13E05E15
                                R22R23S31S33R07R12E21E13R14E30R24R08
                                S35
 115700591.637 5  90156319.07544  22017086.788    22017086.6104   22017091.8354
        30.600          29.3004
 117028455.761 6  91190979.22342  22269769.135    22269767.8794   22269766.1324
        38.600          16.8004
 108870400.488 8  84834134.99848  20717322.399    20717321.9264   20717321.6114
        51.800          50.6004
 108278456.483 8  84372848.83146  20604699.453    20604699.2524   20604700.0954
        48.900          37.0004
 107610377.160 7  83852222.21846  20477576.223    20477575.0794   20477575.3934
        47.900          38.1004
 126209791.201 7                  24016899.158
        46.800
 115328431.342 7  89866380.92045  21946269.126    21946268.2104   21946263.6514
        47.100          32.5004
 118620490.774 6  92431531.50144  22572732.649    22572732.3014   22572733.9214
        38.500          24.9004
 131379683.937 7                  25000715.790
        45.600
 110184474.350 7                  20633992.270    20633992.564
        46.100


 123420467.402 8                  23486131.077
        50.400
 115140336.059 6  89553620.864 5  21569660.798    21569660.580    21569664.679
        41.700          34.900
 107024357.280 7                  20007027.849    20007027.678
        42.000
 198907159.768 7                  37850768.120
        42.100
 202055395.959 7                  38449869.694
        45.600
 114935167.897 6  89394038.407 6  21470845.165    21470842.384    21470853.620
        36.600          38.800
 121234286.082 8  94293403.941 6  22695313.000    22695314.147    22695317.273
        48.100          41.500
 143257425.687 5                  27260984.345
        33.800
 138225298.423 6                  26303403.281
        39.500
 116959370.606 6  90968425.053 4  21941279.049    21941278.216    21941281.798
        41.500          28.900
 131444617.850 7                  25013063.138
        43.100
 120511369.774 6  93731138.252 6  22536238.031    22536233.998    22536243.669
        37.600          38.000
 117228870.985 7  91178034.402 7  21891654.205    21891655.000    21891661.140
        44.800          43.700


 25  1  1  3  3  0.0000000  0 24G06G19G12G11G20E27G25G05E34R13E15R22
                                R23S31S33R07R12E21E13R14E30R24R08S35


 117066110.970 6  91220320.86243  22276933.853    22276932.5934   22276932.2874
        38.500          20.0004
 108878689.420 8  84840593.90348  20718899.496    20718899.0144   20718899.0704
        51.500          50.6004
 108286310.084 8  84378968.52946  20606193.587    20606193.3824   20606193.9524
        49.700          36.6004
 107590098.534 8  83836420.68746  20473716.779    20473715.6394   20473716.5664
        48.000          38.5004
 126206898.406 8                  24016348.504
        48.300
 115301831.734 7  89845653.97046  21941206.756    21941205.8714   21941206.0814
        46.600          36.9004
 118567976.044 6  92390610.92744  22562740.030    22562739.8114   22562743.2834
        37.400          27.6004
 131407718.731 7                  25006049.361
        45.200
 110218952.734 7                  20640448.722    20640448.715
        45.500
 123418750.720 8                  23485804.600
        50.500
 115174065.684 7  89579855.026 5  21575977.872    21575978.665    21575983.605
        42.300          35.200
 107025817.801 7                  20007298.890    20007298.099
        42.000
 198907156.801 6                  37850768.044
        41.900
 202055380.226 7                  38449864.525
        44.200
 114930327.149 6  89390273.398 6  21469938.328    21469941.459    21469951.873
        41.800          38.700
 121298864.457 7  94343631.501 7  22707402.559    22707404.668    22707406.546
        47.200          42.200
 143220184.691 5                  27253898.405
        35.900
 138195906.025 6                  26297807.183
        37.900
 116928509.136 7  90944421.761 6  21935489.609    21935487.823    21935497.012
        43.200          36.300
 131480720.032 7                  25019933.345
        44.000
 120475246.688 6  93703042.557 6  22529486.369    22529486.123    22529489.811
        39.200          39.800
 117178160.532 7  91138592.993 7  21882186.420    21882185.172    21882191.648
        42.800          44.000


 25  1  1  3  3 15.0000000  0 25G09G06G19G12G11G20E27G25G05E34R13E15
                                R22R23S31S33R07R12E21E13R14E30R24R08
                                S35




 117103829.764 7  91249712.09243  22284113.801    22284112.6124   22284111.8754
        42.200          23.9004
 108887135.518 8  84847175.27648  20720507.141    20720506.6634   20720506.3104
        51.900          50.6004
 108294241.989 8  84385149.25045  20607703.106    20607702.8964   20607702.8294
        48.400          35.4004
 107569950.227 8  83820720.70846  20469882.866    20469881.7264   20469881.9894
        48.300          38.1004
 126204110.961 7                  24015817.867
        47.600
 115275367.248 7  89825032.29846  21936170.907    21936170.0494   21936174.0344
        45.700          40.2004
 118515527.779 6  92349742.16345  22552761.240    22552761.0354   22552764.2894
        40.200          32.0004
 131435769.894 7                  25011387.225
        42.200
 110253597.634 7                  20646937.051    20646937.271
        45.800
 123417085.387 8                  23485487.601
        49.900
 115207818.602 7  89606107.312 5  21582300.874    21582301.951    21582309.502
        42.800          35.500
 107027335.736 7                  20007583.229    20007583.125
        45.800
 198907154.262 7                  37850768.482
        42.600
 202055365.641 7                  38449860.460
        44.800
 114925682.914 6  89386661.268 6  21469074.280    21469080.251    21469084.512
        36.700          38.400
 121363474.558 7  94393883.814 7  22719496.829    22719497.205    22719502.718
        43.400          42.800
 143182994.986 5                  27246818.724
        33.900
 138166551.948 6                  26292223.294
        36.500
 116897821.212 7  90920553.415 7  21929733.564    21929730.962    21929745.634
        44.300          42.900
 131516889.474 7                  25026816.895
        43.300
 120439153.131 7  93674969.820 6  22522738.841    22522738.136    22522742.450
        42.300          40.600
 117127548.766 7  91099228.300 7  21872735.133    21872734.179    21872740.511
        44.800          44.600
 200858286.060 5                  38222068.812
        34.200
 25  1  1  3  3 30.0000000  0 27G09G06G19G12G11G20E27G25G05E34G29R13
                                E15R22R23S31S33R07G17R12E21E13R14E30
                                R24R08S35




 117141613.460 6  91279153.97744  22291302.721    22291301.4834   22291303.5724
        41.800          25.8004
 108895740.106 8  84853880.16448  20722144.459    20722143.9814   20722143.7154
        52.100          50.3004
 108302253.445 7  84391391.95945  20609228.193    20609227.9614   20609226.8124
        47.600          34.1004
 107549933.728 8  83805123.43046  20466073.756    20466072.6164   20466072.2334
        48.200          37.9004
 126201430.311 7                  24015308.439
        47.900
 115249039.551 7  89804517.20046  21931160.584    21931159.7214   21931166.1704
        45.000          40.4004
 118463147.811 6  92308926.63045  22542794.367    22542794.1484   22542797.8034
        40.200          33.2004
 131463838.769 7                  25016728.986
        42.200
 131362148.881 6 102360128.96742  24997386.711    24997386.5734   24997388.0354
        37.600          15.3004
 110288410.270 7                  20653454.688    20653455.587
        44.400
 123415472.705 8                  23485180.657
        49.200
 115241596.083 7  89632378.734 5  21588630.431    21588630.469    21588633.744
        44.400          34.800
 107028912.202 8                  20007878.854    20007879.495
        48.500
 198907155.322 7                  37850768.692
        43.300
 202055354.083 7                  38449859.427
        44.900
 114921236.942 6  89383203.398 6  21468248.659    21468248.892    21468253.774
        39.100          38.600
 131503108.597 6                  25024210.635
        36.700
 121428117.139 5  94444161.487 7  22731594.554    22731591.585    22731605.317
        35.300          44.400
 143145858.163 5                  27239750.714
        34.200
 138137237.582 6                  26286644.467
        37.200
 116867308.508 7  90896821.321 7  21924011.158    21924009.539    21924019.721
        45.700          44.300
 131553127.374 7                  25033713.480
        43.100
 120403090.456 7  93646921.101 6  22515998.322    22515998.851    22515999.748
        42.600          38.300
 117077037.456 7  91059941.736 7  21863301.082    21863302.838    21863306.640
        44.100          44.100
 200858320.318 5                  38222083.774
        34.200
 25  1  1  3  3 45.0000000  0 27G09G06G19G12G11G20E27G25G05E34G29R13
                                E15R22R23S31S33R07G17R12E21E13R14E30
                                R24R08S35


 115842549.359 5  90266925.08543  22044099.564    22044098.6974   22044104.8714
        33.700          22.7004
 117179455.695 6  91308641.46144  22298503.944    22298502.6614   22298506.2834
        41.200          26.6004
 108904496.644 8  84860703.45248  20723810.820    20723810.3334   20723810.0214
        51.900          49.8004
 108310337.970 8  84397691.57945  20610766.775    20610766.5254   20610764.8454
        48.200          33.2004
 107530042.832 7  83789624.03146  20462288.360    20462287.2074   20462287.4034
        47.500          37.3004
 126198850.161 8                  24014817.384
        48.500
 115222842.471 7  89784103.88246  21926175.249    21926174.3554   21926180.7184
        42.500          37.7004
 118410829.948 6  92268159.46745  22532839.849    22532839.5864   22532840.9394
        38.600          30.9004
 131491918.916 7                  25022072.358
        42.600
 131315577.946 5 102323839.97442  24988523.412    24988523.5054   24988523.2354
        35.200          14.8004
 110323383.864 7                  20660005.081    20660004.748
        43.900
 123413906.196 8                  23484882.329
        48.800
 115275391.620 6  89658664.187 5  21594960.492    21594962.215    21594964.149
        41.000          33.800
 107030540.668 8                  20008183.302    20008182.975
        48.300
 198907152.767 7                  37850769.417
        42.400
 202055338.306 7                  38449857.017
        44.700
 114916982.678 7  89379894.536 6  21467457.635    21467455.962    21467461.251
        42.700          38.900
 131543312.030 5 102501288.37341  25031861.400    25031861.9414   25031860.2764
        32.400           9.0004
 121492785.412 6  94494459.032 7  22743699.234    22743698.445    22743711.766
        36.900          43.900
 143108768.114 5                  27232692.976
        34.000
 138107956.577 5                  26281073.323
        31.100
 116836964.892 7  90873220.735 7  21918318.894    21918316.247    21918325.566
        45.500          44.300
 131589427.219 7                  25040620.159
        43.500
 120367052.295 5  93618891.453 6  22509247.791    22509245.601    22509265.292
        33.200          38.800
 117026620.776 7  91020728.821 7  21853885.732    21853885.516    21853892.412
        43.900          44.800
 200858351.666 5                  38222084.302
        35.800
 25  1  1  3  4  0.0000000  0 27G09G06G19G12G11G20E27G25G05E34G29R13
                                E15R22R23S31S33R07G17R12E21E13R14E30
                                R24R08S35


 115878117.070 6  90294640.16344  22050871.675    22050871.0184   22050872.2694
        37.600          25.2004
 117217360.268 6  91338177.51644  22305716.896    22305715.6314   22305719.9854
        40.500          25.6004
 108913409.015 8  84867648.17148  20725506.671    20725506.1934   20725505.9914
        52.200          48.9004
 108318499.229 8  84404051.00145  20612319.578    20612319.3244   20612317.5984
        48.600          32.6004
 107510281.458 7  83774225.56646  20458528.009    20458526.8474   20458527.6404
        47.800          37.2004
 126196374.362 8                  24014346.275
        49.200
 115196780.046 6  89763795.47045  21921216.366    21921215.4544   21921219.3284
        40.400          35.0004
 118358578.228 6  92227443.89945  22522895.814    22522895.6404   22522895.3804
        37.400          31.7004
 131520013.999 7                  25027418.555
        42.600
 131268997.241 6 102287543.39042  24979659.753    24979659.6064   24979657.3854
        37.000          13.1004
 110358521.530 7                  20666584.550    20666584.821
        43.700
 123412389.586 8                  23484593.824
        48.800
 115309208.999 6  89684966.616 5  21601294.315    21601291.998    21601302.540
        38.000          34.200
 107032225.005 8                  20008497.570    20008497.250
        48.400
 198907149.274 7                  37850768.406
        42.900
 202055322.351 7                  38449852.362
        45.000
 114912924.270 7  89376737.946 6  21466697.021    21466697.977    21466704.952
        46.200          36.600
 131583544.019 4 102532637.81241  25039525.742    25039526.1134   25039514.6484
        29.400           6.8004
 121557482.687 6  94544779.092 7  22755813.429    22755814.154    22755822.395
        40.800          43.300
 143071728.776 6                  27225645.033
        37.100
 138078712.682 5                  26275518.002
        33.000
 116806794.620 7  90849754.987 7  21912660.668    21912659.823    21912664.452
        47.100          44.300
 131625792.674 7                  25047539.765
        44.200
 120331042.490 5  93590883.893 5  22502516.457    22502512.889    22502521.607
        34.900          34.300
 116976303.186 7  90981592.985 7  21844491.786    21844489.475    21844496.594
        44.700          45.800
 200858382.935 5                  38222096.299
        32.700
 25  1  1  3  4 15.0000000  0 26G06G19G12G11G20E27G25G05E34G29R13E15
                                R22R23S31S33R07G17R12E21E13R14E30R24
                                R08S35
 115913715.297 5  90322379.03344  22057639.499    22057639.1194   22057645.4814
        35.900          28.0004
 117255327.910 6  91367762.70744  22312941.417    22312940.1654   22312944.9284
        41.100          24.5004
 108922478.075 8  84874714.96848  20727232.090    20727231.6214   20727231.6314
        51.100          48.5004
 108326737.944 8  84410470.78045  20613887.430    20613887.1804   20613884.1904
        48.600          32.5004
 107490650.774 8  83758928.94846  20454792.076    20454790.8924   20454792.2524
        48.900          37.1004
 126194003.869 8                  24013894.816
        49.300
 115170853.411 5  89743592.89045  21916282.988    21916282.0184   21916284.7404
        35.600          34.0004
 118306394.186 7  92186781.08345  22512966.727    22512966.6254   22512963.0164
        42.200          33.2004
 131548124.793 7                  25032767.877
        42.200
 131222407.284 5 102251239.56642  24970793.661    24970793.3624   24970790.4574
        35.200          13.7004
 110393824.038 7                  20673195.259    20673195.900
        43.100
 123410923.646 8                  23484315.115
        49.400
 115343049.167 6  89711286.780 4  21607635.171    21607635.620    21607638.775
        40.900          27.000
 107033965.990 8                  20008823.252    20008823.213
        49.600
 198907147.652 6                  37850770.199
        41.800
 202055308.261 7                  38449850.918
        45.000
 114909062.845 6  89373734.427 5  21465973.800    21465973.073    21465981.519
        40.200          35.900
 131623805.292 5 102564010.0374   25047179.761    25047180.3374   25047176.1524
        31.800           3.8004
 121622209.029 6  94595121.817 6  22767934.671    22767935.355    22767938.592
        40.700          41.100
 143034741.293 6                  27218605.709
        38.500
 138049507.108 5                  26269957.596
        35.200
 116776798.852 7  90826424.977 7  21907031.289    21907032.604    21907036.012
        46.000          44.300
 131662224.337 7                  25054472.543
        43.300
 120295061.795 7  93562898.860 5  22495789.585    22495787.788    22495790.250
        42.400          32.600
 116926086.241 7  90942535.394 7  21835112.554    21835112.679    21835119.740
        45.000          46.600
 200858415.012 5                  38222102.676
        30.100
 25  1  1  3  4 30.0000000  0 26G06G19G12G11G20E27G25G05E34G29R13E15
                                R22R23S31S33R07G17R12E21E13R14E30R24
                                R08S35
 115949345.472 6  90350142.83745  22064422.163    22064421.9184   22064424.9124
        40.600          30.9004
 117293360.320 7  91397398.35343  22320179.942    22320178.6824   22320181.2524
        42.200          23.8004
 108931705.192 8  84881904.93147  20728988.345    20728987.8764   20728987.5744
        50.000          47.9004
 108335055.585 8  84416952.03545  20615470.077    20615469.8364   20615466.1794
        48.900          32.5004
 107471152.094 8  83743735.18246  20451081.733    20451080.5404   20451081.5034
        49.000          37.8004
 126191740.306 8                  24013464.074
        49.000
 115145064.362 6  89723497.55845  21911376.094    21911375.1064   21911377.5994
        38.800          34.4004
 118254279.713 6  92146172.41545  22503049.018    22503048.8314   22503046.0494
        41.900          34.5004
 131576252.828 6                  25038119.896
        40.700
 131175809.725 5 102214929.87942  24961927.232    24961927.0094   24961924.0214
        32.600          15.1004
 110429292.209 7                  20679838.853    20679837.709
        42.000
 123409509.879 8                  23484046.094
        50.900


 107035765.364 8                  20009159.686    20009160.226
        49.900
 198907147.767 6                  37850769.368
        40.300
 202055297.100 7                  38449851.508
        43.600
 114905399.941 5  89370885.411 6  21465284.275    21465285.669    21465297.554
        34.900          38.000
 131664097.468 5 102595406.5114   25054848.651    25054849.0804   25054843.3524
        31.000           4.9004
 121686965.840 6  94645488.163 6  22780058.012    22780058.768    22780059.680
        40.400          40.400
 142997807.484 6                  27211578.927
        38.200
 138020340.874 6                  26264398.496
        41.700
 116746979.399 6  90803232.135 7  21901436.406    21901433.690    21901443.058
        38.600          45.600
 131698723.748 7                  25061418.914
        44.400
 120259111.852 7  93534937.853 5  22489063.786    22489063.120    22489067.805
        42.300          31.400
 116875971.941 7  90903557.685 7  21825751.882    21825754.311    21825761.336
        44.700          45.500
 200858449.446 4                  38222103.910
        28.800
 25  1  1  3  4 45.0000000  0 27G09G06G19G12G11G20E27G25G05E34G29R13
                                E15R22R23S31S33R07G17R12E21E13R14E30
                                R24R08S35
 128167212.740 5                  24389408.263
        31.000
 115985000.994 6  90377926.34545  22071206.758    22071206.4104   22071210.1754
        38.100          30.9004
 117331450.878 6  91427079.27743  22327426.965    22327425.7184   22327427.5704
        41.900          21.4004
 108941083.954 8  84889213.06647  20730773.021    20730772.5614   20730772.4814
        50.300          47.3004
 108343445.567 8  84423489.66245  20617066.438    20617066.1884   20617062.9464
        49.400          32.6004
 107451779.133 8  83728639.38746  20447395.595    20447394.4064   20447394.8074
        48.800          38.2004
 126189577.306 8                  24013052.616
        49.500
 115119406.734 6  89703504.60445  21906493.297    21906492.2204   21906495.6564
        40.200          35.3004
 118202228.715 6  92105613.21845  22493141.052    22493140.8244   22493141.3874
        36.700          30.4004
 131604391.513 6                  25043474.878
        40.300
 131129198.499 5 102178609.50142  24953060.219    24953060.0594   24953054.8664
        33.000          14.9004
 110464919.458 7                  20686511.537    20686510.367
        43.400
 123408141.754 8                  23483785.510
        50.300
 115410795.608 5                  21620322.951    21620322.079
        33.600
 107037616.311 8                  20009505.356    20009505.261
        49.100
 198907144.387 7                  37850770.235
        42.200
 202055280.416 7                  38449844.461
        45.000
 114901929.019 6  89368185.860 6  21464644.033    21464648.467    21464647.281
        38.100          36.000
 131704413.741 5                  25062516.876
        30.600
                  94695872.703 6                                  22792184.968
                        37.400
 142960921.113 7                  27204561.636
        42.100
 137991207.781 6                  26258855.226
        41.400
 116717330.410 5  90780171.885 7  21895879.893    21895874.560    21895880.516
        35.400          43.900
 131735284.259 7                  25068376.305
        44.200
 120223186.253 7  93506995.594 5  22482346.369    22482344.905    22482368.018
        43.300          32.600
 116825954.394 7  90864655.166 7  21816419.165    21816418.945    21816420.671
        45.900          44.300
 200858480.436 5                  38222103.378
        32.700
 25  1  1  3  5  0.0000000  0 26G09G06G19G12G11G20E27G25G05E34G29R13
                                E15R22R23S31S33R07R12E21E13R14E30R24
                                R08S35
 128160354.854 4                  24388102.529
        29.200
 116020686.278 6  90405733.07845  22077999.305    22077998.9084   22078000.7814
        39.700          30.3004
 117369604.262 6  91456809.09343  22334687.488    22334686.2324   22334685.0904
        40.500          19.4004
 108950618.921 8  84896642.92147  20732587.239    20732586.7744   20732586.7924
        49.400          46.9004
 108351912.388 8  84430087.18945  20618677.551    20618677.2924   20618673.7054
        48.100          31.5004
 107432536.652 8  83713645.25046  20443734.159    20443732.9704   20443732.8344
        49.600          38.6004
 126187519.527 8                  24012660.916
        50.100
 115093885.317 7  89683617.80346  21901636.094    21901635.0444   21901639.5684
        43.700          37.4004
 118150246.010 6  92065107.24645  22483249.158    22483248.8324   22483249.9344
        40.600          30.3004
 131632545.396 6                  25048833.289
        41.500
 131082578.134 4 102142281.97742  24944194.660    24944194.5584   24944184.3794
        28.100          13.6004
 110500709.803 7                  20693214.415    20693213.468
        43.900
 123406823.802 8                  23483534.750
        50.200
                                                  21626670.531

 107039523.483 8                  20009862.166    20009861.448
        48.300
 198907141.785 6                  37850767.315
        40.500
 202055265.180 7                  38449843.164
        45.200
 114898655.215 6  89365639.527 5  21464029.601    21464033.668    21464030.949
        39.500          30.600
                  94746278.422 6                                  22804318.738
                        38.900
 142924087.049 6                  27197551.144
        41.500
 137962112.448 6                  26253318.008
        40.300
 116687856.683 7  90757247.892 7  21890347.252    21890347.196    21890352.169
        43.800          46.200
 131771910.268 7                  25075346.660
        45.800
 120187289.687 7  93479076.271 5  22475635.985    22475634.069    22475635.140
        43.600          31.200
 116776038.875 6  90825832.054 7  21807089.193    21807090.049    21807099.833
        41.700          43.000
 200858511.954 5                  38222111.435
        34.900
 25  1  1  3  5 15.0000000  0 26G09G06G19G12G11G20E27G25G05E34G29R13
                                E15R22R23S31S33R07R12E21E13R14E30R24
                                R08S35
 128153624.937 5  99860019.82741  24386827.741    24386827.3574   24386833.1204
        33.000           8.5004
 116056403.535 6  90433564.69144  22084794.589    22084794.1694   22084797.8664
        39.700          28.6004
 117407822.598 6  91486589.54043  22341960.532    22341959.2764   22341957.6834
        36.100          18.2004
 108960312.152 8  84904196.08547  20734432.221    20734431.7614   20734431.2474
        48.900          46.5004
 108360458.156 8  84436746.26345  20620303.871    20620303.6394   20620299.6994
        48.500          30.7004
 107413427.167 8  83698754.75246  20440097.597    20440096.4084   20440096.3194
        50.700          39.4004
 126185569.317 8                  24012290.000
        50.100
 115068502.650 7  89663839.09546  21896804.659    21896803.6094   21896809.9304
        43.900          39.2004
 118098334.061 6  92024656.41145  22473370.391    22473370.0744   22473370.9844
        39.300          33.0004
 131660716.619 6                  25054193.829
        40.800


 110536664.975 6                  20699946.154    20699944.646
        40.300
 123405558.166 8                  23483293.996
        49.300


 107041488.921 8                  20010229.104    20010229.503
        48.400
 198907142.021 7                  37850763.340
        42.600
 202055252.610 7                  38449841.183
        45.100
 114895580.685 6                  21463461.594    21463458.872
        37.400
 121881710.108 6  94796707.021 7  22816500.700                    22816460.589
        36.600          42.000
 142887307.716 6                  27190552.326
        41.000
 137933057.127 6                  26247788.426
        39.000
 116658560.855 7  90734462.283 7  21884853.352    21884851.961    21884857.189
        44.100          46.500
 131808603.974 7                  25082328.983
        46.000
 120151424.033 6                  22468926.049    22468927.198
        38.400
 116726228.409 7  90787090.522 6  21797789.581    21797789.892    21797798.058
        43.500          39.800
 200858546.780 5                  38222134.397
        33.000
 25  1  1  3  5 30.0000000  0 26G09G06G19G12G11G20E27G25G05E34G29R13
                                E15R22R23S31S33R07R12E21E13R14E30R24
                                R08S35
 128147019.940 5  99854873.03941  24385573.028    24385572.5554   24385576.6254
        32.800           7.8004
 116092149.123 6  90461418.40844  22091595.728    22091595.3314   22091601.7084
        37.800          29.7004
 117446102.374 5  91516417.87742  22349246.290    22349245.0434   22349242.6854
        33.400          16.3004
 108970160.313 8  84911869.97947  20736305.573    20736305.1224   20736305.2154
        49.600          46.5004
 108369079.376 8  84443464.11745  20621944.214    20621943.9954   20621940.5924
        49.600          31.8004
 107394447.141 8  83683965.12346  20436485.415    20436484.2314   20436484.6254
        50.900          40.3004
 126183723.330 8                  24011938.657
        50.200
 115043255.596 6  89644166.11346  21891999.089    21891998.0704   21892005.5654
        40.700          36.2004
 118046489.909 6  91984258.39645  22463506.502    22463506.2394   22463504.6404
        37.500          33.8004
 131688901.727 6                  25059557.967
        41.400
 130989348.316 6 102069611.95043  24926445.761    24926445.4624   24926442.1614
        36.500          23.2004
 110572781.264 7                  20706711.304    20706711.034
        43.600
 123404341.409 8                  23483062.645
        48.800


 107043509.645 8                  20010606.803    20010607.637
        48.000
 198907141.643 7                  37850770.660
        43.600
 202055240.849 7                  38449837.167
        45.000
 114892701.952 6                  21462914.054    21462916.049
        39.300
                  94847155.230 6                  22828592.186    22828603.910
                        41.700
 142850579.994 6                  27183563.214
        40.600
 137904038.397 6                  26242267.382
        40.300
 116629439.656 7  90711812.540 7  21879385.818    21879386.149    21879394.753
        44.800          46.200
 131845361.726 7                  25089323.477
        46.300
 120115586.067 6                  22462226.648    22462229.960
        37.000
 116676519.842 7  90748428.394 6  21788506.224    21788506.849    21788513.199
        43.800          37.800
 200858580.537 5                  38222124.926
        35.300
 25  1  1  3  5 45.0000000  0 25G06G19G12G11G20E27G25G05E34G29R13E15
                                R22R23S31S33R07R12E21E13R14E30R24R08
                                S35
 116127919.529 6  90489291.45244  22098404.726    22098404.2974   22098411.1804
        38.500          27.6004
 117484440.326 5  91546291.61942  22356539.806    22356538.5504   22356538.6964
        31.000          17.6004
 108980159.831 7  84919661.81147  20738208.187    20738207.7634   20738207.6444
        46.400          44.8004
 108377772.427 8  84450237.91845  20623598.199    20623597.9984   20623596.5504
        49.400          33.7004
 107375593.407 8  83669273.91246  20432897.551    20432896.3714   20432897.0424
        49.700          40.3004
 126181978.167 8                  24011606.856
        50.300
 115018140.882 6  89624596.20345  21887222.682    21887221.6414   21887225.5794
        37.500          33.7004
 117994710.229 7  91943910.61446  22453653.694    22453653.4714   22453650.9144
        43.200          36.5004
 131717097.167 7                  25064923.857
        44.500
 130942698.228 5 102033261.25843  24917570.999    24917570.7274   24917565.2254
        33.100          22.5004
 110609054.757 6                  20713502.378    20713500.938
        39.900
 123403169.945 8                  23482840.058
        49.600


 107045581.562 7                  20010993.412    20010993.435
        44.600
 198907138.232 7                  37850773.991
        43.300
 202055223.721 7                  38449836.501
        45.500
 114890015.973 6  89358876.550 6  21462411.674    21462411.037    21462420.092
        40.700          38.100
 122011455.263 5  94897620.028 6  22840741.036    22840738.942    22840750.259
        34.500          41.600
 142813900.609 6                  27176583.403
        41.600
 137875052.887 6                  26236749.521
        38.700
 116600490.192 6  90689296.274 7  21873954.834    21873954.000    21873962.675
        40.700          44.100
 131882179.909 7                  25096328.867
        44.300
 120079772.476 6  93395403.817 6  22455527.963    22455527.346    22455533.601
        40.600          36.800
 116626910.464 7  90709843.337 6  21779244.689    21779245.179    21779248.493
        46.800          37.300
 200858610.826 5                  38222159.707
        31.600
 25  1  1  3  6  0.0000000  0 25G06G19G12G11G20E27G25G05E34G29R13E15
                                R22R23S31S33R07R12E21E13R14E30R24R08
                                S35
 116163719.276 5  90517187.51642  22105216.757    22105216.3514   22105227.8384
        35.100          15.0004
 117522841.121 4  91576214.26042  22363849.393    22363848.1734   22363846.9914
        28.200          16.7004
 108990315.329 7  84927575.18147  20740140.690    20740140.2484   20740139.8824
        45.900          44.0004
 108386541.928 8  84457071.30145  20625266.548    20625266.3474   20625267.2334
        48.200          35.5004
 107356870.757 8  83654684.84646  20429334.903    20429333.7194   20429334.3624
        49.600          39.9004
 126180338.639 8                  24011294.790
        50.300
 114993163.519 7  89605133.34245  21882470.317    21882469.2624   21882471.1224
        42.500          34.1004
 117943000.405 7  91903617.24546  22443812.244    22443812.0304   22443811.9274
        42.500          39.2004
 131745307.571 6                  25070290.953
        41.800
 130896039.532 4 101996903.83543  24908682.100    24908681.9444   24908686.1934
        27.800          20.3004
 110645489.535 6                  20720326.800    20720324.509
        38.100
 123402048.434 8                  23482625.913
        49.500
 115580537.424 6                  21652128.910    21652125.215
        39.100
 107047709.730 7                  20011390.512    20011391.311
        44.200
 198907134.298 7                  37850757.813
        42.400
 202055207.551 7                  38449829.914
        44.200
 114887527.267 7  89356940.968 6  21461946.995    21461955.679    21461954.171
        44.000          37.100
 122076364.172 6  94948104.651 6  22852890.755    22852890.030    22852900.597
        38.900          41.500
 142777274.613 6                  27169612.637
        38.700
 137846105.203 6                  26231243.841
        38.200
 116571717.398 7  90666917.542 7  21868560.001    21868560.494    21868564.841
        46.800          44.600
 131919063.113 7                  25103347.945
        44.100
 120043987.845 6  93367571.390 5  22448837.252    22448832.625    22448842.090
        38.600          35.900
 116577405.398 7  90671339.517 6  21769999.242    21770000.270    21770003.034
        47.900          38.000
 200858641.807 5                  38222139.584
        33.800
 25  1  1  3  6 15.0000000  0 25G06G19G12G11G20E27G25G05E34G29R13E15
                                R22R23S31S33R07R12E21E13R14E30R24R08
                                S35
 116199550.662 6  90545107.53943  22112038.250    22112037.7994   22112046.4994
        40.600          22.3004
 117561306.709 6  91606187.50443  22371168.220    22371167.0714   22371168.4864
        40.800          22.5004
 109000629.274 7  84935612.01147  20742103.608    20742103.1394   20742102.3204
        47.100          44.3004
 108395390.193 7  84463966.05145  20626950.786    20626950.5854   20626951.7654
        45.800          33.6004
 107338281.648 8  83640199.83646  20425797.732    20425796.5434   20425796.8034
        49.600          39.4004
 126178807.225 8                  24011003.545
        50.100
 114968326.097 7  89585779.51145  21877741.896    21877740.8684   21877743.4284
        43.000          33.9004
 117891363.123 7  91863380.42946  22433987.543    22433987.3334   22433985.9754
        43.200          37.9004
 131773535.230 6                  25075663.050
        41.000


 110682087.787 6                  20727177.101    20727175.432
        37.800
 123400979.196 8                  23482422.515
        49.700
 115614552.231 6  89922466.610 6  21658497.868    21658498.368    21658507.551
        38.700          36.700
 107049896.610 7                  20011799.396    20011800.129
        44.900
 198907134.756 7                  37850758.493
        43.800
 202055195.672 7                  38449829.038
        45.300
                  89355160.988 6                                  21461524.994
                        38.300
 122141300.542 6  94998610.648 6  22865047.596    22865048.341    22865054.914
        39.100          40.300
 142740704.492 6                  27162654.442
        39.800
 137817197.905 6                  26225741.625
        37.800
 116543124.099 7  90644678.291 7  21863194.094    21863194.042    21863200.410
        44.400          43.800
 131956013.569 6                  25110378.780
        39.400
 120008234.664 7  93339763.319 6  22442150.451    22442150.537    22442154.569
        44.500          37.700
 116528007.992 7  90632919.378 6  21760775.056    21760773.694    21760777.933
        45.100          37.500
 200858676.407 5                  38222174.964
        31.100
 25  1  1  3  6 30.0000000  0 25G06G19G12G11G20E27G25G05E34G29R13E15
                                R22R23S31S33R07R12E21E13R14E30R24R08
                                S35
 116235410.026 6  90573049.97444  22118858.895    22118858.4444   22118869.5024
        40.700          24.9004
 117599834.095 6  91636208.78343  22378497.684    22378496.5354   22378500.0604
        40.000          22.6004
 109011098.121 7  84943769.53147  20744096.125    20744095.6474   20744095.0014
        47.600          46.5004
 108404313.542 7  84470919.32045  20628649.524    20628649.2884   20628650.3384
        45.500          34.1004
 107319822.726 8  83625816.27446  20422285.185    20422284.0014   20422284.0984
        48.900          39.6004
 126177380.427 8                  24010731.687
        49.500
 114943625.382 7  89566532.24345  21873041.852    21873040.8784   21873043.7884
        45.300          35.5004
 117839795.030 7  91823197.54246  22424173.805    22424173.6454   22424173.3754
        42.200          38.1004
 131801776.614 6                  25081036.383
        38.600


 110718845.663 7                  20734064.013    20734063.216
        43.700
 123399958.651 8                  23482228.280
        48.800
 115648588.361 6  89948939.093 5  21664872.437    21664874.473    21664882.614
        40.900          34.100
 107052138.437 7                  20012218.917    20012218.369
        44.600
 198907135.438 7                  37850768.661
        43.800
 202055183.651 7                  38449819.312
        45.400
 114883147.080 7  89353534.159 6  21461136.277    21461136.460    21461134.366
        46.500          36.700
 122206260.154 5  95049134.864 6  22877207.586    22877203.637    22877214.472
        32.200          39.300
 142704187.104 5                  27155706.177
        35.300
 137788327.336 6                  26220248.428
        39.700
 116514706.879 7  90622576.053 7  21857862.567    21857863.720    21857868.868
        46.000          43.700
 131993027.598 6                  25117423.554
        40.900
 119972509.105 7  93311976.791 6  22435470.577    22435470.478    22435475.149
        46.300          38.600
 116478715.028 8  90594580.421 6  21751572.869    21751573.232    21751576.586
        48.400          41.000
 200858710.449 5                  38222166.123
        33.900
 25  1  1  3  6 45.0000000  0 26G09G06G19G12G11G20E27G25G05E34G29R13
                                E15R22R23S31S33R07R12E21E13R14E30R24
                                R08S35
 128115903.887 5                  24379642.380
        32.100
 116271293.432 6  90601010.97543  22125687.555    22125687.1134   22125693.2024
        38.800          22.7004
 117638419.012 7  91666274.92143  22385841.534    22385840.4174   22385841.3554
        42.600          23.0004
 109021717.862 8  84952044.64448  20746117.251    20746116.7824   20746116.6884
        50.100          48.9004
 108413308.070 7  84477928.04445  20630361.767    20630361.4994   20630362.4554
        45.100          34.8004
 107301490.255 8  83611531.25446  20418796.870    20418795.6944   20418795.4324
        48.600          39.2004
 126176054.569 8                  24010479.743
        49.100
 114919057.825 7  89547388.71645  21868367.182    21868366.2394   21868369.8744
        46.900          35.6004
 117788292.818 6  91783066.00245  22414378.353    22414378.2104   22414373.3674
        39.700          34.5004
 131830027.839 6                  25086413.422
        37.200


 110755758.684 7                  20740978.131    20740976.492
        43.900
 123398982.899 8                  23482042.736
        48.600
 115682641.698 7  89975424.888 5  21671254.351    21671255.688    21671256.322
        43.900          33.600
 107054431.469 7                  20012647.654    20012648.678
        47.100
 198907130.362 7                  37850757.634
        43.300
 202055166.233 7                  38449825.644
        45.400
 114881247.853 7  89352057.023 5  21460773.788    21460775.452    21460777.097
        43.300          34.700
 122271238.854 5  95099673.833 6  22889369.328    22889368.709    22889378.671
        35.800          38.100
 142667718.831 5                  27148765.809
        32.400
 137759489.768 6                  26214760.926
        39.200
 116486462.443 8  90600608.150 7  21852565.743    21852566.842    21852570.621
        48.800          44.400
 132030101.276 6                  25124477.442
        41.400
 119936807.530 7  93284209.007 6  22428794.667    22428794.547    22428801.052
        47.700          37.700
 116429523.389 7  90556320.299 6  21742384.530    21742386.006    21742390.138
        47.400          40.600
 200858740.565 4                  38222192.229
        28.000
 25  1  1  3  7  0.0000000  0 27G09G06E03G19G12G11G20E27G25G05E34G29
                                R13E15R22R23S31S33R07R12E21E13R14E30
                                R24R08S35
 128110051.055 5                  24378528.143
        31.600
 116307205.662 6  90628994.50743  22132519.996    22132519.5004   22132521.3794
        39.400          23.5004
 147508516.158 5                  28069937.545
        32.700
 117677066.471 6  91696389.80443  22393195.264    22393194.0884   22393195.6414
        40.400          20.6004
 109032493.289 8  84960441.06948  20748167.587    20748167.1224   20748167.4954
        50.500          49.9004
 108422378.597 7  84484995.99845  20632086.938    20632086.6704   20632088.5244
        46.200          34.9004
 107283289.269 7  83597348.67346  20415332.793    20415331.6094   20415332.0844
        47.600          38.5004
 126174834.613 8                  24010247.627
        48.200
 114894628.578 7  89528352.95545  21863717.547    21863716.6134   21863721.7794
        44.900          34.1004
 117736861.603 5  91742989.70444  22404594.912    22404594.8414   22404585.8884
        31.500          29.5004
 131858293.654 6                  25091793.814
        36.700


 110792831.507 7                  20747919.193    20747917.058
        42.300
 123398056.810 8                  23481866.333
        50.000
 115716717.258 7  90001928.017 5  21677636.913    21677638.156    21677640.090
        44.300          34.600
 107056780.207 7                  20013087.545    20013087.684
        47.800
 198907127.494 7                  37850756.431
        42.100
 202055150.765 7                  38449821.400
        44.600
 114879546.740 6  89350733.821 5  21460455.334    21460454.327    21460455.878
        40.800          31.600
 122336241.233 6  95150231.176 6  22901538.896    22901539.370    22901548.635
        38.500          38.900
 142631304.693 5                  27141836.668
        32.400
 137730690.101 6                  26209279.474
        38.200
 116458395.940 7  90578778.684 7  21847298.720    21847300.263    21847305.871
        47.600          44.000
 132067239.332 7                  25131544.998
        42.100
 119901135.029 7  93256463.741 6  22422124.110    22422124.321    22422129.212
        47.800          37.300
 116380438.542 7  90518143.241 6  21733216.726    21733217.749    21733223.196
        46.700          40.700
 200858771.961 5                  38222177.298
        31.100
 25  1  1  3  7 15.0000000  0 28G09G06E03G19G12G11G20E27G25G05E34G29
                                R13E05E15R22R23S31S33R07R12E21E13R14
                                E30R24R08S35
 128104329.435 5                  24377440.296
        34.400
 116343150.450 6  90657003.41344  22139359.761    22139359.2294   22139360.5474
        40.100          26.1004
 147470812.717 5                  28062760.816
        31.600
 117715780.328 6  91726556.43743  22400562.319    22400561.0944   22400561.2754
        41.600          18.1004
 109043428.405 8  84968961.94148  20750248.277    20750247.8264   20750248.2354
        50.500          49.1004
 108431528.880 7  84492126.08545  20633827.538    20633827.2794   20633829.4564
        45.400          34.2004
 107265223.751 7  83583271.64646  20411895.371    20411894.1784   20411894.8024
        47.000          37.8004
 126173724.538 8                  24010036.712
        50.100
 114870341.749 7  89509428.12045  21859095.622    21859094.6884   21859100.2994
        42.300          30.9004


 131886577.919 6                  25097175.368
        36.100


 110830067.431 7                  20754889.947    20754888.805
        42.100


 123397184.178 8                  23481700.309
        50.700
 115750819.002 6  90028451.581 5  21684024.756    21684024.451    21684026.824
        41.600          35.900
 107059188.862 8                  20013538.283    20013537.699
        48.100
 198907130.009 6                  37850757.970
        41.600
 202055140.508 7                  38449815.136
        46.200
 114878047.995 7  89349568.130 5  21460178.253    21460177.171    21460183.047
        44.400          30.100
 122401270.490 6  95200809.464 6  22913712.170    22913714.248    22913719.157
        40.000          36.200
 142594949.044 6                  27134918.922
        36.000
 137701932.342 6                  26203807.138
        38.800
 116430511.934 7  90557091.194 6  21842068.974    21842070.079    21842074.225
        47.100          40.800
 132104445.541 7                  25138625.648
        44.000
 119865495.612 7  93228744.139 6  22415460.581    22415461.532    22415464.804
        45.800          36.600
 116331465.086 7  90480052.858 6  21724070.246    21724070.795    21724075.777
        44.700          41.000
 200858807.757 5                  38222166.463
        34.700
 25  1  1  3  7 30.0000000  0 27G09G06E03G19G12G11G20E27G25G05E34G29
                                R13E05E15R22R23S31S33R12E21E13R14E30
                                R24R08S35
 128098730.263 5                  24376373.130
        30.500
 116379118.825 6  90685030.72244  22146205.178    22146204.6604   22146205.9084
        38.300          26.4004
 147433100.862 4                  28055582.669
        27.500
 117754551.743 6  91756767.88942  22407940.042    22407938.7954   22407938.0934
        41.800          17.6004
 109054514.267 8  84977600.27648  20752357.603    20752357.1474   20752357.8574
        50.500          50.2004
 108440749.962 7  84499311.34045  20635581.731    20635581.4544   20635583.3614
        45.500          33.7004
 107247285.009 7  83569293.40546  20408481.947    20408480.7494   20408481.5544
        46.700          37.9004
 126172715.502 8                  24009844.448
        50.400
 114846188.723 7  89490607.55745  21854500.899    21854499.9604   21854503.6274
        43.000          31.0004
 117634276.127 5  91663037.93144  22385051.199    22385051.5564   22385051.2164
        35.200          26.6004
 131914871.800 6                  25102564.601
        37.200


 110867457.212 7                  20761892.912    20761893.231
        44.700


 123396356.065 8                  23481542.906
        50.000
 115784937.790 6  90054988.497 5  21690414.414    21690413.099    21690419.026
        36.900          34.500
 107061648.457 8                  20013998.552    20013998.419
        49.000
 198907127.322 7                  37850764.351
        42.300
 202055125.548 7                  38449815.140
        47.100
 122466317.227 6  95251401.322 5  22925890.813    22925892.032    22925895.211
        38.800          34.000
 142558643.075 5                  27128009.150
        31.400
 137673207.430 6                  26198339.509
        36.600
 116402801.456 7  90535538.633 6  21836867.519    21836868.773    21836877.708
        42.300          41.800
 132141710.870 7                  25145716.638
        42.700
 119829879.918 6  93201043.229 6  22408795.543    22408793.967    22408806.249
        36.400          38.500
 116282594.490 7  90442042.454 6  21714943.616    21714944.991    21714950.004
        45.500          39.900
 200858839.742 5                  38222174.977
        31.400
 25  1  1  3  7 45.0000000  0 26G09G06G19G12G11G20E27G25G05E34G29R13
                                E05E15R22R23S31S33R12E21E13R14E30R24
                                R08S35
 128093257.700 4                  24375327.162
        25.600
 116415114.659 5  90713079.45144  22153054.243    22153053.7614   22153056.3134
        33.800          28.0004
 117793384.542 6  91787027.19842  22415330.128    22415328.7914   22415326.9714
        37.400          16.8004
 109065754.731 8  84986359.06848  20754497.301    20754496.8504   20754496.4514
        49.600          49.0004
 108450045.633 7  84506554.70445  20637350.866    20637350.5894   20637351.7224
        46.100          33.2004
 107229477.035 7  83555417.05746  20405092.885    20405091.6874   20405092.8784
        47.500          38.2004
 126171811.540 8                  24009672.529
        50.700
 114822173.670 7  89471894.54744  21849931.604    21849930.6834   21849934.8194
        44.800          29.6004


 131943179.066 6                  25107948.028
        37.100


 110905004.329 7                  20768923.094    20768924.299
        43.900


 123395576.333 8                  23481394.425
        49.600
 115819077.764 5                  21696814.463    21696808.887
        32.700
 107064163.076 8                  20014467.569    20014467.541
        49.100
 198907125.134 7                  37850770.481
        43.800
 202055111.201 7                  38449808.299
        46.600
 122531385.090 6  95302009.519 5  22938072.221    22938071.525    22938076.390
        37.500          34.700


 137644519.546 5                  26192879.765
        34.900
 116375268.928 7  90514124.363 6  21831703.507    21831704.742    21831709.912
        43.700          37.900
 132179039.100 7                  25152820.094
        44.900
 119794292.281 6  93173364.031 6  22402141.356    22402142.684    22402152.059
        38.500          40.000
 116233831.468 7  90404115.693 6  21705838.350    21705838.035    21705844.600
        42.900          40.100
 200858872.400 4                  38222198.037
        29.400
 25  1  1  3  8  0.0000000  0 26G09G06G19G12G11G20E27G25G05E34G29R13
                                E05E15R22R23S31S33R12E21E13R14E30R24
                                R08S35
 128087911.591 4                  24374318.587
        26.800
 116451137.308 6  90741149.09645  22159911.461    22159911.0144   22159912.7954
        39.000          33.7004
 117832278.675 6  91817334.36242  22422732.935    22422731.6834   22422728.0524
        36.300          16.7004
 109077149.456 8  84995238.04747  20756665.677    20756665.2264   20756663.8654
        49.600          46.7004
 108459415.442 7  84513855.83045  20639134.329    20639134.0614   20639134.0134
        45.900          32.9004
 107211799.602 8  83541642.44846  20401729.437    20401728.2444   20401729.1224
        48.100          38.5004
 126171012.454 8                  24009519.955
        50.800
 114798296.553 7  89453288.98644  21845387.995    21845387.1104   21845394.8204
        43.800          27.6004
 117531876.891 6  91583266.51244  22365578.553    22365578.9464   22365571.4964
        36.100          26.4004
 131971499.071 5                  25113331.569
        31.200
 130522409.736 6 101705810.01443  24837594.349    24837594.2114   24837594.4064
        37.900          20.9004
 110942708.098 7                  20775986.031    20775984.825
        44.100


 123394844.624 8                  23481255.341
        49.100
 115853238.761 6  90108111.519 6  21703209.190    21703212.376    21703218.286
        38.800          39.500
 107066732.141 8                  20014950.123    20014949.090
        49.300
 198907123.447 7                  37850763.885
        43.500
 202055096.325 7                  38449811.366
        46.300
 122596472.900 5  95352633.475 6  22950255.879    22950254.027    22950264.955
        33.300          39.300


 137615868.253 6                  26187429.156
        38.100
 116347914.162 7  90492848.465 6  21826572.391    21826572.867    21826577.450
        44.300          38.400
 132216429.727 7                  25159934.586
        45.700
                  93145706.083 6                                  22395500.248
                        38.400
 116185176.187 7  90366272.746 6  21696753.137    21696753.384    21696758.572
        43.900          39.800


 25  1  1  3  8 15.0000000  0 27G09G06G19G12G11G20E27G25G05E34G29R13
                                E05E15R22R23S31S33R07R12E21E13R14E30
                                R24R08S35
 128082692.206 5                  24373319.481    24373319.4984
        30.600
 116487186.827 7  90769239.65545  22166773.157    22166772.7374   22166773.5694
        43.000          35.3004
 117871233.784 5  91847689.00442  22430148.580    22430147.3244   22430140.9964
        35.600          16.5004
 109088698.273 8  85004237.11847  20758863.306    20758862.8824   20758860.9924
        48.700          45.1004
 108468859.288 7  84521214.66645  20640932.372    20640932.1094   20640930.3624
        42.700          30.2004
 107194252.885 8  83527969.68846  20398390.106    20398388.9174   20398389.7594
        48.300          38.1004
 126170318.232 8                  24009387.929
        50.300
 114774557.530 7  89434790.94143  21840870.990    21840870.1684   21840881.0404
        42.800          19.9004
 117480801.848 6  91543467.76745  22355851.767    22355851.8164   22355854.7494
        40.000          30.1004
 131999832.178 6                  25118726.083
        36.300


 110980567.970 7                  20783075.716    20783074.757
        44.100


 123394160.837 8                  23481124.998
        49.300
 115887420.464 6  90134697.194 6  21709615.225    21709619.071    21709622.436
        36.900          40.000
 107069355.725 8                  20015438.862    20015439.001
        48.600
 198907120.821 7                  37850761.493
        44.500
 202055081.516 7                  38449808.562
        46.600
 114874006.873 8  89346458.456 5  21459423.783    21459423.511    21459432.632
        48.900          35.900
 122661222.335 6  95403272.672 6  22962443.026    22962442.395    22962452.505
        37.400          38.400


 137587253.525 6                  26181984.188
        38.400
 116320737.744 7  90471711.272 6  21821475.214    21821475.459    21821482.640
        45.800          40.300
 132253882.620 7                  25167061.854
        45.700
 119723213.741 5  93118069.805 6  22388851.023    22388853.071    22388854.312
        34.900          41.000
 116136629.335 6  90328514.156 7  21687685.921    21687687.890    21687693.462
        41.200          42.100


 25  1  1  3  8 30.0000000  0 25G06G19G12G11G20E27G25G05E34R13E05E15
                                R22R23S31S33R07R12E21E13R14E30R24R08
                                S35
 116523260.938 7  90797349.33546  22173636.242    22173635.8404   22173638.8254
        43.600          36.4004
 117910247.913 6  91878089.61242  22437571.733    22437570.5084   22437565.0254
        37.100          14.5004
 109100399.152 8  85013354.67747  20761089.367    20761088.9744   20761087.3374
        48.600          44.6004
 108478375.035 7  84528629.54545  20642743.442    20642743.1704   20642740.7884
        44.700          30.2004
 107176834.800 8  83514397.14746  20395075.644    20395074.4824   20395074.5844
        48.400          37.3004
 126169726.920 8                  24009275.639
        50.900
 114750954.881 6  89416399.40942  21836378.670    21836377.8664   21836394.7994
        39.800          16.9004
 117429796.356 6  91503723.20544  22346146.657    22346147.2074   22346149.3164
        37.800          29.0004
 132028176.174 6                  25124118.093
        37.000
 111018581.410 7                  20790193.330    20790192.869
        43.100
 137461290.157 5                  26158014.151
        34.300
 123393522.829 8                  23481003.075
        48.900
 115921620.771 6  90161297.375 6  21716028.820    21716029.258    21716026.368
        39.800          38.100
 107072031.521 8                  20015938.973    20015939.157
        48.500
 198907115.470 7                  37850767.029
        42.000
 202055063.851 7                  38449807.579
        47.600
 114873487.334 7  89346054.363 6  21459324.923    21459324.827    21459331.811
        46.400          37.300
 122726347.015 6  95453925.188 6  22974634.207    22974633.760    22974643.718
        37.600          37.600
 142414084.414 5                  27100474.673
        31.900
 137558673.362 6                  26176546.655
        41.400
 116293737.765 7  90450711.426 6  21816409.948    21816411.954    21816421.984
        46.700          39.100
 132291395.525 7                  25174199.069
        43.700
                  93090453.376 7                  22382206.299    22382214.454
                        42.000
                  90290838.636 6                  21678656.370    21678646.953
                        40.400


 25  1  1  3  8 45.0000000  0 26G09G06G19G12G11G20E27G25G05E34R13E05
                                E15R22R23S31S33R07R12E21E13R14E30R24
                                R08S35


 116559368.137 7  90825484.82346  22180506.259    22180505.8794   22180511.0654
        42.900          36.9004
 117949329.435 6  91908542.73942  22445006.202    22445004.9504   22445003.0774
        39.900          16.2004
 109112260.442 8  85022597.22447  20763346.213    20763345.8204   20763344.2454
        48.900          44.2004
 108487971.003 7  84536106.92345  20644568.631    20644568.3634   20644567.6334
        45.600          30.7004
 107159554.011 8  83500931.64145  20391787.086    20391785.9334   20391785.5844
        49.300          35.2004
 126169247.091 8                  24009184.059
        50.300
 114727497.289 6  89398120.81243  21831915.451    21831914.6204   21831928.5654
        40.700          21.0004
 117378869.286 6  91464039.83744  22336456.790    22336457.2724   22336453.8374
        40.200          26.4004
 132056539.317 6                  25129516.619
        39.100
 111056756.663 7                  20797343.097    20797343.401
        44.300
 137439688.139 5                  26153900.816
        33.100
 123392939.058 7                  23480892.139
        47.800
 115955848.147 4  90187918.853 6  21722424.957    21722426.263    21722439.274
        26.800          37.800
 107074768.198 7                  20016449.467    20016449.011
        46.900
 198907117.746 7                  37850768.795
        42.800
 202055052.198 7                  38449801.153
        44.900
 114873171.561 7  89345808.792 6  21459266.445    21459266.441    21459273.783
        45.100          39.700
 122791497.009 6  95504597.310 6  22986831.266    22986832.378    22986838.584
        41.700          37.100
 142377914.812 5                  27093622.722
        32.600
 137530136.346 6                  26171115.509
        36.300
 116266923.148 7  90429855.589 6  21811377.617    21811376.822    21811386.808
        44.700          36.100
 132328976.822 7                  25181351.080
        44.200
 119652234.294 6  93062863.510 6  22375583.059    22375580.655    22375581.217
        39.000          41.300
 116039865.120 5  90253253.479 6  21669628.281                    21669621.864
        33.400          39.800


 25  1  1  3  9  0.0000000  0 27G09G06G19G12G11G20E27E03G25G05E34R13
                                E05E15R22R23S31S33R07R12E21E13R14E30
                                R24R08S35


 116595497.720 7  90853637.78045  22187381.786    22187381.4514   22187387.2134
        43.600          35.4004
 117988467.844 5  91939040.24142  22452451.580    22452450.3464   22452452.1304
        33.200          12.8004
 109124271.531 8  85031956.51647  20765631.847    20765631.4364   20765630.0454
        48.900          44.4004
 108497636.700 7  84543638.65744  20646407.833    20646407.5614   20646407.3084
        46.500          29.6004
 107142400.043 8  83487564.90945  20388522.699    20388521.5324   20388521.0854
        49.600          35.2004
 126168868.359 8                  24009112.212
        50.600
 147206740.253 5                  28012512.637
        31.800
 114704174.426 6  89379947.20743  21827475.747    21827474.8934   21827480.4814
        40.600          22.7004
 117328011.113 6  91424410.11844  22326779.697    22326780.0944   22326773.9994
        41.000          28.8004
 132084911.249 6                  25134916.352
        38.300
 111095082.780 7                  20804519.620    20804519.514
        43.900
 137418155.922 5                  26149802.321
        30.000
 123392398.996 7                  23480789.330
        46.000
 115990092.277 6  90214553.242 5  21728857.596    21728857.686    21728854.581
        38.200          35.700
 107077555.332 7                  20016970.362    20016969.911
        47.000
 198907114.378 7                  37850769.327
        42.100
 202055037.208 7                  38449798.041
        46.000
 114873048.984 7  89345713.464 6  21459243.667    21459244.642    21459250.025
        44.000          41.100
 122856661.143 7  95555280.468 6  22999033.535    22999034.984    22999039.048
        44.100          38.200
 142341934.731 6                  27086777.383
        39.100
 137501631.930 5                  26165691.768
        34.300
 116240283.625 8  90409135.964 5  21806386.381    21806386.532    21806386.975
        50.400          34.700
 132366615.938 6                  25188513.258
        41.600
 119616785.159 6  93035292.020 6  22368941.618    22368942.053    22368950.924
        36.600          39.000
 115991647.457 5  90215750.798 6  21660628.773    21660622.227    21660617.201
        30.800          39.900


 25  1  1  3  9 15.0000000  0 27G09G06G19G12G11G20E27E03G25G05E34R13
                                E05E15R22R23S31S33R07R12E21E13R14E30
                                R24R08S35


 116631654.528 6  90881811.93145  22194262.081    22194261.7644   22194268.4504
        41.800          33.5004
 118027668.099 5  91969585.84742  22459913.236    22459911.9934   22459912.0224
        34.500          12.1004
 109136437.317 7  85041436.34747  20767947.122    20767946.7074   20767945.6164
        47.600          44.3004
 108507376.870 7  84551228.38944  20648261.396    20648261.0974   20648260.0854
        45.000          28.7004
 107125377.978 8  83474301.01546  20385283.028    20385281.8524   20385281.2034
        49.900          36.1004
 126168595.658 8                  24009060.699
        50.900
 147169004.751 5                  28005329.780
        32.100
 114680991.618 6  89361882.72344  21823062.784    21823061.9214   21823063.9094
        37.500          25.5004
 117277226.696 6  91384837.88145  22317114.646    22317114.9944   22317111.9854
        36.600          32.1004
 132113296.647 7                  25140319.463
        43.500
 111133563.968 7                  20811727.046    20811727.685
        44.400
 137396698.710 4                  26145721.123
        27.300
 123391907.428 7                  23480696.091
        46.600
 116024358.137 6  90241204.545 5  21735271.026    21735271.759    21735276.059
        37.400          35.000
 107080397.756 7                  20017501.855    20017501.663
        46.400
 198907112.209 7                  37850768.196
        42.700
 202055022.818 7                  38449799.570
        45.900
 114873124.845 7  89345772.474 7  21459257.584    21459257.815    21459261.723
        42.200          42.100
 122921843.824 7  95605978.162 6  23011235.039    23011236.249    23011240.944
        42.300          37.900
 142306010.748 6                  27079937.860
        37.900
 137473165.094 5                  26160272.754
        31.400
 116213824.491 8  90388556.713 6  21801416.339    21801418.537    21801424.949
        49.100          38.100
 132404317.587 6                  25195687.933
        39.300
 119581364.759 7  93007742.690 6  22362322.168    22362322.263    22362324.976
        42.400          38.300
 115943631.823 5  90178334.789 6  21651628.332    21651626.744    21651635.451
        34.200          41.700
 200859109.462 6                  38222213.813
        37.700
 25  1  1  3  9 30.0000000  0 28G09G06G19G12G11G20E27E03G25G05E34G29
                                R13E05E15R22R23S31S33R07R12E21E13R14
                                E30R24R08S35


 116667835.468 6  90910004.88844  22201146.162    22201145.8764   22201153.4784
        37.900          29.0004
 118066927.229 5  92000177.35041  22467384.658    22467383.5634   22467382.8914
        35.300           8.2004
 109148755.010 8  85051034.54847  20770291.535    20770291.1204   20770289.7224
        48.900          44.6004
 108517188.591 7  84558873.93045  20650129.318    20650129.0284   20650127.6624
        46.100          30.7004
 107108485.101 8  83461137.75046  20382068.678    20382067.5164   20382066.4244
        49.600          36.3004
 126168426.280 8                  24009028.172
        50.700
 147131264.765 4                  27998154.666
        28.800
 114657946.135 7  89343925.20245  21818678.996    21818678.1334   21818680.2834
        43.900          32.3004
 117226513.197 7  91345320.86245  22307464.399    22307464.7564   22307463.9724
        44.400          32.9004
 132141692.747 7                  25145721.106
        43.300
 130241830.918 6 101487187.87442  24784207.718    24784207.6834   24784207.7894
        38.000          16.5004
 111172197.197 7                  20818961.454    20818961.952
        43.700
 137375313.751 5                  26141653.164
        30.500
 123391461.522 7                  23480611.001
        46.700
 116058623.799 6  90267870.359 5  21741692.394    21741692.651    21741700.645
        38.200          34.400
 107083292.368 7                  20018043.480    20018042.997
        47.400
 198907108.528 7                  37850759.378
        42.200
 202055005.627 7                  38449792.706
        44.500
 114873396.103 7  89345983.471 7  21459305.939    21459306.941    21459313.147
        43.600          43.800
 122987041.609 5  95656687.581 6  23023432.384    23023434.316    23023446.318
        35.900          39.300
 142270140.044 6                  27073111.819
        41.700
 137444732.869 6                  26154862.952
        38.300
 116187543.283 7  90368115.845 6  21796486.710    21796485.935    21796497.463
        47.400          41.200
 132442078.705 6                  25202875.974
        40.300
 119545969.842 6  92980213.287 6  22355705.650    22355707.441    22355707.659
        39.000          36.600
 115895634.957 7  90141003.918 6  21642665.080    21642667.406    21642670.429
        43.300          38.400


 25  1  1  3  9 45.0000000  0 28G09G06G19G12G11G20E27E03G25G05E34G29
                                R13E05E15R22R23S31S33R07R12E21E13R14
                                E30R24R08S35


 116704046.585 5  90938221.41043  22208038.061    22208037.8384   22208043.1094
        35.300          22.7004
 118106251.362 5  92030819.4344   22474867.019    22474865.9334   22474865.6514
        35.600           4.4004
 109161230.467 8  85060755.68847  20772665.520    20772665.1054   20772664.6094
        49.300          44.9004
 108527077.715 7  84566579.74945  20652011.031    20652010.7454   20652009.4104
        46.500          30.5004
 107091727.391 8  83448079.82646  20378879.444    20378878.2734   20378878.2914
        48.800          37.6004
 126168366.187 8                  24009016.989
        51.300


 114635044.263 6  89326079.59645  21814321.320    21814320.5114   21814321.8064
        40.300          31.4004
 117175877.303 7  91305864.34645  22297828.706    22297829.0414   22297829.0664
        45.600          35.2004
 132170105.311 7                  25151127.965
        43.300
 130195048.196 6 101450733.86143  24775302.983    24775302.9524   24775306.5194
        36.300          18.4004
 111210987.774 6                  20826226.149    20826223.666
        40.200
 137354007.420 4                  26137600.956
        29.000
 123391067.109 7                  23480535.639
        45.700


 107086245.497 7                  20018596.315    20018595.963
        47.200
 198907108.385 7                  37850755.524
        42.100
 202054993.547 7                  38449792.201
        45.600
 114873869.404 6  89346351.590 7  21459399.243    21459397.871    21459401.175
        39.000          42.500
 123052260.386 5  95707413.190 6  23035643.689    23035643.067    23035653.870
        34.100          37.900
 142234329.000 6                  27066296.354
        41.300
 137416341.448 5                  26149459.406
        33.600
 116161446.233 8  90347818.199 6  21791590.675    21791591.574    21791598.841
        49.200          39.800
 132479905.221 6                  25210073.177
        39.200
 119510606.530 6  92952708.529 6  22349088.148    22349089.252    22349095.694
        38.200          38.600
 115847753.997 7  90103763.274 6  21633722.942    21633724.371    21633729.581
        42.800          38.000
 200859133.308 6                  38222227.572
        37.600
 25  1  1  3 10  0.0000000  0 28G09G06G19G12G11G20E27E03G25G05E34G29
                                R13E05E15R22R23S31S33R07R12E21E13R14
                                E30R24R08S35


 116740279.354 5  90966454.79042  22214930.161    22214929.7814   22214936.9204
        33.100          12.5004
 118145632.140 6  92061505.59341  22482358.903    22482357.7954   22482358.8834
        38.100           6.5004
 109173855.288 8  85070593.21247  20775068.676    20775068.2474   20775067.5034
        50.200          45.9004
 108537035.847 7  84574339.28445  20653906.167    20653905.8864   20653903.6934
        46.700          30.0004
 107075096.774 8  83435120.92646  20375715.231    20375714.0604   20375714.9534
        48.000          38.1004
 126168407.238 8                  24009023.674
        49.400


 114612277.860 6  89308339.58345  21809986.357    21809985.5754   21809989.1314
        39.700          30.0004
 117125311.082 7  91266462.10445  22288206.469    22288206.7644   22288208.3974
        44.200          35.9004
 132198526.089 6                  25156535.901
        41.800
 130148253.497 6 101414270.47642  24766400.141    24766399.9814   24766400.2054
        39.000          13.9004
 111249927.203 7                  20833517.818    20833518.215
        44.600


 123390715.908 7                  23480468.610
        43.900
 116127247.818 4  90321253.276 6  21754548.096    21754547.399    21754557.414
        29.600          36.700
 107089248.395 8                  20019157.662    20019156.919
        48.600
 198907103.605 7                  37850759.445
        42.700
 202054976.154 7                  38449786.289
        46.800
 114874535.852 6  89346869.983 7  21459524.706    21459525.907    21459527.713
        40.800          44.300
 123117491.146 6  95758148.214 6  23047857.148    23047857.907    23047866.238
        39.100          39.400
 142198569.405 6                  27059491.574
        40.300
 137387982.552 5                  26144064.378
        33.000
 116135525.229 7  90327657.398 6  21786729.979    21786731.779    21786733.331
        47.900          39.300
 132517788.653 7                  25217282.959
        44.100
 119475266.674 6  92925222.052 5  22342483.022    22342482.667    22342484.825
        38.400          32.800
 115799981.314 7  90066606.732 5  21624803.530    21624803.560    21624808.578
        44.600          35.100
 200859162.917 5                  38222245.785
        35.400
 25  1  1  3 10 15.0000000  0 28G09G06G19G12G11G20E27E03G25G05E34G29
                                R13E05E15R22R23S31S33R07R12E21E13R14
                                E30R24R08S35


 116776545.310 6                  22221834.590
        36.800
 118185079.854 6  92092243.96741  22489868.662    22489867.6384   22489866.0484
        37.200          10.3004
 109186639.891 8  85080555.24647  20777501.258    20777500.8164   20777500.2984
        49.100          45.9004
 108547073.335 7  84582160.73545  20655816.200    20655815.9144   20655813.6254
        46.600          31.0004
 107058603.824 7  83422269.29746  20372576.835    20372575.6374   20372577.0864
        47.500          37.8004
 126168559.929 8                  24009052.418
        48.700


 114589657.721 7  89290713.51745  21805683.961    21805683.1574   21805685.4004
        43.600          33.4004
 117074825.318 7  91227122.54346  22278599.495    22278599.7494   22278600.9684
        43.100          36.4004
 132226965.462 7                  25161947.215
        42.800
 130101457.610 6 101377806.03243  24757495.771    24757495.2844   24757496.3734
        37.300          18.9004
 111289025.519 7                  20840840.785    20840841.257
        44.300


 123390418.226 7                  23480412.496
        47.600
 116161600.489 5  90347971.985 6  21760995.771    21760991.012    21760988.993
        31.300          40.300
 107092311.931 8                  20019730.106    20019730.315
        50.100
 198907105.569 7                  37850758.412
        42.300
 202054965.740 7                  38449783.244
        47.000
 114875406.089 5  89347546.984 7  21459684.050    21459682.732    21459688.987
        35.300          43.700
 123182744.000 7  95808900.356 6  23060079.000    23060082.554    23060080.520
        44.100          38.200
 142162872.085 6                  27052698.148
        39.900
 137359666.565 4                  26138672.664
        27.100
 116109791.134 7  90307642.010 6  21781899.463    21781901.125    21781911.357
        47.700          41.900
 132555739.299 7                  25224503.477
        43.000
 119439960.610 5  92897761.884 5  22335873.444    22335871.784    22335882.573
        34.300          31.400
 115752327.934 7  90029543.164 5  21615904.723    21615903.386    21615914.324
        42.700          35.300


 25  1  1  3 10 30.0000000  0 27G09G06G19G12G11G20E27E03G25G05E34G29
                                R13E05E15R22R23S31S33R07R12E21E13R14
                                E30R08S35


 116812830.856 6  91023009.66642  22228747.048    22228746.4054   22228751.8864
        38.200          15.0004
 118224583.521 6  92123026.10441  22497385.004    22497384.0834   22497382.9534
        40.100           7.3004
 109199573.031 8  85090633.04247  20779962.063    20779961.6394   20779961.6314
        48.700          46.5004
 108557178.917 8  84590035.23645  20657739.148    20657738.8584   20657737.1884
        48.300          32.3004
 107042237.474 7  83409516.30846  20369462.283    20369461.0764   20369462.6014
        47.500          38.7004
 126168813.167 8                  24009101.523
        48.600


 114567172.839 7  89273192.85246  21801404.642    21801403.8204   21801407.8374
        45.000          36.3004
 117024408.923 6  91187837.02046  22269006.092    22269006.3204   22269007.3924
        41.900          36.3004
 132255412.155 7                  25167360.794
        43.500
 130054649.582 5 101341332.20142  24748584.282    24748583.8804   24748591.0654
        32.400          16.6004
 111328270.828 7                  20848189.151    20848189.184
        43.700


 123390162.916 7                  23480363.126
        45.200


 107095424.721 8                  20020312.577    20020312.932
        49.100
 198907102.475 7                  37850755.998
        42.900
 202054949.737 7                  38449784.599
        46.400
 114876469.367 6  89348374.008 7  21459881.507    21459882.577    21459887.223
        41.800          42.100
 123248006.952 6  95859660.391 6  23072293.849    23072295.754    23072298.204
        41.700          39.300
 142127226.059 5                  27045914.666
        35.500
 137331382.300 6                  26133295.538
        36.600
 116084233.225 7  90287763.548 6  21777106.688    21777106.231    21777114.012
        47.800          40.900
 132593745.974 7                  25231734.827
        42.800
 115704783.233 6  89992564.040 5  21607028.337    21607024.223    21607035.975
        40.300          35.300


 25  1  1  3 10 45.0000000  0 28G09G06G19G12G11G20E27E03G25G05E34G29
                                R13E05E15R22R23S31S33R07R12E21E13R14
                                E30R24R08S35


 116849141.103 5  91051303.42642  22235651.139    22235650.7194   22235662.0544
        32.200          12.8004
 118264146.940 6  92153854.73741  22504912.625    22504911.6284   22504911.0014
        38.500           9.4004
 109212658.582 8  85100829.59147  20782451.627    20782451.1894   20782452.1244
        50.100          46.6004
 108567356.474 8  84597965.81345  20659675.386    20659675.0694   20659674.3534
        48.300          32.0004
 107026001.837 7  83396865.16846  20366372.348    20366371.1234   20366372.9964
        47.600          39.5004
 126169171.004 8                  24009169.620
        49.800


 114544827.538 7  89255780.95746  21797152.372    21797151.5774   21797156.0174
        46.000          37.2004
 116974066.602 6  91148609.25545  22259425.694    22259425.8544   22259427.8314
        41.500          34.7004
 132283870.179 7                  25172776.045
        42.200
 130007833.303 5 101304852.10941  24739679.094    24739678.5984   24739683.8434
        34.500           9.9004
 111367666.937 7                  20855566.769    20855567.205
        44.100


 123389953.855 7                  23480324.011
        45.900
 116230350.812 5  90401449.320 6  21773865.011    21773866.691    21773867.239
        35.100          39.000
 107098590.569 8                  20020903.901    20020903.566
        48.100
 198907097.840 6                  37850761.185
        41.800
 202054932.610 7                  38449782.636
        46.600
 114877729.801 6  89349354.356 7  21460121.505    21460119.135    21460122.023
        40.700          42.000
 123313283.716 7  95910431.134 6  23084514.350    23084516.010    23084514.816
        42.100          36.900
 142091635.613 5                  27039141.764
        34.600
 137303133.825 6                  26127919.488
        38.000
 116058855.433 7  90268025.331 6  21772345.285    21772344.526    21772349.235
        46.100          36.700
 132631812.328 6                  25238978.208
        40.600
 119369420.614 7                  22322687.757    22322687.013
        42.600
 115657351.730 7  89955672.755 4  21598170.739    21598168.694    21598173.063
        44.200          29.600


 25  1  1  3 11  0.0000000  0 27G09G06G19G12G11G20E27G25G05E34G29R13
                                E05E15R22R23S31S33R07R12E21E13R14E30
                                R24R08S35




 118303773.909 5  92184732.86142  22512453.903    22512452.9694   22512452.0624
        35.900          13.6004
 109225900.302 8  85111147.79847  20784971.502    20784971.0604   20784971.8654
        48.900          46.6004
 108577609.738 8  84605955.31545  20661626.314    20661625.9844   20661625.2684
        49.500          33.8004
 107009900.732 8  83384318.84546  20363308.906    20363307.6864   20363308.7904
        49.900          40.2004
 126169637.318 8                  24009257.886
        49.800
 114522625.840 7  89238480.95846  21792928.700    21792927.9634   21792931.4154
        44.400          38.4004
 116923802.194 7  91109442.21845  22249861.119    22249861.2264   22249861.3944
        45.500          34.9004
 132312343.183 7                  25178193.385
        42.500
 129961012.808 6 101268368.16342  24730769.313    24730768.8044   24730775.0794
        37.000          12.2004
 111407216.841 7                  20862973.224    20862973.987
        44.800


 123389794.797 7                  23480292.190
        43.700


 107101813.604 7                  20021505.652    20021505.361
        47.900
 198907096.915 7                  37850762.186
        42.500
 202054918.567 7                  38449777.874
        44.000
 114879191.010 7  89350490.935 7  21460388.662    21460390.670    21460396.246
        45.900          42.700
 123378577.625 6  95961215.375 6  23096738.237    23096737.084    23096739.007
        37.700          37.600
 142056104.859 4                  27032379.920
        28.600
 137274924.978 6                  26122551.106
        39.800
 116033662.220 8  90248430.605 6  21767619.552    21767619.022    21767623.177
        48.000          37.000
 132669942.111 6                  25246233.810
        39.600


 115610038.040 7                  21589333.031    21589336.367
        46.700


 25  1  1  3 11 15.0000000  0 28G09G06G19G12G11G20E27E03G25G05E34G29
                                R13E05E15R22R23S31S33R07R12E21E13R14
                                E30R24R08S35




 118343461.616 5  92215658.26842  22520007.830    22520006.8514   22520005.0134
        33.800          13.5004
 109239295.161 8  85121585.34747  20787520.845    20787520.4034   20787520.5834
        49.100          46.6004
 108587935.658 8  84614001.46845  20663591.241    20663590.9064   20663589.6924
        49.300          35.3004
 106993931.393 8  83371875.20346  20360270.056    20360268.8364   20360269.2854
        50.000          41.0004
 126170209.294 8                  24009366.868
        48.900


 114500564.974 7  89221290.67646  21788730.563    21788729.8704   21788733.4204
        45.000          38.8004
 116873613.483 7  91070334.15845  22240309.888    22240309.9644   22240308.8054
        45.300          32.1004
 132340828.310 6                  25183614.340
        38.600
 129914185.307 6 101231879.15043  24721857.439    24721856.9704   24721864.0694
        38.900          20.9004
 111446917.425 7                  20870408.445    20870407.711
        42.300


 123389682.818 7                  23480271.634
        45.000
 116299195.821 6  90454994.754 6  21786765.583    21786760.946    21786765.469
        37.000          40.700
 107105090.696 8                  20022118.182    20022118.439
        49.000
 198907095.768 7                  37850760.438
        42.600
 202054904.998 7                  38449775.048
        43.500
 114880850.337 8  89351781.511 7  21460699.539    21460700.379    21460706.147
        48.300          43.400
 123443885.449 5  96012010.244 6  23108967.584    23108966.757    23108963.515
        34.400          36.500
 142020630.878 4                  27025629.056
        25.300
 137246752.872 6                  26117188.018
        38.000
 116008651.079 7  90228977.572 6  21762926.981    21762925.554    21762932.494
        45.000          38.900
 132708132.250 6                  25253501.637
        37.800


 115562839.957 7  89882147.072 5  21580516.409    21580518.046    21580531.779
        44.900          32.800


 25  1  1  3 11 30.0000000  0 28G09G06G19G12G11G20E27E03G25G05E34G29
                                R13E05E15R22R23S31S33R07R12E21E13R14
                                E30R24R08S35




 118383208.941 6  92246630.16343  22527570.915    22527569.9094   22527569.7194
        39.000          18.0004
 109252842.181 8  85132141.47047  20790098.743    20790098.3014   20790097.8074
        49.400          46.2004
 108598333.236 8  84622103.46346  20665569.994    20665569.6684   20665568.9134
        49.900          36.2004
 106978092.963 8  83359533.56646  20357256.384    20357255.1644   20357254.8354
        48.400          39.6004
 126170886.081 7                  24009495.128
        47.500


 114478644.373 7  89204209.72546  21784560.139    21784559.4644   21784561.1784
        44.500          39.0004
 116823499.848 7  91031284.74145  22230771.697    22230771.7774   22230769.9624
        44.300          32.7004
 132369324.515 6                  25189037.491
        37.800
 129867350.121 6 101195384.17743  24712944.770    24712944.3104   24712951.4954
        38.600          22.7004
 111486767.374 6                  20877869.108    20877867.732
        39.000


 123389616.915 7                  23480259.417
        45.900
 116333647.786 6  90481790.756 6  21793211.425    21793212.241    21793218.933
        36.000          41.200
 107108420.875 8                  20022740.744    20022740.692
        48.400
 198907093.428 6                  37850758.345
        40.000
 202054890.439 7                  38449775.039
        43.400
 114882706.946 8  89353225.574 7  21461047.357    21461048.486    21461052.894
        50.400          42.300
 123509205.160 4  96062814.794 6  23121202.907                    23121194.114
        28.100          38.400
 141985213.463 4                  27018887.668
        26.500
 137218616.622 5                  26111834.653
        35.300
 115983821.262 7  90209665.553 6  21758268.648    21758267.831    21758277.119
        44.700          41.400
 132746381.783 6                  25260780.244
        36.100
 119263825.305 7                  22302941.320    22302941.338
        47.600
 115515756.751 7  89845526.638 4  21571727.271    21571724.627    21571727.391
        44.300          27.500
 200859421.303 5                  38222266.534
        32.600
 25  1  1  3 11 45.0000000  0 28G09G06G19G12G11G20E27E03G25G05E34G29
                                R13E05E15R22R23S31S33R07R12E21E13R14
                                E30R24R08S35


 116994639.922 5  91164673.27841  22263336.305    22263336.2214   22263344.3944
        33.900           8.1004
 118423017.972 5  92277650.07242  22535146.282    22535145.2184   22535145.8954
        33.600          14.9004
 109266543.386 7  85142817.71047  20792706.028    20792705.5864   20792704.0304
        47.000          46.1004
 108608804.307 7  84630262.73546  20667562.675    20667562.3454   20667562.0724
        47.400          37.0004
 106962387.529 8  83347295.56546  20354267.649    20354266.4384   20354266.3154
        49.100          39.5004
 126171669.653 8                  24009644.787
        49.300


 114456866.092 7  89187239.64346  21780415.169    21780414.4904   21780415.7334
        43.000          38.5004
 116773463.438 7  90992295.31145  22221251.477    22221251.5214   22221248.8144
        42.800          35.3004
 132397833.706 6                  25194462.083
        36.700
 129820509.156 6 101158884.68844  24704031.220    24704030.8184   24704038.6264
        40.300          25.5004
 111526768.309 6                  20885361.288    20885360.079
        41.900


 123389598.931 7                  23480255.742
        47.600
 116368121.487 6  90508603.620 6  21799674.668    21799676.110    21799677.378
        37.000          39.000
 107111806.342 8                  20023375.261    20023375.430
        49.800
 198907092.702 6                  37850745.753
        39.700
 202054877.193 7                  38449763.538
        44.400
 114884762.602 7  89354824.435 7  21461429.923    21461431.405    21461438.143
        47.600          42.800
                  96113630.152 6                                  23133424.077
                        37.000
 141949857.908 4                  27012160.289
        26.000
 137190518.138 7                  26106487.869
        42.600
 115959174.820 7  90190496.010 6  21753642.736    21753642.403    21753648.869
        43.800          38.600
 132784692.213 6                  25268071.867
        36.400
 119228682.437 7  92733461.552 5  22296367.851    22296368.956    22296373.900
        43.700          34.900
 115468791.199 7  89808972.900 6  21562958.053    21562957.278    21562962.747
        47.500          38.200
 200859454.215 6                  38222272.933
        40.000
 25  1  1  3 12  0.0000000  0 28G09G06G19G12G11G20E27E03G25G05E34G29
                                R13E05E15R22R23S31S33R07R12E21E13R14
                                E30R24R08S35


 117031077.705 4  91193066.27542  22270278.677    22270278.7614   22270280.2514
        26.400          12.0004
 118462886.089 6  92308716.17441  22542732.934    22542731.7904   22542732.4014
        36.400          11.3004
 109280396.051 8  85153612.01747  20795342.551    20795342.1224   20795340.3424
        48.100          45.4004
 108619346.287 8  84638477.28646  20669568.333    20669568.0034   20669568.4894
        48.900          36.5004
 106946812.697 8  83335159.34846  20351303.840    20351302.6384   20351302.7344
        48.800          38.4004
 126172557.641 8                  24009813.853
        48.400
 146753823.593 4                  27926319.862
        26.600
 114435228.078 7  89170378.84646  21776296.733    21776296.0454   21776298.8584
        44.600          38.0004
 116723502.084 6  90953364.41045  22211742.829    22211742.8554   22211742.6454
        39.000          35.9004
 132426353.387 6                  25199888.753
        37.300
 129773660.431 5 101122379.15543  24695115.204    24695114.8334   24695122.1754
        35.000          23.7004
 111566916.846 7                  20892879.186    20892878.455
        42.500


 123389626.432 8                  23480261.590
        48.500
 116402614.348 5  90535431.454 6  21806134.560    21806135.449    21806139.516
        32.900          41.300
 107115244.326 8                  20024018.611    20024018.954
        49.400
 198907090.953 6                  37850755.479
        41.800
 202054862.272 7                  38449764.083
        42.300
 114887015.036 7  89356576.447 6  21461851.860    21461851.563    21461857.420
        47.400          37.900


 141914555.246 5                  27005446.094
        34.300
 137162455.054 6                  26101149.860
        39.600
 115934709.597 7  90171467.575 6  21749055.535    21749054.080    21749065.246
        44.100          40.700
 132823061.114 6                  25275371.611
        36.800
 119193566.068 5  92706148.638 6  22289799.598    22289800.983    22289806.218
        35.600          36.900
 115421941.287 8  89772534.062 5  21554208.014    21554207.815    21554214.031
        48.500          33.900
 200859486.243 6                  38222285.900
        36.300
 25  1  1  3 12 15.0000000  0 28G09G06G19G12G11G20E27E03G25G05E34G29
                                R13E05E15R22R23S31S33R07R12E21E13R14
                                E30R24R08S35


 117067536.852 6  91221484.61043  22277207.925    22277207.9964   22277220.2364
        38.600          18.5004
 118502811.178 6  92339826.53941  22550330.524    22550329.4244   22550329.6524
        39.100          10.3004
 109294398.035 8  85164522.63547  20798006.332    20798005.9084   20798004.9514
        50.700          46.1004
 108629957.062 8  84646745.45546  20671587.444    20671587.1184   20671587.8914
        48.500          36.6004
 106931366.508 8  83323123.38946  20348364.237    20348363.0444   20348363.2194
        48.300          37.9004
 126173548.089 8                  24010002.706
        48.700
 146716073.047 5                  27919136.730
        31.800
 114413728.296 7  89153625.77946  21772205.669    21772205.0034   21772208.1504
        44.900          38.2004
 116673614.400 7  90914490.87946  22202250.343    22202250.3784   22202250.1154
        47.100          39.0004
 132454881.326 6                  25205316.987
        36.900
 129726802.128 6 101085866.16243  24686197.480    24686197.1414   24686204.5744
        37.200          20.9004
 111607210.979 6                  20900425.300    20900424.179
        40.700


 123389697.184 7                  23480274.862
        47.200
 116437124.342 6  90562272.518 6  21812598.313    21812598.437    21812603.855
        40.200          36.200
 107118732.763 7                  20024666.078    20024667.603
        43.900
 198907085.728 7                  37850757.352
        42.400
 202054844.624 6                  38449754.997
        41.800
 114889462.332 8  89358479.796 6  21462310.252    21462310.557    21462312.698
        49.500          37.700
 123705256.589 6  96215284.225 6  23157886.271    23157886.075    23157891.575
        36.700          39.300
 141879306.849 5                  26998736.586
        31.200
 137134425.183 6                  26095813.382
        40.000
 115910424.125 7  90152578.834 5  21744502.898    21744502.737    21744505.286
        47.300          35.300
 132861486.474 6                  25282685.308
        40.600
 119158473.338 6  92678854.716 6  22283230.193    22283235.363    22283243.276
        36.500          39.000
 115375205.603 7  89736184.159 6  21545479.983    21545480.786    21545486.112
        47.200          36.900


 25  1  1  3 12 30.0000000  0 27G09G06G12G11G20E27E03G25G05E34G29R13
                                E05E15R22R23S31S33R07R12E21E13R14E30
                                R24R08S35


 117104022.953 6  91249915.18943  22284152.356    22284152.7364   22284159.9314
        37.400          19.6004
 109308554.932 8  85175553.95347  20800700.752    20800700.3374   20800699.1884
        51.000          47.0004
 108640642.173 8  84655071.47546  20673621.580    20673621.2674   20673620.8254
        48.500          37.2004
 106916054.777 8  83311192.14446  20345450.590    20345449.3834   20345448.9424
        48.100          36.8004
 126174646.729 7                  24010211.897
        47.300
 146678325.619 5                  27911954.154
        30.200
 114392372.777 6  89136985.10846  21768140.876    21768140.2194   21768145.0464
        40.900          38.0004
 116623806.161 7  90875679.28546  22192772.664    22192772.6644   22192772.7664
        43.900          41.5004
 132483423.306 6                  25210749.555
        38.000


 111647655.563 5                  20907996.595    20907995.817
        35.800


 123389816.914 8                  23480297.864
        48.800
 116471657.321 6  90589131.397 6  21819069.990    21819069.188    21819072.177
        38.500          37.900
 107122277.533 7                  20025329.683    20025329.082
        44.400
 198907082.269 6                  37850751.083
        38.200
 202054829.182 7                  38449753.588
        43.700
 114892110.197 7  89360539.143 5  21462803.194    21462802.784    21462808.320
        47.800          34.800
 123770623.383 6  96266125.159 6  23170122.846    23170124.316    23170129.896
        37.900          40.700
 141844148.757 5                  26992043.944
        33.100
 137106434.436 7                  26090488.353
        42.700
 115886324.054 8  90133834.427 5  21739979.913    21739981.489    21739984.642
        49.600          34.700
 132899973.633 6                  25290009.621
        38.000
 119123410.749 5  92651584.080 5  22276692.247    22276691.416    22276685.534
        31.900          35.200
 115328590.487 7  89699928.003 5  21536772.971    21536772.404    21536782.618
        44.200          34.300


 25  1  1  3 12 45.0000000  0 28G09G06G19G12G11G20E27E03G25G05E34G29
                                R13E05E15R22R23S31S33R07R12E21E13R14
                                E30R24R08S35


 117140538.425 6  91278368.74844  22291101.255    22291101.6664   22291104.0124
        40.300          24.2004
 118582829.172 6  92402223.08041  22565568.629    22565568.4864   22565565.7134
        37.300           8.1004
 109322869.196 8  85186707.94447  20803423.785    20803423.3794   20803423.3104
        48.800          45.5004
 108651403.964 7  84663457.33846  20675669.325    20675669.0174   20675668.6814
        47.900          36.4004
 106900879.933 8  83299367.60546  20342562.959    20342561.7394   20342560.8424
        50.100          37.2004
 126175856.008 8                  24010441.869
        48.400
 146640583.961 5                  27904773.560
        30.100
 114371164.167 7  89120458.89846  21764107.003    21764106.3824   21764108.9964
        46.000          39.3004
 116574080.163 7  90836931.77647  22183310.722    22183310.7394   22183310.3744
        47.600          42.0004
 132511981.697 5                  25216184.211
        35.800
 129633106.706 6 101012836.49442  24668362.703    24668362.4494   24668366.2124
        36.600          14.6004
 111688252.811 6                  20915601.707    20915602.883
        38.100


 123389987.954 8                  23480330.421
        48.500
 116506322.598 5  90616009.922 6  21825558.724                    21825546.832
        32.800          37.900
 107125881.094 6                  20026001.001    20026000.348
        36.300
 198907084.464 7                  37850758.332
        42.800
 202054817.868 7                  38449755.788
        45.200
 114894961.281 7  89362756.743 5  21463335.724    21463334.702    21463342.482
        46.000          35.600
 123836006.021 5  96316978.212 6  23182360.330    23182360.392    23182368.401
        33.700          40.000
 141809023.829 6                  26985358.539
        40.900
 137078485.088 6                  26085169.865
        41.700
 115862412.447 7                  21735494.923    21735494.618
        47.000
 132938524.800 6                  25297344.236
        39.800
                  92624338.622 6                  22270146.843    22270134.732
                        36.200
 115282098.965 7  89663767.977 6  21528092.613    21528092.864    21528102.013
        46.600          38.600


 25  1  1  3 13  0.0000000  0 28G09G06G19G12G11G20E27E03G25G05E34G29
                                R13E05E15R22R23S31S33R07R12E21E13R14
                                E30R24R08S35


 117177072.365 6  91306836.70243  22298051.204    22298051.5664   22298054.9524
        40.400          22.7004
 118622936.757 5  92433475.5124   22573193.569    22573193.1274   22573196.6714
        33.500           4.4004
 109337330.078 7  85197976.18647  20806175.994    20806175.5834   20806175.1064
        47.200          44.5004
 108662231.717 8  84671894.56746  20677730.110    20677729.8114   20677729.8484
        49.300          37.8004
 106885831.427 7  83287641.50946  20339699.217    20339698.0014   20339697.5814
        47.600          36.5004
 126177165.420 8                  24010690.982
        48.900
 146602838.079 4                  27897588.490
        26.600
 114350092.070 7  89104039.08546  21760096.004    21760095.3564   21760099.5424
        44.800          38.4004
 116524425.977 8  90798240.16947  22173861.200    22173861.2134   22173862.0324
        48.500          44.3004
 132540545.739 6                  25221619.883
        36.100
 129586230.711 4 100976309.73542  24659441.274    24659441.0024   24659446.8684
        29.300          13.0004
 111728991.540 6                  20923231.695    20923231.650
        40.400


 123390199.578 8                  23480371.269
        48.600
                  90642899.926 6                                  21832023.839
                        39.200
 107129532.681 6                  20026687.655    20026686.751
        41.900
 198907080.709 7                  37850760.711
        43.100
 202054801.176 6                  38449746.380
        41.900
 114898005.043 8  89365124.119 5  21463905.991    21463906.099    21463908.960
        49.400          35.400
 123901392.942 6  96367834.592 6  23194604.484    23194605.694    23194609.159
        40.400          39.200
 141773951.582 6                  26978683.126
        38.200
 137050566.690 6                  26079856.378
        36.700
 115838678.686 7  90096761.987 6  21731039.119    21731039.697    21731048.113
        45.300          39.100
 132977129.417 6                  25304691.871
        40.300
 119053374.460 6  92597110.059 6  22263589.706    22263590.876    22263587.195
        38.900          36.100
 115235720.749 7  89627696.074 6  21519431.035    21519432.064    21519437.592
        43.500          37.600


 25  1  1  3 13 15.0000000  0 26G06G12G11G20E27E03G25G05E34G29R13E05
                                E15R22R23S31S33R07R12E21E13R14E30R24
                                R08S35
 117213632.277 6  91335325.02543  22305009.959    22305010.2804   22305009.6094
        38.300          19.6004
 109351944.966 7  85209364.40847  20808957.234    20808956.8234   20808956.6524
        46.000          44.4004
 108673132.786 8  84680388.89946  20679804.264    20679803.9564   20679804.6104
        49.300          38.6004
 106870916.823 7  83276019.75846  20336861.355    20336860.1444   20336860.1674
        47.600          37.2004
 126178582.495 8                  24010960.889
        48.800


 114329164.118 7  89087731.62646  21756114.267    21756113.5654   21756116.5214
        45.300          39.1004
 116474851.715 7  90759610.91947  22164428.415    22164428.4284   22164428.9214
        46.100          44.3004
 132569122.897 5                  25227056.050
        31.900
 129539350.618 5 100939779.72142  24650522.673    24650522.4414   24650526.3214
        32.700          14.0004
 111769878.924 6                  20930888.469    20930889.134
        41.600


 123390459.274 8                  23480420.473
        48.000
 116575403.870 6  90669807.128 6  21838504.224    21838505.900    21838506.520
        38.700          39.800
 107133239.623 7                  20027382.065    20027381.194
        42.600
 198907078.231 7                  37850759.642
        43.500
 202054787.762 7                  38449753.781
        44.100
 114901248.562 8  89367646.800 6  21464511.015    21464512.125    21464519.614
        48.400          40.700
 123966791.364 6  96418699.904 6  23206845.508    23206846.175    23206854.707
        39.400          40.000
 141738939.703 6                  26972022.119
        37.800
 137022686.648 5                  26074549.535
        32.100
 115815130.503 7  90078446.766 6  21726622.889    21726624.587    21726630.329
        43.500          39.800
 133015794.585 6                  25312049.616
        41.800
 119018395.444 6  92569904.246 5  22257041.461    22257045.789    22257042.009
        41.700          30.200
 115189464.127 7  89591718.816 6  21510792.508    21510792.447    21510800.693
        42.800          39.900


 25  1  1  3 13 30.0000000  0 26G06G19G12G11G20E27E03G25G05E34R13E05
                                E15R22R23S31S33R07R12E21E13R14E30R24
                                R08S35
 117250213.951 6  91363830.21943  22311972.049    22311972.3084   22311967.6244
        40.100          20.0004
 118703339.199 5  92496124.96841  22588496.356    22588496.1554   22588497.3124
        33.900           9.0004
 109366709.721 7  85220869.38547  20811766.439    20811766.0154   20811766.5754
        46.000          44.7004
 108684103.041 8  84688937.12546  20681891.438    20681891.1304   20681892.2634
        49.200          38.6004
 106856132.227 8  83264499.27046  20334047.376    20334046.1564   20334047.5704
        48.100          38.1004
 126180103.256 8                  24011249.953
        48.600


 114308376.556 7  89071533.52446  21752158.732    21752158.0304   21752160.8164
        46.400          41.1004
 116425353.431 7  90721040.84846  22155009.450    22155009.4634   22155008.9794
        45.900          40.3004
 132597709.128 6                  25232497.784
        36.000
 111810910.344 7                  20938574.715    20938574.270
        42.600


 123390762.930 7                  23480477.899
        47.800
 116610016.713 5  90696728.411 6  21844987.590    21844983.564    21844990.444
        31.400          39.100
 107136997.739 7                  20028083.652    20028083.033
        46.200
 198907074.516 6                  37850748.190
        41.300
 202054770.346 7                  38449748.549
        45.000
 114904688.076 7  89370322.014 6  21465152.887    21465152.944    21465162.634
        44.900          40.700
 124032196.389 5  96469570.679 6  23219089.303    23219084.876    23219095.541
        30.200          37.300
 141703984.429 6                  26965367.957
        38.600
 136994840.842 6                  26069252.876
        38.300
 115791764.103 6  90060272.950 6  21722234.130    21722235.345    21722246.976
        40.800          41.400
 133054516.279 6                  25319416.748
        39.500
 118983442.061 6                  22250512.609    22250511.474
        38.400
 115143325.770 6  89555833.431 7  21502170.858    21502177.276    21502183.805
        36.600          42.100
 200859590.803 6                  38222320.985
        37.100
 25  1  1  3 13 45.0000000  0 28G09G06G19G12G11G20E27E03G25G05E34G29
                                R13E05E15R22R23S31S33R07R12E21E13R14
                                E30R24R08S35


 117286825.461 5  91392358.68543  22318937.639    22318937.8584   22318939.3214
        33.300          20.9004
 118743632.100 5  92527522.01241  22596163.846    22596163.7794   22596162.6924
        33.400          10.7004
 109381632.364 7  85232497.41647  20814606.541    20814606.1124   20814606.4264
        46.600          44.6004
 108695150.506 8  84697545.50846  20683993.173    20683992.8604   20683994.3284
        48.700          36.7004
 106841485.826 8  83253086.48446  20331260.801    20331259.5944   20331260.9804
        48.700          38.3004
 126181735.864 7                  24011561.234
        46.900


 114287737.744 7  89055451.36146  21748231.326    21748230.6424   21748233.5024
        46.400          39.4004
 116375940.116 7  90682537.02646  22145605.667    22145605.6894   22145605.3044
        46.200          39.8004
 132626312.309 5                  25237939.943
        33.600
 129445595.994 6 100866713.00343  24632678.758    24632678.9054   24632682.1724
        36.900          19.4004
 111852093.210 6                  20946284.288    20946284.363
        38.600


 123391118.519 8                  23480546.455
        48.300
 116644792.066 4  90723670.010 5  21851495.441                    21851476.448
        28.800          35.200
 107140815.582 7                  20028796.570    20028796.007
        43.400
 198907076.158 7                  37850753.704
        42.200
 202054758.787 7                  38449743.469
        46.700
 114908331.934 6  89373156.157 6  21465837.948    21465836.544    21465841.046
        39.600          38.600
 124097616.472 6  96520452.812 6  23231337.956    23231337.958    23231344.424
        39.400          36.200
 141669094.219 6                  26958728.104
        38.200
 136967037.565 6                  26063963.508
        41.500
                  90042247.454 6                  21717883.678    21717898.176
                        41.100
 133093302.330 7                  25326797.916
        42.400
 118948521.945 7  92515636.564 5  22243974.541    22243972.692    22243999.480
        42.400          31.700
 115097314.304 6  89520046.694 6  21493585.661    21493584.101    21493591.019
        36.800          41.400
 200859626.364 5                  38222315.972
        34.300
 25  1  1  3 14  0.0000000  0 27G09G06G12G11G20E27E03G25G05E34G29R13
                                E05E15R22R23S31S33R07R12E21E13R14E30
                                R24R08S35


 117323457.843 5  91420903.45943  22325909.164    22325909.3604   22325914.1584
        31.200          18.9004
 109396704.159 7  85244241.67147  20817475.225    20817474.7784   20817474.1504
        47.900          44.6004
 108706266.345 7  84706207.21545  20686108.003    20686107.6994   20686109.1414
        47.900          35.8004
 106826969.053 8  83241774.72446  20328498.255    20328497.0534   20328498.5954
        49.100          36.7004
 126183471.661 8                  24011891.786
        48.400


 114267239.126 7  89039478.43646  21744329.938    21744329.2544   21744332.6734
        46.200          38.0004
 116326602.775 6  90644092.36946  22136216.193    22136216.2374   22136216.8604
        41.600          38.9004
 132654923.958 6                  25243386.038
        36.300
 129398699.377 5 100830170.19143  24623754.038    24623754.3464   24623757.5964
        35.400          19.1004
 111893418.674 6                  20954022.969    20954022.707
        41.100


 123391517.335 8                  23480621.803
        49.100
 116679448.858 6  90750625.308 6  21857967.796    21857970.256    21857972.432
        41.200          37.600
 107144684.320 7                  20029520.261    20029519.529
        44.000
 198907075.031 6                  37850756.396
        40.800
 202054745.422 7                  38449743.867
        47.000
 114912171.222 5                  21466549.007    21466547.089
        33.100
 124163048.774 5  96571339.107 6  23243583.587    23243586.998    23243592.153
        33.700          38.300
 141634260.513 5                  26952098.878
        31.400
 136939267.994 5                  26058678.418
        33.000
 115745543.699 7  90024363.395 7  21713579.521    21713578.999    21713585.537
        45.700          42.000
 133132143.910 7                  25334189.350
        43.100
 118913626.641 6  92488414.885 5  22237449.872    22237448.009    22237458.158
        38.800          33.200
 115051421.564 7  89484352.229 6  21485015.511    21485016.128    21485019.079
        44.700          38.400
 200859659.297 5                  38222331.292
        35.900
 25  1  1  3 14 15.0000000  0 27G09G06G12G11G20E27E03G25G05E34G29R13
                                E05E15R22R23S31S33R07R12E21E13R14E30
                                R24R08S35


 117360110.200 6  91449463.71444  22332884.386    22332884.6364   22332890.3544
        39.000          24.6004
 109411924.067 8  85256101.32147  20820371.153    20820370.7114   20820369.6464
        48.800          44.4004
 108717449.510 7  84714921.33245  20688236.170    20688235.8574   20688237.2134
        46.200          35.5004
 106812580.971 8  83230563.22146  20325760.051    20325758.8494   20325759.5214
        50.100          36.6004
 126185309.791 8                  24012240.678
        48.100


 114246879.951 7  89023614.16245  21740455.479    21740454.7914   21740455.9594
        44.900          35.2004
 116277340.934 7  90605706.53146  22126841.961    22126842.0104   22126841.8394
        42.800          36.7004
 132683542.829 5                  25248833.291
        35.200
 129351782.590 6 100793628.28042  24614828.100    24614828.6094   24614833.5614
        38.000          15.7004
 111934885.164 6                  20961785.988    20961787.344
        41.100


 123391958.334 8                  23480706.066
        49.800
 116714122.181 6  90777593.436 5  21864463.986    21864464.662    21864473.818
        36.000          34.100
 107148602.815 8                  20030253.977    20030254.230
        49.400
 198907070.719 6                  37850763.890
        41.800
 202054729.163 7                  38449743.836
        46.000
 114916205.156 6                  21467305.036    21467303.348
        41.500
 124228477.628 5  96622228.616 5  23255860.621    23255859.415    23255839.248
        34.500          35.900
 141599482.612 6                  26945483.429
        38.900
 136911531.283 6                  26053397.517
        40.100
 115722731.068 7  90006620.204 7  21709298.779    21709299.388    21709306.047
        44.100          42.600
 133171039.918 7                  25341590.759
        42.300
 118878754.867 6  92461292.263 6  22230930.453    22230928.634    22230932.541
        41.200          36.400
 115005646.750 7  89448749.724 6  21476465.405    21476466.457    21476471.094
        44.800          40.400


 25  1  1  3 14 30.0000000  0 27G09G06G12G11G20E27E03G25G05E34G29R13
                                E05E15R22R23S31S33R07R12E21E13R14E30
                                R24R08S35


 117396783.485 6  91478040.31044  22339864.163    22339864.4444   22339870.8034
        36.800          26.3004
 109427292.940 8  85268077.08247  20823296.067    20823295.6204   20823293.3854
        49.200          44.0004
 108728700.999 7  84723688.77745  20690378.020    20690377.6944   20690378.4504
        46.100          35.8004
 106798322.765 8  83219452.93745  20323046.820    20323045.6184   20323045.0894
        49.000          35.6004
 126187251.358 7                  24012610.059
        47.500


 114226661.607 7  89007859.61745  21736609.608    21736608.9384   21736609.2284
        44.600          35.0004
 116228156.248 7  90567380.78846  22117482.577    22117482.6214   22117481.9774
        45.500          38.4004
 132712169.987 5                  25254279.545
        33.000
 129304868.661 6 100757071.99343  24605903.177    24605903.4724   24605906.0024
        37.600          20.5004
 111976493.201 6                  20969579.266    20969578.073
        36.800


 123392442.594 8                  23480797.734
        49.400
 116748813.186 5                  21870963.198    21870962.014
        31.000
 107152571.985 8                  20030995.129    20030996.018
        51.800
 198907064.202 6                  37850749.684
        39.000
 202054709.661 7                  38449736.493
        46.000
 114920434.753 6  89382555.407 5  21468093.082    21468093.694    21468103.213
        40.500          33.500
 124293911.374 6  96673121.588 6  23268090.846    23268098.926    23268088.645
        36.500          36.200
 141564761.764 5                  26938874.812
        31.200
 136883828.409 6                  26048127.750
        39.700
 115700100.917 6  89989018.985 7  21705053.747    21705053.565    21705061.288
        41.300          44.700
 133209991.351 7                  25349004.090
        43.500
 118843907.969 7  92434189.078 6  22224412.562    22224414.115    22224420.284
        45.900          39.500
 114959991.995 7  89413240.521 6  21467938.154    21467939.936    21467947.377
        43.400          41.300


 25  1  1  3 14 45.0000000  0 28G09G06G19G12G11G20E27E03G25G05E34G29
                                R13E05E15R22R23S31S33R07R12E21E13R14
                                E30R24R08S35


 117433481.030 6  91506635.87744  22346848.400    22346848.7214   22346853.0944
        37.200          24.1004
 118905545.730 5                  22626971.792
        32.400
 109442814.295 7  85280171.60247  20826249.173    20826248.7174   20826247.4914
        46.800          42.7004
 108740024.256 7  84732512.10946  20692532.702    20692532.3584   20692533.5314
        47.700          37.6004
 106784198.161 8  83208446.74045  20320358.994    20320357.7784   20320357.1974
        48.400          35.2004
 126189299.992 7                  24012999.758
        45.900


 114206587.834 7  88992217.71645  21732788.478    21732787.8034   21732789.2154
        46.700          34.5004
 116179052.519 7  90529118.15746  22108139.001    22108139.0504   22108138.3524
        42.400          39.0004
 132740809.072 5                  25259731.433
        35.200
 129257950.635 5 100720512.55941  24596968.849    24596969.1354   24596975.5914
        34.800          11.8004
 112018246.398 6                  20977399.845    20977397.421
        36.100


 123392973.558 8                  23480898.725
        49.200
                                                  21877466.888

 107156595.640 8                  20031746.685    20031746.902
        49.900
 198907057.922 6                  37850750.784
        41.300
 202054690.699 7                  38449734.477
        44.700
 114924863.901 6  89386000.336 4  21468925.396    21468924.038    21468933.084
        37.800          29.000
 124359353.015 5  96724020.418 5  23280345.904    23280347.787    23280341.929
        33.500          34.200
 141530102.021 5                  26932276.512
        33.100
 136856163.168 5                  26042862.667
        34.800
 115677657.331 7  89971562.798 7  21700847.142    21700846.403    21700850.084
        42.300          42.500
 133249001.578 7                  25356427.098
        43.600
 118809089.545 7  92407108.049 6  22217902.067    22217905.556    22217906.507
        46.600          39.300
 114914461.386 7  89377827.837 6  21459438.295    21459439.569    21459442.279
        44.600          39.700
 200859791.613 6                  38222344.792
        39.000
 25  1  1  3 15  0.0000000  0 27G09G06G12G11G20E27E03G25G05E34G29R13
                                E05E15R22R23S31S33R07R12E21E13R14E30
                                R24R08S35


 117470206.164 6  91535252.80043  22353833.720    22353834.1314   22353840.7514
        38.000          23.6004
 109458491.256 7  85292387.40746  20829231.630    20829231.1794   20829230.2604
        45.900          40.8004
 108751422.487 8  84741393.84846  20694701.401    20694701.0754   20694703.0684
        49.000          38.7004
 106770210.474 8  83197547.26046  20317698.033    20317696.8084   20317696.0274
        48.900          36.1004
 126191459.100 7                  24013411.018
        46.800


 114186662.132 7  88976691.23745  21728995.870    21728995.1824   21728996.2374
        44.500          31.3004
 116130033.178 7  90490921.27246  22098811.573    22098811.6174   22098810.0964
        44.800          39.1004
 132769463.200 6                  25265184.988
        36.400
 129211031.917 5 100683952.74841  24588046.214    24588046.5444   24588045.0364
        34.700           9.4004
 112060146.744 5                  20985244.732    20985240.906
        34.600
 136924117.700 5                  26055790.202
        32.500
 123393554.506 8                  23481009.189
        49.800


 107160677.246 8                  20032509.900    20032509.935
        50.100
 198907056.287 7                  37850748.579
        43.500
 202054676.859 7                  38449735.487
        46.500
 114929495.648 6                  21469787.696    21469787.902
        38.900
 124424805.210 5  96774927.676 5  23292593.987    23292593.396    23292592.654
        35.700          35.800
 141495506.710 5                  26925694.393
        35.400
 136828538.701 6                  26037606.991
        38.700
 115655403.838 6  89954254.496 6  21696670.496    21696670.556    21696675.050
        39.300          41.400
 133288073.752 7                  25363861.702
        42.500
 118774303.081 7  92380051.955 6  22211395.201    22211394.735    22211400.220
        42.800          39.700
 114869058.863 7  89342514.885 6  21450959.333    21450961.064    21450964.781
        44.400          37.700
 200859824.381 5                  38222355.202
        31.400
 25  1  1  3 15 15.0000000  0 27G09G06G19G12G11G20E27E03G25G05E34R13
                                E05E15R22R23S31S33R07R12E21E13R14E30
                                R24R08S35


 117506952.361 6  91563886.23244  22360827.063    22360827.4784   22360833.2024
        38.500          25.5004
 118986781.023 6  92716813.52942  22642399.406    22642399.1114   22642396.8914
        37.300          16.6004
 109474317.393 8  85304719.44347  20832243.967    20832243.5294   20832241.9254
        48.500          42.6004
 108762889.153 8  84750328.94646  20696883.979    20696883.6534   20696884.8714
        49.400          37.8004
 106756353.263 8  83186749.49346  20315060.667    20315059.4424   20315059.2324
        49.700          37.0004
 126193722.306 7                  24013841.376
        45.600


 114166878.352 7  88961275.30845  21725231.523    21725230.8304   21725231.3774
        46.200          32.0004
 116081092.297 7  90452785.54446  22089498.107    22089498.1074   22089496.1714
        46.900          40.3004
 132798126.024 5                  25270636.858
        35.100
 112102188.260 6                  20993119.149    20993118.939
        38.600
 136904499.219 5                  26052056.343
        32.900
 123394178.960 8                  23481128.050
        49.000
 116853017.256 6                  21890487.222    21890489.237
        38.300
 107164810.083 8                  20033283.492    20033283.937
        51.600
 198907053.079 7                  37850754.039
        44.300
 202054660.873 7                  38449727.089
        45.300
 114934323.768 6                  21470690.376    21470687.745
        38.100
 124490260.800 5  96825837.575 6  23304844.818    23304845.517    23304845.812
        35.500          38.500
 141460969.764 5                  26919122.620
        34.100


 115633333.861 6  89937088.990 6  21692529.657    21692522.715    21692535.638
        38.900          40.900
 133327201.266 7                  25371308.962
        43.100
 118739541.771 6  92353015.504 6  22204892.044    22204891.167    22204898.208
        38.900          41.100
 114823778.431 6  89307296.728 6  21442503.034    21442502.860    21442511.558
        40.900          40.400


 25  1  1  3 15 30.0000000  0 27G09G06G19G12G11G20E27E03G25G05E34R13
                                E05E15R22R23S31S33R07R12E21E13R14E30
                                R24R08S35


 117543724.763 6  91592540.04443  22367823.702    22367824.1754   22367829.6104
        40.400          21.4004
 119027490.229 5  92748534.94542  22650143.566    22650143.2404   22650145.7034
        35.400          16.3004
 109490297.895 7  85317171.79047  20835284.585    20835284.1344   20835283.7244
        46.200          42.4004
 108774429.438 8  84759321.36346  20699080.377    20699080.0424   20699080.6124
        49.200          37.9004
 106742631.939 8  83176057.57246  20312449.377    20312448.1524   20312448.3104
        50.000          38.5004
 126196094.852 7                  24014292.856
        47.400


 114147241.780 7  88945974.13045  21721495.552    21721494.8644   21721492.7794
        43.700          31.8004
 116032235.495 7  90414715.31846  22080200.287    22080200.2794   22080199.0024
        46.700          39.5004
 132826802.585 6                  25276095.081
        37.200
 112144374.956 7                  21001018.953    21001020.368
        42.600
 136884963.221 5                  26048341.916
        31.400
 123394852.062 8                  23481256.222
        50.600
 116887795.703 6  90912655.700 5  21897002.578    21897004.235    21897001.661
        40.300          35.600
 107168999.552 8                  20034066.287    20034067.272
        51.100
 198907053.332 6                  37850751.267
        41.400
 202054648.320 7                  38449721.205
        44.500
 114939353.659 6                  21471631.987    21471631.852
        40.900
 124555725.264 6  96876754.245 6  23317093.408    23317092.500    23317103.325
        37.500          37.200


 136773399.364 6                  26027111.419
        36.600
 115611453.447 7  89920070.937 6  21688423.400    21688422.832    21688428.681
        46.800          40.200
 133366389.166 7                  25378764.063
        42.400
 118704811.493 7  92326003.047 6  22198401.584    22198401.609    22198405.927
        45.800          41.100
 114778625.965 7  89272178.112 6  21434073.640    21434075.994    21434074.930
        42.000          38.200


 25  1  1  3 15 45.0000000  0 27G09G06G19G12G11G20E27E03G25G05E34R13
                                E05E15R22R23S31S33R07R12E21E13R14E30
                                R24R08S35
 127985702.517 5                  24354873.414
        33.500
 117580516.912 6  91621209.20144  22374825.380    22374825.7774   22374831.2184
        40.500          27.5004
 119068255.791 6  92780300.26842  22657903.909    22657903.7714   22657903.3204
        38.500          14.5004
 109506426.190 7  85329739.27447  20838354.332    20838353.8904   20838353.8824
        45.800          44.1004
 108786036.871 8  84768366.07446  20701288.646    20701288.3024   20701288.6644
        49.300          38.3004
 106729040.156 8  83165466.57846  20309862.961    20309861.7364   20309861.9864
        50.700          38.4004
 126198570.451 7                  24014764.235
        46.800


 114127746.570 6  88930783.17945  21717784.926    21717784.2334   21717785.7414
        39.800          31.0004
 115983456.855 7  90376706.02846  22070918.760    22070918.7644   22070917.1834
        42.600          38.8004
 132855486.521 5                  25281551.497
        35.200
 112186700.354 6                  21008944.301    21008945.478
        41.700
 136865503.200 4                  26044635.706
        27.700
 123395567.398 8                  23481392.345
        49.200
 116922590.740 5                  21903514.694    21903516.039
        30.400
 107173239.167 8                  20034859.011    20034858.928
        48.300
 198907050.396 6                  37850748.181
        40.100
 202054632.662 7                  38449717.408
        44.300
 114944578.344 7                  21472607.054    21472609.917
        43.400
 124621254.030 5  96927672.012 5  23329354.315    23329348.336    23329355.996
        32.500          33.000
 141392081.423 5                  26906012.995
        33.300
 136745882.429 5                  26021876.567
        35.800
 115589756.334 7  89903195.467 6  21684353.803    21684354.120    21684356.620
        47.500          41.000
 133405631.159 5                  25386232.077
        35.600
 118670105.260 7  92299009.357 6  22191906.916    22191907.713    22191915.058
        43.400          41.100
 114733595.627 6  89237154.529 6  21425675.986    21425672.608    21425666.107
        41.200          38.900
 200859886.602 5                  38222367.999
        35.900
 25  1  1  3 16  0.0000000  0 27G09G06G19G12G11G20E27E03G25G05E34R13
                                E05E15R22R23S31S33R07R12E21E13R14E30
                                R24R08S35


 117617331.062 6  91649895.46544  22381831.317    22381831.7064   22381837.8174
        36.500          24.4004
 119109080.254 6  92812111.48442  22665671.218    22665670.9234   22665670.6354
        39.400          13.1004
 109522704.789 7  85342423.89247  20841451.820    20841451.3474   20841451.9074
        46.500          43.5004
 108797713.801 8  84777464.99146  20703510.908    20703510.5604   20703510.7834
        49.000          37.2004
 106715580.560 8  83154978.56146  20307301.702    20307300.4824   20307301.0124
        50.300          39.4004
 126201151.680 7                  24015254.701
        47.400


 114108395.142 7  88915704.18345  21714103.700    21714102.9904   21714104.8004
        44.300          32.5004
 115934759.200 7  90338759.83946  22061652.084    22061652.0494   22061651.2884
        43.800          38.8004
 132884180.515 5                  25287013.731
        35.600
 112229166.212 5                  21016895.999    21016896.949
        34.700
 136846122.409 3                  26040948.661
        23.800
 123396327.443 8                  23481537.137
        49.200
 116957405.669 6  90966794.904 5  21910040.226    21910040.298    21910041.843
        41.300          35.700
 107177531.416 7                  20035660.869    20035660.654
        47.900
 198907046.837 7                  37850755.787
        42.100
 202054616.988 7                  38449719.286
        44.200
 114950001.035 6  89405554.470 5  21473616.373    21473616.327    21473624.997
        37.900          34.500
 124686723.214 5  96978592.554 5  23341604.450    23341604.016    23341613.988
        35.500          34.900
 141357726.525 5                  26899475.662
        32.000
 136718401.303 6                  26016647.540
        36.400
 115568245.158 7  89886464.604 7  21680318.495    21680318.709    21680323.946
        46.600          42.200
 133444929.342 6                  25393711.119
        38.300
 118635425.887 7  92272036.465 6  22185421.677    22185421.964    22185428.768
        45.200          39.700
 114688690.433 5  89202228.446 6  21417273.438    21417274.986    21417282.360
        35.900          41.500
 200859916.716 6                  38222373.947
        38.900
 25  1  1  3 16 15.0000000  0 26G06G19G12G11G20E27E03G25G05E34R13E05
                                E15R22R23S31S33R07R12E21E13R14E30R24
                                R08S35


 119149968.906 6  92843972.76442  22673453.075    22673452.7624   22673451.8094
        38.500          14.7004
 109539138.514 8  85355229.40947  20844579.084    20844578.6244   20844578.7564
        48.900          44.7004
 108809465.251 8  84786621.90446  20705746.843    20705746.5084   20705747.6674
        48.900          38.7004
 106702258.285 8  83144597.59646  20304766.286    20304765.0844   20304765.5754
        50.100          38.5004
 126203843.723 7                  24015767.062
        46.300


 114089193.016 6  88900741.52145  21710448.767    21710448.0924   21710451.1894
        38.600          33.0004
 115886147.844 7  90300880.88946  22052400.686    22052400.5754   22052401.4464
        42.900          38.2004
 132912889.270 4                  25292480.076
        28.300
 112271777.746 6                  21024877.955    21024876.626
        40.800


 123397137.249 8                  23481691.015
        48.900
 116992245.657 5  90993892.429 5  21916566.478    21916567.507    21916566.177
        35.400          35.300
 107181881.682 7                  20036474.060    20036473.917
        45.900
 198907048.752 6                  37850747.806
        39.800
 202054605.069 7                  38449718.763
        43.000
 114955626.767 6  89409915.002 5  21474674.986    21474673.705    21474674.294
        39.800          31.000
 124752201.149 6  97029519.742 6  23353864.086    23353865.907    23353869.310
        37.900          36.100
 141323437.334 6                  26892951.789
        36.100
 136690961.121 6                  26011425.723
        38.400
 115546925.361 7  89869882.555 7  21676314.775    21676315.860    21676324.942
        43.100          43.700
 133484288.685 4                  25401197.731
        28.200
 118600778.517 7  92245088.659 6  22178942.942    22178942.967    22178950.241
        46.800          40.000
 114643750.417 5  89167404.129 6  21408916.937    21408913.570    21408921.271
        35.500          41.900


 25  1  1  3 16 30.0000000  0 26G06G19G12G11G20E27E03G25G05E34R13E05
                                E15R22R23S31S33R07R12E21E13R14E30R24
                                R08S35


 119190912.396 7  92875876.67242  22681244.884    22681244.5364   22681243.2224
        43.000          12.2004
 109555718.432 8  85368148.82047  20847733.804    20847733.3264   20847732.7754
        48.500          43.8004
 108821282.209 8  84795829.93246  20707995.601    20707995.2844   20707996.5094
        49.400          38.9004
 106689064.440 8  83134316.67346  20302255.465    20302254.2724   20302255.2734
        50.100          40.0004
 126206637.659 7                  24016299.162
        46.100


 114070131.324 6  88885888.24645  21706819.092    21706818.3994   21706823.3714
        40.000          32.2004
 115837614.248 6  90263062.49946  22043165.993    22043165.8464   22043166.2184
        40.700          38.1004
 132941604.184 4                  25297937.063
        28.500
 112314525.007 7                  21032884.542    21032883.871
        43.000


 123397987.786 8                  23481852.920
        49.100
 117027101.061 6  91021002.131 6  21923093.247    21923094.158    21923101.132
        39.300          36.500
 107186280.692 7                  20037298.549    20037298.569
        46.900
 198907045.266 6                  37850747.278
        41.800
 202054589.288 7                  38449718.750
        44.100
 114961446.482 6  89414441.463 6  21475756.159    21475757.054    21475764.704
        40.000          40.100
 124817677.706 5  97080445.897 5  23366126.239    23366123.609    23366128.576
        35.400          34.300
 141289205.412 5                  26886435.617
        33.600
 136663553.002 5                  26006208.581
        35.200
 115525788.386 7  89853442.714 7  21672353.942    21672353.565    21672359.503
        45.300          44.300


 118566154.134 7  92218158.591 6  22172468.596    22172467.445    22172475.681
        43.300          40.800
 114599099.074 7  89132675.282 7  21400582.237    21400581.949    21400583.814
        43.300          44.300


 25  1  1  3 16 45.0000000  0 28G09G06G19G12G11G20E27E03G25G05E34G29
                                R13E05E15R22R23S31S33R07R12E21E13R14
                                E30R24R08S35




 119231917.384 7  92907828.54041  22689047.916    22689047.5194   22689046.3024
        42.400          11.6004
 109572450.907 7  85381187.10447  20850918.589    20850918.1114   20850917.2054
        47.800          44.2004
 108833171.050 8  84805093.97746  20710258.278    20710258.0064   20710258.3494
        48.800          37.9004
 106676005.642 8  83124140.98246  20299770.610    20299769.4264   20299770.6434
        49.600          40.6004
 126209540.076 7                  24016851.521
        45.800


 114051216.814 6  88871149.69945  21703219.617    21703218.8664   21703223.1564
        39.600          30.6004
 115789165.304 7  90225310.06446  22033945.030    22033944.8874   22033946.7024
        42.700          37.5004
 132970331.313 5                  25303405.981
        32.900
 128882567.881 5 100427908.78141  24525521.857    24525521.6794   24525522.4434
        34.500           9.2004
 112357414.221 7                  21040916.280    21040915.617
        43.300


 123398885.506 8                  23482023.593
        48.900
 117061978.609 6  91048129.110 5  21929627.807    21929627.552    21929630.863
        40.900          34.100
 107190735.067 7                  20038128.198    20038129.200
        44.700
 198907044.870 7                  37850750.073
        43.400
 202054576.854 7                  38449714.690
        46.700
 114967466.468 7  89419123.627 6  21476886.953    21476886.787    21476890.028
        42.900          41.200
 124883159.264 6  97131375.995 5  23378381.794    23378383.152    23378384.377
        39.200          32.100
 141255037.342 5                  26879933.757
        34.400
 136636183.456 5                  26001001.825
        35.300
 115504840.917 8  89837150.262 7  21668424.262    21668424.784    21668430.060
        48.600          44.000


 118531559.558 7  92191251.698 6  22166002.216    22165999.601    22166006.982
        45.000          40.900
 114554577.159 6  89098047.115 7  21392262.434    21392262.679    21392269.373
        36.100          44.000


 25  1  1  3 17  0.0000000  0 26G06G19G12G11G20E27E03G25G05E34R13E05
                                E15R22R23S31S33R07R12E21E13R14E30R24
                                R08S35


 119272977.515 6  92939823.2234   22696860.130    22696859.7154   22696859.9524
        40.600           5.4004
 109589329.641 8  85394339.36347  20854129.806    20854129.3334   20854129.8564
        48.600          44.2004
 108845125.452 7  84814409.08846  20712532.716    20712532.4304   20712532.4694
        47.200          37.2004
 106663075.714 8  83114065.71446  20297310.086    20297308.8934   20297309.7484
        50.400          40.5004
 126212544.766 7                  24017423.686
        45.600


 114032443.489 6  88856521.09345  21699648.122    21699647.3354   21699650.4464
        39.400          30.9004
 115740794.910 7  90187618.85846  22024741.286    22024741.1524   22024741.1434
        42.700          36.9004
 132999064.473 5                  25308874.975
        33.900
 112400438.572 7                  21048971.761    21048972.215
        42.100


 123399824.129 8                  23482202.586
        48.700
 117096872.230 7  91075268.381 4  21936165.963    21936167.747    21936165.858
        45.200          28.500
 107195238.446 7                  20038970.186    20038970.969
        45.700
 198907040.776 6                  37850744.541
        41.100
 202054559.904 7                  38449710.701
        46.800
 114973681.068 6  89423957.091 6  21478049.285    21478048.506    21478049.694
        40.700          40.200
 124948638.850 4  97182304.613 5  23390638.780    23390636.883    23390647.042
        28.100          33.800
 141220927.165 6                  26873443.188
        36.800
 136608846.223 6                  25995798.914
        37.700
 115484076.886 8  89821000.463 7  21664527.785    21664528.095    21664533.493
        49.200          42.400


 118496988.204 7  92164362.926 6  22159537.250    22159535.741    22159542.814
        44.100          41.900
 114510179.220 6  89063515.466 7  21383971.477    21383969.393    21383977.076
        37.700          43.000
 200860076.912 5                  38222412.586
        34.700
 25  1  1  3 17 15.0000000  0 26G06G19G12G11G20E27E03G25G05E34R13E05
                                E15R22R23S31S33R07R12E21E13R14E30R24
                                R08S35


 119314099.568 6  92971866.25941  22704686.364    22704685.9534   22704686.0124
        38.800           6.5004
 109606361.291 8  85407610.77047  20857370.852    20857370.3874   20857371.1114
        49.900          44.7004
 108857152.095 7  84823780.54445  20714820.956    20714820.6794   20714821.4264
        47.000          35.9004
 106650281.530 8  83104096.26246  20294875.923    20294874.7344   20294874.4584
        48.700          38.7004
 126215658.553 7                  24018016.277
        45.500


 114013818.357 6  88842008.03445  21696105.060    21696104.2474   21696107.4004
        36.100          31.9004
 115692510.690 7  90149994.79346  22015552.042    22015551.8824   22015552.2944
        42.700          36.8004
 133027810.696 5                  25314344.987
        35.500
 112443604.427 6                  21057055.733    21057055.827
        41.300


 123400810.381 8                  23482390.497
        48.700
 117131788.696 6  91102425.672 5  21942704.289    21942707.066    21942706.679
        41.000          34.300
 107199797.910 7                  20039822.166    20039823.377
        46.200
 198907039.008 7                  37850745.963
        42.600
 202054545.211 7                  38449702.911
        44.200
 114980096.601 7  89428947.060 6  21479241.509    21479244.191    21479249.055
        44.800          39.100
 125014106.111 5  97233236.857 4  23402899.474    23402894.280    23402900.178
        32.300          27.700
 141186882.002 5                  26866962.619
        32.200
 136581548.201 7                  25990604.167
        42.000
 115463503.579 8  89804999.030 6  21660669.023    21660670.051    21660672.328
        49.200          39.300
 133642186.239 5                  25431258.606
        32.700
 118462447.053 7  92137497.676 6  22153077.872    22153076.621    22153081.127
        44.900          40.400
 114465912.812 7  89029086.027 6  21375708.658    21375708.379    21375709.591
        46.600          41.900
 200860109.165 6                  38222396.457
        39.200
 25  1  1  3 17 30.0000000  0 26G06G19G12G11G20E27E03G25G05E34G29R13
                                E05E15R22R23S31S33R07E21E13R14E30R24
                                R08S35
 117838759.159 5  91822414.00041  22423956.621    22423956.0544   22423970.4604
        31.000          10.7004
 119355279.603 6  93003954.4584   22712522.280    22712521.8114   22712522.7994
        39.000           3.6004
 109623541.690 7  85420998.08246  20860640.021    20860639.5434   20860639.9174
        46.200          41.5004
 108869246.884 7  84833204.99946  20717122.959    20717122.6874   20717123.4754
        47.200          36.2004
 106637619.092 8  83094229.41846  20292466.078    20292464.8854   20292464.7544
        50.100          39.4004
 126218877.475 7                  24018628.608
        44.600


 113995337.650 5  88827607.35145  21692592.141    21692591.2874   21692592.2224
        30.100          31.6004
 115644308.430 7  90112434.59446  22006379.490    22006379.3384   22006380.1154
        42.900          37.9004
 133056565.497 4                  25319817.943
        29.800
 128741620.143 5                  24498712.096
        35.300
 112486907.307 6                  21065165.130    21065163.893
        40.400


 123401840.122 8                  23482585.992
        50.100
 117166724.042 6  91129597.576 6  21949247.569    21949251.647    21949255.777
        39.200          36.700
 107204409.104 7                  20040683.677    20040684.549
        44.900
 198907036.262 7                  37850756.601
        42.000
 202054530.740 7                  38449701.574
        46.900
 114986709.420 7  89434090.254 6  21480478.755    21480479.329    21480482.373
        43.700          36.700
 141152897.889 6                  26860499.536
        36.900
 136554285.289 5                  25985413.449
        30.500
 115443116.884 8  89789142.638 7  21656843.885    21656843.885    21656849.537
        48.300          42.900
 133681831.796 6                  25438806.599
        38.000
 118427931.972 7  92110652.706 6  22146625.174    22146624.056    22146626.393
        47.700          40.500
 114421774.185 6  88994756.024 7  21367462.902    21367460.181    21367469.934
        41.300          44.100


 25  1  1  3 17 45.0000000  0 27G09G06G19G12G11G20E27G25G05E34G29R13
                                E05E15R22R23S31S33R07R12E21E13R14E30
                                R24R08S35




 119396518.665 6  93036088.39542  22720368.992    22720368.4784   22720370.5504
        39.900          14.3004
 109640871.904 8  85434502.16547  20863938.685    20863938.1944   20863937.2694
        48.400          43.7004
 108881410.810 7  84842683.38745  20719437.441    20719437.1554   20719438.5684
        47.900          35.9004
 106625089.419 8  83084466.05446  20290081.444    20290080.2464   20290080.7624
        49.300          39.2004
 126222202.725 7                  24019261.950
        46.600


 115596189.801 6  90074939.58145  21997223.373    21997223.1954   21997223.5024
        40.100          34.5004


 128694651.238 5 100281516.89142  24489775.966    24489776.1584   24489769.9154
        35.800          15.2004
 112530347.789 6                  21073298.619    21073297.609
        38.200


 123402914.515 8                  23482790.159
        48.900
                  91156785.021 7                  21955794.378    21955804.200
                        42.600
 107209073.151 7                  20041556.690    20041556.091
        43.700
 198907034.691 6                  37850746.625
        41.500
 202054516.017 7                  38449706.462
        44.600
 114993520.242 6  89439387.647 6  21481747.715    21481747.083    21481753.003
        41.600          37.000
 125145110.213 6  97335087.662 5  23427415.423    23427415.840    23427428.087
        39.300          31.200
 141118976.424 6                  26854044.087
        39.400


 115422918.193 7  89773432.596 6  21653052.835    21653053.505    21653057.839
        46.900          40.500
 133721522.705 6                  25446360.348
        40.700
 118393444.261 7  92083829.051 6  22140172.280    22140170.508    22140175.747
        43.800          37.100
 114377765.257 7  88960526.903 6  21359246.757    21359244.527    21359248.547
        44.400          41.300


 25  1  1  3 18  0.0000000  0 26G09G06G19G12G11G20E27E03G25G05E34R13
                                E05E15R22R23S31S33R07E21E13R14E30R24
                                R08S35


 117912689.891 4  91880009.00542  22438029.483    22438029.2334   22438035.8374
        27.100          15.4004
 119437814.505 6  93068266.96042  22728227.942    22728227.4424   22728228.6354
        39.800          16.2004
 109658349.815 8  85448121.31047  20867263.976    20867263.4984   20867263.2714
        48.600          43.2004
 108893641.808 7  84852214.02145  20721764.509    20721764.2284   20721766.0264
        43.000          33.3004
 106612690.903 8  83074804.92746  20287722.240    20287721.0514   20287720.7614
        49.000          38.6004
 126225632.362 7                  24019913.738
        45.700




 115548152.983 6  90037508.32046  21988083.288    21988083.1104   21988083.4254
        41.700          37.7004


 112573923.518 6                  21081458.799    21081458.383
        38.400


 123404031.428 8                  23483003.182
        48.900
 117236652.592 7  91183986.445 6  21962350.173    21962349.414    21962353.625
        42.000          39.700
 107213788.151 7                  20042437.612    20042437.979
        47.800
 198907030.509 7                  37850747.975
        44.800
 202054499.294 7                  38449697.076
        44.300
 115000526.968 6  89444837.307 6  21483055.078    21483054.648    21483061.350
        40.600          36.200
 141085115.699 5                  26847599.227
        35.800
 136499853.315 6                  25975061.616
        41.900
 115402906.008 8  89757867.502 7  21649300.841    21649302.292    21649306.340
        48.500          43.900
 133761267.111 6                  25453923.279
        37.300
 118358981.827 6  92057024.972 7  22133727.668    22133724.503    22133733.382
        40.400          42.600
 114333884.367 8  88926397.417 6  21351052.537    21351052.563    21351053.695
        48.300          41.200


 25  1  1  3 18 15.0000000  0 27G06G19G12G11G20E27E03G25G05E34G29R13
                                E05E15R22R23S31S33R07R12E21E13R14E30
                                R24R08S35
 117949700.533 6  91908848.57942  22445074.360    22445073.9634   22445080.9104
        36.900          15.6004
 119479169.073 6  93100491.28042  22736097.102    22736096.5754   22736097.8954
        39.300          15.4004
 109675977.270 7  85461856.96847  20870617.918    20870617.4494   20870617.8694
        47.900          43.3004
 108905941.738 7  84861798.37445  20724105.514    20724105.2374   20724106.3704
        43.000          31.4004
 106600425.573 7  83065247.57146  20285388.339    20285387.1464   20285386.5694
        47.900          38.1004
 126229168.388 7                  24020586.128
        46.900




 115500200.410 7  90000142.69646  21978958.552    21978958.3834   21978959.0754
        43.300          39.1004
 133142850.183 5                  25336238.682
        30.800
 128600709.999 5 100208305.42242  24471898.048    24471897.9464   24471891.7744
        34.100          15.3004
 112617635.949 6                  21089642.976    21089644.247
        41.000


 123405192.812 8                  23483223.998
        48.800
 117271645.800 6  91211203.416 6  21968905.940    21968905.171    21968907.856
        39.500          39.700
 107218556.298 8                  20043329.616    20043330.350
        49.100
 198907026.632 7                  37850744.751
        42.800
 202054482.671 7                  38449696.776
        43.300
 115007732.228 7  89450441.380 5  21484400.994    21484410.941    21484405.806
        42.400          33.700
 125275997.245 5                  23451932.062    23451931.179
        32.700
 141051318.027 6                  26841167.904
        40.500
 136472697.332 6                  25969892.183
        36.600
 115383082.541 7  89742449.271 7  21645580.464    21645581.406    21645587.640
        46.100          42.900
 133801066.590 6                  25461497.454
        40.300
 118324546.832 6  92030242.193 7  22127285.878    22127283.265    22127294.456
        38.200          44.500
 114290134.337 8  88892369.717 7  21342880.618    21342880.995    21342884.550
        48.300          42.600
 200860198.646 5                  38222418.108
        33.300
 25  1  1  3 18 30.0000000  0 27G06G19G12G11G20E27E03G25G05E34G29R13
                                E05E15R22R23S31S33R07R12E21E13R14E30
                                R24R08S35
 117986736.904 6  91937708.10243  22452120.625    22452120.6964   22452130.6104
        39.900          23.2004
 119520586.815 6  93132764.88641  22743979.778    22743979.1934   22743979.5544
        40.900          11.0004
 109693758.351 7  85475712.32546  20874001.427    20874000.9454   20874001.6804
        46.500          40.0004
 108918314.693 6  84871439.65644  20726459.634    20726459.3214   20726460.0894
        38.700          27.1004
 106588297.638 7  83055797.23646  20283080.649    20283079.4564   20283079.1944
        47.300          38.9004
 126232815.033 7                  24021280.117
        47.700


 113922799.847 5  88771045.72045  21678796.228    21678796.0234   21678798.7244
        35.400          30.9004
 115452336.784 7  89962846.36045  21969849.451    21969849.2644   21969849.9244
        44.500          35.9004
 133171645.388 5                  25341723.655
        31.900
 128553733.285 6 100171700.25943  24462957.343    24462957.3394   24462951.0194
        38.600          21.1004
 112661488.800 5                  21097854.069    21097854.348
        34.400


 123406402.814 8                  23483454.251
        50.100
 117306663.333 7  91238439.276 6  21975466.484    21975467.863    21975466.542
        42.400          36.800
 107223381.599 7                  20044232.021    20044231.315
        47.500
 198907027.469 7                  37850749.411
        42.400
 202054470.182 7                  38449688.155
        47.000
 115015139.960 6  89456203.083 6  21485790.596    21485789.815    21485793.516
        40.700          37.900
 125341483.983 6                  23464193.166    23464194.542
        41.100
 141017587.827 7                  26834749.776
        42.200
 136445581.914 5                  25964731.283
        35.300
 115363452.176 7  89727181.242 6  21641900.354    21641900.469    21641904.414
        46.200          41.400
 133840925.428 6                  25469080.786
        38.500
 118290144.507 7  92003484.072 7  22120866.498    22120862.976    22120859.183
        42.700          43.400
 114246519.787 8  88858447.381 7  21334736.904    21334738.233    21334742.517
        50.100          43.900
 200860232.787 6                  38222441.821
        39.500
 25  1  1  3 18 45.0000000  0 28G09G06G19G12G11G20E27E03G25G05E34G29
                                R13E05E15R22R23S31S33R07R12E21E13R14
                                E30R24R08S35


 118023791.082 6  91966581.71743  22459171.930    22459172.0284   22459185.0914
        39.500          23.6004
 119562059.887 7  93165081.54042  22751871.078    22751870.3994   22751871.9864
        42.600          15.0004
 109711685.163 7  85489681.26346  20877412.899    20877412.4124   20877413.1304
        44.400          39.1004
 108930752.897 7  84881131.77844  20728827.725    20728827.3814   20728826.9194
        42.100          28.3004
 106576299.413 7  83046447.94846  20280797.007    20280795.8004   20280796.4714
        45.600          38.1004
 126236564.692 8                  24021993.816
        49.000


 113905047.920 6  88757213.03346  21675420.278    21675419.5184   21675424.3934
        39.700          37.0004
 115404554.687 7  89925613.56545  21960755.782    21960755.5864   21960755.2874
        43.100          33.0004
 133200440.948 5                  25347201.701
        33.700
 128506749.744 6 100135089.81344  24454015.519    24454015.4524   24454012.6884
        38.800          26.0004
 112705473.990 6                  21106097.319    21106096.903
        38.100


 123407653.671 8                  23483692.154
        50.100
 117341697.441 6  91265687.965 6  21982027.405    21982029.298    21982032.493
        41.200          38.700
 107228256.271 8                  20045144.190    20045143.973
        49.500
 198907024.505 7                  37850742.936
        44.000
 202054455.298 7                  38449687.829
        44.700
 115022742.330 6  89462116.012 6  21487215.272    21487208.088    21487211.978
        41.100          38.500
 125406965.786 5                  23476450.939    23476449.864
        35.700
 140983917.566 6                  26828341.067
        38.800
 136418499.230 5                  25959578.193
        34.300
 115344007.378 8  89712057.457 6  21638251.819    21638252.913    21638255.695
        50.000          39.300
 133880835.600 6                  25476676.267
        38.300
 118255765.132 7  91976744.523 7  22114425.938    22114428.544    22114430.228
        43.000          43.300
 114203033.658 8  88824624.867 7  21326613.805    21326615.039    21326620.226
        49.000          44.700


 25  1  1  3 19  0.0000000  0 28G09G06G19G12G11G20E27E03G25G05E34G29
                                R13E05E15R22R23S31S33R07R12E21E13R14
                                E30R24R08S35


 118060865.597 6  91995471.00744  22466226.051    22466226.1404   22466238.1684
        40.800          26.6004
 119603590.884 6  93197443.34342  22759776.037    22759775.2824   22759776.0624
        41.000          16.5004
 109729760.054 7  85503765.54246  20880852.246    20880851.7414   20880850.6004
        45.700          36.3004
 108943258.713 7  84890876.56245  20731206.349    20731205.9874   20731207.6424
        46.400          32.6004
 106564433.393 7  83037201.69646  20278538.454    20278537.2384   20278537.8684
        47.700          37.6004
 126240419.879 8                  24022727.709
        49.300


 113887441.615 7  88743493.84246  21672070.443    21672069.5634   21672075.4434
        43.100          40.5004
 115356856.863 6  89888446.43145  21951680.054    21951679.8224   21951676.7674
        39.700          30.7004
 133229251.874 5                  25352686.951
        34.500
 128459762.491 6 100098476.46744  24445065.969    24445066.0404   24445074.3174
        36.400          26.7004
 112749593.252 6                  21114357.642    21114356.433
        36.900


 123408947.812 8                  23483938.812
        51.200
 117376750.567 6  91292951.428 6  21988597.295    21988597.973    21988598.186
        41.000          37.100
 107233183.048 8                  20046064.685    20046064.837
        49.500
 198907021.126 7                  37850742.900
        42.900
 202054439.573 7                  38449681.349
        44.600
                  89468182.309 6                  21488667.460    21488670.778
                        40.800
 125472444.978 5                  23488706.346    23488704.574
        34.500
 140950310.039 6                  26821946.511
        36.800
 136391451.948 6                  25954432.869
        40.000
 115324750.884 8  89697080.216 6  21634640.020    21634639.583    21634642.986
        48.200          37.200
 133920799.501 6                  25484281.448
        41.300
 118221412.090 7  91950025.572 7  22108000.891    22108000.421    22108006.917
        45.200          42.800
 114159678.919 8  88790904.580 6  21318518.100    21318518.969    21318523.115
        49.000          41.400
 200860287.446 6                  38222445.747
        39.400
 25  1  1  3 19 15.0000000  0 28G09G06G19G12G11G20E27E03G25G05E34G29
                                R13E05E15R22R23S31S33R07R12E21E13R14
                                E30R24R08S35
 127980497.413 5                  24353879.979
        31.400
 118097962.527 6  92024377.72645  22473285.863    22473285.9924   22473295.5074
        40.500          30.8004
 119645181.985 6  93229851.92142  22767688.938    22767688.1564   22767691.4384
        41.100          15.7004
 109747985.342 7  85517967.03946  20884321.891    20884321.3684   20884317.6774
        42.900          36.1004
 108955834.380 8  84900675.78846  20733600.017    20733599.6784   20733601.7984
        48.900          36.5004
 106552701.941 7  83028060.28346  20276305.943    20276304.7234   20276304.9504
        46.300          37.3004
 126244382.935 8                  24023481.731
        49.200


 113869983.374 7  88729890.04446  21668749.025    21668748.2304   21668752.6434
        46.200          41.6004
 115309245.762 6  89851346.88944  21942619.129    21942618.7544   21942615.0154
        38.500          26.0004
 133258073.751 6                  25358172.094
        39.000
 128412773.837 5 100061862.01544  24436126.961    24436127.1214   24436133.5414
        32.500          26.0004
 112793848.573 5                  21122645.724    21122646.705
        35.700


 123410287.494 8                  23484193.388
        50.900
 117411825.069 6  91320231.508 6  21995164.518    21995163.522    21995167.549
        36.200          36.200
 107238164.112 7                  20046995.070    20046994.643
        47.500
 198907020.100 7                  37850735.643
        42.800
 202054424.964 7                  38449680.070
        45.400
 115038642.580 6  89474403.868 6  21490173.891    21490170.927    21490162.591
        40.100          37.800
 125537912.497 6                  23500962.351    23500962.838
        36.000
 140916767.842 6                  26815564.891
        38.100
 136364442.273 7                  25949293.442
        42.800
 115305685.104 7  89682251.312 5  21631062.647    21631062.097    21631062.934
        47.500          32.000
 133960819.251 7                  25491897.070
        42.200
 118187087.804 7  91923328.974 7  22101581.219    22101581.125    22101587.478
        47.400          42.800
 114116458.567 8  88757288.832 6  21310446.327    21310447.566    21310452.118
        48.100          40.100
 200860319.580 6                  38222452.719
        38.300
 25  1  1  3 19 30.0000000  0 28G09G06G19G12G11G20E27E03G25G05E34G29
                                R13E05E15R22R23S31S33R07R12E21E13R14
                                E30R24R08S35
 127981102.043 5                  24353996.353
        32.100
 118135072.798 7  92053294.81045  22480346.332    22480346.4884   22480355.3454
        42.800          33.0004
 119686824.143 6  93262300.25341  22775612.531    22775611.5924   22775616.4904
        38.000          11.5004
 109766351.808 7  85532278.59346  20887817.488    20887816.9614   20887814.3214
        44.800          39.1004
 108968470.682 8  84910522.23346  20736004.771    20736004.4454   20736006.6814
        48.300          37.0004
 106541096.108 7  83019016.78246  20274097.850    20274096.6394   20274096.3844
        47.600          38.8004
 126248444.836 8                  24024254.819
        48.400


 113852664.360 7  88716394.71946  21665452.916    21665452.1034   21665454.6744
        47.500          40.9004
 115261713.160 6  89814308.54944  21933575.143    21933574.6524   21933569.4454
        40.600          26.6004
 133286897.335 6                  25363656.595
        36.400
 128365774.946 4 100025239.54844  24427185.777    24427185.8754   24427188.9674
        29.400          24.0004
 112838230.061 4                  21130954.599    21130951.281
        28.100


 123411663.553 8                  23484455.454
        50.200


 107243190.149 7                  20047935.323    20047935.392
        47.400
 198907011.306 7                  37850741.286
        42.600
 202054403.064 7                  38449679.628
        45.900
 115046831.934 5  89480773.427 6  21491685.220    21491690.166    21491694.042
        35.300          38.100


 140883282.137 6                  26809192.514
        39.000
 136337461.201 7                  25944158.786
        43.900
 115286801.231 8  89667563.904 5  21627520.707    21627520.715    21627517.773
        48.600          32.800
 134000885.642 6                  25499521.499
        40.900
 118152782.843 7  91896647.466 6  22095165.625    22095165.724    22095171.526
        47.000          40.700
 114073363.777 7  88723770.669 6  21302398.807    21302399.839    21302405.733
        46.800          40.200
 200860344.042 6                  38222466.268
        37.200
 25  1  1  3 19 45.0000000  0 27G09G06G19G12G11G20E27G25G05E34G29R13
                                E05E15R22R23S31S33R07R12E21E13R14E30
                                R24R08S35


 118172211.839 6  92082234.29245  22487412.630    22487412.7864   22487420.1594
        41.500          31.3004
 119728532.751 6  93294800.41941  22783550.439    22783549.5504   22783554.3494
        39.100          10.4004
 109784874.847 7  85546712.13146  20891340.970    20891340.4614   20891340.7324
        46.800          41.6004
 108981183.107 7  84920428.02845  20738424.860    20738424.5654   20738425.1144
        47.600          35.5004
 106529631.461 8  83010083.30746  20271916.609    20271915.3934   20271915.3464
        49.500          40.7004
 126252621.207 8                  24025049.378
        48.700
 113835500.314 7  88703020.14346  21662185.799    21662184.9544   21662188.4944
        45.800          40.7004
 115214274.473 6  89777343.41945  21924547.426    21924546.9574   21924544.1514
        40.400          31.7004
 133315738.204 5                  25369146.714
        35.800
 128318706.439 6  99988617.35044  24418241.764    24418241.9964   24418242.5974
        39.400          29.6004
 112882753.399 5                  21139292.123    21139293.670
        33.900


 123413091.515 8                  23484727.566
        49.400
                  91374832.475 5                                  22008315.819
                        31.700
 107248276.957 7                  20048885.979    20048886.457
        47.600
 198907010.442 6                  37850742.104
        40.900
 202054389.948 7                  38449677.477
        47.000
                  89487303.228 6                                  21493261.927
                        36.200
 125668986.635 5                  23525492.773    23525499.271
        35.400
 140849868.749 5                  26802831.214
        32.000
 136310524.291 7                  25939032.552
        44.300
 115268115.289 7  89653030.373 6  21624013.421    21624012.638    21624016.582
        44.900          37.200
 134041014.037 6                  25507156.490
        39.400
 118118513.561 8  91869993.553 6  22088757.077    22088757.947    22088762.936
        48.000          40.100
 114030411.124 7  88690363.116 5  21294378.678    21294376.818    21294381.433
        43.500          35.800


 25  1  1  3 20  0.0000000  0 27G09G06G19G12G11G20E27G25G05E34G29R13
                                E05E15R22R23S31S33R07R12E21E13R14E30
                                R24R08S35


 118209370.262 6  92111188.85745  22494485.412    22494485.5554   22494490.3274
        40.200          31.7004
 119770298.557 6  93327344.88141  22791497.260    22791496.4964   22791502.1884
        38.000           8.8004
 109803544.916 7  85561260.25647  20894893.643    20894893.1254   20894894.5854
        47.100          44.3004
 108993962.236 8  84930385.79446  20740856.542    20740856.2564   20740856.1614
        49.500          37.1004
 106518298.799 8  83001252.66746  20269759.680    20269758.4644   20269759.5684
        49.400          41.5004
 126256902.714 7                  24025864.237
        47.800
 113818482.107 7  88689759.22746  21658948.026    21658947.1954   21658950.4134
        45.700          38.3004
 115166920.907 6  89740444.55545  21915535.441    21915534.9814   21915535.4774
        37.400          33.0004


 128271709.487 6  99951996.40645  24409299.005    24409299.2464   24409299.4054
        38.300          30.1004
 112927408.348 5                  21147655.543    21147655.041
        35.500


 123414562.027 8                  23485006.670
        48.600
 117516925.698 7  91402158.437 5  22014899.849    22014901.801    22014899.044
        43.000          34.600
 107253415.480 7                  20049846.855    20049846.497
        47.900
 198907008.569 6                  37850741.697
        39.900
 202054375.730 7                  38449674.226
        46.700
 115063891.943 7  89493986.100 6  21494875.292    21494873.697    21494867.154
        43.400          38.200
 125734454.983 6                  23537740.847    23537739.354
        36.000
 140816518.464 5                  26796486.044
        35.600
 136283622.245 7                  25933913.066
        42.600
 115249617.938 7  89638643.575 6  21620544.885    21620544.506    21620548.276
        46.300          39.600
 134081194.972 7                  25514804.172
        42.200
 118084270.249 7  91843360.018 6  22082350.527    22082349.477    22082360.542
        43.400          39.200
 113987591.707 7  88657059.220 6  21286384.106    21286381.642    21286387.080
        45.500          36.400


 25  1  1  3 20 15.0000000  0 27G09G06G19G12G11G20E27G25G05E34G29R13
                                E05E15R22R23S31S33R07R12E21E13R14E30
                                R24R08S35


 118246547.547 6  92140158.18645  22501560.206    22501560.2824   22501564.2914
        37.100          30.2004
 119812120.831 5  93359933.63641  22799455.980    22799455.0644   22799460.7644
        34.600           8.5004
 109822361.469 7  85575922.49647  20898474.910    20898474.3964   20898475.5634
        46.900          44.0004
 109006807.482 8  84940395.07946  20743300.185    20743299.9134   20743300.7344
        49.000          37.6004
 106507097.602 8  82992524.47346  20267628.348    20267627.1414   20267628.3174
        50.300          41.5004
 126261288.968 8                  24026699.020
        48.900
 113801609.451 7  88676611.78146  21655736.960    21655736.1384   21655737.6154
        43.000          36.1004
 115119652.363 7  89703611.95746  21906542.906    21906542.4644   21906542.1764
        44.000          36.5004


 128224708.457 7  99915372.33445  24400356.052    24400355.9724   24400354.0454
        42.300          30.2004
 112972194.149 6                  21156047.460    21156048.648
        39.500


 123416074.504 8                  23485294.915
        49.600
 117552077.119 6  91429498.388 5  22021481.241    22021482.741    22021482.588
        38.700          34.900
 107258604.989 7                  20050816.465    20050817.523
        47.600
 198907005.617 6                  37850734.364
        41.300
 202054359.519 7                  38449667.729
        45.600
 115072680.117 7  89500821.401 6  21496503.754    21496508.598    21496513.217
        42.000          40.300
 125799917.108 6                  23549993.351    23549993.424
        37.400
 140783231.231 6                  26790152.105
        36.100
 136256754.580 7                  25928799.386
        42.900
 115231309.148 7  89624403.388 6  21617109.595    21617110.340    21617113.846
        44.400          40.300
 134121427.874 6                  25522458.863
        39.200
 118050052.331 7  91816746.098 6  22075955.999    22075954.480    22075964.289
        45.100          40.300
 113944905.394 7  88623858.739 4  21278410.886    21278411.520    21278412.388
        47.300          29.400


 25  1  1  3 20 30.0000000  0 27G09G06G19G12G11G20E27G25G05E34G29R13
                                E05E15R22R23S31S33R07R12E21E13R14E30
                                R24R08S35


 118283742.172 6  92169141.02544  22508638.030    22508638.0794   22508640.9374
        39.300          26.4004
 119853998.384 6  93392565.41641  22807425.437    22807424.4454   22807430.3544
        39.000          10.9004
 109841323.102 7  85590697.78447  20902083.311    20902082.8204   20902083.1254
        47.700          43.3004
 109019717.445 8  84950454.81346  20745756.679    20745756.4114   20745757.9674
        49.400          37.9004
 106496026.647 8  82983897.77246  20265521.547    20265520.3404   20265521.1144
        50.500          40.3004
 126265778.706 8                  24027553.574
        49.600
 113784881.214 7  88663576.88746  21652554.226    21652553.4264   21652553.9634
        43.400          37.2004
 115072467.573 7  89666844.60946  21897562.802    21897562.3334   21897564.1694
        44.500          37.8004


 128177702.242 6  99878744.20445  24391408.549    24391408.2054   24391407.7234
        41.100          30.1004
 113017108.790 6                  21164451.149    21164454.122
        37.600


 123417627.622 8                  23485590.553
        50.600
 117587245.151 6  91456851.407 6  22028068.846    22028066.736    22028073.562
        37.500          38.300
 107263844.078 7                  20051795.652    20051796.272
        47.000
 198906999.377 7                  37850737.588
        43.200
 202054340.826 7                  38449666.736
        45.400
 115081662.961 6  89507808.035 6  21498181.206    21498179.447    21498192.396
        37.400          38.700
 125865371.751 6                  23562245.300    23562247.856
        39.100
 140750005.890 5                  26783831.077
        31.000
 136229920.021 7                  25923694.460
        43.100
 115213187.741 7  89610309.003 7  21613708.143    21613708.580    21613716.643
        43.500          43.700
 134161711.222 6                  25530123.959
        38.400
 118015858.659 7  91790151.022 6  22069562.684    22069561.687    22069569.122
        46.800          39.900
 113902351.522 7                  21270462.946    21270465.653
        46.500


 25  1  1  3 20 45.0000000  0 27G09G06G19G12G11G20E27G25G05E34G29R13
                                E05E15R22R23S31S33R07R12E21E13R14E30
                                R24R08S35


 118320962.200 6  92198143.65744  22515719.765    22515719.7524   22515723.1744
        39.700          25.2004
 119895939.212 6  93425246.6674   22815406.785    22815405.7664   22815412.1914
        39.800           5.3004
 109860437.681 7  85605592.24747  20905720.145    20905719.6634   20905719.0384
        46.900          43.0004
 109032700.074 8  84960571.14646  20748227.226    20748226.9724   20748228.9634
        48.500          37.0004
 106485093.997 8  82975378.83646  20263441.136    20263439.9254   20263440.0434
        50.400          40.0004
 126270380.003 8                  24028429.099
        48.800
 113768305.649 7  88650660.93446  21649398.864    21649398.0604   21649401.0264
        45.200          39.0004
 115025375.354 6  89630149.35846  21888600.071    21888599.5804   21888603.4934
        41.900          38.0004


 128130699.078 6  99842118.43645  24382465.981    24382465.6684   24382463.8484
        41.000          32.1004
 113062160.155 6                  21172892.083    21172891.421
        38.600


 123419229.343 8                  23485895.718
        51.400
 117622438.384 7  91484223.826 6  22034664.759    22034666.355    22034666.849
        42.600          39.700
 107269140.902 7                  20052785.850    20052784.469
        45.100
 198906998.814 6                  37850734.060
        41.400
 202054327.431 7                  38449665.233
        44.800
 115090848.822 6  89514952.434 5  21499901.750    21499900.034    21499901.468
        39.700          31.200
 125930826.340 5                  23574496.150    23574496.167
        35.400
 140716850.792 5                  26777521.195
        34.500
 136203126.645 6                  25918594.288
        39.900
 115195262.039 6  89596366.827 7  21610343.755    21610342.754    21610354.184
        41.000          44.400
 134202052.901 6                  25537800.362
        36.500
 117981697.392 7  91763581.179 6  22063174.414    22063172.865    22063181.275
        46.400          38.300
 113859938.890 7                  21262542.544    21262543.735
        46.100


 25  1  1  3 21  0.0000000  0 26G09G06G19G12G11G20E27G25G05E34G29R13
                                E05E15R22R23S31S33R07E21E13R14E30R24
                                R08S35


 118358206.469 5  92227165.15843  22522806.387    22522806.3954   22522809.0634
        33.600          21.2004
 119937942.308 6  93457976.69341  22823397.727    22823396.8154   22823405.7004
        37.000           7.3004
 109879704.022 7  85620604.95447  20909386.661    20909386.1744   20909384.5164
        47.300          42.2004
 109045754.221 8  84970743.21245  20750710.910    20750710.6654   20750712.6854
        48.100          35.1004
 106474298.693 8  82966966.91246  20261386.905    20261385.6984   20261385.3324
        49.600          39.9004
 126275091.831 8                  24029326.142
        48.900
 113751881.894 7  88637863.21346  21646273.107    21646272.2674   21646277.0704
        44.200          39.9004
 114978374.715 6  89593525.44146  21879656.422    21879655.9754   21879660.0564
        40.700          36.1004


 128083698.033 6  99805494.28645  24373522.888    24373522.5844   24373521.5374
        41.800          33.8004
 113107346.373 6                  21181351.074    21181352.670
        38.800


 123420878.557 8                  23486209.599
        52.300
 117657655.455 7  91511614.882 6  22041258.696    22041259.843    22041263.467
        42.000          40.700
 107274494.634 7                  20053787.691    20053785.840
        45.000
 198907002.740 6                  37850728.470
        41.100
 202054318.157 7                  38449660.579
        44.500
 115100236.280 6  89522253.678 5  21501650.447    21501650.924    21501656.697
        40.300          31.000
 140683765.086 6                  26771226.217
        36.100
 136176373.395 6                  25913503.681
        40.100
 115177531.189 7  89582576.170 7  21607021.768    21607020.647    21607028.714
        44.500          44.700
 134242451.671 6                  25545487.700
        36.000
 117947567.418 7  91737035.690 6  22056790.215    22056787.670    22056799.281
        44.400          38.900
 113817666.797 7                  21254649.177    21254647.668
        42.700


 25  1  1  3 21 15.0000000  0 28G09G06G19G12G11G20E27E03G25G05E34G29
                                R13E05E15R22R23S31S33R07R12E21E13R14
                                E30R24R08S35


 118395464.593 6  92256197.50443  22529897.564    22529897.5384   22529899.8274
        36.600          21.5004
 119979997.215 6  93490746.74642  22831402.874    22831401.9404   22831409.0284
        37.500          12.2004
 109899111.903 7  85635727.96347  20913079.436    20913078.9454   20913078.1124
        46.800          43.1004
 109058869.556 7  84980962.95445  20753206.514    20753206.2694   20753207.4894
        46.700          33.3004
 106463630.542 8  82958654.06246  20259356.973    20259355.7714   20259355.2344
        48.800          40.3004
 126279904.031 8                  24030241.695
        48.800


 113735599.837 7  88625175.94746  21643175.673    21643174.8024   21643180.0604
        44.600          40.3004
 114931455.781 7  89556965.19246  21870728.251    21870727.8764   21870730.8704
        44.700          37.1004


 128036689.147 6  99768863.99645  24364576.437    24364576.0714   24364577.7644
        38.300          33.6004
 113152656.914 6                  21189840.191    21189839.832
        40.200


 123422564.999 8                  23486530.417
        52.500
 117692886.247 7  91539016.554 6  22047861.335    22047861.183    22047864.611
        43.800          41.700
 107279894.411 7                  20054796.741    20054796.337
        47.000
 198907000.694 6                  37850735.956
        41.300
 202054303.560 7                  38449661.473
        44.900
 115109815.379 6  89529703.989 5  21503444.501    21503444.403    21503453.386
        41.000          35.300
                  98048033.560 5                  23598997.390    23599027.479
                        31.200
 140650738.801 6                  26764940.495
        36.300
 136149650.034 7                  25908418.989
        43.000
 115159984.982 7  89568929.164 7  21603728.177    21603727.310    21603737.801
        43.600          45.600
 134282897.187 6                  25553184.323
        37.300
 117913458.663 7  91710506.724 6  22050412.443    22050410.497    22050417.399
        43.700          38.800
 113775525.887 7  88492106.188 5  21246780.668    21246781.319    21246785.805
        45.200          34.600


 25  1  1  3 21 30.0000000  0 27G06G19G12G11G20E27E03G25G05E34G29R13
                                E05E15R22R23S31S33R07R12E21E13R14E30
                                R24R08S35
 118432741.403 5  92285244.41443  22536991.537    22536991.4614   22536995.1294
        33.500          22.4004
 120022108.850 5  93523560.90142  22839415.484    22839414.4654   22839422.2964
        35.800          15.5004
 109918665.821 7  85650964.77947  20916800.890    20916800.3944   20916800.3044
        46.900          43.7004
 109072050.726 7  84991233.96545  20755715.586    20755715.3584   20755715.2064
        46.800          33.2004
 106453094.335 7  82950444.01146  20257351.816    20257350.6184   20257350.1674
        47.700          39.2004
 126284821.357 8                  24031177.440
        48.100


 113719464.492 7  88612602.97146  21640105.007    21640104.1044   21640109.1204
        47.300          39.3004
 114884623.762 7  89520472.77946  21861815.471    21861815.1234   21861817.2224
        44.800          36.4004


 127989677.369 6  99732231.46745  24355631.534    24355631.1904   24355631.8774
        40.100          32.8004
 113198095.802 6                  21198349.002    21198348.131
        38.600


 123424293.362 8                  23486859.245
        51.400
 117728135.363 6  91566432.583 7  22054458.851    22054461.217    22054468.441
        38.400          42.500
 107285345.540 7                  20055817.257    20055816.198
        46.200
 198906997.375 6                  37850742.216
        39.500
 202054287.310 7                  38449654.868
        43.300
 115119590.566 6  89537306.739 6  21505269.893    21505268.409    21505276.104
        40.100          37.500
 126127072.154 4  98098925.838 5  23611250.637    23611261.088    23611272.034
        28.200          33.900
 140617776.966 5                  26758667.861
        31.400
 136122961.302 7                  25903339.848
        44.300
 115142628.523 7  89555429.686 7  21600472.004    21600472.287    21600480.318
        43.700          45.300
 134323394.234 6                  25560891.914
        39.800
 117879375.620 6  91683997.777 6  22044038.042    22044034.737    22044044.027
        41.500          40.800
 113733520.855 6  88459435.616 6  21238935.500    21238936.126    21238939.019
        41.900          36.200
 200860728.589 6                  38222500.404
        37.200
 25  1  1  3 21 45.0000000  0 27G06G19G12G11G20E27E03G25G05E34G29R13
                                E05E15R22R23S31S33R07R12E21E13R14E30
                                R24R08S35
 118470035.586 5  92314304.85943  22544089.350    22544089.3284   22544093.0794
        34.900          23.6004
 120064276.033 6  93556418.49242  22847442.173    22847441.1144   22847445.9654
        38.100          13.7004
 109938364.707 7  85666314.54347  20920549.494    20920549.0034   20920549.2464
        47.400          42.8004
 109085296.804 7  85001555.62444  20758235.684    20758235.4394   20758235.1084
        45.400          29.1004
 106442689.343 7  82942336.22646  20255371.492    20255370.2814   20255370.2764
        47.700          39.3004
 126289843.014 8                  24032132.827
        48.800


 113703475.127 7  88600143.77446  21637062.401    21637061.5344   21637065.3984
        45.900          40.6004
 114837877.994 6  89484047.50445  21852920.390    21852920.0244   21852920.2184
        40.700          33.0004


 127942661.862 6  99695596.00845  24346684.265    24346683.9354   24346684.2584
        41.100          34.6004
 113243662.012 6                  21206878.808    21206880.130
        36.200


 123426062.670 8                  23487195.912
        52.100
 117763402.112 6  91593862.274 7  22061069.995    22061068.438    22061076.087
        41.800          44.100
 107290847.042 8                  20056845.251    20056845.293
        48.500
 198906992.244 6                  37850739.739
        41.900
 202054269.841 7                  38449654.993
        44.000
 115129352.217 6  89545061.540 5  21507136.057    21507135.897    21507142.032
        41.200          35.800
 126192495.942 5  98149779.027 5  23623492.556    23623490.993    23623512.761
        30.700          32.700
 140584878.809 6                  26752406.141
        36.400
 136096306.394 7                  25898268.969
        43.800
 115125461.065 8  89542077.255 7  21597251.766    21597253.322    21597258.250
        49.300          42.400
 134363941.343 6                  25568607.419
        36.700
 117845317.771 7  91657508.311 6  22037667.907    22037667.016    22037677.639
        43.700          41.500
 113691651.986 6  88426870.958 6  21231115.951    21231114.516    21231122.400
        36.900          38.700
 200860757.086 6                  38222514.190
        37.200
 25  1  1  3 22  0.0000000  0 27G06G19G12G11G20E27E03G25G05E34G29R13
                                E05E15R22R23S31S33R07R12E21E13R14E30
                                R24R08S35
 118507351.056 6  92343381.81944  22551192.683    22551192.6704   22551195.6924
        37.200          24.4004
 120106502.481 6  93589322.36042  22855476.508    22855475.3864   22855480.2064
        41.200          13.2004
 109958211.935 7  85681779.91546  20924326.217    20924325.7214   20924325.8714
        47.200          41.8004
 109098611.187 7  85011930.50744  20760769.569    20760769.3244   20760767.7014
        46.100          28.9004
 106432419.133 7  82934333.47246  20253417.084    20253415.8774   20253416.2134
        47.500          39.8004
 126294972.532 8                  24033108.879
        50.000


 113687635.457 7  88587801.19946  21634048.041    21634047.1924   21634050.3174
        47.300          39.2004
 114791222.397 7  89447692.50045  21844042.441    21844042.0394   21844040.7124
        42.500          33.2004


 127895646.556 7  99658960.76045  24337737.633    24337737.3164   24337736.7384
        44.300          35.2004
 113289358.358 5                  21215440.843    21215439.885
        35.600


 123427876.478 8                  23487540.951
        51.600
 117798690.092 7  91621308.436 7  22067681.644    22067681.350    22067686.097
        43.300          43.400
 107296402.433 8                  20057883.027    20057883.013
        49.100
 198906988.571 7                  37850737.937
        42.500
 202054253.424 7                  38449647.776
        45.100
                  89552970.804 5                                  21509042.368
                        33.400
                  98200659.436 5                                  23635756.582
                        32.800
 140552048.274 6                  26746159.404
        36.700
 136069688.882 7                  25893202.708
        44.200
 115108486.587 8  89528874.897 7  21594067.278    21594068.794    21594076.441
        49.700          44.400
 134404542.155 6                  25576334.300
        39.300
 117811288.427 7  91631041.016 6  22031304.178    22031304.309    22031314.686
        43.700          40.800
 113649923.123 6  88394415.197 6  21223319.913    21223319.668    21223328.558
        36.100          38.200
 200860787.143 5                  38222523.679
        35.500
 25  1  1  3 22 15.0000000  0 28G09G06G19G12G11G20E27E03G25G05E34G29
                                R13E05E15R22R23S31S33R07R12E21E13R14
                                E30R24R08S35


 118544685.538 4  92372473.61642  22558287.544    22558287.5094   22558300.3544
        29.500          16.6004
 120148786.035 7  93622270.61842  22863522.693    22863521.5624   22863524.8334
        43.800          16.3004
 109978205.371 7  85697359.22646  20928130.060    20928129.5334   20928129.7644
        43.100          37.8004
 109111991.779 7  85022356.89244  20763315.597    20763315.3654   20763311.9654
        47.300          27.7004
 106422281.699 7  82926434.17646  20251488.337    20251487.1444   20251487.2894
        46.900          39.5004
 126300207.936 7                  24034104.901
        47.800


 113671943.656 7  88575573.81645  21631062.270    21631061.4394   21631062.6474
        43.300          35.3004
 114744655.252 6  89411406.43545  21835181.589    21835181.1474   21835180.7014
        39.900          34.3004
 133604613.330 6                  25424114.357
        36.100
 127848629.510 7  99622324.13345  24328789.194    24328788.8554   24328787.6534
        42.800          33.3004
 113335182.261 5                  21224021.712    21224020.052
        35.300


 123429732.634 8                  23487893.827
        50.100
 117833997.180 7  91648769.473 7  22074296.086    22074295.935    22074300.061
        42.000          42.900
 107302009.573 8                  20058931.773    20058932.262
        50.400
 198906984.780 7                  37850743.155
        43.800
 202054236.925 7                  38449645.795
        44.900
 115149887.041 6  89561033.237 5  21510971.198    21510970.976    21510984.502
        40.600          32.400


 140519283.504 5                  26739927.442
        35.100
 136043106.720 6                  25888144.197
        41.800
 115091702.723 8  89515820.795 7  21590919.830    21590919.224    21590927.336
        48.300          42.900
 134445194.527 6                  25584070.542
        41.500
 117777285.686 6  91604594.502 6  22024945.635    22024943.976    22024950.042
        39.900          37.400
 113608332.687 4  88362067.203 6  21215555.262    21215554.772    21215561.252
        29.500          38.400
 200860816.808 5                  38222534.406
        33.000
 25  1  1  3 22 30.0000000  0 28G09G06G19G12G11G20E27E03G25G05E34G29
                                R13E05E15R22R23S31S33R07R12E21E13R14
                                E30R24R08S35


 118582044.615 5  92401584.55443  22565403.929    22565403.9374   22565408.6554
        33.500          18.0004
 120191132.508 7  93655267.92143  22871580.437    22871579.2844   22871581.3024
        42.400          18.0004
 109998350.959 7  85713057.10246  20931964.514    20931963.9964   20931963.4694
        42.500          37.5004
 109125444.359 8  85032839.45444  20765875.332    20765875.1134   20765871.7904
        48.300          28.2004
 106412283.011 7  82918642.98746  20249585.452    20249584.2684   20249585.0294
        47.900          39.7004
 126305555.208 8                  24035122.560
        49.600


 113656405.762 7  88563466.33945  21628105.601    21628104.7884   21628104.4414
        45.500          34.8004
 114698182.913 6  89375194.22046  21826338.403    21826337.9614   21826338.7254
        41.300          37.4004
 133633550.865 5                  25429620.868
        35.800
 127801616.802 6  99585690.87945  24319843.351    24319843.0074   24319839.4494
        41.100          31.4004
 113381139.300 5                  21232626.561    21232625.649
        35.400


 123431637.073 8                  23488256.422
        50.500
 117869329.466 7  91676250.161 7  22080914.641    22080915.234    22080919.502
        44.100          43.100
 107307674.709 8                  20059990.194    20059990.775
        49.900
 198906986.811 7                  37850737.955
        42.900
 202054225.114 7                  38449641.315
        44.700
 115160455.585 6                  21512940.208    21512944.253
        39.500
                                                  23660254.183

 140486590.782 5                  26733701.537
        34.100
 136016565.793 6                  25883092.563
        39.900
 115075116.301 7  89502920.268 6  21587806.227    21587806.823    21587813.491
        47.700          40.300
 134485904.031 6                  25591814.898
        38.000
 117743315.780 7  91578173.443 6  22018590.894    22018589.581    22018595.782
        42.000          36.600
 113566884.537 5  88329832.028 6  21207819.886    21207817.684    21207824.611
        34.000          40.200
 200860851.978 5                  38222532.689
        32.200
 25  1  1  3 22 45.0000000  0 28G09G06G19G12G11G20E27E03G25G05E34G29
                                R13E05E15R22R23S31S33R07R12E21E13R14
                                E30R24R08S35


 118619419.033 6  92430707.44643  22572515.783    22572515.8634   22572519.4214
        37.700          18.5004
 120233532.439 6  93688306.81442  22879648.284    22879647.1494   22879650.0904
        37.900          15.1004
 110018638.877 7  85728865.84446  20935825.808    20935825.3084   20935823.5534
        47.200          38.5004
 109138959.317 7  85043370.59144  20768447.327    20768447.1354   20768444.2254
        47.400          29.7004
 106402413.409 8  82910952.40946  20247707.138    20247705.9674   20247707.1894
        49.300          40.4004
 126311004.782 8                  24036159.774
        48.400


 113641012.425 7  88551471.57445  21625176.735    21625175.9264   21625175.8374
        44.500          35.2004
 114651795.955 7  89339048.55646  21817511.683    21817511.2054   21817513.4234
        44.400          38.6004
 133662492.561 6                  25435128.038
        37.100
 127754599.122 6  99549053.74245  24310897.190    24310896.8644   24310892.0364
        40.600          30.5004
 113427219.394 6                  21241256.814    21241254.982
        36.900


 123433580.106 8                  23488625.755
        48.900
 117904677.295 7  91703742.941 7  22087537.189    22087536.870    22087541.219
        44.900          42.400
 107313388.142 8                  20061058.200    20061058.518
        49.900
 198906984.602 6                  37850734.185
        41.400
 202054211.259 7                  38449639.146
        45.200
                  89577638.575 5                                  21514958.665
                        33.400




 135990056.670 5                  25878046.783
        34.200
 115058717.590 7  89490165.827 6  21584729.530    21584727.977    21584738.481
        42.900          40.200
 134526661.166 6                  25599573.466
        40.200
 117709368.877 7  91551770.349 6  22012246.357    22012247.577    22012249.794
        43.600          39.300
 113525575.323 7  88297702.668 6  21200110.739    21200110.127    21200110.302
        43.900          41.200


 25  1  1  3 23  0.0000000  0 28G09G06G19G12G11G20E27E03G25G05E34G29
                                R13E05E15R22R23S31S33R07R12E21E13R14
                                E30R24R08S35


 118656809.109 5  92459842.48942  22579627.383    22579627.5354   22579633.6564
        32.400          17.5004
 120275986.460 6  93721387.77641  22887727.116    22887726.0794   22887728.7434
        41.800           8.6004
 110039069.638 7  85744785.92346  20939713.521    20939713.0344   20939711.0124
        46.200          40.4004
 109152537.240 7  85053950.79645  20771031.507    20771031.3114   20771029.1904
        47.900          30.3004
 106392673.769 8  82903363.08546  20245853.574    20245852.4164   20245853.9304
        48.700          40.1004
 126316557.437 8                  24037216.721
        49.500


 113625764.567 7  88539590.05446  21622274.597    21622273.7884   21622275.6104
        46.400          36.7004
 114605495.674 7  89302970.42046  21808699.856    21808699.3204   21808703.8624
        44.600          39.4004
 133691439.145 6                  25440634.949
        36.200
 127707577.368 6  99512413.46645  24301950.031    24301949.6924   24301944.3734
        41.900          30.7004
 113473422.503 6                  21249915.052    21249914.181
        41.000


 123435562.439 8                  23489003.020
        48.700
 117940041.374 7  91731248.330 6  22094162.295    22094160.846    22094165.432
        44.300          41.700
 107319150.370 8                  20062134.915    20062135.276
        50.400
 198906979.618 6                  37850738.178
        41.400
 202054193.543 7                  38449635.426
        45.500




 140421358.164 5                  26721296.572
        30.300
 135963579.885 5                  25873009.439
        35.500
 115042507.401 5  89477558.057 6  21581688.163    21581683.692    21581698.457
        30.300          38.400
 134567466.416 6                  25607338.387
        41.800
 117675445.482 5  91525385.627 6  22005896.875    22005898.383    22005905.684
        35.100          40.100
 113484403.196 7  88265679.996 6  21192415.229    21192417.810    21192419.590
        44.000          38.500


 25  1  1  3 23 15.0000000  0 27G09G06G19G12G11G20E27E03G25G05E34G29
                                R13E05E15R22R23S31S33R07E21E13R14E30
                                R24R08S35


 118694159.865 5  92488983.50742  22586747.805    22586747.8984   22586754.1114
        32.000          17.5004
 120318500.637 5  93754515.8564   22895816.039    22895814.9134   22895818.9234
        33.700           4.0004
 110059649.094 7  85760821.87447  20943628.914    20943628.4494   20943627.3524
        47.700          42.6004
 109166184.093 7  85064584.69944  20773628.261    20773628.0294   20773626.2414
        44.000          28.6004
 106383070.171 7  82895879.80646  20244026.637    20244025.4754   20244026.2354
        47.700          39.0004
 126322219.181 8                  24038293.808
        50.300


 113610668.267 7  88527826.69546  21619402.318    21619401.5234   21619404.7834
        43.100          39.0004
 114559288.219 7  89266964.59945  21799907.353    21799906.8354   21799910.2114
        42.300          35.9004
 133720396.513 6                  25446146.398
        38.100
 127660557.650 6  99475774.75345  24293000.216    24292999.8634   24292998.1954
        38.100          31.9004
 113519754.477 5                  21258578.129    21258579.340
        35.200


 123437590.018 8                  23489389.097
        49.700
 117975427.898 6  91758771.140 6  22100789.343    22100789.060    22100792.922
        41.400          39.400
 107324967.723 8                  20063223.053    20063222.524
        48.400
 198906977.554 6                  37850739.095
        41.600
 202054178.061 6                  38449624.904
        39.900
 115193480.631 6                  21519110.894
        39.100
 140388861.652 5                  26715118.407
        32.800


 115026492.353 6                  21578686.069    21578685.679
        40.600
 134608325.517 7                  25615112.427
        45.000


 113443375.158 6  88233769.327 6  21184751.841    21184752.680    21184757.599
        41.500          39.300


 25  1  1  3 23 30.0000000  0 26G09G06G19G12G11G20E27E03G25G05E34G29
                                R13E05E15R22R23S31S33E21E13R14E30R24
                                R08S35


 118731588.351 5  92518157.40743  22593871.203    22593871.5694   22593877.0484
        35.600          21.9004
 120361069.594 5  93787685.94441  22903917.447    22903916.3344   22903919.5184
        32.600          11.7004
 110080372.120 7  85776969.63546  20947572.688    20947572.1974   20947571.4804
        42.800          40.4004
 109179894.608 8  85075268.22345  20776237.739    20776237.4984   20776236.3544
        48.500          33.5004
 106373597.536 7  82888498.52146  20242223.548    20242222.3774   20242223.6664
        46.100          37.0004
 126327985.011 8                  24039391.124
        50.100


 113595718.705 7  88516177.62346  21616557.140    21616556.3584   21616559.9104
        45.300          37.1004
 114513169.019 6  89231027.51045  21791130.254    21791129.7494   21791132.4204
        39.400          33.7004
 133749359.722 6                  25451656.064
        36.400
 127613535.150 6  99439133.84844  24284052.197    24284051.8444   24284050.4204
        40.800          29.7004
 113566209.563 6                  21267286.708    21267285.115
        40.100


 123439657.670 8                  23489782.310
        49.200
 118010831.712 7  91786307.373 6  22107424.050    22107424.523    22107427.343
        42.700          40.900
 107330834.727 8                  20064319.604    20064320.352
        50.800
 198906973.153 6                  37850734.431
        40.100
 202054160.513 7                  38449628.937
        46.700
 140356429.945 6                  26708943.197
        38.300
 135910735.907 5                  25862949.896
        30.300
 115010666.981 7  89452832.519 6  21575725.513    21575726.480    21575730.988
        43.000          40.300
 134649233.367 7                  25622897.699
        42.800
 117607681.314 7  91472681.776 7  21993229.688    21993228.680    21993234.979
        44.100          42.100
 113402486.249 6  88201966.829 6  21177117.054    21177117.630    21177122.286
        41.000          41.200


 25  1  1  3 23 45.0000000  0 28G09G06G19G12G11G20E27E03G25G05E34G29
                                R13E05E15R22R23S31S33R07R12E21E13R14
                                E30R24R08S35


 118769035.209 5  92547336.77943  22600998.512    22600998.9504   22600999.2474
        32.300          22.2004
 120403695.533 5  93820937.96742  22912031.014    22912030.6664   22912032.4724
        34.500          14.0004
 110101240.445 7  85793230.65246  20951543.353    20951542.8264   20951543.1574
        46.900          40.9004
 109193670.653 8  85086002.76945  20778858.823    20778858.5914   20778858.7194
        48.000          34.8004
 106364257.662 7  82881220.72046  20240445.742    20240444.5664   20240446.5494
        46.000          36.6004
 126333856.784 8                  24040508.248
        50.100
 144984556.086 5                  27589644.200
        34.200
 113580917.933 7  88504644.54446  21613740.854    21613740.0724   21613743.2354
        45.700          36.7004
 114467139.990 6  89195160.72345  21782372.458    21782371.9764   21782373.6254
        39.700          33.6004
 133778330.439 6                  25457169.771
        39.600
 127566511.786 6  99402492.28944  24275104.006    24275103.6764   24275102.7174
        39.400          29.9004
 113612789.083 6                  21276005.305    21276005.705
        38.300


 123441767.240 8                  23490183.586
        50.000
 118046254.629 6  91813858.535 6  22114057.923    22114059.276    22114062.507
        41.800          41.300
 107336753.764 8                  20065425.707    20065425.858
        50.300
 198906968.567 7                  37850729.333
        42.400
 202054143.894 8                  38449630.699
        48.500
 115216317.611 6                  21523372.382
        36.000
 126715590.183 6                  23721416.495    23721417.533
        36.500
 140324065.435 6                  26702785.014
        38.800
 135884366.418 6                  25857937.818
        37.500
 114995033.651 7  89440673.382 6  21572790.628    21572789.966    21572797.702
        44.200          41.200
 134690191.614 7                  25630690.478
        44.200
 117573839.219 7  91446360.154 7  21986904.501    21986903.221    21986907.065
        44.000          44.000
 113361739.187 6  88170274.732 6  21169512.913    21169509.795    21169513.055
        41.800          41.000


 25  1  1  3 24  0.0000000  0 26G09G06G19G12G11G20E27E03G25G05E34G29
                                R13E05E15R22R23S31S33R07E21E13E30R24
                                R08S35


 118806513.105 4  92576502.39243  22608125.543    22608125.7754   22608128.9904
        28.100          18.3004
 120446381.984 6  93854200.11642  22920151.412    22920150.7334   22920155.8634
        38.200          12.7004
 110122257.766 7  85809607.78246  20955542.466    20955541.9304   20955542.6624
        47.700          41.1004
 109207515.951 8  85096791.31045  20781493.672    20781493.4364   20781493.4084
        48.400          34.3004
 106355054.585 7  82874049.54446  20238693.778    20238692.5894   20238695.0144
        44.500          36.2004
 126339838.438 8                  24041646.668
        49.500


 113566269.920 7  88493230.51045  21610953.424    21610952.6554   21610954.1684
        44.100          34.2004
 114421205.415 7  89159367.59744  21773629.291    21773628.8354   21773630.1004
        43.800          24.4004
 133807312.625 6                  25462684.210
        37.400
 127519491.783 6  99365853.38245  24266157.236    24266156.9324   24266156.5874
        40.600          33.2004
 113659496.808 5                  21284754.150    21284751.166
        33.000


 123443922.567 8                  23490593.590
        49.300
 118081700.774 6  91841427.823 7  22120697.562    22120695.852    22120703.559
        38.800          43.200
 107342728.705 8                  20066543.195    20066543.388
        51.500
 198906967.642 7                  37850730.532
        42.000
 202054130.138 7                  38449629.890
        43.100
 115228048.142 6                  21525562.897    21525552.937
        40.200
 140291772.182 6                  26696637.438
        41.100
 135858035.956 5                  25852929.873
        31.900
 134731203.912 7                  25638496.550
        44.400
 117540027.743 6  91420062.403 7  21980582.105    21980577.628    21980583.936
        37.100          44.100
 113321138.407 7  88138696.299 7  21161929.940    21161932.201    21161933.467
        42.400          44.600
 200860902.423 6                  38222556.138
        40.600
 25  1  1  3 24 15.0000000  0 27G09G06G19G12G11G20E27E03G25G05E34G29
                                R13E05E15R22R23S31S33R07E21E13R14E30
                                R24R08S35




 120489122.538 6  93887504.54142  22928286.403    22928285.5544   22928289.5484
        37.300          16.0004
 110143417.340 7  85826095.74846  20959569.828    20959569.2874   20959568.9784
        44.900          39.4004
 109221423.883 7  85107628.67045  20784140.374    20784140.1424   20784140.7384
        47.100          35.4004
 106345981.805 7  82866979.83146  20236967.994    20236966.8184   20236968.4274
        44.300          36.0004
 126345923.424 8                  24042804.605
        48.800


 113551768.263 7  88481930.50245  21608193.983    21608193.2014   21608193.3264
        42.700          31.9004
 114375359.199 7  89123643.34744  21764907.673    21764907.2674   21764899.4944
        43.600          25.1004
 133836299.555 5                  25468199.380
        35.500
 127472468.718 7  99329212.09345  24257209.183    24257208.9154   24257209.2194
        43.600          33.2004
 113706325.280 6                  21293524.546    21293523.756
        40.100


 123446117.032 8                  23491011.661
        49.800
 118117163.499 7  91869009.926 7  22127340.562    22127341.703    22127349.513
        43.200          42.500
 107348752.758 8                  20067669.066    20067669.428
        51.000
 198906963.920 7                  37850728.810
        42.700
 202054113.809 7                  38449622.927
        46.900
 115239987.226 7  89631070.567 5  21527782.812    21527782.207    21527791.860
        43.000          35.900
 140259543.893 7                  26690506.267
        42.000
 135831738.155 6                  25847921.146
        39.300
                  89416807.815 6                  21567028.307    21567042.160
                        36.600
 134772263.707 7                  25646309.532
        42.000
 117506240.481 6  91393783.445 7  21974258.572    21974257.808    21974266.593
        40.800          44.100
 113280677.735 6  88107226.883 7  21154368.545    21154369.820    21154377.114
        40.200          45.900
 200860932.131 6                  38222571.252
        40.000
 25  1  1  3 24 30.0000000  0 26G09G06G19G12G11G20E27E03G25G05E34G29
                                R13E05E15R22R23S31S33R07E21E13E30R24
                                R08S35




 120531917.375 5  93920851.20442  22936428.564    22936427.4734   22936433.6874
        34.700          17.1004
 110164719.343 7  85842694.68646  20963623.623    20963623.0564   20963622.4994
        43.400          38.9004
 109235394.621 7  85118514.97646  20786799.240    20786799.0174   20786799.4854
        47.800          36.6004
 106337039.625 7  82860011.90146  20235266.265    20235265.1034   20235266.5724
        46.500          36.0004
 126352112.074 8                  24043982.177
        48.300


 113537413.517 7  88470744.98145  21605461.148    21605460.3884   21605460.9054
        42.300          30.9004
 114329601.846 6  89087988.31344  21756198.131    21756197.7604   21756192.7624
        41.800          28.5004
 133865291.612 6                  25473717.517
        38.400
 127425442.829 6  99292568.59245  24248260.993    24248260.7484   24248261.1404
        41.300          33.9004
 113753274.308 6                  21302315.382    21302314.219
        39.900


 123448350.871 8                  23491436.267
        48.600
 118152643.082 6  91896605.155 7  22133988.685    22133989.302    22133994.214
        41.200          42.700
 107354826.103 8                  20068804.283    20068804.093
        50.000
 198906958.148 7                  37850734.592
        44.800
 202054094.474 7                  38449617.986
        44.800
 115252119.903 7  89640507.106 6  21530049.655    21530049.306    21530059.822
        46.300          40.500
 140227381.103 7                  26684385.697
        44.200
 135805473.402 6                  25842925.348
        39.900
 134813371.028 6                  25654131.560
        41.900
 117472477.461 6  91367523.227 7  21967944.375    21967944.570    21967951.159
        38.100          42.000
 113240357.966 6  88075867.079 7  21146841.742    21146841.669    21146847.331
        41.800          45.800
 200860959.163 5                  38222574.754
        35.400
 25  1  1  3 24 45.0000000  0 26G06G19G12G11G20E27E03G25G05E34G29R13
                                E05E15R22R23S31S33R07E21E13R14E30R24
                                R08S35
 118919147.661 5  92664263.23743  22629535.502    22629535.0374   22629551.4384
        35.000          20.0004
 120574770.812 4  93954243.49342  22944584.539    22944583.4174   22944588.0804
        26.500          13.7004
 110186167.921 7  85859407.86746  20967704.809    20967704.2064   20967703.7894
        44.800          38.4004
 109249432.476 7  85129453.55146  20789469.511    20789469.2974   20789470.8904
        47.900          37.5004
 106328232.367 7  82853149.10146  20233590.426    20233589.2504   20233590.5904
        46.400          36.8004
 126358408.789 8                  24045179.825
        48.000


 113523210.141 7  88459677.43245  21602758.573    21602757.8404   21602756.9644
        44.100          31.6004
 114283938.043 7  89052406.21745  21747509.499    21747509.1694   21747506.3404
        45.900          32.3004
 133894292.967 6                  25479236.571
        37.800
 127378418.976 6  99255926.67245  24239312.176    24239311.9404   24239313.0934
        37.700          32.6004
 113800347.768 6                  21311130.971    21311129.764
        41.000


 123450628.384 7                  23491870.374
        47.600
 118188143.956 6  91924216.957 7  22140640.193    22140643.407    22140645.596
        41.600          42.400
 107360953.196 8                  20069950.003    20069950.009
        49.300
 198906953.845 7                  37850730.080
        44.100
 202054078.043 7                  38449614.118
        44.400
 115264451.001 7  89650097.973 6  21532352.121    21532351.892    21532361.487
        43.600          39.200
 140195288.403 7                  26678278.182
        42.600
 135779245.894 6                  25837932.894
        41.900
 114934494.307 7  89393506.976 6  21561415.103    21561415.625    21561422.695
        46.100          38.400
 134854530.012 7                  25661964.462
        42.900
 117438743.291 6  91341285.486 6  21961636.664    21961635.414    21961642.447
        39.200          40.000
 113200184.100 7  88044620.717 7  21139341.044    21139341.730    21139345.781
        43.200          46.100
 200860988.961 5                  38222592.189
        32.200
 25  1  1  3 25  0.0000000  0 25G06G12G11G20E27E03G25G05E34G29R13E05
                                E15R22R23S31S33R07E21E13R14E30R24R08
                                S35
 118956689.831 5  92693516.78642  22636716.089    22636715.6024   22636691.0684
        32.300          16.4004
 110207764.900 7  85876236.68346  20971814.044    20971813.3964   20971813.3454
        44.300          37.0004
 109263539.309 7  85140445.87846  20792153.960    20792153.7414   20792155.3574
        47.500          37.7004
 106319562.205 8  82846393.14246  20231941.106    20231939.9304   20231940.8934
        48.100          38.3004
 126364815.585 7                  24046399.166
        47.200


 113509160.290 7  88448729.52545  21600084.394    21600083.6974   21600083.2474
        44.000          33.5004
 114238370.372 7  89016898.93146  21738839.257    21738838.8954   21738838.3154
        47.000          37.3004
 133923305.806 6                  25484759.028
        40.200
 127331399.198 6  99219287.92345  24230363.856    24230363.5934   24230365.7434
        37.300          31.4004
 113847547.465 6                  21319969.329    21319968.400
        40.400


 123452951.507 7                  23492312.379
        47.700
 118223668.409 6  91951847.033 6  22147292.295    22147294.709    22147299.156
        39.300          40.200
 107367136.293 7                  20071104.805    20071104.779
        47.300
 198906953.748 7                  37850726.346
        42.500
 202054064.759 7                  38449618.447
        45.300
 115276982.035 7  89659844.357 6  21534691.833    21534691.516    21534699.520
        42.500          36.600
 140163268.057 7                  26672184.687
        43.200
 135753057.764 6                  25832949.765
        41.400
 114919828.959 7  89382100.594 6  21558661.768    21558661.566    21558669.454
        42.200          40.100
 134895742.630 7                  25669806.633
        42.800
 117405040.016 7  91315071.780 6  21955338.437    21955335.596    21955340.468
        43.900          39.300
 113160158.740 6  88013489.900 7  21131866.759    21131865.535    21131870.324
        41.800          45.300
 200861021.802 5                  38222594.961
        34.100
 25  1  1  3 25 15.0000000  0 27G09G06G12G11G20E27E03G25G05E34G29R13
                                E05E15R22R23S31S33R07R12E21E13R14E30
                                R24R08S35


 118994247.339 5  92722782.58543  22643819.309    22643819.0374   22643835.0804
        30.700          20.7004
 110229503.988 7  85893176.26746  20975951.274    20975950.6314   20975950.3874
        44.200          37.2004
 109277708.878 7  85151487.09246  20794850.711    20794850.5014   20794851.2814
        47.700          36.5004
 106311022.815 7  82839739.09246  20230315.873    20230314.6934   20230316.3164
        47.500          39.2004
 126371326.331 7                  24047638.687
        47.600


 113495257.968 7  88437896.58045  21597439.094    21597438.4284   21597438.3494
        43.000          34.9004
 114192892.870 7  88981461.93246  21730184.618    21730184.2524   21730185.5014
        45.700          39.5004
 133952323.790 6                  25490281.521
        41.000
 127284377.624 6  99182647.80045  24221416.480    24221416.2264   24221417.2884
        40.700          32.4004
 113894866.290 6                  21328829.479    21328828.129
        39.200


 123455314.042 7                  23492761.636
        47.400
 118259209.961 6  91979490.389 6  22153957.259    22153956.062    22153955.434
        39.800          38.200
 107373369.198 7                  20072269.913    20072269.699
        47.500
 198906951.364 7                  37850730.196
        42.100
 202054049.621 7                  38449612.611
        43.600
 115289706.915 6  89669741.406 5  21537072.478    21537071.699    21537071.689
        41.400          32.300
 127107509.717 4                  23794782.132
        26.000
 140131314.208 6                  26666104.084
        40.600
 135726902.817 7                  25827973.584
        43.900
 114905354.539 7  89370842.730 6  21555946.088    21555946.084    21555953.753
        42.400          38.900
 134937002.486 7                  25677658.316
        44.400
 117371361.368 7  91288877.368 6  21949038.396    21949036.555    21949040.583
        47.400          36.700
 113120276.129 6  87982470.121 7  21124416.734    21124417.971    21124421.862
        41.900          43.700
 200861052.268 5                  38222600.653
        35.100
 25  1  1  3 25 30.0000000  0 27G09G06G19G12G11G20E27E03G25G05E34G29
                                R13E05E15R22R23S31S33R07E21E13R14E30
                                R24R08S35


 119031818.448 5  92752058.80244  22650979.714    22650979.4734   22650984.0194
        34.600          26.8004
 120703495.422 5  94054691.83042  22969113.174    22969112.7724   22969115.9004
        33.000          12.8004
 110251382.707 7  85910224.62646  20980114.168    20980113.5294   20980113.6784
        44.800          37.9004
 109291938.993 7  85162575.46645  20797558.837    20797558.6144   20797558.6604
        46.700          35.2004
 106302612.306 8  82833185.47646  20228716.191    20228715.0334   20228715.4534
        48.000          38.9004
 126377938.966 8                  24048897.103
        48.300


 113481501.236 7  88427177.04146  21594822.285    21594821.6154   21594821.8604
        45.500          38.0004
 114147503.457 7  88946093.54446  21721547.385    21721547.0104   21721548.5624
        46.100          39.6004
 133981344.904 6                  25495802.566
        39.700
 127237352.372 6  99146004.75845  24212467.184    24212466.8984   24212467.7254
        41.100          31.1004
 113942301.875 6                  21337715.210    21337712.697
        41.400


 123457713.844 8                  23493218.340
        48.600
 118294766.433 6  92007145.470 6  22160611.461    22160609.989    22160615.411
        37.100          37.400
 107379649.626 8                  20073443.861    20073444.188
        48.000
 198906944.890 6                  37850728.582
        41.100
 202054030.090 7                  38449605.949
        46.100
 115302623.190 6                  21539482.736    21539484.300
        40.300
 140099424.841 7                  26660035.513
        42.000
 135700779.012 6                  25823002.183
        40.800
 114891069.217 7  89359731.927 6  21553268.979    21553267.738    21553274.410
        42.000          41.500
 134978307.334 7                  25685518.428
        44.700
 117337705.373 8  91262700.468 6  21942743.742    21942743.408    21942746.425
        48.300          38.600
 113080534.816 6  87951560.251 6  21116996.288    21116994.465    21116998.343
        39.100          38.100
 200861079.467 6                  38222601.275
        38.200
 25  1  1  3 25 45.0000000  0 27G09G06G19G12G11G20E27E03G25G05E34G29
                                R13E05E15R22R23S31S33R07E21E13R14E30
                                R24R08S35


 119069412.044 5  92781352.51644  22658133.176    22658132.9754   22658136.7194
        34.900          24.8004
 120746577.021 6  94088261.84242  22977310.299    22977309.8214   22977312.9434
        37.300          15.8004
 110273410.108 7  85927388.84946  20984306.028    20984305.4294   20984305.9764
        42.200          36.6004
 109306238.503 8  85173717.93246  20800280.040    20800279.8264   20800279.0704
        48.000          36.4004
 106294339.509 8  82826739.16046  20227141.809    20227140.6564   20227140.5164
        49.200          38.5004
 126384662.428 8                  24050176.226
        48.600


 113467899.154 7  88416578.04346  21592233.478    21592232.7944   21592233.2604
        44.500          37.6004
 114102211.876 7  88910801.44246  21712928.004    21712927.6154   21712929.9084
        45.200          39.4004
 134010377.944 6                  25501327.730
        40.800
 127190332.334 6  99109365.83445  24203520.004    24203519.7274   24203518.7784
        40.600          32.1004
 113989862.561 6                  21346620.779    21346618.528
        39.200


 123460159.760 8                  23493683.321
        48.900
 118330347.065 5  92034819.333 5  22167274.052    22167272.814    22167278.938
        30.300          33.300
 107385986.677 8                  20074628.068    20074628.766
        48.500
 198906943.390 7                  37850733.930
        42.700
 202054015.215 7                  38449608.372
        45.100
 115315739.916 6                  21541935.466    21541936.784
        39.600
 140067609.295 6                  26653980.925
        40.500
 135674695.188 7                  25818039.730
        43.900
 114876982.227 7  89348775.372 7  21550628.723    21550628.600    21550632.866
        45.700          43.200
 135019665.907 7                  25693388.667
        43.600
 117304080.975 8  91236548.258 6  21936454.818    21936454.746    21936458.273
        48.200          39.500
 113040944.244 6  87920767.639 6  21109602.874    21109602.211    21109605.816
        40.700          36.100
 200861110.975 6                  38222606.234
        38.700
 25  1  1  3 26  0.0000000  0 27G09G06G19G12G11G20E27E03G25G05E34G29
                                R13E05E15R22R23S31S33R12E21E13R14E30
                                R24R08S35


 119107020.499 5  92810657.80943  22665287.716    22665287.5824   22665293.7884
        34.200          21.9004
 120789712.006 6  94121873.51843  22985519.570    22985518.7254   22985520.2584
        41.200          18.2004
 110295578.649 7  85944663.05346  20988525.292    20988524.7114   20988525.2964
        42.800          37.1004
 109320599.870 7  85184908.56646  20803012.634    20803012.3934   20803011.6574
        47.300          36.0004
 106286196.962 8  82820394.31646  20225592.065    20225590.9074   20225590.5094
        50.400          39.4004
 126391489.279 8                  24051475.199
        48.600


 113454444.492 7  88406093.90646  21589672.401    21589671.7224   21589672.8634
        42.800          36.8004
 114057010.679 7  88875579.73746  21704326.463    21704326.0574   21704328.1884
        46.300          39.6004
 134039415.428 6                  25506853.442
        41.500
 127143310.382 7  99072725.41845  24194572.231    24194571.9634   24194569.9664
        44.700          34.1004
 114037540.548 6                  21355547.996    21355547.996
        39.500


 123462644.265 7                  23494156.209
        47.400
                  92062506.200 6                                  22173948.403
                        36.200
 107392372.779 7                  20075821.400    20075821.840
        46.800
 198906938.982 7                  37850725.465
        42.500
 202053998.417 7                  38449598.240
        46.100
 127303221.060 6  99013576.464 5  23831420.079    23831422.014    23831420.212
        39.800          31.600
 140035860.281 7                  26647939.203
        42.300
 135648643.989 7                  25813081.814
        42.300
 114863085.873 6  89337967.088 7  21548016.630    21548016.967    21548025.624
        40.000          42.400
 135061070.642 6                  25701267.102
        41.700
 117270480.741 7  91210414.782 7  21930170.604    21930169.282    21930177.123
        46.300          43.300
 113001497.527 7  87890086.878 6  21102234.847    21102236.045    21102241.970
        42.100          38.400
 200861139.608 5                  38222625.905
        34.400
 25  1  1  3 26 15.0000000  0 27G09G06G19G12G11G20E27E03G25G05E34G29
                                R13E05E15R22R23S31S33R12E21E13R14E30
                                R24R08S35


 119144646.448 6  92839976.88342  22672447.254    22672446.9914   22672453.7914
        37.100          12.0004
 120832903.533 6  94155529.19643  22993738.640    22993737.3754   22993738.5234
        37.200          18.0004
 110317890.814 7  85962049.13546  20992770.956    20992770.3754   20992771.8944
        44.500          36.8004
 109335025.727 7  85196149.47846  20805758.141    20805757.9054   20805757.2824
        46.800          37.0004
 106278187.577 8  82814153.24946  20224068.135    20224066.9954   20224066.2224
        50.200          39.5004
 126398422.334 8                  24052794.406
        48.200


 113441140.156 6  88395726.89346  21587141.509    21587140.7854   21587141.5084
        39.600          36.8004
 114011903.222 7  88840431.09146  21695741.608    21695741.2024   21695744.0904
        44.600          37.2004
 134068460.140 6                  25512380.275
        38.800
 127096289.499 7  99036085.83945  24185623.681    24185623.4004   24185622.2094
        43.300          34.4004
 114085337.906 6                  21364499.787    21364501.249
        41.400


 123465170.152 7                  23494636.566
        47.000
 118401667.479 6  92090208.162 5  22180617.975    22180616.923    22180622.443
        37.200          35.000
 107398810.769 8                  20077026.561    20077026.884
        48.100
 198906934.540 7                  37850723.824
        42.700
 202053981.013 7                  38449599.434
        45.300
 127368430.992 6  99064295.285 4  23843625.476    23843626.714    23843627.670
        39.000          29.700
 140004180.798 7                  26641910.559
        43.000
 135622628.190 7                  25808131.258
        42.400
 114849383.343 7  89327309.544 6  21545448.924    21545450.229    21545453.686
        42.000          39.800
 135102524.120 6                  25709155.048
        40.000
 117236907.593 7  91184302.334 7  21923891.618    21923891.379    21923899.596
        44.600          44.900
 112962197.703 6  87859520.417 6  21094896.083    21094896.646    21094902.656
        38.900          36.900
 200861204.984 6                  38222617.131
        36.300
 25  1  1  3 26 30.0000000  0 28G09G06G19G12G11G20E27E03G25G05E34G29
                                R13E05E15R22R23S31S33R07R12E21E13R14
                                E30R24R08S35


 119182289.429 5  92869309.40942  22679611.572    22679611.4524   22679617.8714
        34.400          15.1004
 120876150.975 6  94189228.50743  23001970.591    23001969.3844   23001968.0084
        38.100          18.0004
 110340346.059 7  85979546.69346  20997044.227    20997043.6604   20997044.9454
        46.100          36.3004
 109349515.636 7  85207440.30446  20808514.897    20808514.6694   20808515.0704
        46.700          37.0004
 106270310.976 8  82808015.64546  20222569.200    20222568.0784   20222568.1214
        49.400          39.3004
 126405461.251 8                  24054134.583
        48.500


 113427985.899 6  88385476.79946  21584637.842    21584637.1274   21584639.2114
        41.400          39.0004
 113966889.125 7  88805355.19146  21687177.009    21687176.6434   21687177.4274
        46.200          37.8004
 134097511.672 5                  25517908.169
        33.300
 127049269.475 6  98999446.93445  24176677.770    24176677.4934   24176675.2484
        38.900          33.8004
 114133253.895 6                  21373473.580    21373474.579
        40.600


 123467736.956 7                  23495125.078
        47.000
 118437303.455 6  92117925.068 5  22187293.138    22187293.864    22187299.622
        36.900          35.100
 107405300.368 7                  20078239.536    20078239.293
        47.900
 198906930.383 7                  37850722.322
        42.300
 202053964.208 7                  38449595.901
        45.700
 115356255.212 6  89721487.517 6  21549505.097    21549502.573    21549510.920
        39.400          36.400
 127433624.387 5                  23855832.792    23855829.441
        32.100
 139972570.763 7                  26635895.574
        43.600
 135596647.385 6                  25803186.457
        40.600
 114835874.564 7  89316802.680 5  21542917.138    21542918.280    21542917.332
        45.100          34.500
 135144025.779 6                  25717052.462
        39.900
 117203361.121 7  91158210.638 7  21917619.268    21917618.139    21917626.477
        45.800          45.200
 112923045.302 6  87829068.544 5  21087584.647    21087585.252    21087590.426
        38.700          35.200
 200861233.603 5                  38222643.478
        31.100
 25  1  1  3 26 45.0000000  0 28G09G06G19G12G11G20E27E03G25G05E34G29
                                R13E05E15R22R23S31S33R07R12E21E13R14
                                E30R24R08S35
 128056341.927 6                  24368313.050
        36.400
 119219953.109 6  92898657.71043  22686777.113    22686777.0424   22686787.3534
        36.000          22.3004
 120919457.832 5  94222974.06442  23010211.221    23010210.0284   23010210.1344
        34.000          17.7004
 110362947.817 7  85997158.45546  21001345.662    21001345.1044   21001344.0664
        46.700          36.3004
 109364073.113 7  85218783.79246  20811284.443    20811284.2244   20811285.6654
        46.100          36.2004
 106262570.643 8  82801984.23246  20221096.589    20221095.4674   20221095.3794
        49.900          38.3004
 126412609.618 8                  24055494.709
        49.700


 113414985.445 6  88375346.58146  21582163.644    21582162.9024   21582166.1084
        41.900          40.0004
 113921972.324 7  88770355.11046  21678630.159    21678629.8464   21678629.8134
        43.200          37.4004
 134126573.580 6                  25523439.478
        36.400
 127002254.305 5  98962811.82245  24167728.019    24167727.7654   24167729.2934
        35.800          31.3004
 114181291.421 6                  21382469.661    21382468.899
        39.100


 123470348.212 7                  23495621.916
        47.200
 118472962.292 5  92145659.743 5  22193973.368    22193972.917    22193980.713
        31.200          32.600
 107411845.449 8                  20079465.078    20079464.392
        49.100
 198906929.470 7                  37850729.029
        42.100
 202053950.264 7                  38449594.841
        45.200
                  89732298.088 6                                  21552104.815
                        37.500
 127498804.338 5                  23868038.093    23868040.185
        33.100
 139941034.038 7                  26629893.994
        42.400
 135570705.217 6                  25798249.716
        39.500
 114822562.943 7  89306449.242 6  21540415.972    21540416.072    21540423.790
        42.000          36.600
 135185579.131 6                  25724960.477
        39.100
 117169844.955 7  91132142.463 7  21911350.843    21911350.794    21911358.206
        47.700          44.600
 112884044.446 6  87798734.596 5  21080301.751    21080304.440    21080306.587
        40.200          35.500


 25  1  1  3 27  0.0000000  0 28G09G06G19G12G11G20E27E03G25G05E34G29
                                R13E05E15R22R23S31S33R07R12E21E13R14
                                E30R24R08S35
 128060932.431 5  99787752.27742  24369186.322    24369185.9654   24369188.6204
        30.500          12.1004
 119257634.059 6  92928019.48543  22693948.925    22693948.8544   22693958.6604
        37.900          22.3004
 120962820.881 5  94256763.31642  23018462.132    23018460.8944   23018462.0974
        33.400          13.5004
 110385692.894 7  86014881.90045  21005673.323    21005672.7564   21005669.8784
        47.100          35.5004
 109378694.775 7  85230177.27946  20814067.520    20814067.3284   20814067.9624
        46.400          36.0004
 106254963.498 8  82796056.60046  20219648.365    20219647.2304   20219647.2894
        50.200          38.8004
 126419864.230 8                  24056874.890
        49.500


 113402135.720 6  88365333.82346  21579718.533    21579717.7784   21579721.4414
        40.500          39.4004
 113877149.959 7  88735428.58145  21670100.354    21670100.0554   21670099.4104
        45.600          35.5004
 134155642.529 6                  25528972.460
        37.000
 126955240.561 6  98926177.79045  24158784.704    24158784.3914   24158783.0704
        41.200          31.6004
 114229447.013 6                  21391487.324    21391488.502
        40.100


 123473000.611 7                  23496126.575
        47.300
                                                  22200659.088

 107418442.188 7                  20080697.248    20080696.552
        47.900
 198906929.246 6                  37850735.741
        41.900
 202053936.616 7                  38449590.446
        43.900
 115384204.579 6  89743260.556 5  21554738.251    21554736.021    21554739.142
        41.600          35.800
 127563967.149 5  99216446.016 5  23880224.597    23880224.154    23880247.531
        31.400          31.800
 139909567.627 6                  26623905.548
        38.900
 135544798.465 6                  25793319.385
        40.200
 114809445.677 7  89296247.015 6  21537959.166    21537960.691    21537961.898
        44.700          39.100
 135227180.631 6                  25732877.469
        38.500
 117136355.883 8  91106095.444 7  21905088.624    21905087.195    21905095.117
        48.800          44.000
 112845192.176 6  87768516.260 6  21073045.326    21073046.393    21073051.455
        40.300          38.300
 200861266.480 6                  38222629.607
        38.500
 25  1  1  3 27 15.0000000  0 25G06G12G11G20E27E03G25G05E34G29R13E05
                                E15R22R23S31S33R07E21E13R14E30R24R08
                                S35
 119295329.281 6  92957392.29042  22701121.768    22701121.6524   22701131.6434
        39.300          17.8004
 110408577.917 8  86032714.36946  21010027.185    21010026.6044   21010024.3574
        48.200          36.1004
 109393377.691 7  85241618.54446  20816861.290    20816861.0984   20816862.5434
        46.700          37.7004
 106247486.748 8  82790230.57246  20218225.781    20218224.6644   20218224.8354
        49.000          38.3004
 126427222.248 8                  24058275.087
        49.800


 113389434.100 6  88355436.44746  21577302.820    21577302.0874   21577304.3734
        37.700          40.0004
 113832419.647 7  88700573.80046  21661588.424    21661588.1294   21661588.5094
        44.500          38.4004
 134184715.712 5                  25534503.283
        34.700
 126908225.842 6  98889543.02945  24149835.773    24149835.4164   24149837.4284
        41.600          33.6004
 114277716.859 6                  21400525.589    21400525.204
        38.700


 123475691.257 7                  23496639.796
        47.900


 107425088.306 7                  20081938.962    20081939.113
        46.800
 198906926.264 7                  37850730.840
        44.200
 202053920.870 6                  38449587.226
        40.200
 115398491.365 5  89754372.554 5  21557411.177    21557407.284    21557412.282
        34.700          35.800
 139878168.731 6                  26617930.803
        38.000
 135518924.150 6                  25788396.554
        41.700
 114796519.779 6  89286193.732 7  21535529.319    21535529.434    21535540.103
        41.400          42.000
 135268827.388 6                  25740803.870
        41.100
 117102891.117 8  91080067.296 7  21898834.508    21898834.185    21898838.830
        50.300          46.100
 112806486.296 7  87738411.646 6  21065819.972    21065821.029    21065823.507
        43.000          39.100


 25  1  1  3 27 30.0000000  0 26G06G19G12G11G20E27E03G25G05E34G29R13
                                E05E15R22R23S31S33R07E21E13R14E30R24
                                R08S35
 119333040.202 5  92986777.66743  22708297.499    22708297.3614   22708306.3974
        34.500          19.3004
 121049749.725 4                  23034998.435
        29.800
 110431604.147 7  86050656.83945  21014408.666    21014408.1034   21014406.6324
        45.400          33.2004
 109408123.138 7  85253108.49545  20819667.755    20819667.5634   20819668.8714
        45.700          34.9004
 106240141.735 8  82784507.19546  20216828.348    20216827.2224   20216827.5734
        49.800          38.5004
 126434685.037 8                  24059695.320
        50.500


 113376881.859 7  88345655.49646  21574912.642    21574911.9184   21574915.2834
        44.500          41.0004
 113787782.942 7  88665792.00146  21653094.518    21653094.2374   21653094.7694
        44.900          36.1004
 134213794.464 5                  25540037.066
        34.600
 126861211.889 7  98852908.79545  24140890.345    24140890.0324   24140891.0444
        43.700          35.0004
 114326102.171 6                  21409590.583    21409589.787
        40.400


 123478421.489 8                  23497158.942
        48.600
 118580049.379 6                  22214033.334    22214035.106
        36.300
 107431784.964 7                  20083191.450    20083190.944
        45.800
 198906921.296 7                  37850730.657
        42.200
 202053903.539 7                  38449581.234
        44.200
 115412972.052 5  89765635.373 6  21560108.383    21560107.647    21560112.248
        30.600          39.000
 139846839.276 6                  26611969.136
        40.500
 135493083.859 6                  25783478.450
        40.900
                  89276290.436 6                                  21533151.416
                        39.500
 135310520.624 7                  25748735.959
        42.100
 117069451.763 8  91054058.941 7  21892578.022    21892579.105    21892584.018
        51.400          44.100
 112767928.531 7  87708422.341 6  21058618.260    21058620.447    21058623.622
        45.400          41.400
 200861236.308 6                  38222635.814
        38.500
 25  1  1  3 27 45.0000000  0 26G09G06G12G11G20E27E03G25G05E34G29R13
                                E05E15R22R23S31S33R07E21E13R14E30R24
                                R08S35
 128075524.308 5                  24371961.286
        33.000
 119370768.826 5  93016176.62943  22715476.826    22715476.6664   22715484.6394
        32.200          21.5004
 110454773.774 7  86068711.11445  21018818.136    21018817.5604   21018816.8194
        46.400          34.7004
 109422933.301 7  85264648.86645  20822485.787    20822485.5824   20822486.9194
        43.200          33.6004
 106232930.686 8  82778888.20246  20215456.150    20215455.0194   20215455.7874
        49.200          39.1004
 126442254.878 8                  24061135.996
        50.300


 113364481.610 7  88335992.99447  21572552.486    21572551.7804   21572555.0534
        44.000          42.0004
 113743242.164 7  88631084.94246  21644618.682    21644618.3744   21644619.4664
        46.000          37.3004


 126814200.695 7  98816276.71645  24131944.084    24131943.7274   24131945.9564
        44.200          34.9004
 114374604.537 5                  21418672.654    21418670.154
        35.000


 123481193.463 8                  23497686.183
        48.200
 118615783.175 6  92256761.372 6  22220734.542    22220735.815    22220740.750
        37.200          38.700
 107438534.339 7                  20084453.037    20084452.277
        44.500
 198906918.217 6                  37850728.917
        41.300
 202053887.935 7                  38449582.401
        44.900
 115427648.293 6  89777050.331 6  21562848.829    21562846.561    21562854.752
        39.300          40.800
 139815581.473 7                  26606021.996
        42.200
 135467279.627 6                  25778566.789
        37.400
 114771249.714 6  89266539.173 6  21530791.500    21530789.205    21530792.586
        40.800          36.400
 135352262.226 7                  25756678.743
        45.100
 117036040.364 8  91028072.442 6  21886329.501    21886328.434    21886334.134
        48.100          40.700
 112729521.804 6  87678550.481 7  21051444.943    21051446.542    21051451.864
        41.600          43.800
 200861266.774 5                  38222646.528
        35.600
 25  1  1  3 28  0.0000000  0 27G09G06G19G12G11G20E27E03G25G05E34G29
                                R13E05E15R22R23S31S33R07E21E13R14E30
                                R24R08S35
 128080644.905 5  99803104.22642  24372934.134    24372934.3624   24372937.3114
        30.700          14.4004


 121136873.241 5  94392373.97742  23051573.403    23051573.2164   23051578.7644
        34.500          13.0004
 110478084.793 7  86086875.50346  21023253.944    21023253.4084   21023254.0644
        45.500          36.2004
 109437806.334 7  85276238.24345  20825316.745    20825316.4954   20825316.6024
        43.900          32.5004
 106225851.939 8  82773372.28846  20214109.118    20214107.9924   20214108.8054
        50.500          40.4004
 126449930.058 8                  24062596.379
        50.900


 113352231.734 7  88326447.66047  21570222.645    21570221.9124   21570224.4174
        45.200          43.8004
 113698796.154 7  88596451.71646  21636161.462    21636161.1814   21636162.0004
        44.500          37.5004


 126767190.915 7  98779645.78145  24122998.754    24122998.3794   24122998.4544
        46.400          34.0004
 114423221.591 5                  21427770.531    21427771.458
        33.500


 123484005.411 8                  23498221.675
        50.200
 118651535.565 5  92284568.832 6  22227428.640    22227429.713    22227436.124
        34.600          38.800
 107445334.591 7                  20085722.277    20085723.953
        43.100
 198906915.003 7                  37850723.936
        42.500
 202053871.590 7                  38449576.749
        45.900
 115442518.341 6  89788615.921 6  21565628.429    21565628.943    21565631.688
        41.700          41.000
 139784393.896 7                  26600087.087
        44.600
 135441509.860 6                  25773663.612
        39.700
 114758906.498 7                  21528473.259    21528473.433
        43.300
 135394050.499 6                  25764631.085
        40.600
 117002655.675 8  91002106.575 7  21880088.949    21880087.087    21880091.418
        48.600          42.200
 112691265.055 6  87648795.256 7  21044298.809    21044299.575    21044307.437
        40.300          43.900
 200861296.054 5                  38222677.333
        30.100
 25  1  1  3 28 15.0000000  0 27G09G06G19G12G11G20E27E03G25G05E34G29
                                R13E05E15R22R23S31S33R07E21E13R14E30
                                R24R08S35
 128085895.939 5  99807196.00841  24373933.657    24373933.6264   24373934.0894
        32.300          11.0004
 119446126.838 5  93074943.26943  22729842.356    22729842.6154   22729852.1644
        31.900          19.8004
 121180508.120 5  94426375.12042  23059878.525    23059878.5514   23059879.3344
        32.800          13.9004
 110501534.558 7  86105148.05746  21027714.978    21027714.4554   21027716.1494
        43.700          36.1004
 109452739.710 7  85287874.64745  20828158.131    20828157.8594   20828158.0014
        44.700          33.5004
 106218903.048 8  82767957.57846  20212786.621    20212785.5134   20212786.3314
        49.400          39.7004
 126457708.168 8                  24064076.648
        49.600


 113340129.878 7  88317017.65447  21567920.747    21567919.9964   21567922.3324
        47.000          44.9004
 113654442.925 7  88561890.76646  21627721.090    21627720.8494   21627722.2374
        44.800          38.1004
 134301112.228 5                  25556644.448
        30.700
 126720180.337 7  98743014.23545  24114052.511    24114052.1404   24114050.7244
        44.600          33.5004
 114471950.909 6                  21436903.535    21436902.430
        37.300


 123486854.859 8                  23498763.966
        50.700
 118687304.430 6  92312389.017 5  22234129.531    22234130.748    22234132.302
        39.100          33.300
 107452183.709 6                  20087000.865    20087003.619
        41.700
 198906908.124 7                  37850723.596
        42.800
 202053851.756 7                  38449576.467
        46.100
 115457580.094 6  89800330.590 7  21568445.727    21568445.797    21568447.120
        36.000          43.900
 139753274.446 7                  26594165.446
        44.400
 135415772.234 6                  25768764.346
        38.800
 114746754.856 7  89247465.806 6  21526194.597    21526193.634    21526201.782
        45.200          36.200
 135435882.765 6                  25772591.850
        38.400
 116969294.462 8  90976159.015 7  21873846.249    21873847.063    21873853.867
        48.800          42.900
 112653156.180 6  87619155.034 7  21037183.475    21037184.803    21037190.840
        41.700          44.200
 200861322.770 5                  38222667.187
        35.000
 25  1  1  3 28 30.0000000  0 28G09G06G19G12G11G20E27E03G25G05E34G29
                                R13E05E15R22R23S31S33R07R12E21E13R14
                                E30R24R08S35
 128091287.846 5  99811397.45941  24374959.826    24374959.6524   24374959.1554
        31.500           8.1004


 121224206.030 5  94460425.45942  23068193.970    23068193.5144   23068192.7964
        35.200          13.1004
 110525133.403 6  86123536.75845  21032208.590    21032208.0404   21032206.9814
        39.600          34.9004
 109467743.747 7  85299566.10545  20831014.530    20831014.2804   20831013.0114
        45.800          34.5004
 106212094.406 7  82762652.15546  20211491.041    20211489.9334   20211490.2004
        47.700          38.2004
 126465599.649 8                  24065578.171
        48.600


 113328186.664 8  88307711.25847  21565647.610    21565646.8324   21565649.8094
        48.000          45.2004
 113610193.159 7  88527410.45146  21619300.378    21619300.1464   21619302.2124
        46.600          39.1004
 134330222.231 5                  25562182.195
        34.000
 126673179.491 7  98706390.26445  24105109.612    24105109.2734   24105104.9844
        44.000          30.9004
 114520801.980 6                  21446050.221    21446051.111
        40.300


 123489752.166 8                  23499315.324
        50.700
 118723100.221 6  92340230.174 5  22240836.619    22240837.449    22240835.452
        38.100          30.100
 107459092.076 7                  20088295.255    20088295.972
        44.700
 198906908.923 7                  37850728.519
        42.200
 202053839.969 7                  38449570.784
        46.400
 115472843.540 4  89812202.173 6  21571292.123    21571295.370    21571295.928
        29.400          40.200
 127954489.119 5                  23953341.593
        33.000
 139722233.774 7                  26588257.664
        44.700
 135390077.000 6                  25763874.653
        37.300
 114734805.375 8  89238171.751 6  21523955.226    21523955.310    21523960.215
        48.200          39.900
 135477769.302 6                  25780562.410
        38.800
 116935967.795 7  90950238.332 7  21867612.322    21867612.422    21867621.865
        45.200          42.300
 112615206.266 6  87589638.506 7  21030097.084    21030097.751    21030103.945
        41.400          43.900
 200861357.066 6                  38222671.779
        37.000
 25  1  1  3 28 45.0000000  0 28G09G06G19G12G11G20E27E03G25G05E34G29
                                R13E05E15R22R23S31S33R07R12E21E13R14
                                E30R24R08S35
 128096808.885 4  99815699.46342  24376013.209    24376013.0934   24376008.5424
        29.300          12.9004
 119521705.191 6  93133853.01144  22744229.414    22744229.3304   22744234.0784
        38.300          24.0004
 121267954.897 6  94494515.49242  23076517.430    23076516.4564   23076517.2854
        39.000          15.8004
 110548869.331 7  86142032.30146  21036724.458    21036723.8464   21036724.3404
        42.100          37.4004
 109482806.540 7  85311303.34545  20833880.591    20833880.3634   20833879.1874
        47.000          34.9004
 106205414.176 7  82757446.80346  20210219.836    20210218.7324   20210218.3544
        45.900          36.2004
 126473592.637 8                  24067099.158
        48.300


 113316390.337 7  88298519.31247  21563402.487    21563401.6924   21563405.2644
        47.500          45.7004
 113566035.411 7  88493001.84446  21610897.379    21610897.1294   21610899.1574
        47.200          39.5004
 134359334.283 6                  25567724.256
        38.400
 126626176.744 7  98669764.79644  24096164.664    24096164.2984   24096159.6414
        44.300          28.5004
 114569762.334 6                  21455217.653    21455218.299
        41.200


 123492685.434 8                  23499873.795
        50.600
 118758910.828 6                  22247546.315
        40.300
 107466047.717 7                  20089595.484    20089596.043
        46.100
 198906906.218 6                  37850717.595
        41.800
 202053823.347 7                  38449569.952
        46.500
 115488296.570 6  89824221.286 6  21574182.516    21574185.720    21574183.734
        40.100          37.100
 128019514.119 6                  23965524.393    23965518.114
        36.500
 139691260.215 7                  26582362.691
        43.400
 135364412.373 6                  25758992.931
        39.800
 114723046.333 8  89229025.830 6  21521748.303    21521748.175    21521755.451
        49.700          41.700
 135519698.051 6                  25788541.044
        37.000
 116902663.661 7  90924335.129 7  21861385.560    21861385.473    21861393.834
        45.300          42.300
 112577403.859 7  87560236.654 7  21023039.670    21023041.978    21023045.028
        44.700          43.100
 200861386.420 5                  38222678.710
        35.100
 25  1  1  3 29  0.0000000  0 27G09G06G19G12G11G20E27E03G25G05E34G29
                                R13E05E15R22R23S31S33R07E21E13R14E30
                                R24R08S35
 128102461.971 5  99820104.39641  24377094.467    24377094.5604   24377084.0034
        31.900          10.9004
 119559513.926 5  93163314.32843  22751421.283    22751421.0334   22751423.0614
        34.900          20.7004
 121311757.450 6  94528647.32442  23084853.103    23084852.0794   23084853.1324
        38.600          16.8004
 110572744.843 6  86160636.58046  21041267.592    21041266.9934   21041268.0494
        40.400          38.0004
 109497930.667 8  85323088.37145  20836757.773    20836757.5324   20836757.3154
        48.900          35.7004
 106198865.108 7  82752343.64445  20208973.878    20208972.7614   20208971.5634
        43.300          34.2004
 126481689.874 7                  24068639.682
        47.200


 113304743.710 8  88289444.03847  21561186.360    21561185.5784   21561188.9994
        48.400          45.9004
 113521972.570 8  88458667.21646  21602512.821    21602512.5714   21602512.8084
        48.600          38.5004
 134388451.058 6                  25573264.371
        40.900
 126579174.991 7  98633140.15144  24087220.007    24087219.5744   24087216.7544
        43.300          26.7004
 114618834.401 6                  21464406.241    21464406.701
        37.100


 123495657.275 8                  23500438.980
        50.700


 107473053.347 7                  20090905.623    20090905.530
        45.200
 198906901.039 6                  37850717.041
        39.500
 202053805.846 7                  38449565.096
        45.300
 115503942.103 6  89836390.051 5  21577110.146    21577109.553    21577107.160
        39.700          35.000
 139660356.703 7                  26576482.372
        43.100
 135338781.074 6                  25754116.040
        40.200
 114711480.560 8  89220030.208 7  21519578.074    21519578.253    21519586.267
        48.200          42.800
 135561671.600 6                  25796528.056
        40.200
 116869384.790 7  90898451.484 6  21855163.107    21855162.334    21855169.943
        46.000          40.900
 112539752.196 7  87530952.124 7  21016008.434    21016010.088    21016013.303
        42.700          42.100
 200861414.572 5                  38222683.083
        34.100
 25  1  1  3 29 15.0000000  0 28G09G06G19G12G11G20E27E03G25G05E34G29
                                R13E05E15R22R23S31S33R07R12E21E13R14
                                E30R24R08S35


 119597341.106 5  93192790.02542  22758621.037    22758620.5234   22758619.2524
        30.700          14.1004
 121355617.407 6  94562823.81342  23093199.067    23093198.0574   23093199.5144
        38.300          13.8004
 110596763.695 7  86179352.56546  21045837.223    21045836.6604   21045839.0454
        42.000          37.5004
 109513119.962 8  85334924.19046  20839648.288    20839648.0344   20839647.8044
        49.000          36.0004
 106192451.118 6  82747345.73545  20207753.752    20207752.6394   20207751.0794
        40.000          32.9004
 126489895.228 8                  24070201.096
        48.300
 144164211.084 5                  27433533.812
        34.400
 113293250.863 8  88280488.56947  21558998.558    21558997.7854   21559001.8974
        49.600          45.8004
 113478008.925 8  88424409.88446  21594147.056    21594146.8064   21594143.8044
        48.900          37.9004
 134417576.391 6                  25578807.406
        41.900
 126532178.360 6  98596519.49544  24078277.106    24078276.6284   24078275.0294
        40.500          26.6004
 114668021.484 5                  21473621.008    21473613.464
        32.800


 123498671.583 8                  23501012.768
        50.400
 118830589.119 6  92423807.457 5  22260969.099    22260968.023    22260980.134
        39.100          33.100
 107480112.864 7                  20092224.402    20092223.067
        43.800
 198906898.870 6                  37850719.169
        41.500
 202053790.856 7                  38449562.556
        45.900
 115519783.965 6                  21580059.636    21580061.101
        40.700
                                                  23989848.217

 139629527.400 7                  26570615.930
        42.200
 135313187.007 6                  25749245.647
        41.900
 114700112.296 7  89211188.238 6  21517446.016    21517445.406    21517452.847
        47.800          41.500
 135603693.619 6                  25804525.407
        40.200
 116836135.117 7  90872590.584 6  21848947.340    21848947.830    21848952.014
        47.800          40.700
 112502255.726 6  87501788.242 6  21009001.467    21009003.145    21009010.541
        40.000          41.500
 200861445.332 5                  38222686.839
        32.200
 25  1  1  3 29 30.0000000  0 27G06G19G12G11G20E27E03G25G05E34G29R13
                                E05E15R22R23S31S33R07R12E21E13R14E30
                                R24R08S35
 119635184.655 5  93222278.50642  22765822.026    22765821.2534   22765819.6464
        33.900          12.3004
 121399532.857 5  94597043.6954   23101555.241    23101554.2264   23101556.0334
        35.700           5.7004
 110620923.607 7  86198178.48246  21050435.602    21050435.0524   21050436.6964
        42.400          39.3004
 109528372.363 8  85346809.18946  20842550.692    20842550.4424   20842550.6024
        50.500          36.4004
 106186170.194 7  82742451.51345  20206557.733    20206556.6074   20206556.1314
        42.000          34.3004
 126498206.813 8                  24071782.684
        48.000
 144127112.919 5                  27426475.716
        32.600
 113281909.974 8  88271651.51747  21556840.041    21556839.2594   21556843.3104
        49.300          45.7004
 113434142.773 7  88390228.50946  21585798.956    21585798.7244   21585794.9904
        47.200          37.2004
 134446708.395 6                  25584349.898
        39.800
 126485185.161 6  98559901.49944  24069335.220    24069334.7384   24069333.5014
        39.600          26.9004
 114717321.271 5                  21482846.909    21482847.413
        34.800
 135922557.237 5                  25865203.890
        35.000
 123501726.332 8                  23501593.673
        49.900
 118866458.927 6  92451706.174 6  22267689.532    22267687.060    22267699.588
        37.000          36.100
 107487224.520 7                  20093554.644    20093552.968
        45.100
 198906897.529 7                  37850726.301
        42.600
 202053775.664 7                  38449563.280
        44.900
                                                  21583048.333

 128214461.031 5                  24002006.475    24002009.894
        32.700
 139598770.627 7                  26564762.127
        42.700
 135287628.249 7                  25744381.477
        42.400
 114688939.395 8  89202498.166 7  21515351.468    21515351.515    21515356.479
        49.500          42.000
 135645762.075 7                  25812532.069
        43.000
 116802912.749 7  90846750.959 6  21842731.778    21842732.493    21842737.858
        47.800          40.900
 112464913.008 6  87472743.954 6  21002030.186    21002030.615    21002037.936
        40.800          40.200
 200861476.583 6                  38222692.335
        36.300
 25  1  1  3 29 45.0000000  0 28G09G06G19G12G11G20E27E03G25G05E34G29
                                R13E05E15R22R23S31S33R07R12E21E13R14
                                E30R24R08S35


 119673039.829 6  93251775.86242  22773024.772    22773023.9414   22773022.2544
        37.500          14.1004
 121443499.064 6  94631302.8134   23109923.329    23109922.3504   23109921.8264
        36.500           3.4004
 110645219.740 7  86217110.55546  21055059.910    21055059.3744   21055060.1434
        46.700          41.0004
 109543683.093 8  85358739.66446  20845463.862    20845463.6084   20845463.5604
        51.000          36.0004
 106180017.786 7  82737657.42445  20205386.849    20205385.7324   20205385.7294
        43.500          35.7004
 126506619.935 7                  24073383.952
        47.000
 144090029.082 5                  27419419.442
        31.600
 113270716.462 8  88262929.30847  21554710.293    21554709.5154   21554713.2624
        49.000          46.4004
 113390369.738 7  88356119.65145  21577469.692    21577469.4244   21577466.8434
        43.200          35.3004
 134475842.332 6                  25589892.879
        37.900
 126438190.890 6  98523282.64744  24060392.998    24060392.5254   24060390.5514
        41.500          26.8004
 114766728.344 5                  21492100.960    21492099.759
        33.800
 135907816.167 4                  25862395.480
        29.200
 123504816.809 8                  23502181.619
        49.200
 118902343.781 6  92479616.657 5  22274415.051    22274412.041    22274421.483
        40.300          34.600
 107494383.508 7                  20094891.815    20094891.450
        45.400
 198906891.287 6                  37850721.253
        41.300
 202053757.562 7                  38449556.797
        44.800
 115551970.991 6  89873827.791 5  21586084.814    21586084.229    21586090.882
        40.600          31.800
 128279395.763 4                  24014163.983    24014164.122
        28.400
 139568081.928 6                  26558922.269
        40.600
 135262100.099 7                  25739523.521
        43.700
 114677957.516 8  89193956.674 7  21513291.577    21513292.628    21513295.123
        50.600          42.200
 135687872.077 7                  25820544.028
        42.100
 116769712.927 7  90820928.900 6  21836523.403    21836522.380    21836527.892
        47.100          40.800
 112427719.679 7  87443815.855 6  20995083.962    20995085.041    20995091.887
        42.600          37.600
 200861503.408 6                  38222695.970
        38.200
 25  1  1  3 30  0.0000000  0 27G09G06G19G12G11G20E27E03G25G05E34G29
                                R13E05E15R22R23S31S33R07E21E13R14E30
                                R24R08S35


 119710911.124 6  93281285.97942  22780232.418    22780231.6634   22780228.8644
        38.900          16.3004
 121487520.465 5                  23118298.646
        33.300
 110669656.556 8  86236152.21247  21059709.322    21059708.7904   21059709.6924
        48.700          44.2004
 109559056.630 8  85370719.05145  20848389.116    20848388.8624   20848388.7304
        51.000          35.9004
 106173998.391 7  82732966.99046  20204241.855    20204240.7424   20204240.7524
        44.500          36.9004
 126515139.166 7                  24075004.984
        46.900
 144052964.342 4                  27412375.495
        27.500
 113259675.007 8  88254325.59347  21552609.663    21552608.8724   21552612.4364
        48.300          45.9004
 113346694.661 7  88322087.15745  21569158.788    21569158.4674   21569156.4264
        44.000          35.8004
 134504982.737 5                  25595438.766
        34.000
 126391200.249 6  98486666.61444  24051450.208    24051449.7754   24051447.4404
        41.200          24.3004
 114816246.842 6                  21501376.310    21501375.452
        39.500


 123507947.482 8                  23502777.649
        49.100
 118938248.347 6  92507542.516 5  22281136.136    22281136.963    22281149.884
        40.300          35.200
 107501594.365 7                  20096241.382    20096240.954
        46.400
 198906885.291 7                  37850722.608
        44.100
 202053738.740 7                  38449550.112
        44.900
 115568390.278 6                  21589153.191    21589151.655
        41.300
 139537466.055 6                  26553096.896
        39.800
 135236607.115 7                  25734672.795
        43.200
 114667171.419 7  89185567.439 6  21511266.736    21511266.200    21511271.213
        46.900          39.600
 135730028.043 7                  25828567.331
        43.400
 116736540.309 7  90795128.024 7  21830320.645    21830320.669    21830325.743
        47.400          43.300
 112390681.175 7  87415008.158 4  20988169.031    20988168.992    20988169.735
        42.000          28.900
 200861530.950 5                  38222705.598
        34.600
 25  1  1  3 30 15.0000000  0 25G09G06G12G11G20E27E03G25G05E34G29R13
                                E05E15R22R23S31S33R07E21E13R14E30R24
                                S35


 119748801.261 5  93310810.69642  22787442.153    22787441.4074   22787437.9114
        34.500          14.7004
 110694236.566 7  86255305.45347  21064387.109    21064386.5864   21064386.8354
        45.800          43.0004
 109574495.649 8  85382749.48046  20851327.518    20851327.2774   20851326.9714
        50.500          36.1004
 106168114.771 7  82728382.36646  20203121.139    20203120.0084   20203121.3044
        44.400          37.3004
 126523767.299 7                  24076646.898
        45.900


 113248788.608 8  88245842.72347  21550537.971    21550537.1674   21550540.6354
        48.400          46.1004
 113303120.597 6  88288133.33545  21560865.151    21560864.7804   21560865.5024
        41.900          35.1004
 134534132.298 5                  25600985.067
        30.400
 126344216.220 6  98450055.72743  24042511.484    24042510.9884   24042506.0334
        37.000          21.5004
 114865879.144 6                  21510670.125    21510671.329
        40.300


 123511121.110 8                  23503381.511
        50.100
 118974175.609 7  92535485.943 6  22287869.794    22287871.593    22287879.819
        43.000          38.600
 107508860.016 7                  20097599.335    20097598.441
        46.400
 198906883.480 6                  37850713.946
        41.400
 202053723.694 7                  38449551.149
        45.400
 115585005.736 6  89899495.568 5  21592256.502    21592255.739    21592262.714
        40.200          35.100
 139506926.118 6                  26547287.081
        40.400
 135211152.095 6                  25729828.096
        41.100
 114656583.731 7  89177332.550 6  21509280.175    21509278.989    21509284.346
        45.100          41.000
 135772232.523 7                  25836597.356
        42.500
 116703397.861 7  90769350.599 7  21824124.653    21824122.235    21824129.880
        45.200          45.600
 200861561.749 6                  38222706.443
        36.100
 25  1  1  3 30 30.0000000  0 25G09G06G12G11G20E27E03G25G05E34G29R13
                                E05E15R22R23S31S33R07E21E13R14E30R24
                                S35


 119786707.192 6  93340347.79342  22794654.702    22794654.0414   22794651.2294
        36.700          16.4004
 110718956.518 7  86274567.73147  21069091.838    21069091.3294   21069091.1164
        46.700          43.4004
 109589997.050 8  85394828.50045  20854277.677    20854277.4324   20854276.5564
        50.700          35.8004
 106162363.883 7  82723901.16046  20202026.770    20202025.6484   20202027.1344
        44.400          37.8004
 126532501.328 7                  24078308.492
        44.900


 113238054.266 8  88237478.32947  21548495.282    21548494.4784   21548497.7384
        48.200          46.0004
 113259644.822 6  88254256.13545  21552591.632    21552591.2034   21552592.8574
        40.900          34.0004
 134563287.997 5                  25606537.041
        33.400
 126297236.309 3  98413447.93742  24033568.107    24033567.4774   24033566.0884
        23.600          12.1004
 114915621.536 6                  21519986.775    21519987.226
        41.500


 123514334.606 8                  23503992.676
        50.000
 119010122.336 6  92563444.497 5  22294603.302    22294603.035    22294612.030
        40.900          32.500
 107516177.355 8                  20098966.404    20098966.252
        48.000
 198906881.764 6                  37850714.411
        41.700
 202053708.134 7                  38449548.457
        45.900
 115601814.315 6  89912568.951 6  21595396.532    21595394.680    21595402.374
        39.800          37.400
 139476459.265 6                  26541488.163
        40.000
 135185732.082 6                  25724992.038
        41.300
 114646191.788 7  89169249.869 7  21507333.035    21507331.767    21507335.488
        46.000          42.000
 135814482.382 6                  25844636.276
        38.600
 116670282.509 7  90743594.216 7  21817932.098    21817931.140    21817936.477
        47.200          45.800
 200861592.771 5                  38222721.678
        31.400
 25  1  1  3 30 45.0000000  0 26G09G06G12G11G20E27E03G25G05E34G29R13
                                E05E15R22R23S31S33R07E21E13R14E30R24
                                R08S35


 119824628.077 6  93369896.49643  22801869.879    22801869.3034   22801868.3434
        37.600          18.5004
 110743815.688 7  86293938.49247  21073821.857    21073821.3524   21073821.8464
        47.100          42.8004
 109605559.950 8  85406955.47045  20857239.303    20857239.0444   20857238.0224
        49.900          35.7004
 106156745.104 7  82719522.88546  20200957.228    20200956.1334   20200957.9114
        42.200          36.4004
 126541340.496 7                  24079990.706
        44.700
 143941902.378 5                  27391231.704
        32.400
 113227471.361 7  88229231.91947  21546481.382    21546480.5784   21546484.1984
        47.900          46.0004
 113216266.835 6  88220455.13145  21544337.316    21544336.8344   21544338.4164
        37.700          33.1004
 134592449.084 6                  25612085.139
        36.800
 126250243.137 6  98376826.21543  24024627.044    24024626.4364   24024626.9164
        40.100          18.1004
 114965472.712 6                  21529321.356    21529321.273
        40.400


 123517587.158 8                  23504611.947
        50.400
 119046087.891 6                  22301340.006    22301339.915
        39.900
 107523545.734 8                  20100343.247    20100344.522
        49.600
 198906878.688 7                  37850716.361
        43.900
 202053693.277 7                  38449539.317
        45.400
 115618815.380 6  89925792.024 6  21598572.448    21598572.514    21598580.115
        40.500          38.600
 139446064.950 6                  26535704.096
        41.100
 135160346.238 6                  25720159.750
        39.300
 114635994.679 7  89161318.798 7  21505419.410    21505420.511    21505423.346
        47.400          42.100
 135856776.541 5                  25852685.086
        33.400
 116637193.525 7  90717858.360 7  21811743.064    21811743.139    21811748.834
        46.300          44.900
 112280505.588 7                  20967594.837    20967597.328
        42.700
 200861622.917 5                  38222728.278
        34.400
 25  1  1  3 31  0.0000000  0 27G09G06G19G12G11G20E27E03G25G05E34G29
                                R13E05E15R22R23S31S33R07E21E13R14E30
                                R24R08S35
 128152512.100 5  99859092.72741  24386616.457    24386616.3504   24386610.2184
        30.500           9.1004
 119862562.854 6  93399456.06543  22809089.245    22809088.7494   22809088.1264
        36.500          19.6004
 121664139.656 5  94803244.11041  23151916.283    23151916.0024   23151920.0254
        35.900           8.2004
 110768812.785 7  86313416.74747  21078578.387    21078577.9144   21078578.0164
        46.500          42.0004
 109621183.386 8  85419129.59046  20860212.432    20860212.1644   20860211.5574
        50.800          36.9004
 106151257.418 6  82715246.76345  20199913.582    20199912.4914   20199913.7294
        40.600          35.3004
 126550283.867 7                  24081692.287
        45.300
 143904917.134 5                  27384195.700
        32.600
 113217039.137 7  88221102.92447  21544496.514    21544495.7234   21544499.3434
        47.100          46.5004
 113172986.262 7  88186730.03045  21536103.474    21536102.9924   21536101.6384
        43.400          35.4004
 134621614.626 6                  25617634.868
        39.200
 126203268.645 7  98340222.67443  24015689.814    24015689.2154   24015696.5764
        42.800          20.1004
 115015431.211 7                  21538678.105    21538676.395
        42.300


 123520877.805 8                  23505238.107
        50.900
 119082071.428 7                  22308083.917    22308083.779
        42.300
 107530964.224 8                  20101731.027    20101731.427
        49.800
 198906875.627 6                  37850714.783
        41.200
 202053676.400 7                  38449543.131
        46.800
 115636007.846 6  89939163.882 6  21601785.130    21601782.907    21601796.187
        41.000          40.800
 139415742.556 7                  26529933.835
        42.700
 135134993.640 5                  25715336.750
        35.500
 114625991.972 7  89153538.882 6  21503546.870    21503548.502    21503546.360
        44.800          41.900
 135899114.172 5                  25860741.378
        32.600
 116604129.949 7  90692142.256 7  21805559.927    21805561.147    21805565.143
        46.400          43.900
 112244090.443 5  87301058.473 6  20960794.683    20960794.345    20960799.152
        34.800          36.300
 200861652.632 6                  38222731.095
        38.000
 25  1  1  3 31 15.0000000  0 27G09G06G19G12G11G20E27E03G25G05E34G29
                                R13E05E15R22R23S31S33R07E21E13R14E30
                                R24R08S35


 119900514.049 6  93429028.34543  22816311.478    22816311.0584   22816311.4114
        36.300          22.8004
 121708436.777 5  94837761.33641  23160346.239    23160346.0114   23160350.7424
        33.300           9.0004
 110793950.208 7  86333004.35046  21083360.842    21083360.3824   21083361.1954
        44.300          40.8004
 109636869.819 8  85431352.77046  20863197.303    20863197.0354   20863197.0904
        51.300          37.2004
 106145903.440 7  82711074.84146  20198894.617    20198893.5264   20198895.0934
        42.100          36.0004
 126559334.014 7                  24083414.397
        44.500
 143867953.237 5                  27377162.767
        31.500
 113206760.234 7  88213093.40647  21542540.165    21542539.3744   21542543.3754
        47.600          46.1004
 113129805.858 6  88153083.01545  21527886.306    21527885.7974   21527883.2304
        40.700          34.0004
 134650787.126 6                  25623185.743
        37.900
 126156299.429 7  98303623.42343  24006751.450    24006751.2314   24006760.3254
        43.300          18.1004
 115065499.203 6                  21548050.614    21548050.745
        40.200


 123524209.047 8                  23505871.943
        50.000
 119118075.375 7                  22314827.921    22314827.988
        42.000
 107538435.544 8                  20103128.730    20103128.876
        50.800
 198906873.350 6                  37850712.587
        41.600
 202053661.565 7                  38449540.167
        45.700
 115653393.896 7  89952686.498 6  21605031.115    21605034.572    21605042.406
        42.500          37.700
 139385494.843 7                  26524178.103
        42.300
 135109676.714 4                  25710519.328
        28.600
 114616186.213 7  89145912.113 7  21501724.472    21501725.082    21501705.425
        42.000          43.000
 135941497.440 6                  25868806.690
        38.500
 116571094.521 7  90666448.029 6  21799385.190    21799383.797    21799385.526
        44.200          39.500
 112207833.197 6  87272858.274 6  20954029.702    20954028.342    20954027.949
        38.000          39.300


 25  1  1  3 31 30.0000000  0 25G09G06G12G11G20E27E03G25G05E34G29R13
                                E05E15R23S31S33R07E21E13R14E30R24R08
                                S35


 119938475.879 6  93458608.94744  22823535.752    22823535.3504   22823536.2294
        36.400          24.8004
 110819221.979 7  86352696.64146  21088170.557    21088170.1374   21088170.9034
        45.000          41.6004
 109652613.359 8  85443620.46046  20866192.988    20866192.7294   20866193.0724
        50.800          37.0004
 106140677.256 7  82707002.49645  20197899.545    20197898.4454   20197900.5514
        43.600          35.7004
 126568485.200 7                  24085156.432
        42.700
 143831005.357 4                  27370136.861
        25.100
 113196628.989 8  88205198.96147  21540611.971    21540611.2074   21540615.8064
        48.500          46.8004
 113086720.186 7  88119509.79945  21519686.875    21519686.3304   21519684.3314
        45.400          34.2004
 134679960.831 6                  25628737.645
        36.600
 126109329.974 7  98267023.64443  23997813.493    23997813.1634   23997828.3214
        42.400          20.5004
 115115670.054 7                  21557446.985    21557446.621
        43.300


 123527575.048 8                  23506512.471
        49.900
 107545953.756 8                  20104534.803    20104535.139
        52.200
 198906866.028 7                  37850722.630
        43.000
 202053641.446 7                  38449536.173
        46.700
 115670968.154 6  89966355.447 5  21608313.994    21608313.904    21608322.627
        39.600          33.900
 139355316.325 7                  26518434.969
        44.100


 114606571.405 6  89138434.171 7  21499892.117    21499892.678    21499901.966
        37.300          43.700
 135983920.565 5                  25876877.995
        35.200
 116538081.380 7  90640771.172 5  21793205.473    21793206.197    21793209.876
        42.800          34.700
 112171728.710 5  87244776.948 6  20947282.010    20947280.409    20947285.230
        33.600          39.700


 25  1  1  3 31 45.0000000  0 27G09G06G12G11G20E27E03G25G05E34G29R13
                                E05E15R22R23S31S33R07R12E21E13R14E30
                                R24R08S35


 119976457.953 5  93488205.38543  22830759.630    22830759.3354   22830765.7524
        33.800          23.8004
 110844637.657 7  86372501.07446  21093007.400    21093006.9894   21093007.7554
        43.400          41.3004
 109668423.598 8  85455940.12846  20869201.376    20869201.1134   20869201.5044
        50.400          36.0004
 106135588.685 7  82703037.41846  20196932.297    20196931.1974   20196931.7114
        46.000          36.4004
 126577747.030 7                  24086919.572
        44.900


 113186655.223 7  88197427.20447  21538714.000    21538713.2224   21538717.8354
        46.400          45.6004
 113043739.385 7  88086018.31345  21511508.359    21511507.8904   21511506.1134
        47.000          35.4004
 134709145.229 5                  25634293.566
        31.900
 126062370.037 7  98230431.57844  23988878.168    23988877.9054   23988895.1734
        43.700          24.2004
 115165953.441 7                  21566865.015    21566864.524
        42.400
 135793117.433 5                  25840571.786
        34.100
 123530985.430 7                  23507161.300
        47.800
 119190137.552 6                  22328327.524    22328325.857
        36.700
 107553528.651 8                  20105949.908    20105950.139
        52.200
 198906864.922 6                  37850711.867
        40.100
 202053627.031 7                  38449523.957
        45.000
 115688739.690 7                  21611637.373    21611636.579
        42.200
 128798084.331 5                  24111258.158
        32.700
 139325216.814 7                  26512707.437
        42.500


 114597157.852 7  89131112.524 7  21498129.089    21498127.536    21498136.936
        42.600          42.800
 136026393.044 6                  25884963.427
        38.000
 116505100.500 7                  21787043.261    21787045.638
        47.400
 112135782.671 5  87216822.113 6  20940569.576    20940568.901    20940571.759
        34.700          40.200
 200861887.670 6                  38222727.652
        36.100
