     2.11           OBSERVATION DATA    M (MIXED)           RINEX VERSION / TYPE
teqc  2019Feb25                         20260317 16:18:01UTCPGM / RUN BY / DATE
Linux 2.4.21-27.ELsmp|Opteron|gcc -static|Linux 64|=+       COMMENT
BIT 2 OF LLI FLAGS DATA COLLECTED UNDER A/S CONDITION       COMMENT
-Unknown-                                                   MARKER NAME
-Unknown-           -Unknown-                               OBSERVER / AGENCY
-Unknown-           -Unknown-           -Unknown-           REC # / TYPE / VERS
-Unknown-           -Unknown-                               ANT # / TYPE
        0.0000        0.0000        0.0000                  APPROX POSITION XYZ
        0.0000        0.0000        0.0000                  ANTENNA: DELTA H/E/N
     1     1                                                WAVELENGTH FACT L1/2
     7    L1    L2    C1    P1    P2    S1    S2            # / TYPES OF OBSERV
 SNR is mapped to RINEX snr flag value [0-9]                COMMENT
  L1 & L2: min(max(int(snr_dBHz/6), 0), 9)                  COMMENT
  2025     1     1     0     0    0.0000000     GPS         TIME OF FIRST OBS
    18                                                      LEAP SECONDS
                                                            END OF HEADER
 25  1  1  0  0  0.0000000  0 22G06G14G19G11E27G24G03E25E34S35E15R22
                                E36S31S33G17R12R11E02R10E30R21
 110909343.685 8  86422904.06647  21105339.593    21105339.3614   21105344.9324
        48.000          47.5004
 109887313.871 7  85626535.01946  20910845.009    20910844.8574   20910850.4914
        47.800          37.6004
 106933192.881 7  83324600.71946  20348693.734    20348692.4154   20348694.3944
        47.800          41.2004
 127148247.301 6  99076599.24442  24195509.903    24195510.5464   24195518.0014
        37.100          13.3004
 146757033.822 5                  27926936.057
        34.400
 120518162.924 6  93910325.50146  22933834.205    22933834.1034   22933842.8104
        40.800          36.6004




 124078048.762 7                  23611254.752
        46.900


 141377038.742 5                  26903150.483
        34.200
 106486845.078 8  82823147.481 7  19948567.277    19948567.190    19948572.979
        51.300          46.800
 128918154.772 6                  24532301.523
        37.000
 198904438.939 7                  37850269.905
        43.500
 202060732.743 7                  38450881.425
        45.700
 110011585.759 7  85723348.19046  20934498.606    20934498.2354   20934502.3664
        44.500          37.2004
 109509627.169 8  85174172.715 7  20500424.432    20500424.885    20500430.613
        48.400          44.600
 103641436.940 7  80609998.293 8  19395055.333    19395056.895    19395062.039
        47.700          49.500
 125013498.347 7                  23789266.052
        44.200
 123343826.942 5                  23138990.071    23138989.534
        32.800
 127012907.998 7                  24169740.626
        44.600
 106231777.527 7  82624705.748 6  19851938.952    19851938.905    19851947.295
        47.700          40.200
 25  1  1  0  0 15.0000000  0 21G06G14G19G11E27G24G03E25E34S35E15R22
                                E36S31S33G17R12R11E02E30R21
 110874084.148 7  86395429.15648  21098629.712    21098629.4844   21098635.9784
        47.300          48.0004
 109915678.264 7  85648637.15246  20916243.096    20916242.9404   20916248.1834
        47.700          37.8004
 106922960.542 8  83316627.48146  20346746.918    20346745.6044   20346748.0624
        48.500          41.5004
 127093930.080 4  99034274.15941  24185178.054    24185179.0334   24185180.0844
        29.000           9.0004
 146718812.531 5                  27919662.275
        35.000
 120504527.104 6  93899700.24646  22931240.247    22931240.1224   22931248.5404
        39.200          36.2004




 124058679.612 7                  23607569.136
        47.800


 141331771.619 5                  26894537.108
        33.200
 106459285.740 8  82801712.469 7  19943403.749    19943404.085    19943410.276
        50.700          47.100
 128941643.514 6                  24536772.321
        39.900
 198904445.269 7                  37850269.185
        44.200
 202060728.899 7                  38450879.708
        44.600
 110029443.795 7  85737263.55446  20937897.295    20937896.9244   20937900.2904
        44.600          37.9004
 109465879.995 7  85140147.232 7  20492231.143    20492230.932    20492241.314
        44.300          44.300
 103664404.901 7  80627862.263 8  19399352.395    19399352.850    19399359.429
        47.800          48.400
 125029580.643 7                  23792325.949
        44.000
 126992530.419 7                  24165862.882
        43.800
 106264039.972 8  82649798.754 6  19857968.209    19857969.129    19857974.501
        49.500          38.200
 25  1  1  0  0 30.0000000  0 21G06G14G19G11E27G24G03E25E34S35E15R22
                                E36S31S33G17R12R11E02E30R21
 110838939.584 8  86368043.83048  21091942.124    21091941.9234   21091948.3494
        48.400          48.9004
 109944139.420 7  85670814.66946  20921659.060    20921658.8824   20921663.5284
        47.100          36.9004
 106912797.602 8  83308708.32547  20344812.661    20344811.3384   20344814.5104
        49.000          42.3004
 127039647.423 4  98991976.38441  24174866.869    24174867.4634   24174849.0934
        28.400           8.6004
 146680583.660 5                  27912387.824
        35.700
 120491037.075 6  93889188.58245  22928672.050    22928671.9304   22928681.6144
        36.300          35.2004




 124039405.886 8                  23603901.908
        48.500


 141286535.873 6                  26885928.580
        36.500
 106431866.718 8  82780386.606 7  19938266.360    19938266.558    19938273.947
        49.600          47.500
 128965212.569 7                  24541257.374
        42.000
 198904450.974 7                  37850267.705
        43.800
 202060725.845 7                  38450876.019
        43.600
 110047343.160 7  85751211.14546  20941303.442    20941303.0674   20941305.6674
        44.900          37.7004
 109422241.892 7  85106206.556 7  20484062.052    20484062.087    20484072.979
        46.500          45.800
 103687544.377 8  80645859.603 7  19403682.819    19403684.565    19403689.011
        49.500          47.100
 125045725.171 7                  23795397.795
        42.500
 126972197.118 7                  24161994.374
        45.800
 106296410.655 8  82674975.996 6  19864017.953    19864019.601    19864024.749
        50.300          39.300
 25  1  1  0  0 45.0000000  0 23G06G14G19G11E27G24G03E25E34S35G30E15
                                R22E36S31S33G17R12R11E02R10E30R21
 110803909.667 8  86340747.83748  21085276.234    21085276.0474   21085281.5844
        49.200          48.8004
 109972696.798 7  85693067.16945  20927093.195    20927093.0214   20927097.4614
        46.800          35.5004
 106902703.666 8  83300842.95647  20342891.842    20342890.5194   20342893.3094
        50.200          42.3004
 126985399.942 5  98949705.80641  24164538.831    24164539.1754   24164525.1984
        33.700           9.0004
 146642346.745 5                  27905111.854
        35.100
 120477692.500 6  93878790.24745  22926132.000    22926131.9474   22926142.1484
        37.000          33.4004
 121275310.327 6  94500216.53041  23077925.739    23077925.4674   23077918.5444
        36.900           9.1004


 124020227.160 8                  23600252.448
        48.700




 141241331.165 6                  26877326.416
        39.200
 106404587.608 8  82759169.585 7  19933157.200    19933156.289    19933163.960
        49.100          47.400
 128988861.322 6                  24545757.471
        41.600
 198904456.092 7                  37850262.840
        43.000
 202060722.046 7                  38450874.441
        44.500
 110065283.292 7  85765190.50046  20944716.542    20944716.1404   20944718.1414
        44.000          36.5004
 109378713.101 7  85072350.902 7  20475916.400    20475916.114    20475923.832
        47.900          45.900
 103710854.859 8  80663989.958 7  19408045.351    19408045.792    19408051.705
        49.900          47.000
 125061931.405 7                  23798481.701
        42.700
 123526470.856 5                  23173252.072
        33.800
 126951907.645 7                  24158133.792
        46.300
 106328888.629 8  82700236.651 6  19870087.713    19870089.453    19870093.086
        50.600          39.000
 25  1  1  0  1  0.0000000  0 24G06G14G19G11E27G24G03E25E34S35G30E15
                                R22E36R23S31S33G17R12R11E02R10E30R21
 110768999.612 8  86313545.25948  21078632.772    21078632.5854   21078637.8354
        48.900          49.0004
 110001355.379 7  85715398.53245  20932545.817    20932545.6344   20932550.7974
        45.500          33.7004
 106892683.719 8  83293035.22947  20340984.886    20340983.5634   20340985.8224
        49.600          42.2004
 126931192.696 6  98907466.55541  24154222.472    24154222.6644   24154209.5324
        37.500           7.6004
 146604106.907 6                  27897834.437
        36.800
 120464498.344 5  93868509.15345  22923621.430    22923621.3414   22923631.3864
        33.500          32.0004
 121267967.489 5  94494494.79442  23076528.471    23076528.0424   23076524.6954
        31.000          12.5004


 124001148.484 8                  23596622.204
        48.200




 141196162.618 6                  26868731.278
        36.800
 106377453.531 8  82738065.343 7  19928074.756    19928074.209    19928080.150
        50.600          46.900
 129012594.563 6                  24550273.887
        41.800
 126134058.407 5                  23579433.563    23579432.200
        34.600
 198904466.259 6                  37850263.515
        41.700
 202060722.314 7                  38450879.020
        44.500
 110083269.098 7  85779205.45346  20948139.516    20948139.1014   20948140.1714
        44.900          36.8004
 109335298.838 8  85038584.304 7  20467789.810    20467788.452    20467797.364
        48.300          46.400
 103734341.225 8  80682257.092 7  19412440.709    19412441.603    19412447.565
        50.800          47.900
 125078204.486 7                  23801578.621
        43.300
 123587458.119 5                  23184691.138    23184692.334
        32.400
 126931667.208 7                  24154281.715
        45.800
 106361478.600 8  82725584.379 6  19876179.915    19876181.109    19876182.582
        52.000          38.100
 25  1  1  0  1 15.0000000  0 24G06G14G19G11E27G24G03E25E34S35G30E15
                                R22E36R23S31S33G17R12R11E02R10E30R21
 110734201.992 8  86286430.31448  21072011.454    21072011.2354   21072015.5464
        50.000          48.4004
 110030107.483 7  85737802.77445  20938017.445    20938017.2894   20938022.0514
        43.900          32.0004
 106882730.040 8  83285279.15446  20339091.176    20339089.8574   20339091.2494
        49.000          41.1004
 126877018.479 6  98865252.98041  24143894.049    24143894.0934   24143900.3854
        36.200           9.3004
 146565856.660 5                  27890554.324
        35.100
 120451447.122 5  93858339.43044  22921137.630    22921137.4874   22921147.9274
        33.100          28.6004
 121260765.188 4  94488882.62241  23075155.384    23075154.7854   23075156.8974
        29.400           9.6004
 146123060.657 5                  27806293.451
        35.000
 123982162.319 8                  23593008.895
        48.800




 141151022.796 5                  26860140.397
        34.700
 106350456.770 8  82717067.940 7  19923017.421    19923016.514    19923022.441
        49.700          46.800
 129036404.464 7                  24554805.464
        42.200
 126078201.034 6                  23568990.132    23568991.686
        38.900
 198904472.721 7                  37850266.444
        42.600
 202060720.316 7                  38450877.338
        45.300
 110101292.608 7  85793249.78446  20951569.457    20951569.0604   20951570.3664
        47.400          37.7004
 109291992.148 8  85004901.355 7  20459682.109    20459682.747    20459690.245
        50.200          46.900
 103757995.667 8  80700654.998 8  19416867.768    19416868.523    19416874.015
        51.200          48.000
 125094536.791 7                  23804686.294
        42.400
 123648496.613 5                  23196145.081    23196148.868
        30.600
 126911468.399 7                  24150437.910
        45.900
 106394172.335 8  82751012.848 6  19882288.450    19882288.876    19882293.259
        50.900          40.000
 25  1  1  0  1 30.0000000  0 25G06G14G19G12G11E27G24G03E25E34S35G30
                                E15R22E36R23S31S33G17R12R11E02R10E30
                                R21
 110699519.928 8  86259405.40848  21065411.111    21065410.8614   21065415.4934
        48.500          48.5004
 110058955.956 7  85760282.08845  20943508.093    20943507.9504   20943511.6744
        42.600          30.0004
 106872845.494 7  83277576.94646  20337210.696    20337209.3734   20337210.4404
        47.800          40.8004
 133336828.543 4                  25373149.827
        28.700
 126822880.205 4  98823067.35341  24133591.486    24133591.7094   24133598.2904
        29.200          10.3004
 146527598.961 5                  27883273.184
        33.100
 120438541.869 4  93848283.43544  22918682.428    22918682.3974   22918692.2024
        29.100          24.2004
 121253706.414 6  94483382.19143  23073815.355    23073814.9224   23073816.1754
        36.900          18.1004
 146159873.394 5                  27813297.655
        35.000
 123963271.567 8                  23589414.028
        49.000
 200831659.089 5                  38216999.114
        34.300


 141105914.873 5                  26851557.184
        33.000
 106323600.397 8  82696179.689 7  19917986.611    19917987.088    19917990.887
        50.200          46.200
 129060293.790 7                  24559351.694
        42.500
 126022401.395 6                  23558564.274    23558558.371
        36.700
 198904479.076 7                  37850272.937
        42.800
 202060717.324 7                  38450877.379
        44.400
 110119356.748 7  85807325.76646  20955006.631    20955006.2474   20955008.2484
        47.000          37.5004
 109248796.202 8  84971304.574 7  20451595.107    20451595.947    20451604.018
        50.100          47.000
 103781821.064 8  80719185.854 7  19421326.214    19421326.569    19421332.482
        51.400          47.800
 125110931.262 7                  23807806.680
        43.300
 123709588.943 4                  23207598.955    23207600.662
        29.000
 126891314.207 7                  24146602.801
        46.200
 106426972.293 8  82776523.950 6  19888417.553    19888416.859    19888423.729
        49.800          40.800
 25  1  1  0  1 45.0000000  0 24G06G14G19G12G11E27G24G03E25E34S35E15
                                R22E36R23S31S33G17R12R11E02R10E30R21
 110664952.435 7  86232469.78848  21058832.704    21058832.4504   21058837.5354
        47.900          48.9004
 110087899.593 7  85782835.58844  20949016.421    20949016.2784   20949018.4784
        44.100          27.6004
 106863028.840 8  83269927.64246  20335342.202    20335340.8654   20335342.3264
        49.200          41.0004
 133284471.672 4                  25363193.430
        26.900


 146489332.727 5                  27875992.289
        34.100


 121246790.071 6  94477992.80242  23072498.238    23072497.9884   23072500.5344
        37.400          16.1004
 146196712.652 5                  27820307.263
        33.500
 123944475.171 8                  23585837.530
        50.000


 141060837.726 5                  26842979.141
        34.900
 106296883.234 8  82675399.738 8  19912981.185    19912981.504    19912987.087
        48.300          48.500
 129084261.251 5                  24563907.946
        34.500
 125966658.256 4                  23548137.335    23548155.338
        26.400
 198904484.351 7                  37850274.234
        42.600
 202060713.159 7                  38450877.410
        44.600
 110137460.232 7  85821432.40446  20958451.594    20958451.2194   20958453.7634
        47.800          39.0004
 109205710.375 7  84937793.469 7  20443527.753    20443528.849    20443536.880
        47.300          46.200
 103805816.205 8  80737848.756 7  19425816.441    19425816.517    19425822.702
        50.500          46.300
 125127386.757 6                  23810937.887
        41.500
 123770733.096 5                  23219072.929    23219080.600
        32.400
 126871203.627 7                  24142775.981
        46.700
 106459877.172 8  82802116.608 6  19894566.624    19894566.096    19894571.933
        49.800          40.400
 25  1  1  0  2  0.0000000  0 22G06G14G19G11E27G24G03E25E34S35E15R22
                                E36S31S33G17R12R11E02R10E30R21
 110630500.589 8  86205624.25348  21052277.436    21052277.1864   21052281.5734
        49.000          48.7004
 110116939.207 7  85805463.81044  20954542.137    20954541.9904   20954542.5374
        46.000          27.3004
 106853281.163 7  83262332.10246  20333486.873    20333485.5234   20333487.3534
        47.700          40.6004
 126714697.305 5  98738750.20641  24113008.722    24113008.6154   24113011.3914
        31.800           9.6004
 146451059.022 5                  27868711.276
        33.000


 121240017.228 5  94472715.30642  23071210.405    23071210.1914   23071210.7894
        34.200          13.2004
 146233579.132 5                  27827325.393
        32.600
 123925774.048 8                  23582278.863
        50.700


 141015792.478 6                  26834407.725
        36.600
 106270306.199 7  82654728.757 7  19907999.479    19907999.822    19908006.469
        45.200          46.100
 129108307.271 5                  24568486.674
        32.700
 198904488.847 6                  37850273.541
        41.900
 202060708.354 7                  38450869.701
        43.000
 110155603.872 8  85835570.36546  20961904.201    20961903.8214   20961904.9614
        48.300          38.2004
 109162736.054 7  84904368.999 7  20435483.190    20435482.983    20435490.821
        47.500          45.600
 103829981.813 8  80756644.255 7  19430339.500    19430339.809    19430344.496
        51.200          46.900
 125143904.331 6                  23814080.861
        40.100
 123831930.028 4                  23230556.648
        26.900
 126851137.674 7                  24138958.197
        47.700
 106492887.251 8  82827791.072 6  19900735.019    19900734.918    19900740.138
        51.000          39.900
 25  1  1  0  2 15.0000000  0 22G06G14G19G11E27G24G03E25E34S35E15R22
                                E36R23S31S33G17R12R11E02E30R21
 110596164.027 7  86178868.54448  21045743.217    21045742.9724   21045748.1124
        47.600          49.5004
 110146074.174 7  85828166.39744  20960085.485    20960085.3294   20960085.2834
        46.300          28.2004
 106843601.687 8  83254789.68946  20331645.961    20331644.6294   20331644.8304
        49.700          40.6004
 126660666.253 6  98696648.20641  24102728.027    24102727.8174   24102732.1554
        38.300          11.8004
 146412777.294 5                  27861427.209
        34.500
 120400644.095 5  93818708.35444  22911479.346    22911479.3064   22911488.5834
        33.100          27.5004
 121233387.632 6  94467549.44441  23069949.686    23069949.5214   23069949.1974
        37.200          11.6004
 146270472.381 4                  27834340.510
        28.800
 123907167.631 8                  23578738.154
        51.300




 106243868.820 7  82634166.393 8  19903050.766    19903049.879    19903055.015
        46.700          48.200
 129132431.288 6                  24573078.836
        36.800
 125855467.711 5                  23527326.707    23527326.041
        33.000
 198904492.338 7                  37850280.892
        42.700
 202060702.567 6                  38450875.778
        41.900
 110173787.273 7  85849739.27746  20965364.462    20965364.0824   20965366.0284
        47.100          38.3004
 109119873.024 8  84871031.217 7  20427461.418    20427460.248    20427467.470
        49.300          45.900
 103854317.194 8  80775571.784 7  19434893.666    19434893.772    19434898.012
        51.800          47.000
 125160483.243 7                  23817236.368
        43.400
 126831115.921 8                  24135147.593
        48.000
 106526001.584 8  82853546.661 7  19906923.183    19906924.449    19906929.798
        52.900          42.600
 25  1  1  0  2 30.0000000  0 22G06G14G19G11E27G24G03E25E34S35E15R22
                                E36R23S31S33G17R12R11E02E30R21
 110561946.575 7  86152205.64848  21039232.458    21039232.1994   21039237.2064
        47.800          49.6004
 110175308.138 7  85850946.06144  20965648.506    20965648.3464   20965647.5074
        44.400          26.3004
 106833994.103 8  83247303.29646  20329817.729    20329816.4064   20329816.1164
        48.800          41.4004


 146374491.177 5                  27854140.068
        35.600
 120388323.815 5  93809108.16444  22909135.904    22909135.8464   22909145.8114
        35.700          28.7004
 121226904.851 4  94462498.49541  23068715.266    23068715.1064   23068715.9954
        27.000           8.2004
 146307395.866 5                  27841369.019
        34.400
 123888659.662 8                  23575216.542
        51.400
 200831736.720 6                  38217017.108
        38.200
 140925795.217 5                  26817281.986
        30.800
 106217574.819 7  82613715.538 8  19898122.901    19898121.287    19898129.433
        44.000          48.400
 129156636.794 6                  24577683.358
        39.200
 125799901.723 5                  23516939.141    23516940.680
        31.300
 198904498.326 7                  37850275.857
        42.600
 202060699.195 7                  38450865.010
        44.800
 110192013.670 7  85863941.61546  20968832.919    20968832.5304   20968835.1674
        46.200          38.0004
 109077125.677 8  84837783.379 7  20419457.982    20419457.564    20419465.434
        48.100          45.400
 103878825.980 8  80794634.172 7  19439479.570    19439479.752    19439484.627
        50.600          46.500
 125177127.302 6                  23820402.759
        41.700
 126811142.219 8                  24131346.705
        48.100
 106559223.521 8  82879385.937 7  19913132.097    19913132.715    19913137.953
        53.700          43.200
 25  1  1  0  2 45.0000000  0 23G06G14G19G11E27G24G03E25E34S35G30E15
                                R22E36R23S31S33G17R12R11E02E30R21
 110527849.287 7  86125636.39948  21032744.031    21032743.7594   21032748.6184
        47.000          48.7004
 110204641.814 7  85873803.50644  20971230.473    20971230.3044   20971229.3094
        45.400          26.3004
 106824459.116 8  83239873.46546  20328002.807    20328001.4624   20328001.2634
        48.700          40.2004


 146336201.840 5                  27846854.201
        33.700
 120376153.398 6  93799624.81744  22906820.622    22906820.7424   22906828.0884
        38.600          27.0004
 121220570.247 4  94457562.56041  23067511.329    23067511.2184   23067510.9734
        27.800          10.9004
 146344350.383 5                  27848400.534
        30.900
 123870251.045 8                  23571712.606
        49.900
 200831773.990 6                  38217020.144
        36.800


 140880853.075 5                  26808730.726
        34.300
 106191425.088 7  82593376.879 7  19893224.605    19893225.134    19893229.974
        47.100          47.400
 129180924.348 6                  24582306.009
        41.100
 125744398.458 5                  23506564.734    23506564.137
        31.300
 198904507.811 7                  37850276.309
        43.500
 202060699.384 7                  38450872.862
        43.700
 110210283.788 7  85878178.03346  20972310.404    20972309.9844   20972312.0684
        44.200          36.6004
 109034495.149 8  84804626.315 7  20411477.880    20411478.016    20411483.722
        50.100          45.200
 103903508.980 8  80813832.062 7  19444099.487    19444099.238    19444103.581
        50.600          46.600
 125193837.370 7                  23823583.022
        42.000
 126791217.548 8                  24127555.370
        48.800
 106592553.520 8  82905309.281 7  19919361.145    19919361.194    19919366.780
        53.200          44.700
 25  1  1  0  3  0.0000000  0 23G06G14G19G11E27G24G03E25E34S35G30E15
                                R22E36R23S31S33G17R12R11E02E30R21
 110493865.435 8  86099155.54248  21026276.656    21026276.3934   21026281.1364
        50.000          49.1004
 110234068.277 7  85896733.23544  20976830.493    20976830.3194   20976830.0164
        47.900          29.2004
 106814989.769 8  83232494.78146  20326200.641    20326199.2874   20326199.1324
        48.800          39.8004
 126498902.206 4  98570533.26241  24071924.214    24071923.8794   24071931.4314
        28.500           9.1004
 146297902.264 6                  27839565.869
        37.400
 120364125.999 6  93790252.85144  22904530.934    22904530.9424   22904536.7484
        38.800          26.3004
 121214486.300 5                  23066345.382
        31.000
 146381329.036 4                  27855439.327
        28.000
 123851934.870 8                  23568227.511
        50.400






 106165412.685 7  82573145.072 7  19888351.337    19888351.642    19888356.639
        46.000          46.800
 129205286.787 6                  24586941.655
        41.000
 125688950.712 5                  23496198.454    23496200.606
        35.100
 198904513.966 7                  37850275.405
        42.400
 202060695.952 7                  38450872.276
        43.300
 110228590.702 7  85892443.21645  20975793.767    20975793.3254   20975794.9934
        44.000          35.3004
 108991974.932 8  84771555.169 7  20403516.894    20403516.811    20403523.724
        50.300          45.400
 103928359.008 8  80833159.887 7  19448748.600    19448748.974    19448753.393
        49.600          46.000
 125210606.549 7                  23826773.984
        44.400
 126771335.125 7                  24123771.582
        47.800
 106625984.153 8  82931310.899 7  19925607.301    19925607.308    19925615.207
        51.600          44.000
 25  1  1  0  3 15.0000000  0 22G06G14G19G12G11E27G24E25E34S35E15R22
                                E36R23S31S33G17R12R11E02E30R21
 110460001.083 8  86072767.81548  21019830.970    21019830.6804   21019836.8984
        48.400          48.4004
 110263593.368 8  85919739.81845  20982448.672    20982448.4854   20982449.8574
        48.000          31.7004
 106805592.053 8  83225171.90446  20324412.421    20324411.0624   20324410.9974
        50.100          39.7004
 132970112.971 5                  25303374.597
        34.800
 126445026.600 4  98528552.39641  24061674.334    24061674.1784   24061679.7984
        29.800          11.3004
 146259598.686 5                  27832275.348
        35.000
 120352247.736 7  93780997.13644  22902270.535    22902270.5484   22902277.3364
        43.000          26.3004
 146418337.736 5                  27862481.999
        30.200
 123833717.139 8                  23564761.005
        50.400




 106139543.631 7  82553024.721 7  19883504.243    19883503.218    19883509.919
        45.900          45.800
 129229729.933 6                  24591592.238
        40.800
 125633565.038 4                  23485839.037    23485840.903
        27.900
 198904522.601 7                  37850280.651
        42.600
 202060695.509 7                  38450866.884
        44.400
 110246940.104 7  85906741.46345  20979285.074    20979284.6274   20979285.2424
        42.100          34.6004
 108949571.643 8  84738574.886 7  20395578.978    20395579.359    20395586.192
        50.500          46.800
 103953381.954 8  80852622.148 7  19453431.500    19453431.805    19453436.564
        48.900          47.000
 125227440.891 7                  23829979.087
        44.700
 126751501.007 7                  24119997.495
        47.000
 106659521.103 8  82957395.171 7  19931875.085    19931874.953    19931881.971
        53.300          45.600
 25  1  1  0  3 30.0000000  0 22G06G14G19G12G11E27G24G03E25E34S35E15
                                R22E36S31S33G17R12R11E02E30R21
 110426250.406 8  86046468.65848  21013409.236    21013408.9464   21013414.4674
        49.800          50.0004
 110293210.966 7  85942818.42545  20988084.668    20988084.4634   20988086.6914
        47.700          30.0004
 106796259.872 8  83217900.10246  20322636.747    20322635.3844   20322635.9694
        48.500          40.3004
 132917692.443 5 103572324.5064   25293395.248    25293395.3324   25293417.9384
        31.000           5.3004
 126391185.932 6  98486598.88741  24051427.144    24051426.9794   24051433.5584
        36.900          11.1004
 146221284.932 5                  27824982.685
        31.200
 120340512.563 6  93771853.07344  22900036.279    22900036.2534   22900045.6924
        40.800          27.0004




 123815591.848 8                  23561310.822
        48.100
 200831908.004 5                  38217018.682
        35.600


 106113811.799 7  82533011.143 7  19878683.901    19878684.115    19878690.632
        45.400          45.500
 129254247.523 6                  24596258.360
        41.300
 198904527.243 6                  37850277.427
        40.500
 202060690.547 7                  38450868.417
        43.200
 110265326.069 7  85921068.20346  20982784.668    20982784.2084   20982785.4494
        47.800          41.6004
 108907279.433 8  84705681.075 7  20387662.221    20387662.463    20387668.129
        50.500          45.800
 103978571.476 8  80872213.989 7  19458144.926    19458144.837    19458150.436
        48.600          47.700
 125244334.233 7                  23833192.500
        42.300
 126731709.274 7                  24116231.288
        46.900
 106693157.547 8  82983556.901 7  19938159.932    19938159.971    19938167.172
        50.900          46.800
 25  1  1  0  3 45.0000000  0 22G06G14G19G12G11E27G24G03E25E34S35E15
                                R22E36S31S33G17R12R11E02E30R21
 110392621.771 8  86020264.59348  21007009.857    21007009.5854   21007015.7364
        49.500          50.6004
 110322929.264 8  85965975.56745  20993741.182    20993740.9774   20993741.7784
        48.600          30.9004
 106787001.307 8  83210685.65346  20320874.821    20320873.4534   20320874.8784
        48.800          40.7004
 132865267.345 5 103531473.34341  25283418.660    25283418.9954   25283437.7104
        30.000          10.0004
 126337388.384 6  98444678.91942  24041189.648    24041189.8984   24041196.0824
        40.800          12.1004
 146182969.440 5                  27817693.205
        32.800
 120328928.735 6  93762826.71044  22897833.203    22897833.1634   22897840.0114
        41.400          29.6004




 123797567.156 7                  23557881.430
        47.900
 200831945.710 5                  38217040.692
        30.800


 106088225.505 7  82513110.753 7  19873890.627    19873890.213    19873897.080
        44.100          44.500
 129278847.594 6                  24600939.533
        41.600
 198904536.992 7                  37850281.536
        43.300
 202060691.144 7                  38450871.677
        43.700
 110283756.525 7  85935429.63446  20986292.227    20986291.7674   20986292.5694
        47.200          39.2004
 108865107.183 8  84672880.544 7  20379766.148    20379766.781    20379774.127
        50.100          46.300
 104003935.854 7  80891941.846 7  19462891.484    19462891.518    19462896.742
        47.600          46.600
 125261294.908 7                  23836421.128
        46.800
 126711968.292 7                  24112474.349
        46.400
 106726901.677 8  83009802.362 7  19944465.926    19944465.969    19944473.966
        52.600          47.000
 25  1  1  0  4  0.0000000  0 23G06G14G19G12G11E27G24G03E25E34S35E15
                                R22E36R23S31S33G17R12R11E02E30R21
 110359111.706 8  85994152.90548  21000632.776    21000632.5174   21000639.3194
        50.000          50.4004
 110352744.433 7  85989208.20144  20999414.283    20999414.0784   20999415.4844
        45.500          29.2004
 106777812.814 8  83203525.82646  20319126.227    20319124.8504   20319126.4614
        48.900          40.2004
 132812835.071 5 103490617.44342  25273449.958    25273450.5794   25273456.8294
        34.000          13.5004
 126283630.517 6  98402789.79241  24030958.739    24030959.0074   24030966.5934
        38.300           9.0004
 146144648.570 5                  27810399.612
        30.200
 120317492.567 7  93753915.42745  22895656.757    22895656.7134   22895663.7664
        43.800          33.9004




 123779639.517 7                  23554469.613
        46.700
 200831983.937 5                  38217067.244
        33.700
 140656608.383 5                  26766063.528
        33.600
 106062781.170 7  82493320.790 7  19869125.422    19869123.759    19869129.454
        45.800          44.400
 129303526.181 6                  24605636.058
        41.100
 125467619.597 6                  23454856.535    23454856.302
        37.500
 198904546.935 7                  37850285.467
        42.900
 202060692.067 7                  38450864.961
        43.300
 110302227.998 7  85949823.01645  20989806.768    20989806.2864   20989806.0894
        42.600          35.3004
 108823051.539 8  84640170.681 7  20371892.273    20371894.109    20371902.551
        49.500          47.800
 104029471.238 8  80911802.717 8  19467670.701    19467670.596    19467676.889
        48.800          48.400
 125278319.245 7                  23839660.390
        47.000
 126692274.554 7                  24108727.157
        45.900
 106760749.157 8  83036128.171 7  19950790.690    19950791.089    19950798.956
        52.800          47.500
 25  1  1  0  4 15.0000000  0 24G06G14G19G12G11E27G24G03E25E34S35E15
                                R22E36R23S31S33G17R12R11E02R10E30R21
 110325716.450 8  85968130.68448  20994277.945    20994277.6864   20994284.8034
        50.200          51.4004
 110382652.521 7  86012513.25544  21005104.732    21005104.5454   21005106.4474
        43.500          26.7004
 106768690.571 8  83196417.63646  20317390.049    20317388.6684   20317390.3804
        48.100          39.4004
 132760391.784 5 103449752.96842  25263468.987    25263469.6084   25263474.5894
        34.200          12.9004
 126229908.648 6  98360928.8794   24020735.585    24020735.8534   24020743.8874
        38.000           2.0004
 146106318.489 4                  27803106.678
        28.300
 120306200.286 7  93745116.31645  22893506.749    22893506.6874   22893515.3484
        42.400          35.8004
 121185583.304 5  94430335.52443  23060850.949    23060851.0604   23060854.2704
        34.900          18.2004


 123761804.991 7                  23551076.296
        46.300




 106037474.736 7  82473638.046 7  19864386.006    19864384.063    19864390.245
        46.300          45.500
 129328279.234 6                  24610345.600
        39.600
 125412473.094 5                  23444538.241    23444542.518
        31.800
 198904554.167 6                  37850284.264
        40.200
 202060689.616 7                  38450872.956
        44.600
 110320736.096 7  85964244.92646  20993327.927    20993327.4224   20993327.7784
        44.300          36.6004
 108781109.148 8  84607548.865 8  20364039.517    20364040.330    20364050.825
        48.500          48.500
 104055173.589 8  80931793.436 8  19472481.057    19472481.364    19472486.548
        51.500          48.600
 125295403.357 7                  23842911.611
        46.800
 124385104.880 5                  23334329.920
        32.900
 126672624.203 7                  24104986.743
        45.800
 106794695.590 8  83062530.979 7  19957134.486    19957134.751    19957142.520
        52.600          47.900
 25  1  1  0  4 30.0000000  0 24G06G14G19G12G11E27G24G03E25E34S35E15
                                R22E36R23S31S33G17R12R11E02R10E30R21
 110292437.374 8  85942198.99348  20987944.983    20987944.7244   20987951.7344
        48.800          51.2004
 110412654.694 7  86035891.62444  21010813.598    21010813.4334   21010815.7564
        44.100          26.6004
 106759635.420 8  83189361.69146  20315667.339    20315665.9404   20315667.1514
        49.900          40.5004
 132707938.767 5 103408880.74441  25253484.806    25253485.3564   25253492.1574
        32.500          11.4004
 126176224.350 4  98319097.1704   24010518.856    24010519.1104   24010528.5234
        27.900           5.1004
 146067980.462 5                  27795811.275
        35.400
 120295053.099 7  93736430.28945  22891385.685    22891385.6184   22891394.0784
        43.000          35.5004
 121180259.962 4  94426187.45242  23059842.013    23059842.5984   23059845.4184
        27.800          17.5004


 123744064.841 8                  23547700.393
        48.900




 106012307.509 7  82454063.600 7  19859671.731    19859669.662    19859676.176
        47.200          46.700
 129353107.697 6                  24615070.637
        38.800
 125357385.994 5                  23434253.860    23434245.274
        35.200
 198904559.968 6                  37850274.140
        37.300
 202060686.361 7                  38450873.502
        45.400
 110339282.205 7  85978696.49646  20996857.310    20996856.8144   20996858.1774
        45.000          38.0004
 108739281.481 7  84575016.329 7  20356210.203    20356208.985    20356220.544
        47.700          47.700
 104081043.945 8  80951914.855 8  19477322.815    19477323.447    19477327.151
        53.600          48.000
 125312548.477 7                  23846172.978
        44.800
 124446816.985 5                  23345900.471    23345900.539
        31.400
 126653018.703 7                  24101256.528
        45.700
 106828742.005 8  83089011.532 8  19963497.195    19963497.607    19963504.731
        52.300          48.300
 25  1  1  0  4 45.0000000  0 23G06G14G19G12G11E27G24G03E25E34S35E15
                                R22E36R23S31S33G17R12R11E02E30R21
 110259281.621 8  85916363.41948  20981635.961    20981635.7164   20981642.0334
        50.500          51.6004
 110442757.848 6  86059348.60343  21016539.293    21016539.1244   21016543.7264
        37.900          20.9004
 106750654.378 7  83182363.48646  20313957.773    20313956.3694   20313957.8244
        47.500          39.1004
 132655483.019 6 103368006.77342  25243509.812    25243510.3084   25243509.0944
        36.100          14.0004
 126122584.739 6  98277300.4284   24000314.694    24000314.9044   24000320.9224
        36.100           3.6004
 146029641.672 5                  27788515.131
        34.900
 120284058.077 7  93727862.80146  22889293.630    22889293.4614   22889302.1454
        42.500          36.1004
 121175087.169 6  94422156.70143  23058855.504    23058855.9554   23058863.5044
        37.600          19.0004


 123726426.077 8                  23544343.517
        49.400




 105987286.550 7  82434602.907 7  19854982.871    19854982.387    19854988.158
        46.900          46.300
 129378018.367 6                  24619811.454
        41.200
 125302364.826 5                  23423964.123    23423963.619
        35.300
 198904570.580 7                  37850288.306
        42.200
 202060687.576 7                  38450871.570
        44.600
 110357873.024 7  85993182.85546  21000394.459    21000393.9684   21000397.1804
        46.200          40.2004
 108697576.379 8  84542579.025 7  20348405.743    20348404.394    20348412.649
        48.500          45.900
 104107089.316 8  80972172.344 8  19482195.925    19482196.559    19482201.645
        52.300          49.100
 125329761.648 7                  23849447.531
        42.400
 126633465.095 7                  24097535.672
        43.800
 106862894.795 8  83115574.833 7  19969879.773    19969880.445    19969887.114
        53.300          47.900
 25  1  1  0  5  0.0000000  0 23G06G14G19G12G11E27G24G03E25E34S35E15
                                R22E36R23S31S33G17R12R11E02E30R21
 110226241.589 8  85890618.02748  20975347.977    20975347.7414   20975354.2394
        49.800          50.4004
 110472954.095 6  86082878.18042  21022285.817    21022285.5764   21022288.8534
        37.600          16.0004
 106741739.686 7  83175416.97846  20312261.891    20312260.5234   20312261.3354
        47.600          38.5004
 132603017.130 6 103327124.74842  25233514.280    25233514.7894   25233524.8334
        37.500          15.3004
 126068982.344 6  98235532.75041  23990115.291    23990115.3174   23990120.4404
        38.600           6.8004
 145991294.294 6                  27781218.638
        36.300
 120273207.446 6  93719407.83646  22887227.836    22887227.6534   22887237.6114
        40.800          36.4004
 121170057.605 5  94418237.44142  23057896.821    23057896.9284   23057907.6944
        32.500          17.0004


 123708880.930 8                  23541005.187
        50.300




 105962403.987 7  82415249.853 7  19850321.580    19850321.959    19850326.858
        47.500          46.300
 129403003.293 6                  24624565.682
        40.400
 125247402.354 5                  23413688.845    23413691.363
        35.600
 198904578.272 7                  37850286.848
        42.000
 202060686.364 7                  38450872.321
        44.200
 110376500.768 7  86007697.99046  21003938.762    21003938.2804   21003942.1754
        44.600          39.7004
 108655986.037 8  84510231.026 7  20340619.991    20340619.823    20340625.595
        51.000          45.200
 104133301.647 8  80992559.744 8  19487101.549    19487101.138    19487107.019
        51.300          49.200
 125347034.990 7                  23852735.406
        43.100
 126613955.725 7                  24093823.356
        44.600
 106897145.804 9  83142214.513 8  19976280.284    19976281.479    19976287.768
        54.300          48.000
 25  1  1  0  5 15.0000000  0 22G06G14G19G12G11E27G24G03E25E34S35E15
                                R22E36S31S33G17R12R11E02E30R21
 110193318.394 8  85864963.66448  20969083.351    20969083.1284   20969088.4094
        49.100          49.8004
 110503244.254 6  86106480.88642  21028052.911    21028052.5674   21028051.9474
        40.300          15.9004
 106732892.170 8  83168522.84446  20310578.476    20310577.1224   20310578.1984
        48.100          39.7004
 132550542.066 6 103286235.43742  25223529.019    25223529.5734   25223540.4604
        36.800          17.2004
 126015418.301 6  98193794.72741  23979920.038    23979920.0254   23979927.4974
        41.900          10.9004
 145952939.388 5                  27773919.120
        35.900
 120262502.159 6  93711066.11746  22885190.984    22885190.8284   22885201.7444
        39.300          37.4004
 121165172.131 5  94414430.58142  23056965.419    23056965.4994   23056978.8584
        33.700          15.6004


 123691430.338 8                  23537684.445
        50.200


 140433211.027 5                  26723554.092
        35.300
 105937660.790 7  82396005.189 7  19845684.068    19845685.392    19845692.111
        47.300          47.100
 129428063.148 6                  24629333.933
        40.400
 198904584.649 7                  37850292.102
        42.900
 202060682.327 7                  38450868.310
        45.200
 110395166.240 7  86022242.54246  21007492.056    21007491.5874   21007494.0484
        43.600          38.9004
 108614512.081 8  84477973.616 7  20332853.730    20332854.439    20332862.134
        50.700          44.800
 104159681.647 8  81013077.539 8  19492037.722    19492037.992    19492043.377
        51.600          49.300
 125364369.479 6                  23856032.806
        38.400
 126594491.700 7                  24090118.736
        44.100
 106931495.503 9  83168930.953 7  19982699.773    19982700.489    19982705.861
        54.400          47.400
 25  1  1  0  5 30.0000000  0 23G06G14G19G12G11E27G24G03E25E34S35E15
                                R22E36R23S31S33G17R12R11E02E30R21
 110160515.467 8  85839402.99148  20962841.593    20962841.3434   20962846.0334
        48.900          49.3004
 110533631.596 7  86130159.36942  21033835.065    21033834.6944   21033834.0464
        42.700          17.3004
 106724115.056 8  83161683.55146  20308907.580    20308906.2394   20308908.1594
        49.000          39.9004
 132498061.590 6 103245341.87242  25213542.847    25213543.4104   25213555.8724
        36.600          16.2004
 125961896.092 7  98152089.40442  23969735.552    23969735.5564   23969742.5814
        42.300          13.5004
 145914580.319 6                  27766619.705
        37.900
 120251945.572 7  93702840.30146  22883182.772    22883182.6434   22883193.6274
        44.800          39.3004
 121160434.138 5  94410738.62441  23056064.678    23056064.7764   23056078.0094
        35.700           9.0004


 123674077.631 8                  23534382.373
        51.100


 140388640.161 5                  26715073.168
        35.300
 105913060.306 7  82376871.528 7  19841075.564    19841075.498    19841082.955
        46.600          47.600
 129453200.974 6                  24634118.506
        40.500
 125137704.743 5                  23393175.845    23393176.421
        31.600
 198904592.529 7                  37850296.140
        42.800
 202060681.138 7                  38450869.924
        44.800
 110413872.434 7  86036818.83546  21011050.876    21011050.3674   21011053.8984
        43.100          38.8004
 108573158.219 8  84445809.575 7  20325112.341    20325112.535    20325121.791
        50.300          46.000
 104186232.486 8  81033728.181 8  19497005.882    19497006.564    19497012.526
        52.100          50.300
 125381768.524 6                  23859343.901
        39.400
 126575076.394 7                  24086423.912
        42.200
 106965946.793 9  83195726.407 7  19989137.687    19989138.418    19989143.857
        54.400          46.800
 25  1  1  0  5 45.0000000  0 23G06G14G19G12G11E27G24G03E25E34S35E15
                                R22E36R23S31S33G17R12R11E02E30R21
 110127832.466 8  85813935.74148  20956622.489    20956622.2304   20956626.1624
        49.100          49.4004
 110564115.510 6  86153913.14443  21039634.551    21039634.2384   21039636.4644
        39.000          18.6004
 106715407.725 8  83154898.65746  20307250.757    20307249.4294   20307251.0034
        50.800          41.2004
 132445574.863 5 103204443.45942  25203553.497    25203554.0024   25203569.2234
        35.100          13.1004
 125908415.641 7  98110416.58142  23959558.030    23959558.0704   23959565.9774
        42.300          15.6004
 145876216.663 5                  27759318.412
        34.900
 120241537.227 7  93694729.96346  22881201.649    22881201.5514   22881212.1934
        42.100          39.8004
 121155843.290 6  94407161.78741  23055189.932    23055190.1194   23055205.2924
        37.800           7.6004


 123656822.319 8                  23531098.813
        51.500


 140344105.190 6                  26706598.151
        36.100
 105888601.997 8  82357848.461 7  19836495.218    19836494.808    19836500.597
        48.200          47.100
 129478416.157 6                  24638916.911
        40.900
 125082927.970 5                  23382943.979    23382942.434
        32.700
 198904600.551 7                  37850300.321
        42.300
 202060680.219 7                  38450871.838
        45.000
 110432618.699 7  86051426.33046  21014618.088    21014617.5794   21014621.6624
        44.200          39.6004
 108531924.309 8  84413738.793 7  20317393.654    20317392.722    20317401.025
        49.500          44.100
 104212953.688 8  81054511.358 8  19502006.808    19502007.202    19502013.459
        51.900          51.100
 125399231.504 6                  23862668.433
        39.500
 126555709.441 7                  24082737.938
        42.700
 107000498.798 8  83222600.186 7  19995594.737    19995595.258    19995600.715
        53.500          45.500
 25  1  1  0  6  0.0000000  0 22G06G14G19G12G11E27G24G03E25E34S35E15
                                R22E36S31S33G17R12R11E02E30R21
 110095266.133 8  85788559.41048  20950425.089    20950424.8354   20950428.4934
        49.400          49.6004
 110594692.504 5  86177739.35042  21045454.235    21045453.9764   21045455.3554
        35.600          16.3004
 106706766.937 8  83148165.61646  20305606.649    20305605.3214   20305606.4744
        51.600          41.5004
 132393078.621 5 103163537.74841  25193566.660    25193567.1744   25193580.3704
        34.000           8.1004
 125854973.648 6  98068773.74341  23949389.119    23949389.2084   23949396.2114
        36.800          10.5004
 145837845.197 5                  27752016.194
        34.100
 120231273.732 7  93686732.48746  22879249.009    22879248.9294   22879258.3134
        43.700          39.8004
 121151396.208 5  94403696.48742  23054343.734    23054344.0244   23054358.2554
        32.800          16.2004


 123639661.032 8                  23527833.064
        49.700


 140299603.090 5                  26698131.391
        30.300
 105864282.501 8  82338933.290 8  19831939.226    19831938.327    19831946.240
        49.400          48.100
 129503705.042 6                  24643729.186
        39.200
 198904607.172 7                  37850301.153
        42.800
 202060677.322 7                  38450866.436
        44.800
 110451401.654 6  86066062.40946  21018190.646    21018190.1504   21018196.1974
        40.700          38.1004
 108490807.413 8  84381759.021 7  20309697.445    20309696.675    20309704.621
        49.600          45.500
 104239841.603 8  81075424.165 8  19507038.275    19507038.234    19507044.737
        51.600          51.600
 125416755.179 6                  23866002.025
        41.400
 126536387.578 7                  24079061.408
        44.400
 107035147.716 8  83249549.309 7  20002069.702    20002069.854    20002075.888
        52.100          46.700
 25  1  1  0  6 15.0000000  0 22G06G14G19G11E27G24G03E25E34S35E15R22
                                E36R23S31S33G17R12R11E02E30R21
 110062818.980 8  85763275.96748  20944250.099    20944249.8404   20944253.7954
        48.300          49.3004
 110625364.960 6  86201639.97642  21051292.294    21051291.9594   21051291.9224
        39.700          13.0004
 106698194.928 8  83141486.16046  20303975.040    20303973.7034   20303974.8284
        48.700          40.1004
 125801572.694 6  98027162.70441  23939225.610    23939225.6864   23939234.4804
        37.300           6.8004
 145799468.110 5                  27744713.629
        32.400
 120221157.408 7  93678849.68146  22877324.184    22877324.1044   22877333.5264
        43.900          39.3004




 123622596.106 8                  23524585.681
        51.000


 140255135.920 5                  26689674.158
        34.300
 105840104.081 8  82320127.921 8  19827409.331    19827409.473    19827416.527
        50.000          48.000
 129529069.664 6                  24648554.975
        38.600
 124973615.839 5                  23362496.248
        30.500
 198904613.715 6                  37850295.733
        40.700
 202060675.113 7                  38450868.122
        43.300
 110470223.545 6  86080728.85546  21021774.468    21021774.0264   21021777.8194
        38.700          37.4004
 108449810.441 8  84349872.621 7  20302021.737    20302022.078    20302030.172
        48.700          44.500
 104266898.323 8  81096468.337 8  19512101.627    19512101.801    19512108.111
        52.800          51.000
 125434341.776 7                  23869349.389
        44.300
 126517113.278 7                  24075393.690
        45.900
 107069895.259 8  83276575.220 7  20008563.083    20008562.767    20008568.952
        50.900          46.500
 25  1  1  0  6 30.0000000  0 22G06G14G19G11E27G24G03E25E34S35E15R22
                                E36R23S31S33G17R12R11E02E30R21
 110030490.324 8  85738084.85448  20938098.384    20938098.1214   20938101.8894
        48.900          49.0004
 110656131.678 7  86225614.01143  21057148.382    21057147.9494   21057145.8404
        42.300          18.7004
 106689690.731 8  83134859.53846  20302356.704    20302355.3674   20302356.6964
        48.900          39.8004
 125748212.152 6  97985583.3844   23929071.614    23929071.5834   23929080.9014
        36.200           5.1004
 145761084.980 5                  27737410.511
        32.100
 120211187.544 7  93671080.99646  22875426.679    22875426.5994   22875437.0844
        43.200          38.2004
 121142940.268 6  94397155.63943  23052736.657    23052736.8624   23052747.1114
        38.200          22.1004


 123605626.742 8                  23521356.315
        49.000


 140210703.530 4                  26681211.661
        27.200
 105816065.926 8  82301431.604 7  19822905.852    19822905.002    19822911.886
        49.600          46.400
 129554509.114 5                  24653396.093
        35.500
 124919022.487 5                  23352294.379
        34.500
 198904618.427 6                  37850298.890
        39.300
 202060670.166 7                  38450864.075
        42.500
 110489083.536 6  86095424.94746  21025362.071    21025361.5714   21025366.5604
        40.200          36.9004
 108408932.870 8  84318078.985 7  20294369.344    20294369.773    20294378.134
        48.900          44.700
 104294122.969 8  81117643.048 8  19517197.768    19517197.550    19517202.586
        52.800          50.400
 125451990.549 6                  23872707.095
        41.000
 126497885.801 7                  24071735.019
        46.100
 107104740.311 8  83303676.887 7  20015073.901    20015074.370    20015080.601
        51.200          46.500
 25  1  1  0  6 45.0000000  0 23G06G14G19G12G11E27G24G03E25E34S35E15
                                R22E36R23S31S33G17R12R11E02E30R21
 109998280.591 8  85712986.42848  20931968.801    20931968.5294   20931972.0914
        48.700          48.6004
 110686993.058 7  86249661.84943  21063021.125    21063020.7104   21063016.8974
        46.800          22.2004
 106681254.533 8  83128285.88846  20300750.903    20300749.5804   20300751.3614
        48.600          38.8004
 132235514.416 5 103040713.19641  25163583.782    25163584.2114   25163597.2824
        34.300           9.2004
 125694892.686 5  97944035.7574   23918927.045    23918927.0764   23918934.9554
        35.000           2.6004
 145722695.880 5                  27730103.608
        30.000
 120201364.347 7  93663426.66246  22873557.342    22873557.2804   22873567.2444
        44.100          37.1004
 121138931.036 5  94394031.60743  23051973.439    23051973.8284   23051977.1074
        30.500          19.3004


 123588753.247 8                  23518145.641
        48.100


 140166305.766 5                  26672765.147
        30.100
 105792168.337 8  82282844.621 7  19818429.894    19818429.301    19818435.322
        50.900          46.800
 129580023.205 5                  24658253.812
        32.400
 124864491.107 6                  23342096.865    23342096.066
        36.600
 198904623.187 7                  37850300.362
        42.000
 202060665.167 7                  38450864.612
        43.500
 110507981.923 6  86110150.99546  21028959.675    21028959.1574   21028962.2364
        39.100          37.0004
 108368175.677 8  84286379.008 7  20286738.812    20286739.387    20286746.573
        49.400          43.700
 104321515.560 8  81138948.380 8  19522322.438    19522322.620    19522327.822
        52.000          48.800
 125469701.794 6                  23876079.722
        40.500
 126478705.638 7                  24068085.801
        46.200
 107139682.795 8  83330854.375 7  20021603.661    20021604.661    20021610.520
        51.500          46.500
 25  1  1  0  7  0.0000000  0 22G06G14G19G11E27G24G03E25E34S35E15R22
                                E36R23S31S33G17R12R11E02E30R21
 109966194.351 8  85687984.22048  20925863.015    20925862.7564   20925866.0594
        49.000          49.4004
 110717953.407 7  86273786.81243  21068910.573    21068910.1714   21068907.1194
        44.700          21.5004
 106672890.810 7  83121768.72946  20299159.355    20299158.0324   20299160.0764
        47.100          38.5004
 125641618.828 6                  23908788.794
        36.200


 120191692.316 7  93655890.07946  22871717.598    22871717.5544   22871725.9594
        44.300          36.9004
 121135072.169 5  94391024.68642  23051240.564    23051240.6534   23051242.8004
        33.600          16.2004


 123571980.004 7                  23514953.392
        47.800


 140121947.573 5                  26664321.678
        34.500
 105768415.825 8  82264370.463 7  19813981.390    19813981.038    19813986.840
        52.100          47.300
 129605616.555 3                  24663118.568
        23.900
 124810026.718 6                  23331905.237    23331908.387
        38.300
 198904631.658 6                  37850293.547
        41.500
 202060664.062 7                  38450868.865
        44.100
 110526922.578 6  86124909.93546  21032563.880    21032563.3484   21032566.1364
        41.200          38.4004
 108327543.570 8  84254776.387 7  20279132.094    20279132.160    20279140.133
        49.100          44.400
 104349080.473 8  81160387.777 8  19527481.472    19527481.079    19527486.970
        51.600          49.300
 125487479.867 7                  23879462.425
        43.300
 126459577.258 7                  24064445.428
        46.300
 107174726.642 8  83358110.706 7  20028152.951    20028152.950    20028159.117
        51.500          46.800
 25  1  1  0  7 15.0000000  0 22G06G14G19G11E27G24G03E25E34S35E15R22
                                E36R23S31S33G17R12R11E02E30R21
 109934228.185 8  85663075.57748  20919779.680    20919779.4084   20919783.5744
        49.300          50.8004
 110749009.011 6  86297985.93743  21074820.306    21074819.9314   21074817.9074
        41.100          21.7004
 106664595.939 7  83115305.20646  20297581.440    20297580.1304   20297581.8214
        47.400          39.1004
 125588387.176 6  97861038.91441  23898659.077    23898659.1354   23898665.2824
        39.100           9.4004


 120182167.910 6  93648468.51845  22869903.813    22869903.7514   22869912.9094
        40.400          35.8004
 121131360.417 5  94388132.46042  23050530.000    23050530.0534   23050537.5314
        35.600          16.2004


 123555303.474 7                  23511779.315
        46.300


 140077625.451 5                  26655885.464
        32.400
 105744804.646 8  82246006.234 7  19809557.115    19809557.074    19809563.002
        51.900          46.700


 124755625.466 5                  23321723.946    23321724.293
        32.000
 198904640.002 6                  37850304.712
        41.600
 202060663.461 7                  38450865.220
        43.200
 110545901.817 7  86139698.99846  21036175.498    21036174.9894   21036176.8504
        42.400          39.5004
 108287033.340 8  84223268.488 7  20271548.515    20271548.579    20271557.674
        48.300          46.200
 104376813.847 8  81181958.181 8  19532671.166    19532671.377    19532676.744
        52.000          48.200
 125505321.306 7                  23882857.266
        42.900
 126440497.170 7                  24060814.463
        46.200
 107209867.665 8  83385442.645 8  20034719.647    20034719.304    20034727.515
        50.200          48.100
 25  1  1  0  7 30.0000000  0 22G06G14G19G11E27G24G03E25E34S35E15R22
                                E36R23S31S33G17R12R11E02E30R21
 109902381.610 8  85638260.12648  20913719.485    20913719.2174   20913724.4544
        50.500          52.2004
 110780159.189 7  86322258.82843  21080748.530    21080748.1914   21080747.4984
        42.300          23.4004
 106656369.264 8  83108894.82546  20296015.545    20296014.2264   20296016.0024
        48.200          38.9004
 125535197.484 6  97819592.52041  23888536.092    23888536.2444   23888551.3574
        41.100          11.7004


 120172790.453 5  93641161.47245  22868119.653    22868119.5734   22868129.0314
        35.000          33.8004
 121127794.974 5  94385354.30143  23049854.057    23049854.1374   23049859.9064
        35.800          18.8004


 123538723.079 7                  23508624.279
        47.000


 140033338.924 5                  26647459.355
        35.800
 105721334.254 8  82227751.547 7  19805160.294    19805159.417    19805165.130
        51.200          45.800
 129657035.961 4                  24672914.070
        24.200
 124701287.062 5                  23311569.200    23311565.607
        31.200
 198904647.940 6                  37850298.497
        41.400
 202060662.064 7                  38450867.031
        45.300
 110564919.084 7  86154517.67546  21039793.387    21039792.8824   21039795.4224
        42.200          39.1004
 108246645.057 8  84191855.415 8  20263988.145    20263988.008    20263997.971
        48.100          48.200
 104404715.055 8  81203659.145 7  19537892.376    19537892.966    19537897.479
        51.800          46.700
 125523225.442 7                  23886263.935
        46.300
 126421465.055 7                  24057193.206
        45.400
 107245105.177 8  83412849.608 8  20041304.441    20041304.841    20041312.503
        50.900          48.600
 25  1  1  0  7 45.0000000  0 23G06G14G19G12G11E27G24G03E25E34S35R13
                                E15R22E36S31S33G17R12R11E02E30R21
 109870656.872 8  85613539.59248  20907682.536    20907682.2734   20907687.7244
        50.500          52.2004
 110811405.862 6  86346606.93943  21086694.475    21086694.1364   21086694.9664
        40.200          22.6004
 106648212.763 8  83102539.14146  20294463.578    20294462.2684   20294463.4284
        49.400          40.2004
 132025388.260 5 102876987.86142  25123594.786    25123595.0314   25123609.8644
        34.400          14.5004
 125482052.022 7  97778180.70542  23878423.581    23878423.8044   23878442.7004
        43.800          14.6004


 120163562.170 5  93633970.63445  22866364.005    22866363.9474   22866372.6544
        33.400          32.7004
 121124378.173 5  94382691.97543  23049202.596    23049202.6724   23049211.0294
        35.500          18.7004


 123522240.845 7                  23505487.810
        46.000


 128624699.738 4                  24087274.711
        28.700
 139989090.133 6                  26639041.848
        37.800
 105698006.726 8  82209607.969 7  19800791.036    19800790.619    19800795.178
        52.400          45.400
 129682855.084 5                  24677828.590
        30.900
 198904657.584 7                  37850303.071
        42.100
 202060661.370 7                  38450864.460
        43.600
 110583976.465 7  86169367.56046  21043419.345    21043418.8134   21043421.4784
        45.300          39.8004
 108206381.035 8  84160539.013 7  20256450.816    20256450.279    20256459.629
        48.300          47.700
 104432785.886 8  81225492.061 7  19543144.844    19543145.844    19543151.600
        51.300          47.000
 125541194.342 8                  23889683.170
        48.300
 126402482.990 7                  24053580.555
        45.900
 107280440.425 8  83440332.585 8  20047908.175    20047907.652    20047916.311
        50.400          49.100
 25  1  1  0  8  0.0000000  0 23G06G14G19G12G11E27G24G03E25E34S35R13
                                E15R22E36S31S33G17R12R11E02E30R21
 109839049.797 8  85588910.74148  20901668.273    20901668.0104   20901673.2574
        49.400          52.2004
 110842744.733 7  86371026.84744  21092658.519    21092658.2114   21092660.1554
        42.900          25.3004
 106640122.152 8  83096234.79346  20292923.776    20292922.4664   20292923.7634
        50.200          40.8004
 131972843.823 5 102836044.35742  25113594.497    25113595.0604   25113609.9434
        31.900          12.8004
 125428946.713 7  97736800.23141  23868315.983    23868316.0454   23868335.3084
        44.000           9.8004


 120154478.628 5  93626892.56445  22864634.761    22864634.6994   22864643.7774
        34.300          32.4004
 121121105.772 6  94380142.17743  23048580.392    23048580.4814   23048588.7984
        38.300          21.5004


 123505852.507 7                  23502369.396
        47.500


 128561376.144 4                  24075415.834
        27.900
 139944875.015 5                  26630625.942
        32.600
 105674817.696 8  82191572.094 7  19796446.245    19796446.138    19796450.282
        51.800          44.500


 198904664.333 6                  37850301.368
        41.700
 202060658.363 7                  38450867.613
        43.600
 110603069.462 7  86184245.21246  21047052.186    21047051.6234   21047054.6634
        42.000          38.6004
 108166237.302 8  84129316.144 7  20248935.670    20248936.438    20248944.674
        49.600          47.100
 104461021.847 8  81247453.371 7  19548428.696    19548429.343    19548434.389
        50.000          44.500
 125559223.745 7                  23893114.481
        47.800
 126383546.817 7                  24049976.902
        46.100
 107315869.007 8  83467888.158 8  20054528.506    20054528.757    20054535.949
        50.600          48.400
 25  1  1  0  8 15.0000000  0 22G06G14G19G12G11E27G24G03E25E34S35E15
                                R22E36S31S33G17R12R11E02E30R21
 109807565.499 8  85564377.55948  20895676.764    20895676.5054   20895681.8514
        48.000          51.3004
 110874180.579 7  86395522.28544  21098639.269    21098638.9654   21098642.1224
        44.100          28.4004
 106632102.345 8  83089985.64147  20291397.706    20291396.3924   20291398.1044
        50.200          42.0004
 131920296.254 5 102795098.51042  25103600.166    25103600.7874   25103609.9154
        32.600          13.2004
 125375886.764 6  97695455.16641  23858219.341    23858219.4174   23858236.7704
        40.000          11.3004
 145492268.756 5                  27686255.288
        31.100
 120145544.928 5  93619931.29645  22862934.464    22862934.3844   22862943.0674
        32.600          31.7004
 121117982.875 6  94377708.88943  23047987.028    23047987.0814   23047995.8704
        36.800          23.0004


 123489563.025 7                  23499269.350
        46.900


 139900698.663 5                  26622219.977
        32.200
 105651772.124 8  82173647.801 7  19792128.680    19792128.706    19792134.267
        51.500          45.800
 129734658.611 6                  24687685.546
        36.200
 198904672.959 6                  37850303.993
        41.600
 202060658.341 7                  38450861.500
        43.400
 110622202.934 7  86199154.44246  21050694.534    21050693.9354   21050695.9634
        43.700          39.7004
 108126219.523 8  84098191.231 7  20241443.430    20241445.110    20241452.184
        50.300          46.400
 104489427.864 8  81269546.892 7  19553745.724    19553745.043    19553748.107
        50.400          43.300
 125577318.593 7                  23896557.162
        46.000
 126364661.644 7                  24046383.285
        45.500
 107351395.214 8  83495519.649 7  20061167.195    20061167.158    20061173.925
        48.700          47.300
 25  1  1  0  8 30.0000000  0 21G06G14G19G11E27G24G03E25E34S35E15R22
                                E36S31S33G17R12R11E02E30R21
 109776197.745 7  85539935.22248  20889707.765    20889707.5154   20889712.5264
        47.600          50.6004
 110905706.967 7  86420088.29445  21104638.867    21104638.5634   21104641.3224
        45.200          30.1004
 106624146.766 8  83083786.52247  20289884.242    20289882.9324   20289884.5534
        50.100          42.0004
 125322866.009 6  97654140.44841  23848130.619    23848130.7124   23848147.0994
        39.700          11.8004
 145453846.092 5                  27678944.753
        35.700
 120136754.492 6  93613081.68045  22861262.618    22861262.5604   22861269.2404
        40.700          34.7004
 121115003.009 4  94375386.92743  23047416.621    23047416.6434   23047430.3534
        28.400          18.6004


 123473366.024 7                  23496187.245
        47.300


 139856554.867 5                  26613819.276
        34.100
 105628863.594 8  82155830.088 7  19787837.146    19787837.724    19787841.899
        51.500          46.200
 129760695.564 6                  24692640.793
        37.800
 198904677.497 6                  37850303.299
        41.000
 202060653.879 7                  38450864.970
        45.500
 110641370.347 7  86214090.09946  21054341.550    21054340.9424   21054343.5104
        45.000          40.2004
 108086321.524 8  84067159.487 7  20233973.435    20233974.067    20233983.180
        49.500          46.300
 104517997.226 8  81291767.495 7  19559091.467    19559091.632    19559095.922
        50.400          44.600
 125595472.554 7                  23900012.147
        47.600
 126345821.256 7                  24042797.626
        45.100
 107387012.461 8  83523221.935 7  20067823.546    20067824.286    20067829.949
        50.500          47.200
 25  1  1  0  8 45.0000000  0 22G06G14G19G11E27G24G03E25E34S35E15R22
                                E36R23S31S33G17R12R11E02E30R21
 109744954.929 7  85515590.21348  20883762.762    20883762.5084   20883767.4454
        47.400          50.7004
 110937332.085 7  86444731.21645  21110656.938    21110656.6394   21110660.0734
        45.200          30.6004
 106616263.718 8  83077643.91447  20288384.593    20288383.3154   20288384.2394
        50.800          42.6004
 125269893.058 6  97612863.02342  23838050.290    23838050.3394   23838065.6884
        37.900          12.2004
 145415423.018 6                  27671633.212
        38.100
 120128115.775 6  93606350.30346  22859619.754    22859619.7284   22859624.5734
        41.000          38.1004
 121112174.848 5  94373183.45442  23046880.934    23046880.9514   23046894.4474
        34.100          16.4004


 123457269.795 8                  23493124.576
        48.500


 139812451.772 5                  26605445.404
        31.000
 105606100.417 8  82138125.453 7  19783572.558    19783573.151    19783578.211
        50.900          44.900
 129786810.402 6                  24697610.375
        39.200
 124430404.911 6                  23260958.827    23260960.988
        38.000
 198904685.877 6                  37850312.162
        40.700
 202060653.354 7                  38450862.627
        42.900
 110660579.947 7  86229058.62546  21057996.569    21057995.9884   21057998.9374
        43.800          41.0004
 108046552.222 8  84036227.908 7  20226531.056    20226529.472    20226537.964
        48.600          45.800
 104546738.176 8  81314121.541 7  19564470.478    19564471.070    19564476.039
        50.100          47.200
 125613693.845 7                  23903479.387
        46.100
 126327033.975 7                  24039222.333
        46.000
 107422728.514 8  83551001.095 7  20074497.966    20074498.103    20074504.208
        49.700          47.100
 25  1  1  0  9  0.0000000  0 23G06G14G19G12G11E27G24G03E25E34S35E15
                                R22E36R23S31S33G17R12R11E02E30R21
 109713832.857 8  85491339.29348  20877840.679    20877840.4074   20877845.8054
        50.000          52.2004
 110969051.445 7  86469447.61345  21116693.972    21116693.6644   21116696.2184
        44.900          31.2004
 106608448.839 8  83071554.42847  20286896.694    20286895.4204   20286896.9104
        50.200          42.3004
 131762603.153 6 102672212.35342  25073593.286    25073593.2284   25073603.0114
        36.300          12.7004
 125216963.657 6  97571619.57142  23827977.141    23827977.1724   23827991.7444
        41.000          14.5004
 145376995.316 6                  27664320.493
        36.000
 120119624.421 6  93599733.72146  22858001.725    22858001.7514   22858009.3924
        41.100          38.6004
 121109493.711 6  94371094.40142  23046370.726    23046370.7394   23046387.6064
        36.500          17.5004


 123441270.002 7                  23490079.407
        47.800


 139768385.667 6                  26597048.295
        36.100
 105583478.185 8  82120530.463 7  19779334.828    19779335.198    19779340.329
        49.500          46.000
 129812998.625 6                  24702591.611
        36.300
 124376451.859 5                  23250874.249    23250873.974
        34.300
 198904694.529 6                  37850308.384
        39.800
 202060652.446 7                  38450855.481
        42.900
 110679827.436 7  86244056.67646  21061660.243    21061659.6764   21061661.8134
        43.300          40.2004
 108006907.552 8  84005393.226 7  20219108.404    20219107.840    20219117.557
        48.700          47.100
 104575646.162 8  81336605.537 7  19569878.999    19569879.502    19569885.768
        49.400          46.500
 125631978.140 7                  23906958.685
        46.500
 126308295.597 7                  24035656.602
        46.100
 107458538.550 8  83578853.337 8  20081189.747    20081190.185    20081197.668
        49.700          49.000
 25  1  1  0  9 15.0000000  0 22G06G14G19G12G11E27G24G03E25E34S35E15
                                R22E36S31S33G17R12R11E02E30R21
 109682830.231 8  85467181.43948  20871940.393    20871940.1214   20871946.8234
        50.100          52.5004
 111000863.570 7  86494236.30845  21122747.289    21122746.9854   21122749.9944
        45.000          31.5004
 106600700.650 8  83065516.89547  20285422.362    20285421.1024   20285422.8854
        50.800          43.1004
 131710033.621 6 102631249.39742  25063590.262    25063589.9674   25063600.1714
        36.300          15.1004
 125164076.634 6  97530408.97741  23817912.182    23817912.1744   23817925.7324
        41.400          11.6004
 145338561.608 6                  27657010.665
        36.600
 120111278.967 6  93593230.88546  22856411.796    22856411.8224   22856422.0734
        38.400          38.6004
 121106958.520 6  94369118.86043  23045890.437    23045890.4374   23045904.5054
        40.300          18.6004


 123425365.205 7                  23487052.533
        47.500
 200832691.073 6                  38217195.924
        36.100


 105560995.509 8  82103043.984 7  19775122.249    19775122.057    19775128.517
        48.900          46.500
 129839258.485 6                  24707590.024
        36.100
 198904700.445 6                  37850314.689
        40.300
 202060648.725 7                  38450861.026
        43.400
 110699110.840 7  86259082.72546  21065330.075    21065329.5034   21065331.7094
        43.500          40.4004
 107967386.657 8  83974654.789 7  20211710.724    20211710.408    20211719.190
        50.600          46.300
 104604719.391 7  81359218.054 7  19575319.018    19575318.690    19575326.231
        47.600          47.400
 125650324.083 7                  23910449.602
        45.800
 126289604.868 7                  24032099.712
        45.900
 107494440.653 8  83606777.217 8  20087899.042    20087899.350    20087906.814
        49.400          49.700
 25  1  1  0  9 30.0000000  0 23G06G14G19G12G11E27G24G03E25E34S35E15
                                R22E36R23S31S33G17R12R11E02E30R21
 109651950.278 8  85443119.16848  20866064.425    20866064.1624   20866070.8474
        49.100          52.4004
 111032771.360 7  86519099.50244  21128818.758    21128818.4504   21128821.5454
        44.600          29.7004
 106593022.216 8  83059533.71147  20283960.991    20283959.7224   20283962.2964
        51.100          43.2004
 131657460.931 6 102590283.90242  25053585.086    25053584.5324   25053596.7664
        38.600          15.6004
 125111235.407 6  97489234.27641  23807855.450    23807855.4424   23807868.9864
        37.700          11.3004
 145300125.091 5                  27649693.373
        31.600
 120103082.494 6  93586844.09946  22854854.227    22854854.3074   22854862.3444
        40.000          38.4004
 121104572.411 6  94367259.47143  23045434.778    23045434.7524   23045448.1994
        38.100          19.9004


 123409558.474 7                  23484044.916
        47.800
 200832727.160 5                  38217210.184
        35.100


 105538655.415 8  82085668.349 7  19770937.173    19770936.918    19770943.494
        48.600          45.600
 129865592.864 6                  24712601.796
        36.000
 124268794.301 5                  23230749.127
        33.400
 198904708.397 6                  37850314.443
        39.600
 202060647.043 7                  38450862.027
        45.000
 110718433.328 7  86274139.22246  21069006.643    21069006.0174   21069008.9664
        43.400          41.1004
 107927992.990 8  83944015.360 7  20204336.122    20204336.470    20204342.162
        51.100          44.600
 104633960.970 8  81381961.517 7  19580792.357    19580792.412    19580798.638
        48.700          47.800
 125668734.679 8                  23913953.374
        48.400
 126270964.925 7                  24028552.306
        46.300
 107530437.564 8  83634774.825 8  20094626.401    20094626.369    20094633.673
        50.900          48.900
 25  1  1  0  9 45.0000000  0 23G06G14G19G12G11E27G24G03E25E34S35E15
                                R22E36R23S31S33G17R12R11E02E30R21
 109621190.988 8  85419150.90948  20860210.515    20860210.2654   20860216.8184
        49.000          51.7004
 111064772.660 7  86544035.56845  21134908.189    21134907.8684   21134911.5064
        44.600          30.6004
 106585411.230 8  83053603.11447  20282512.662    20282511.3974   20282513.4774
        49.200          42.5004
 131604883.071 5 102549314.38443  25043581.089    25043580.5714   25043592.2044
        35.100          19.1004
 125058437.898 6  97448093.28641  23797810.296    23797810.3724   23797821.7334
        40.000           8.7004
 145261683.632 4                  27642377.455
        29.700
 120095032.983 6  93580571.83846  22853322.340    22853322.3934   22853329.9824
        41.600          37.9004
 121102333.227 5  94365514.61442  23045008.425    23045008.4384   23045018.9724
        34.600          16.2004


 123393847.688 7                  23481055.023
        46.300
 200832762.205 6                  38217195.030
        36.500
 139636395.680 6                  26571923.303
        38.000
 105516455.686 8  82068401.925 7  19766779.311    19766778.358    19766785.203
        48.100          46.100
 129891999.347 6                  24717627.924
        38.500
 124215035.258 5                  23220716.214
        30.900
 198904715.477 6                  37850316.585
        40.200
 202060644.030 7                  38450860.910
        43.300
 110737792.820 7  86289224.56946  21072690.279    21072689.6624   21072693.2794
        44.700          41.6004
 107888724.884 8  83913473.578 7  20196985.650    20196985.190    20196990.560
        49.500          42.900
 104663368.548 8  81404834.085 7  19586296.012    19586296.081    19586300.339
        49.300          45.900
 125687207.879 7                  23917468.456
        47.800
 126252373.785 7                  24025015.124
        46.700
 107566526.593 8  83662844.116 8  20101369.215    20101369.701    20101377.975
        48.700          49.900
 25  1  1  0 10  0.0000000  0 22G06G14G19G12G11E27G24G03E25E34S35E15
                                R22E36S31S33G17R12R11E02E30R21
 109590556.641 8  85395280.02848  20854380.802    20854380.5614   20854386.8824
        50.000          51.4004
 111096871.420 7  86569047.57845  21141016.401    21141016.0624   21141019.4304
        47.500          31.2004
 106577871.793 8  83047728.26047  20281078.212    20281076.9524   20281077.9754
        50.700          42.1004
 131552304.551 6 102508344.39842  25033573.807    25033573.2804   25033586.5644
        37.100          17.2004


 145223241.723 4                  27635058.471
        28.900
 120087134.371 7  93574417.18246  22851818.819    22851818.8814   22851826.2074
        43.600          39.2004
 121100245.306 6  94363887.66942  23044609.426    23044609.4754   23044618.0154
        37.500          14.5004


 123378236.977 7                  23478085.108
        47.300
 200832800.878 5                  38217211.807
        35.200
 139592481.235 6                  26563567.933
        38.700
 105494400.526 8  82051247.989 7  19762647.042    19762647.760    19762653.468
        51.000          47.400
 129918482.001 6                  24722667.778
        41.600
 198904725.096 7                  37850323.350
        42.000
 202060644.402 7                  38450859.778
        42.300
 110757193.226 7  86304341.76946  21076382.076    21076381.4734   21076384.8714
        45.500          41.3004
 107849586.857 8  83883032.969 7  20189658.354    20189658.172    20189664.987
        49.000          45.600
 104692945.919 8  81427838.735 7  19591830.404    19591830.975    19591835.327
        49.600          45.100
 125705747.696 8                  23920996.420
        49.400
 126233835.700 8                  24021487.117
        48.400
 107602711.605 7  83690988.075 8  20108131.138    20108130.254    20108139.556
        47.700          49.200
 25  1  1  0 10 15.0000000  0 22G06G14G19G12G11E27G24G03E34S35E15R22
                                E36R23S31S33G17R12R11E02E30R21
 109560040.827 8  85371501.51948  20848573.769    20848573.5194   20848580.0694
        48.300          50.3004
 111129061.089 7  86594130.42245  21147142.137    21147141.8114   21147144.0284
        46.300          30.8004
 106570397.316 8  83041904.02746  20279655.851    20279654.5914   20279654.7654
        49.600          41.5004
 131499718.831 5 102467368.73942  25023570.371    25023569.8714   25023579.1264
        35.300          12.4004
 124952980.292 6  97365912.03841  23777741.696    23777741.7854   23777750.2074
        36.200           8.9004


 120079380.290 7  93568375.12746  22850343.426    22850343.4704   22850349.8514
        44.700          38.8004
 121098302.155 6  94362373.50143  23044241.600    23044241.5784   23044245.3684
        40.400          19.0004
 123362719.806 8                  23475132.478
        48.400
 200832835.629 6                  38217215.219
        37.100
 139548601.301 6                  26555220.064
        37.200
 105472483.278 8  82034201.289 7  19758541.589    19758541.719    19758547.964
        50.200          46.200
 129945033.849 6                  24727719.753
        41.500
 124107761.975 5                  23200633.279    23200632.491
        31.300
 198904731.858 7                  37850323.274
        44.100
 202060642.858 7                  38450854.698
        43.700
 110776627.688 7  86319485.54046  21080080.194    21080079.6364   21080082.5144
        44.200          40.9004
 107810572.904 8  83852688.859 7  20182354.716    20182354.801    20182361.763
        50.800          45.700
 104722686.526 8  81450970.303 7  19597396.434    19597396.884    19597400.735
        51.400          46.400
 125724347.727 8                  23924535.674
        50.000
 126215344.275 8                  24017968.355
        48.400
 107638985.662 8  83719201.189 8  20114911.105    20114911.156    20114918.487
        49.700          49.900
 25  1  1  0 10 30.0000000  0 23G06G14G19G12G11E27G24G03E25E34S35E15
                                R22E36R23S31S33G17R12R11E02E30R21
 109529648.742 7  85347819.42548  20842790.532    20842790.2554   20842796.6604
        47.400          49.4004
 111161346.543 7  86619287.87444  21153286.059    21153285.7694   21153286.0524
        45.300          29.6004
 106562992.786 8  83036134.28246  20278247.384    20278246.1324   20278245.8594
        48.400          41.9004
 131447131.134 4 102426391.42941  25013561.107    25013560.6204   25013570.9604
        26.500           9.5004
 124900319.988 6  97324878.19141  23767720.739    23767720.8554   23767728.8674
        39.400          10.3004


 120071775.750 7  93562449.53845  22848896.270    22848896.2664   22848899.3784
        43.200          34.0004
 121096508.831 6  94360976.22643  23043899.441    23043899.3704   23043902.6994
        38.200          22.4004


 123347301.227 8                  23472197.759
        48.000
 200832872.283 5                  38217223.697
        30.100
 139504761.072 6                  26546876.924
        39.700
 105450709.065 8  82017265.830 7  19754462.829    19754462.857    19754467.716
        51.300          45.300
 129971659.948 7                  24732786.608
        43.100
 124054201.524 5                  23190617.864    23190618.024
        31.900
 198904740.542 6                  37850307.199
        39.400
 202060640.368 7                  38450859.666
        45.600
 110796101.273 7  86334659.77346  21083785.777    21083785.2194   21083788.0184
        44.300          40.6004
 107771688.431 8  83822445.425 7  20175075.926    20175076.225    20175082.896
        51.200          46.800
 104752595.113 8  81474232.517 7  19602993.470    19602993.634    19602998.898
        51.600          47.900
 125743012.984 8                  23928087.706
        50.000
 126196904.700 8                  24014459.760
        49.500
 107675353.274 8  83747487.064 8  20121706.676    20121707.012    20121714.088
        49.200          48.800
 25  1  1  0 10 45.0000000  0 22G06G14G19G11E27G24G03E25E34S35E15R22
                                E36R23S31S33G17R12R11E02E30R21
 109499378.062 7  85324231.92848  20837030.494    20837030.1994   20837036.0794
        46.100          48.6004
 111193725.311 7  86644518.08044  21159447.207    21159446.9304   21159447.8634
        45.200          29.0004
 106555655.765 8  83030417.20046  20276851.422    20276850.1794   20276849.6044
        49.800          41.1004
 124847704.732 6  97283879.50841  23757707.534    23757707.8824   23757716.1984
        39.200          11.9004
 145107866.711 5                  27613109.036
        33.200
 120064318.267 7  93556638.55145  22847476.866    22847476.8494   22847479.7454
        44.400          33.6004
 121094863.030 6  94359693.85044  23043586.069    23043585.9934   23043590.7144
        38.200          25.0004


 123331978.831 8                  23469282.416
        48.600


 139460958.371 6                  26538540.099
        36.200
 105429075.392 8  82000439.679 7  19750410.209    19750409.935    19750414.369
        50.400          45.100
 129998357.473 6                  24737867.814
        41.500
 124000706.595 5                  23180620.183    23180619.775
        33.600
 198904747.748 6                  37850314.814
        39.200
 202060638.621 7                  38450856.505
        44.000
 110815611.452 7  86349862.47846  21087498.648    21087498.0904   21087500.3594
        44.700          40.3004
 107732931.458 8  83792301.147 7  20167819.660    20167820.436    20167827.000
        49.500          47.100
 104782669.150 8  81497623.469 8  19608621.588    19608621.882    19608627.522
        53.600          48.400
 125761741.048 8                  23931652.012
        50.700
 126178514.668 8                  24010961.271
        50.100
 107711811.681 8  83775843.581 8  20128521.043    20128520.025    20128527.016
        48.300          48.800
 25  1  1  0 11  0.0000000  0 22G06G14G19G11E27G24G03E25E34S35E15R22
                                E36R23S31S33G17R12R11E02E30R21
 109469227.756 7  85300738.25648  20831293.498    20831293.2084   20831297.8834
        46.100          48.5004
 111226196.101 7  86669819.98344  21165626.185    21165625.8994   21165628.2764
        44.500          28.6004
 106548385.070 8  83024751.74946  20275466.975    20275465.7234   20275466.1064
        49.500          40.5004
 124795133.527 5  97242915.03242  23747703.560    23747703.9494   23747712.6324
        33.300          12.2004
 145069405.700 5                  27605791.859
        33.900
 120057006.701 6  93550941.25445  22846085.275    22846085.2494   22846089.0884
        41.600          33.1004
 121093363.653 6  94358525.52844  23043301.886    23043301.8334   23043306.8644
        36.900          25.5004


 123316751.420 7                  23466384.039
        47.100


 139417192.014 5                  26530211.811
        35.800
 105407580.994 8  81983721.914 7  19746382.253    19746382.349    19746389.019
        49.700          46.700
 130025125.157 7                  24742960.976
        42.700
 123947276.022 4                  23170635.409    23170639.986
        27.400
 198904753.149 6                  37850315.525
        40.100
 202060634.185 7                  38450860.932
        45.000
 110835156.873 7  86365092.68246  21091217.841    21091217.2784   21091220.0474
        44.200          40.6004
 107694301.234 8  83762255.468 7  20160587.852    20160588.194    20160595.635
        49.100          46.200
 104812907.256 9  81521142.001 8  19614280.805    19614281.320    19614286.450
        54.100          48.200
 125780530.719 8                  23935227.570
        50.300
 126160173.140 8                  24007470.642
        50.300
 107748359.210 8  83804269.450 8  20135351.523    20135350.795    20135356.937
        49.300          48.400
 25  1  1  0 11 15.0000000  0 22G06G14G19G11E27G24G03E25E34S35E15R22
                                E36R23S31S33G17R12R11E02E30R21
 109439204.047 7  85277343.23648  20825579.902    20825579.6164   20825584.2764
        47.000          48.9004
 111258764.819 7  86695198.21844  21171824.161    21171823.9114   21171827.4834
        45.500          29.6004
 106541186.749 8  83019142.67146  20274097.433    20274096.1774   20274096.3234
        49.900          40.7004
 124742612.597 6  97201989.70742  23737712.846    23737712.9354   23737719.0254
        36.300          14.2004
 145030945.389 5                  27598472.236
        35.700
 120049847.147 5  93545362.40844  22844721.040    22844720.9734   22844726.7954
        35.100          29.1004
 121092016.847 6  94357476.06443  23043044.354    23043044.3414   23043051.0744
        36.600          23.8004


 123301625.069 7                  23463505.793
        45.500


 139373468.357 6                  26521892.467
        37.000
 105386231.993 8  81967117.229 7  19742383.951    19742382.443    19742389.421
        48.100          46.900
 130051968.709 6                  24748068.449
        39.300
 123893916.458 5                  23160666.623    23160661.551
        31.400
 198904763.068 6                  37850321.293
        38.500
 202060634.961 7                  38450859.188
        45.300
 110854743.605 7  86380355.12446  21094945.607    21094945.0444   21094947.3774
        46.400          40.5004
 107655804.306 7  83732313.438 7  20153379.423    20153379.979    20153389.097
        46.600          46.100
 104843315.216 9  81544792.612 8  19619970.768    19619971.213    19619976.415
        54.000          48.700
 125799388.055 8                  23938816.092
        51.000
 126141886.286 8                  24003990.532
        49.800
 107785001.522 7  83832769.034 8  20142197.660    20142196.912    20142204.891
        47.200          48.600
 25  1  1  0 11 30.0000000  0 21G06G14G19G11E27G24G03E25E34S35E15R22
                                E36S31S33G17R12R11E02E30R21
 109409299.555 8  85254041.09348  20819888.506    20819888.2294   20819894.0334
        48.100          49.6004
 111291423.939 7  86720646.92144  21178038.578    21178038.3424   21178043.4724
        46.700          27.7004
 106534053.107 8  83013584.02846  20272739.240    20272737.9844   20272739.1594
        48.900          40.3004
 124690134.759 6  97161098.04742  23727722.647    23727722.6784   23727732.7974
        40.700          15.4004
 144992478.451 6                  27591152.067
        39.100
 120042831.845 6  93539896.02444  22843388.309    22843388.1754   22843392.3424
        39.500          28.1004
 121090815.135 6  94356539.65843  23042817.446    23042817.3664   23042819.5654
        36.500          22.2004


 123286592.280 7                  23460644.518
        44.200
 200833031.436 6                  38217260.087
        36.700
 139329779.981 5                  26513577.250
        35.000
 105365020.838 8  81950619.673 8  19738411.082    19738411.101    19738417.118
        51.100          48.200
 130078880.457 6                  24753190.313
        38.600
 198904768.886 6                  37850328.859
        41.900
 202060631.336 7                  38450857.144
        44.800
 110874364.157 7  86395643.85246  21098678.290    21098677.7144   21098681.5894
        44.900          41.7004
 107617433.631 8  83702469.692 7  20146197.953    20146199.000    20146204.129
        48.000          44.700
 104873885.474 8  81568569.463 8  19625692.026    19625692.453    19625697.646
        53.200          49.000
 125818305.673 8                  23942415.994
        50.100
 126123646.746 8                  24000519.148
        48.100
 107821730.649 7  83861336.128 8  20149059.707    20149059.905    20149068.841
        46.300          49.100
 25  1  1  0 11 45.0000000  0 22G06G14G19G12G11E27G24G03E25E34S35E15
                                R22E36S31S33G17R12R11E02E30R21
 109379517.488 8  85230834.33348  20814220.780    20814220.4994   20814226.7574
        48.200          49.0004
 111324176.413 7  86746168.39844  21184271.029    21184270.7794   21184277.8934
        46.900          26.1004
 106526987.294 8  83008078.23246  20271395.048    20271393.7884   20271395.3384
        50.500          41.5004
 131184146.381 5 102221467.11142  24963513.663    24963513.9174   24963526.7964
        34.000          14.3004
 124637703.334 6  97120242.45842  23717746.023    23717746.0494   23717755.3374
        40.200          17.9004
 144954008.008 6                  27583831.485
        39.000
 120035964.312 5  93534544.73944  22842081.279    22842081.0834   22842085.4704
        35.000          28.8004
 121089761.735 6  94355718.87144  23042616.477    23042616.3394   23042618.3954
        37.100          25.4004


 123271656.145 7                  23457803.506
        43.600
 200833065.954 5                  38217274.741
        35.000
 139286130.038 5                  26505271.476
        33.300
 105343950.507 8  81934231.688 7  19734464.295    19734464.679    19734469.077
        51.900          47.900
 130105863.239 6                  24758323.531
        37.000
 198904774.509 7                  37850325.640
        42.300
 202060627.296 7                  38450858.598
        45.500
 110894021.266 7  86410961.10347  21102419.493    21102418.9354   21102423.3084
        44.200          42.6004
 107579192.602 7  83672726.723 7  20139038.824    20139040.469    20139046.054
        47.900          45.400
 104904620.825 8  81592474.743 8  19631442.826    19631442.079    19631448.967
        49.500          48.700
 125837286.550 8                  23946027.672
        49.300
 126105457.751 8                  23997058.183
        48.700
 107858549.379 7  83889972.960 8  20155939.568    20155941.236    20155949.881
        47.100          49.300
 25  1  1  0 12  0.0000000  0 22G06G14G19G12G11E27G24G03E25E34S35E15
                                R22E36S31S33G17R12R11E02E30R21
 109349857.495 7  85207722.69348  20808577.351    20808577.0794   20808582.4434
        47.500          48.9004
 111357021.626 7  86771762.01843  21190521.035    21190520.7494   21190530.6174
        44.900          22.9004
 106519988.661 8  83002624.77147  20270063.057    20270061.7974   20270063.6984
        50.500          42.1004
 131131537.542 4 102180473.45841  24953501.910    24953502.1424   24953514.8424
        28.500          10.9004
 124585318.036 7  97079422.81743  23707778.629    23707778.6294   23707786.6594
        42.500          20.1004
 144915533.621 6                  27576510.655
        39.400
 120029243.723 6  93529307.99544  22840804.209    22840803.9994   22840806.7704
        39.900          28.7004
 121088856.107 6  94355013.22344  23042444.557    23042444.3974   23042447.3924
        37.100          27.7004


 123256816.148 7                  23454978.760
        44.500
 200833099.201 4                  38217315.746
        26.800
 139242518.266 6                  26496971.747
        37.600
 105323020.507 8  81917952.829 7  19730542.540    19730543.576    19730547.608
        52.000          47.200
 130132916.484 5                  24763472.291
        35.400
 198904779.601 6                  37850329.946
        41.700
 202060622.738 7                  38450860.543
        45.100
 110913714.498 7  86426306.49447  21106166.917    21106166.3814   21106171.1544
        43.100          42.3004
 107541081.357 7  83643084.655 7  20131903.605    20131904.855    20131913.521
        46.600          47.600
 104935520.520 8  81616507.841 8  19637224.355    19637224.200    19637230.636
        48.400          48.400
 125856330.249 7                  23949651.266
        47.700
 126087318.932 7                  23993606.550
        47.300
 107895456.530 7  83918678.510 8  20162837.576    20162836.581    20162846.912
        46.100          49.500
 25  1  1  0 12 15.0000000  0 21G06G14G19G11E27G24G03E25E34S35E15R22
                                E36S31S33G17R12R11E02E30R21
 109320323.115 8  85184708.94248  20802957.457    20802957.1764   20802961.4834
        48.000          48.3004
 111389962.860 6  86797430.41842  21196790.044    21196789.7724   21196795.3734
        41.000          17.2004
 106513060.647 8  82997226.35147  20268744.626    20268743.3794   20268745.1824
        51.200          42.6004
 124532982.508 6  97038642.01543  23697818.024    23697818.0204   23697826.6124
        41.400          20.7004
 144877058.808 6                  27569188.316
        36.900
 120022673.616 6  93524188.50244  22839551.198    22839550.9264   22839557.4794
        38.100          29.4004
 121088101.859 6  94354425.52444  23042301.533    23042301.3554   23042304.0994
        37.000          27.2004


 123242075.714 7                  23452173.910
        46.000


 139198948.281 5                  26488680.279
        34.200
 105302234.308 8  81901785.843 7  19726648.683    19726648.905    19726653.915
        51.000          47.000


 198904787.089 6                  37850324.982
        40.900
 202060620.675 7                  38450856.586
        46.200
 110933447.039 7  86441682.54947  21109922.512    21109921.9894   21109926.0524
        44.900          43.0004
 107503103.700 7  83613546.503 8  20124795.380    20124795.570    20124804.545
        47.300          48.300
 104966587.899 7  81640671.387 8  19643036.849    19643037.238    19643044.622
        47.200          48.100
 125875440.160 7                  23953287.849
        46.400
 126069233.856 7                  23990165.042
        47.600
 107932455.353 8  83947455.400 8  20169751.888    20169752.177    20169760.398
        48.800          48.100
 25  1  1  0 12 30.0000000  0 21G06G14G19G11E27G24G03E25E34S35E15R22
                                E36S31S33G17R12R11E02E30R21
 109290911.538 7  85161790.88647  20797360.428    20797360.1514   20797363.6164
        47.900          47.5004
 111422997.189 7  86823171.37842  21203077.430    21203077.1944   21203077.5654
        42.000          15.6004
 106506200.306 8  82991880.65547  20267439.348    20267438.1104   20267439.1334
        50.900          42.5004
 124480694.095 6  96997897.86143  23687868.773    23687868.7204   23687876.6034
        40.200          22.1004
 144838580.840 4                  27561866.401
        28.500
 120016251.017 6  93519183.94445  22838329.058    22838328.7194   22838336.1224
        38.500          30.3004
 121087496.070 6  94353953.51644  23042186.609    23042186.4404   23042189.3434
        38.700          26.9004


 123227431.886 7                  23449387.322
        47.100


 139155417.193 4                  26480394.426
        26.000
 105281588.873 8  81885728.335 7  19722780.915    19722780.866    19722786.190
        50.200          47.200
 130187315.952 5                  24773819.253
        32.700
 198904793.876 7                  37850321.901
        42.300
 202060617.414 7                  38450852.145
        44.300
 110953215.990 7  86457086.94747  21113683.728    21113683.2144   21113687.7154
        45.200          43.6004
 107465257.028 8  83584110.222 7  20117709.785    20117709.609    20117717.881
        48.000          47.300
 104997819.771 8  81664962.821 7  19648884.580    19648885.087    19648889.404
        49.800          47.300
 125894613.358 7                  23956936.081
        44.700
 126051199.690 8                  23986733.015
        48.400
 107969542.478 8  83976300.925 7  20176682.847    20176684.123    20176690.742
        50.200          47.700
 25  1  1  0 12 45.0000000  0 21G06G14G19G11E27G24G03E25E34S35E15R22
                                E36S31S33G17R12R11E02E30R21
 109261625.597 8  85138970.73347  20791787.332    20791787.0644   20791790.2974
        48.400          47.1004
 111456127.087 7  86848986.91143  21209380.118    21209379.8284   21209379.8974
        44.200          18.6004
 106499410.261 8  82986589.73647  20266147.750    20266146.5164   20266146.7224
        49.900          42.8004
 124428455.641 6  96957192.63143  23677928.817    23677928.7684   23677935.6234
        41.700          22.6004
 144800102.284 4                  27554539.652
        27.700
 120009978.589 6  93514296.38645  22837137.317    22837136.9734   22837143.0894
        38.700          32.3004
 121087041.452 5  94353599.28544  23042099.151    23042098.9234   23042103.5464
        34.400          25.2004


 123212887.410 7                  23446619.953
        47.400




 105261086.897 8  81869782.415 7  19718939.876    19718940.999    19718945.384
        51.700          47.000
 130214586.139 4                  24779004.120
        27.400
 198904803.367 7                  37850333.939
        43.700
 202060617.560 7                  38450855.915
        45.200
 110973023.967 7  86472521.73947  21117453.446    21117452.9414   21117456.7694
        44.500          43.7004
 107427544.645 8  83554778.411 7  20110650.492    20110651.148    20110656.917
        49.600          46.300
 105029218.691 8  81689384.181 7  19654759.857    19654760.174    19654763.931
        48.700          46.100
 125913852.543 7                  23960596.955
        43.800
 126033219.272 8                  23983311.252
        48.200
 108006720.177 8  84005216.907 7  20183630.744    20183631.016    20183638.155
        50.500          46.900
 25  1  1  0 13  0.0000000  0 22G06G14G19G11E27G24G03E25E34S35E15R22
                                E36R23S31S33G17R12R11E02E30R21
 109232460.630 8  85116244.85047  20786237.066    20786236.8164   20786240.7814
        48.700          46.8004
 111489347.723 7  86874873.12144  21215701.309    21215700.9834   21215703.0794
        46.000          24.3004
 106492685.635 8  82981349.80247  20264868.262    20264867.0334   20264867.3424
        51.100          43.3004
 124376262.683 7  96916522.88043  23667996.538    23667996.4494   23668003.7654
        42.600          23.6004
 144761618.588 5                  27547220.136
        32.300
 120003851.592 6  93509522.14045  22835971.172    22835970.8774   22835978.0614
        40.700          35.2004
 121086733.323 5  94353359.18844  23042040.182    23042039.9904   23042046.4174
        34.400          25.1004


 123198437.448 7                  23443869.874
        47.500




 105240723.509 8  81853944.251 7  19715123.558    19715124.554    19715130.906
        49.700          46.700
 130241924.207 5                  24784201.035
        30.900
 123522379.529 6                  23091172.488    23091174.267
        38.400
 198904809.617 7                  37850330.134
        42.600
 202060614.482 7                  38450856.523
        44.300
 110992865.900 7  86487982.98247  21121229.710    21121229.2194   21121232.2684
        45.100          43.4004
 107389961.901 8  83525547.428 7  20103615.556    20103615.399    20103621.919
        49.700          46.200
 105060779.571 7  81713931.482 7  19660664.822    19660664.804    19660670.833
        47.800          47.100
 125933152.948 7                  23964270.099
        44.600
 126015287.937 7                  23979899.095
        47.900
 108043983.130 8  84034199.168 7  20190594.615    20190595.452    20190600.806
        52.300          46.300
 25  1  1  0 13 15.0000000  0 22G06G14G19G11E27G24G03E25E34S35E15R22
                                E36R23S31S33G17R12R11E02E30R21
 109203421.296 7  85093616.86847  20780711.884    20780711.6344   20780715.8144
        46.800          46.4004
 111522663.516 7  86900833.47544  21222041.336    21222041.0234   21222045.4104
        46.900          27.4004
 106486030.995 8  82976164.40047  20263601.452    20263600.2234   20263601.5064
        51.900          43.7004
 124324120.039 6  96875892.29943  23658074.872    23658074.7614   23658082.1554
        40.100          22.4004
 144723134.404 5                  27539895.646
        32.700
 119997874.465 6  93504864.69745  22834833.411    22834833.1164   22834841.0584
        40.300          35.2004
 121086576.207 4  94353236.79843  23042010.014    23042009.8314   23042017.6824
        28.100          20.7004


 123184086.541 7                  23441138.382
        46.900
 200833319.720 5                  38217312.781
        34.000


 105220503.263 8  81838217.441 7  19711337.132    19711337.412    19711341.944
        50.100          46.100
 130269334.190 5                  24789417.184
        35.200
 123469559.368 5                  23081294.752    23081294.226
        34.700
 198904817.892 7                  37850340.946
        43.300
 202060613.340 7                  38450850.741
        44.600
 111012746.301 7  86503474.23547  21125012.137    21125011.6554   21125015.6494
        44.500          43.2004
 107352514.249 8  83496421.519 7  20096606.118    20096606.252    20096612.078
        52.000          46.800
 105092506.836 7  81738608.267 8  19666601.797    19666601.571    19666609.027
        46.800          48.000
 125952519.094 7                  23967954.433
        44.200
 125997410.405 7                  23976496.882
        47.000
 108081335.546 8  84063251.075 7  20197575.043    20197575.516    20197581.514
        51.000          46.900
 25  1  1  0 13 30.0000000  0 21G06G14G19G12G11E27G24E25E34S35E15R22
                                E36S31S33G17R12R11E02E30R21
 109174502.189 8  85071082.53147  20775209.116    20775208.8484   20775213.5684
        48.100          47.0004
 111556068.811 7  86926863.51344  21228397.666    21228397.3364   21228403.0784
        46.100          25.7004
 106479440.829 8  82971029.27247  20262346.622    20262345.4024   20262347.6674
        49.200          42.1004
 130815811.121 6 101934473.60443  24893432.133    24893432.3344   24893441.1014
        36.700          20.5004
 124272022.211 7  96835296.71543  23648157.355    23648157.2214   23648168.0054
        42.200          18.4004
 144684644.203 6                  27532572.299
        39.100
 119992041.736 6  93500319.75546  22833723.101    22833722.8114   22833730.9244
        41.100          36.0004


 123169829.151 7                  23438426.247
        47.800


 138981683.435 6                  26447337.442
        37.000
 105200420.559 8  81822597.542 8  19707575.535    19707575.914    19707580.049
        51.400          48.200
 130296810.783 5                  24794646.026
        35.700
 198904823.517 6                  37850330.219
        40.600
 202060609.347 6                  38450850.772
        40.600
 111032659.534 7  86518991.05147  21128801.965    21128801.4874   21128804.9114
        44.900          42.9004
 107315196.138 8  83467396.399 7  20089618.959    20089619.583    20089626.751
        48.700          47.300
 105124394.706 8  81763409.908 8  19672570.006    19672570.628    19672576.331
        49.200          48.500
 125971945.506 7                  23971652.538
        47.600
 125979581.225 7                  23973103.759
        46.600
 108118771.300 8  84092367.803 7  20204569.933    20204569.841    20204577.569
        49.000          46.900
 25  1  1  0 13 45.0000000  0 24G06G14G19G12G11G03E27G24E25E34S35R13
                                E15R22E36R23S31S33G17R12R11E02E30R21
 109145712.610 7  85048649.13047  20769729.409    20769729.1374   20769735.2264
        47.100          46.8004
 111589572.706 7  86952970.46044  21234774.098    21234773.7634   21234777.6444
        44.200          24.6004
 106472924.264 8  82965951.45147  20261107.198    20261105.9784   20261107.3694
        50.800          42.0004
 130763196.174 5 101893475.01642  24883417.045    24883417.3314   24883430.6234
        33.900          17.1004
 124219978.887 5  96794743.56842  23638254.467    23638254.4144   23638262.4984
        34.500          16.8004


 144646157.379 6                  27525248.168
        38.900
 119986362.554 6  93495894.46546  22832643.868    22832643.5824   22832649.3054
        41.900          36.2004


 123155674.487 7                  23435732.727
        47.300


 127107380.399 5                  23803125.262    23803125.728
        32.300
 138938355.225 6                  26439091.935
        38.000
 105180484.517 8  81807091.789 7  19703840.130    19703840.544    19703846.329
        50.300          47.100


 123363968.885 5                  23061589.551
        35.300
 198904833.715 6                  37850341.496
        41.100
 202060609.848 7                  38450860.203
        44.000
 111052614.769 7  86534540.60646  21132598.269    21132597.7874   21132601.7084
        43.700          40.3004
 107278017.563 8  83438479.742 7  20082659.796    20082660.043    20082665.467
        51.800          46.300
 105156452.188 7  81788343.518 8  19678568.918    19678568.630    19678576.900
        47.500          50.700
 125991441.281 7                  23975361.380
        46.300
 125961809.727 7                  23969722.392
        46.700
 108156299.593 8  84121556.451 7  20211583.639    20211582.937    20211590.008
        48.500          47.200
 25  1  1  0 14  0.0000000  0 22G06G14G19G11G03E27G24E34S35R13E15R22
                                E36R23S31S33G17R12R11E02E30R21
 109117045.902 7  85026311.47147  20764274.100    20764273.8284   20764280.2724
        47.900          46.9004
 111623168.359 7  86979148.93044  21241166.622    21241166.3054   21241171.4794
        43.400          25.2004
 106466474.297 8  82960925.53946  20259879.097    20259877.8774   20259879.1804
        49.100          40.5004
 124167983.344 5  96754227.65242  23628361.123    23628360.9894   23628366.3014
        33.900          16.9004
 121087002.519 6  94353520.91043  23042093.196    23042093.5314   23042092.8154
        37.200          21.8004
 144607667.150 6                  27517923.117
        38.900
 119980830.005 7  93491583.46545  22831590.584    22831590.3034   22831597.0654
        44.000          35.5004
 123141615.788 7                  23433057.362
        45.300


 127044310.054 4                  23791319.773    23791317.979
        29.700
 138895066.102 6                  26430855.403
        38.200
 105160688.368 8  81791694.814 7  19700132.535    19700132.984    19700137.418
        51.100          46.600
 130351982.783 5                  24805148.213
        34.500
 123311369.690 5                  23051759.809    23051760.031
        34.600
 198904842.827 7                  37850345.802
        43.300
 202060609.384 7                  38450857.502
        44.200
 111072605.134 7  86550117.47046  21136403.638    21136403.1874   21136405.2214
        43.500          37.8004
 107240971.916 8  83409666.562 7  20075722.763    20075722.366    20075731.474
        49.300          45.200
 105188672.319 8  81813403.629 8  19684598.801    19684599.481    19684605.345
        50.400          50.100
 126010999.720 7                  23979083.679
        46.900
 125944089.258 7                  23966350.321
        47.500
 108193912.748 8  84150811.103 7  20218612.782    20218612.801    20218618.960
        50.600          46.400
 25  1  1  0 14 15.0000000  0 22G06G14G19G11G03E27G24E34S35R13E15R22
                                E36R23S31S33G17R12R11E02E30R21
 109088500.646 7  85004068.44547  20758841.797    20758841.5344   20758847.6984
        47.300          46.2004
 111656854.035 6  87005397.46643  21247577.388    21247577.0534   21247582.3054
        39.900          23.6004
 106460089.378 8  82955950.30646  20258664.308    20258663.0924   20258663.9134
        49.000          39.5004
 124116034.346 6  96713748.02943  23618476.990    23618476.8074   23618479.6064
        36.600          18.4004
 121087440.698 6  94353862.36843  23042178.260    23042178.6534   23042174.9364
        39.600          21.7004
 144569172.037 6                  27510596.763
        37.600
 119975442.655 6  93487385.59945  22830564.354    22830564.0824   22830572.6214
        41.600          34.0004
 123127651.373 7                  23430399.836
        47.100


 126981252.026 4                  23779510.225    23779510.615
        28.300
 138851814.600 6                  26422627.403
        39.600
 105141030.408 8  81776405.338 7  19696448.324    19696448.854    19696453.646
        49.400          46.200
 130379669.638 5                  24810417.615
        35.100
 123258822.285 6                  23041933.693    23041934.785
        36.200
 198904849.352 6                  37850339.412
        41.100
 202060607.179 7                  38450858.218
        44.100
 111092628.922 7  86565720.39545  21140213.519    21140213.0904   21140213.3494
        44.300          35.0004
 107204058.064 8  83380955.809 7  20068812.894    20068813.651    20068820.993
        49.100          45.400
 105221053.071 8  81838588.668 8  19690658.948    19690658.870    19690664.424
        50.600          49.500
 126030619.246 7                  23982817.347
        46.700
 125926418.399 8                  23962987.366
        48.300
 108231608.888 8  84180130.365 7  20225657.156    20225656.537    20225663.134
        49.600          46.300
 25  1  1  0 14 30.0000000  0 24G06G14G19G12G11G03E27G24E25E34S35R13
                                E15R22E36R23S31S33G17R12R11E02E30R21
 109060078.334 7  84981921.21847  20753432.787    20753432.5014   20753439.1904
        44.000          44.6004
 111690630.935 6  87031717.13043  21254005.625    21254005.2544   21254009.8784
        37.700          21.3004
 106453770.858 8  82951026.81946  20257461.521    20257460.2964   20257461.3604
        49.900          39.0004
 130605339.613 5                  24853372.900
        30.700
 124064133.359 6  96673305.73343  23608597.883    23608597.7544   23608603.4644
        38.800          18.7004
 121088026.887 6  94354319.16443  23042287.556    23042287.8514   23042288.2474
        37.200          20.1004
 144530673.604 5                  27503271.685
        33.900
 119970201.799 7  93483301.91245  22829567.703    22829567.4354   22829576.5634
        43.400          34.0004


 123113782.708 8                  23427760.814
        49.200


 126918208.344 5                  23767705.535    23767705.577
        31.800
 138808602.447 5                  26414406.579
        35.600
 105121512.078 8  81761224.431 7  19692792.920    19692792.891    19692796.869
        51.200          45.800


 123206342.952 6                  23032124.821    23032125.499
        38.400
 198904854.655 6                  37850348.418
        41.600
 202060601.395 7                  38450859.031
        44.100
 111112687.548 7  86581350.55245  21144030.276    21144029.8524   21144029.6154
        46.000          34.8004
 107167277.936 8  83352349.119 7  20061926.485    20061927.750    20061935.499
        48.100          43.800
 105253595.834 8  81863899.709 8  19696748.328    19696748.088    19696755.521
        50.500          50.500
 126050301.262 7                  23986562.601
        47.800
 125908798.675 8                  23959634.102
        48.200
 108269389.062 8  84209514.973 7  20232714.584    20232713.822    20232723.486
        48.200          46.800
 25  1  1  0 14 45.0000000  0 23G06G14G19G12G11G03E27G24E25E34S35E15
                                R22E36R23S31S33G17R12R11E02E30R21
 109031784.230 6  84959873.91847  20748049.235    20748048.9224   20748054.9364
        40.800          43.0004
 111724504.217 5  87058111.87343  21260448.837    21260448.5604   21260454.5644
        34.900          19.1004
 106447523.817 8  82946159.03946  20256272.145    20256270.9114   20256272.0514
        48.300          37.8004
 130552720.276 6                  24843364.008
        37.000
 124012285.881 6  96632905.17343  23598731.469    23598731.4254   23598738.1084
        40.700          22.9004
 121088766.359 6  94354895.43942  23042427.357    23042427.4244   23042430.5394
        37.000          16.1004


 119965112.532 7  93479336.33545  22828598.073    22828597.7744   22828608.8014
        43.900          32.1004


 123100014.905 7                  23425140.703
        47.800




 105102138.411 8  81746156.086 7  19689162.974    19689163.311    19689168.528
        52.300          46.700


 123153936.899 5                  23022322.584    23022326.747
        33.600
 198904863.029 6                  37850340.597
        39.200
 202060601.447 7                  38450856.228
        46.200
 111132785.922 7  86597011.58845  21147855.571    21147855.1474   21147853.4064
        44.400          32.7004
 107130637.165 8  83323850.769 7  20055068.961    20055069.560    20055075.011
        50.100          42.700
 105286305.569 8  81889340.600 8  19702870.639    19702870.620    19702875.460
        51.500          49.400
 126070050.884 7                  23990320.810
        47.700
 125891235.321 7                  23956292.475
        47.700
 108307257.952 8  84238968.549 7  20239792.284    20239793.263    20239800.656
        50.200          47.600
 25  1  1  0 15  0.0000000  0 22G06G14G19G12G11G03E27G24E25E34S35E15
                                R22E36S31S33G17R12R11E02E30R21
 109003611.674 7  84937921.33547  20742689.503    20742689.1954   20742692.9194
        46.400          43.8004


 106441341.576 8  82941341.73646  20255096.328    20255095.0994   20255095.2014
        48.200          37.3004
 130500097.650 5 101688467.48141  24833348.068    24833348.0104   24833360.1084
        34.100          11.9004
 123960485.369 7  96592541.21744  23588876.618    23588876.6104   23588882.5134
        42.300          24.9004
 121089652.367 6  94355585.67742  23042595.431    23042595.4534   23042599.1684
        37.600          12.1004


 119960168.142 7  93475483.62945  22827658.483    22827658.2204   22827666.3484
        42.200          32.2004


 123086341.240 7                  23422538.589
        46.700
 200833502.980 6                  38217344.601
        37.500
 138722317.185 5                  26397979.449
        32.600
 105082902.582 8  81731194.907 7  19685558.914    19685559.577    19685565.562
        51.400          47.800
 130463178.942 5                  24826315.853
        33.800
 198904868.768 6                  37850346.513
        40.000
 202060597.050 7                  38450854.618
        43.300
 111152917.180 7  86612698.31545  21151686.369    21151685.9724   21151685.2964
        47.000          32.4004
 107094129.306 8  83295455.813 7  20048233.921    20048234.918    20048240.274
        50.300          42.200
 105319175.151 8  81914905.814 8  19709020.862    19709020.765    19709027.268
        50.300          49.800
 126089861.395 8                  23994090.209
        48.300
 125873721.807 8                  23952959.923
        48.400
 108345208.545 8  84268485.699 8  20246884.937    20246885.257    20246893.110
        51.100          48.500
 25  1  1  0 15 15.0000000  0 22G06G14G19G12G11G03E27G24E25E34S35E15
                                R22E36S31S33G17R12R11E02E30R21
 108975563.385 8  84916065.59347  20737351.002    20737350.6894   20737355.0274
        48.400          45.4004


 106435226.580 8  82936576.82646  20253933.046    20253931.8084   20253931.4884
        49.800          38.2004
 130447474.607 5 101647462.63042  24823334.178    24823334.1024   24823343.5484
        35.800          15.5004
 123908734.752 6  96552216.07743  23579027.239    23579027.2174   23579035.9694
        39.200          23.5004
 121090687.433 5  94356392.12641  23042792.055    23042792.1044   23042795.5084
        34.900          11.3004
 144415150.205 6                  27481291.299
        36.200
 119955371.109 7  93471745.72445  22826745.467    22826745.1994   22826752.3314
        42.600          30.9004


 123072764.240 7                  23419955.251
        46.400
 200833537.191 6                  38217353.665
        37.900
 138679227.817 5                  26389779.541
        34.100
 105063807.205 8  81716342.963 7  19681982.242    19681982.878    19681987.191
        52.100          47.700


 198904874.241 6                  37850344.407
        40.800
 202060592.440 7                  38450850.705
        43.800
 111173083.743 7  86628412.56845  21155523.725    21155523.3324   21155524.8594
        45.900          35.4004
 107057757.364 8  83267166.611 7  20041424.631    20041424.958    20041431.263
        50.400          43.500
 105352206.964 8  81940597.255 8  19715203.028    19715203.217    19715208.656
        50.200          48.700
 126109735.361 8                  23997872.407
        48.200
 125856260.743 8                  23949637.314
        48.900
 108383242.680 8  84298067.798 8  20253993.005    20253994.618    20254001.743
        53.200          49.300
 25  1  1  0 15 30.0000000  0 23G06G14G19G12G11G03E27G24E25E34S35E15
                                R22E36R23S31S33G17R12R11E02E30R21
 108947643.303 8  84894309.72747  20732037.908    20732037.6044   20732041.8274
        49.100          45.9004


 106429182.559 8  82931867.21846  20252782.886    20252781.6484   20252782.0314
        50.200          40.5004
 130394855.178 6 101606460.71642  24813319.728    24813319.5504   24813330.4544
        38.000          15.9004
 123857037.928 4  96511932.89843  23569187.708    23569187.7214   23569198.7444
        29.300          19.9004


 144376648.552 6                  27473964.502
        37.500
 119950725.253 7  93468125.59645  22825861.353    22825861.0854   22825868.5914
        42.800          30.1004


 123059287.709 7                  23417390.451
        46.900
 200833574.809 5                  38217383.799
        34.500
 138636183.246 6                  26381589.906
        37.900
 105044856.044 8  81701603.204 7  19678431.938    19678432.365    19678437.014
        51.900          47.000


 122997130.564 6                  22993011.821    22993010.812
        40.100
 198904882.107 6                  37850344.711
        41.400
 202060591.704 7                  38450855.454
        44.300
 111193289.377 7  86644157.19646  21159368.713    21159368.3024   21159371.6314
        46.000          36.8004
 107021525.739 8  83238986.508 7  20034640.234    20034640.962    20034650.052
        48.800          44.800
 105385404.681 8  81966417.716 8  19721415.247    19721416.130    19721420.602
        50.500          48.400
 126129676.578 7                  24001667.175
        47.600
 125838856.129 8                  23946325.314
        48.300
 108421364.196 8  84327717.840 8  20261117.364    20261118.315    20261125.266
        52.200          49.400
 25  1  1  0 15 45.0000000  0 22G06G14G19G12G11G03E27G24E34S35E15R22
                                E36R23S31S33G17R12R11E02E30R21
 108919846.802 8  84872650.15147  20726748.091    20726747.8054   20726751.7154
        49.200          46.3004


 106423204.784 8  82927209.22246  20251645.253    20251644.0104   20251645.0314
        48.800          40.4004
 130342234.795 5 101565458.07442  24803307.561    24803307.3874   24803318.5674
        35.100          16.0004
 123805390.381 4  96471688.12942  23559360.450    23559360.4504   23559370.8514
        29.800          15.4004
 121093290.248 5  94358387.28743  23043280.523    23043280.7774   23043277.9024
        32.600          20.1004
 144338144.074 6                  27466637.483
        37.600
 119946225.883 7  93464619.68944  22825005.152    22825004.8894   22825009.1674
        44.000          29.6004
 123045906.945 7                  23414844.324
        46.900
 200833610.364 5                  38217395.846
        32.200
 138593178.676 6                  26373404.449
        39.200
 105026044.312 8  81686971.915 7  19674906.497    19674907.184    19674912.700
        49.900          46.500


 122945002.655 6                  22983261.365    22983262.764
        39.500
 198904889.045 7                  37850348.727
        42.300
 202060588.380 7                  38450846.811
        45.700
 111213529.287 7  86659928.58546  21163220.172    21163219.7704   21163224.6134
        45.800          37.1004
 106985430.006 7  83210912.049 7  20027884.841    20027883.830    20027893.811
        47.600          46.500
 105418763.424 8  81992363.433 7  19727657.505    19727657.768    19727663.131
        50.400          47.000
 126149680.357 8                  24005473.637
        48.100
 125821503.388 7                  23943023.004
        47.900
 108459567.526 8  84357431.573 8  20268256.761    20268257.457    20268264.144
        52.400          48.800
 25  1  1  0 16  0.0000000  0 23G06G14G19G12G11G03E27G24E25E34S35E15
                                R22E36R23S31S33G17R12R11E02E30R21
 108892173.875 8  84851086.85847  20721482.483    20721482.1934   20721485.5884
        48.400          45.3004
 111895304.669 6  87191116.54044  21292942.812    21292942.6254   21292951.1644
        41.500          24.7004
 106417293.109 8  82922602.75546  20250520.022    20250518.7704   20250520.0114
        48.700          39.3004
 130289613.455 5 101524454.46141  24793292.324    24793292.1014   24793306.1844
        33.800           9.0004
 123753792.179 5  96431481.87341  23549542.927    23549542.7584   23549552.0044
        35.500           8.2004
 121094774.977 5  94359544.29543  23043562.569    23043563.0114   23043558.8724
        31.400          20.4004
 144299636.720 6                  27459310.441
        39.400
 119941872.754 7  93461227.63846  22824176.713    22824176.4414   22824179.9594
        46.000          36.0004


 123032621.815 7                  23412315.800
        45.500


 138550214.151 6                  26365227.429
        37.700
 105007371.729 8  81672448.811 7  19671409.276    19671409.780    19671414.670
        50.500          47.700


 122892943.478 6                  22973529.192    22973529.907
        39.700
 198904894.773 7                  37850352.943
        43.800
 202060584.298 7                  38450853.200
        43.300
 111233803.156 7  86675726.36846  21167078.231    21167077.8204   21167083.0204
        45.700          36.9004
 106949470.438 7  83182943.559 7  20021152.701    20021152.616    20021161.439
        47.100          46.100
 105452282.604 8  82018433.863 7  19733930.380    19733931.168    19733934.304
        50.600          45.000
 126169746.550 7                  24009292.161
        47.300
 125804202.497 7                  23939730.788
        46.500
 108497852.382 8  84387208.677 8  20275410.973    20275410.940    20275418.709
        52.000          48.900
 25  1  1  0 16 15.0000000  0 22G06G14G19G12G11G03E27G24E34S35E15R22
                                E36R23S31S33G17R12R11E02E30R21
 108864629.491 8  84829623.74647  20716240.268    20716239.9554   20716245.0654
        48.500          45.9004
 111929731.824 6  87217942.88844  21299493.287    21299493.1624   21299496.3414
        41.300          28.8004
 106411452.345 8  82918051.51146  20249408.919    20249407.6674   20249408.4244
        49.000          40.3004
 130236996.206 4 101483454.5234   24783280.338    24783280.3824   24783293.9574
        24.500           4.7004
 123702248.750 6  96391318.30442  23539736.806    23539736.2884   23539743.3254
        39.200          14.1004


 144261131.488 6                  27451982.103
        40.000
 119937670.702 7  93457953.37745  22823376.436    22823376.1824   22823380.4774
        44.400          34.5004
 123019437.075 7                  23409806.759
        46.900


 138507294.556 6                  26357059.062
        37.300
 104988843.227 8  81658037.791 8  19667938.834    19667938.089    19667945.469
        49.700          48.300


 122840958.273 7                  22963813.191    22963811.855
        42.100
 198904903.072 6                  37850350.055
        41.100
 202060583.203 7                  38450848.997
        46.200
 111254116.040 7  86691554.61045  21170943.478    21170943.0494   21170946.6584
        45.600          35.5004
 106913652.531 8  83155085.181 7  20014448.350    20014447.910    20014456.965
        48.200          46.900
 105485967.111 8  82044632.901 7  19740233.605    19740234.381    19740240.106
        50.500          46.400
 126189880.026 7                  24013123.452
        47.100
 125786958.460 7                  23936449.528
        46.100
 108536223.172 8  84417052.561 7  20282581.472    20282582.036    20282587.645
        52.900          47.100
 25  1  1  0 16 30.0000000  0 21G06G14G19G11G03E27G24E34S35E15R22E36
                                R23S31S33G17R12R11E02E30R21
 108837207.013 8  84808255.61647  20711022.238    20711021.9214   20711027.1964
        48.700          45.4004
 111964247.382 7  87244838.10745  21306060.501    21306060.5364   21306062.7984
        43.000          31.9004
 106405675.780 8  82913550.31146  20248309.400    20248308.1534   20248310.0954
        48.700          41.9004
 123650753.154 7  96351192.00043  23529932.698    23529932.1444   23529942.2844
        42.000          18.3004
 121098142.347 6  94362175.88443  23044205.273    23044205.3174   23044209.5034
        38.000          23.2004
 144222621.673 6                  27444654.273
        39.400
 119933612.947 6  93454791.52745  22822604.147    22822603.9064   22822606.8694
        41.000          31.6004
 123006346.079 7                  23407315.076
        45.400


 138464413.362 5                  26348899.601
        34.900
 104970451.878 8  81643733.376 7  19664493.738    19664493.857    19664498.890
        50.600          47.400


 122789040.382 6                  22954108.591    22954108.666
        39.100
 198904908.189 7                  37850350.484
        43.000
 202060578.505 7                  38450852.485
        46.900
 111274461.144 7  86707407.92045  21174815.808    21174815.3754   21174814.7604
        46.300          33.3004
 106877969.715 7  83127331.882 7  20007768.672    20007768.187    20007776.222
        47.600          45.900
 105519809.760 8  82070954.951 7  19746566.983    19746566.860    19746573.748
        50.900          47.700
 126210074.021 7                  24016966.347
        46.100
 125769764.674 7                  23933176.370
        45.100
 108574672.688 8  84446957.752 7  20289765.755    20289765.881    20289773.176
        50.700          46.500
 25  1  1  0 16 45.0000000  0 22G06G14G19G12G11G03E27G24E34S35E15R22
                                E36R23S31S33G17R12R11E02E30R21
 108809908.338 8  84786983.93947  20705827.673    20705827.3784   20705831.8994
        48.500          44.8004
 111998853.049 7  87271803.53845  21312646.893    21312646.9644   21312648.1924
        45.200          33.9004
 106399965.184 8  82909100.50246  20247222.912    20247221.6564   20247224.1574
        48.500          41.4004
 130131783.251 5                  24763254.852
        35.100
 123599307.680 7  96311104.74443  23520143.356    23520142.8834   23520151.1884
        42.300          23.6004
 121100074.870 6  94363681.73144  23044570.316    23044570.2634   23044578.7424
        36.200          25.3004
 144184109.258 6                  27437325.740
        38.600
 119929701.234 6  93451743.50944  22821861.088    22821860.8164   22821861.3294
        40.100          29.6004
 122993350.532 7                  23404842.886
        46.300


 138421572.571 5                  26340750.855
        35.900
 104952199.488 8  81629537.144 7  19661074.469    19661073.643    19661078.739
        49.500          46.200


 122737191.656 6                  22944415.937    22944418.700
        37.700
 198904911.951 7                  37850340.307
        42.100
 202060572.416 7                  38450847.964
        45.100
 111294839.982 7  86723287.57146  21178694.120    21178693.7094   21178693.2714
        46.600          36.1004
 106842424.341 8  83099685.576 7  20001113.937    20001114.788    20001121.312
        48.300          45.300
 105553812.247 8  82097401.312 7  19752930.329    19752930.355    19752936.442
        50.800          47.700
 126230330.354 7                  24020820.882
        45.000
 125752623.052 7                  23929914.479
        45.400
 108613202.151 8  84476925.102 7  20296964.580    20296965.310    20296973.182
        50.300          45.600
 25  1  1  0 17  0.0000000  0 22G06G14G19G12G11G03E27G24E34S35E15R22
                                E36R23S31S33G17R12R11E02E30R21
 108782742.586 7  84765815.85147  20700658.050    20700657.7644   20700662.2124
        46.800          42.4004
 112033557.730 7  87298846.14545  21319251.363    21319251.4034   21319252.7704
        45.900          34.7004
 106394329.423 8  82904709.01846  20246150.420    20246149.1644   20246151.8224
        49.100          41.1004
 130079172.122 6 101360447.42541  24753241.870    24753241.7014   24753256.7404
        36.200           8.3004
 123547921.543 6  96271063.66043  23510364.205    23510363.7904   23510373.5884
        39.200          23.5004
 121102164.740 5  94365310.24843  23044966.422    23044966.4054   23044976.7264
        33.200          21.3004
 144145603.267 6                  27429998.483
        38.200
 119925944.590 6  93448816.29844  22821146.255    22821145.8984   22821147.2554
        41.600          29.9004
 122980459.446 7                  23402389.975
        47.200


 138378781.126 5                  26332604.351
        35.400
 104934095.107 8  81615456.025 7  19657683.410    19657683.321    19657686.847
        50.800          46.200


 122685421.463 6                  22934756.375    22934755.064
        37.500
 198904922.567 6                  37850350.202
        41.600
 202060573.292 7                  38450847.606
        45.400
 111315261.298 7  86739200.30846  21182579.947    21182579.5504   21182581.0384
        47.600          37.3004
 106807025.965 7  83072153.548 7  19994486.393    19994486.972    19994493.996
        46.800          44.100
 105587983.351 8  82123978.823 8  19759324.486    19759324.990    19759331.010
        51.100          48.600
 126250658.002 7                  24024688.718
        44.300
 125735542.749 7                  23926664.057
        45.600
 108651820.733 8  84506961.807 7  20304181.447    20304182.393    20304189.285
        51.000          44.300
 25  1  1  0 17 15.0000000  0 22G06G14G19G12G11G03E27G24E34S35E15R22
                                E36R23S31S33G17R12R11E02E30R21
 108755700.141 7  84744743.83146  20695511.764    20695511.4604   20695516.0144
        46.500          40.2004
 112068351.562 7  87325958.20845  21325871.821    21325871.8384   21325874.0094
        47.300          34.5004
 106388758.525 8  82900368.07946  20245089.846    20245088.5814   20245090.9434
        48.700          39.8004
 130026560.061 5 101319450.42841  24743231.446    24743231.3304   24743248.0194
        33.800           8.4004
 123496585.140 6  96231061.35543  23500596.932    23500596.5614   23500603.9784
        39.300          22.9004
 121104402.059 4  94367053.65143  23045393.929    23045393.8764   23045402.1744
        28.700          19.7004
 144107094.119 6                  27422670.294
        37.300
 119922333.185 6  93446002.26945  22820457.686    22820457.3024   22820463.1514
        39.700          34.5004
 122967663.086 8                  23399954.596
        50.400
 200833829.995 6                  38217412.324
        37.700
 138336029.642 6                  26324469.524
        41.900
 104916128.769 7  81601482.222 7  19654314.858    19654315.143    19654322.108
        46.900          47.700


                                                  22925068.961

 198904930.497 6                  37850356.919
        41.000
 202060571.917 7                  38450847.432
        44.300
 111335715.126 7  86755138.35946  21186471.407    21186471.0184   21186473.6264
        46.300          36.8004
 106771765.062 7  83044728.428 7  19987887.909    19987886.718    19987892.916
        46.500          43.700
 105622312.939 8  82150679.605 8  19765748.382    19765748.140    19765755.801
        49.600          49.200
 126271047.291 7                  24028568.406
        45.400
 125718514.113 7                  23923424.336
        44.500
 108690517.682 8  84537059.351 7  20311414.638    20311415.126    20311421.669
        52.200          45.900
 25  1  1  0 17 30.0000000  0 21G06G14G19G11G03E27G24E34S35E15R22E36
                                R23S31S33G17R12R11E02E30R21
 108728784.572 7  84723770.72246  20690389.108    20690388.8404   20690394.9154
        46.200          39.9004
 112103237.882 7  87353142.34245  21332510.205    21332510.2134   21332512.9464
        47.300          35.1004
 106383255.996 8  82896080.41646  20244043.355    20244042.0904   20244043.0054
        50.000          40.5004
 123445302.290 6  96191100.82443  23490838.370    23490838.0314   23490843.8304
        40.100          22.2004
 121106790.656 6  94368914.86744  23045852.091    23045852.0784   23045855.4894
        36.600          24.9004
 144068585.297 5                  27415340.422
        33.300
 119918870.469 6  93443304.12045  22819798.182    22819797.8074   22819805.4424
        41.100          34.8004
 122954964.834 8                  23397537.834
        48.900
 200833868.115 6                  38217413.907
        40.900
 138293321.604 6                  26316342.454
        38.200
 104898303.968 8  81587618.545 8  19650977.451    19650977.408    19650982.978
        48.400          48.000


 122582091.962 6                  22915415.336    22915415.131
        38.700
 198904940.035 6                  37850347.224
        41.200
 202060570.767 7                  38450851.041
        43.900
 111356205.162 7  86771104.68146  21190370.949    21190370.5604   21190371.3784
        46.700          36.9004
 106736645.647 7  83017413.401 7  19981311.380    19981310.871    19981319.264
        43.700          43.800
 105656804.394 8  82177506.278 8  19772203.796    19772203.576    19772210.003
        50.900          49.900
 126291501.522 7                  24032461.292
        43.300
 125701540.798 7                  23920194.498
        46.600
 108729296.347 8  84567220.521 7  20318661.882    20318662.070    20318669.226
        51.900          46.800
 25  1  1  0 17 45.0000000  0 22G06G14G19G12G11G03E27G24E34S35E15R22
                                E36R23S31S33G17R12R11E02E30R21
 108701991.030 7  84702892.68346  20685290.004    20685289.7634   20685296.6934
        44.900          39.9004
 112138211.744 7  87380394.66345  21339166.192    21339166.1964   21339168.5094
        46.900          34.0004
 106377817.000 8  82891842.25546  20243008.064    20243006.7994   20243007.6544
        48.800          39.1004
 129921319.637 4                  24723206.985    24723206.9594
        25.800
 123394068.236 6  96151178.24743  23481089.289    23481088.9184   23481090.9664
        40.700          21.9004
 121109325.343 6  94370889.97644  23046331.520    23046331.5464   23046337.1194
        37.600          26.3004


 119915551.437 6  93440717.94546  22819165.658    22819165.2924   22819175.2344
        41.500          37.0004
 122942359.883 8                  23395139.873
        49.200


 138250652.328 7                  26308224.683
        42.100
 104880615.624 7  81573860.945 8  19647663.036    19647662.925    19647668.714
        46.600          48.100


 122530531.384 6                  22905790.863    22905786.225
        40.500
 198904945.037 6                  37850345.109
        41.100
 202060566.941 7                  38450848.250
        45.500
 111376726.373 7  86787095.24146  21194276.152    21194275.7774   21194275.4444
        46.300          36.0004
 106701663.192 7  82990204.838 7  19974763.876    19974764.040    19974770.801
        47.300          43.900
 105691452.452 8  82204454.781 8  19778688.030    19778687.670    19778693.833
        50.200          49.000
 126312015.955 7                  24036365.438
        43.300
 125684617.988 7                  23916974.010
        45.500
 108768151.277 8  84597441.040 7  20325922.407    20325923.158    20325929.706
        51.700          47.400
 25  1  1  0 18  0.0000000  0 21G06G14G19G11G03E27G24E34S35E15R22E36
                                R23S31S33G17R12R11E02E30R21
 108675326.716 7  84682115.40346  20680217.466    20680217.2614   20680221.3884
        46.300          37.6004
 112173279.984 8  87407720.53045  21345839.467    21345839.4544   21345840.8234
        49.600          34.1004
 106372448.555 8  82887659.11646  20241987.045    20241985.7714   20241985.8714
        50.600          39.3004
 123342890.142 6  96111299.31843  23471350.981    23471350.5794   23471351.8034
        36.600          21.5004
 121112013.485 5  94372984.63544  23046842.652    23046842.6744   23046850.3004
        32.300          24.5004


 119912383.153 6  93438249.19946  22818563.540    22818563.2194   22818571.8874
        39.400          36.7004
 122929855.153 8                  23392760.190
        48.700
 200833959.709 6                  38217438.094
        36.000
 138208028.913 6                  26300111.858
        41.300
 104863070.859 7  81560215.034 8  19644377.394    19644377.320    19644381.745
        47.800          48.000
 130803110.640 5                  24891006.791
        34.500
 122479045.545 6                  22896150.293    22896153.049
        36.300
 198904952.513 7                  37850355.617
        42.200
 202060565.462 7                  38450838.900
        44.200
 111397285.630 7  86803115.46945  21198188.121    21198187.7244   21198188.0254
        43.000          34.7004
 106666825.264 8  82963108.673 7  19968242.529    19968242.572    19968249.373
        48.700          44.100
 105726264.139 8  82231530.499 8  19785202.502    19785202.900    19785208.522
        52.400          49.400
 126332597.588 7                  24040281.902
        46.700
 125667752.853 7                  23913765.020
        46.500
 108807089.125 8  84627726.045 8  20333199.124    20333199.275    20333207.531
        51.700          48.600
 25  1  1  0 18 15.0000000  0 22G06G14G19G12G11G03E27G24E34S35E15R22
                                E36R23S31S33G17R12R11E02E30R21
 108648785.829 7  84661434.24046  20675167.980    20675167.7614   20675169.9034
        43.900          37.3004
 112208436.644 8  87435115.30045  21352528.849    21352528.8234   21352530.3974
        49.500          34.9004
 106367144.749 8  82883526.32946  20240977.598    20240976.3294   20240977.0414
        50.400          40.3004
 129816289.082 5                  24703208.718
        32.500
 123291762.561 6  96071459.75043  23461621.384    23461620.9464   23461622.8854
        41.200          22.6004
 121114848.891 5  94375194.02243  23047384.861    23047384.8874   23047390.4454
        34.100          23.3004
 143953053.059 5                  27393354.593
        35.000
 119909359.614 6  93435893.29246  22817988.180    22817987.9034   22817996.3624
        39.300          36.1004
 122917444.807 8                  23390398.349
        49.100
 200833994.248 6                  38217441.394
        38.100
 138165445.649 6                  26292008.805
        41.100
 104845663.616 8  81546676.124 8  19641116.089    19641116.684    19641121.516
        48.800          48.900
 130831878.671 5                  24896480.275
        31.500
 122427629.086 6                  22886544.182    22886545.155
        37.100
 198904958.548 6                  37850360.559
        41.800
 202060560.671 7                  38450844.110
        43.500
 111417876.954 7  86819160.64645  21202106.309    21202105.9034   21202107.5904
        42.900          34.8004
 106632126.210 7  82936120.583 7  19961744.690    19961745.242    19961751.404
        47.200          43.000
 105761233.027 8  82258728.542 8  19791745.753    19791745.242    19791751.973
        50.400          49.000
 126353240.552 8                  24044210.474
        48.200
 125650939.713 7                  23910565.633
        47.100
 108846103.473 8  84658070.561 8  20340490.933    20340490.309    20340497.662
        51.800          48.300
 25  1  1  0 18 30.0000000  0 22G06G14G19G12G11G03E27G24E34S35E15R22
                                E36R23S31S33G17R12R11E02E30R21
 108622372.743 7  84640852.66146  20670141.884    20670141.6614   20670142.9544
        44.700          37.0004
 112243685.866 8  87462582.21545  21359236.992    21359236.9664   21359238.3544
        49.000          35.1004
 106361909.733 8  82879447.13546  20239981.402    20239980.1374   20239980.7324
        51.500          40.5004
 129763687.178 5                  24693186.194
        31.000
 123240689.825 7  96031662.88444  23451901.403    23451900.9654   23451904.7894
        43.000          25.2004
 121117836.123 5  94377521.69243  23047952.350    23047952.3724   23047957.8364
        31.100          21.2004
 143914540.776 5                  27386028.435
        31.600
 119906485.113 6  93433653.45946  22817440.685    22817440.4494   22817448.4504
        40.100          36.0004
 122905133.031 8                  23388055.381
        48.800
 200834030.094 5                  38217460.385
        34.900
 138122906.952 6                  26283913.508
        39.800
 104828398.101 8  81533247.406 8  19637881.123    19637881.076    19637886.843
        48.700          49.000
 130860713.856 4                  24901962.476
        29.300
 122376286.406 6                  22876945.570    22876946.432
        39.000
 198904964.726 7                  37850366.144
        42.700
 202060558.493 7                  38450846.153
        44.200
 111438504.624 6  86835234.17145  21206030.884    21206030.5044   21206033.5894
        41.300          32.6004
 106597570.859 7  82909244.312 7  19955275.068    19955275.144    19955282.464
        45.800          44.100
 105796363.306 8  82286052.059 8  19798319.949    19798320.428    19798326.099
        50.300          48.800
 126373949.054 7                  24048151.734
        47.900
 125634182.896 8                  23907377.193
        48.600
 108885198.290 8  84688477.668 8  20347795.823    20347794.691    20347803.202
        50.900          48.300
 25  1  1  0 18 45.0000000  0 20G06G14G19G11G03E27G24E34S35E15R22E36
                                S31S33G17R12R11E02E30R21
 108596086.181 7  84620369.64246  20665138.219    20665137.9744   20665140.8414
        46.300          38.1004
 112279026.129 7  87490120.08645  21365961.831    21365961.8054   21365963.7644
        47.600          34.4004
 106356742.172 8  82875420.49346  20238997.743    20238996.4654   20238997.2624
        51.800          40.7004
 123189670.909 7  95991907.97044  23442193.020    23442192.6274   23442196.7804
        44.300          27.0004
 121120973.587 5  94379966.47742  23048550.838    23048550.9184   23048555.1114
        32.400          17.7004
 143876028.610 5                  27378697.644
        31.600
 119903758.205 6  93431528.64045  22816923.734    22816923.5744   22816927.9624
        40.300          33.6004
 122892918.523 8                  23385730.976
        48.400
 200834066.180 6                  38217469.337
        36.200
 138080411.605 6                  26275827.492
        39.400
 104811272.969 8  81519927.910 8  19634674.055    19634674.565    19634678.923
        49.900          49.000
 130889614.728 5                  24907462.535
        31.300
 198904971.263 7                  37850369.918
        43.100
 202060554.911 7                  38450837.358
        44.300
 111459167.085 6  86851334.81044  21209962.993    21209962.6094   21209964.3384
        39.200          28.9004
 106563158.298 7  82882479.061 7  19948832.754    19948831.719    19948841.843
        44.100          45.400
 105831653.334 8  82313499.898 8  19804923.680    19804924.187    19804929.107
        50.400          48.000
 126394721.799 7                  24052104.622
        47.800
 125617481.212 8                  23904198.997
        49.800
 108924372.007 8  84718946.126 8  20355115.348    20355115.019    20355123.521
        51.400          48.200
 25  1  1  0 19  0.0000000  0 22G06G14G19G12G11G03E27G24E34S35E15R22
                                E36R23S31S33G17R12R11E02E30R21
 108569926.729 7  84599985.67646  20660159.358    20660159.1134   20660163.0264
        45.100          38.1004
 112314457.813 7  87517729.21545  21372704.170    21372704.1264   21372706.9764
        47.300          33.4004
 106351642.349 8  82871446.61846  20238027.120    20238025.8424   20238026.7184
        50.500          40.7004
 129658334.056 6 101032527.37442  24673158.705    24673158.7054   24673173.0174
        37.200          17.0004
 123138706.473 7  95952195.50744  23432494.701    23432494.3624   23432499.3064
        44.500          29.5004
 121124262.000 5  94382528.92742  23049175.861    23049175.9594   23049180.2304
        35.600          12.2004
 143837517.047 5                  27371368.233
        30.300
 119901179.318 6  93429519.17645  22816432.805    22816432.6404   22816435.0554
        39.200          31.6004
 122880801.689 8                  23383425.138
        48.700
 200834102.600 5                  38217474.891
        35.700
 138037960.149 7                  26267748.638
        42.000
 104794288.594 8  81506717.849 8  19631492.450    19631492.814    19631497.225
        50.000          49.000
 130918581.581 5                  24912974.859
        33.900
 122273727.763 6                  22857790.908    22857791.423
        38.200
 198904978.901 7                  37850362.253
        42.500
 202060552.055 7                  38450842.746
        44.500
 111479864.694 5  86867462.84844  21213902.545    21213902.1394   21213902.3714
        35.700          28.7004
 106528889.390 7  82855825.488 7  19942419.277    19942419.202    19942426.638
        46.300          46.400
 105867103.363 8  82341072.153 8  19811558.885    19811559.333    19811563.528
        52.300          48.200
 126415559.206 8                  24056069.559
        48.600
 125600835.262 8                  23901031.318
        51.000
 108963624.306 8  84749475.695 8  20362451.591    20362449.772    20362458.529
        49.500          48.300
 25  1  1  0 19 15.0000000  0 23G06G14G19G12G11G03E27G24E34S35R13E15
                                R22E36R23S31S33G17R12R11E02E30R21
 108543892.786 7  84579699.52746  20655205.798    20655205.5534   20655209.4214
        47.400          39.1004
 112349979.118 7  87545408.18345  21379463.587    21379463.4944   21379466.5224
        47.600          33.5004
 106346608.643 8  82867524.26246  20237069.423    20237068.1454   20237069.0184
        49.200          40.8004
 129605741.009 6 100991546.00843  24663151.505    24663150.9874   24663162.0644
        38.600          21.3004
 123087795.061 7  95912524.37844  23422806.562    23422806.2674   23422810.8874
        43.600          28.1004
 121127699.667 6  94385207.46741  23049828.060    23049827.9804   23049834.4294
        38.300           7.0004
 143799004.486 5                  27364038.751
        34.000
 119898746.777 6  93427623.73145  22815968.329    22815968.1734   22815971.3034
        41.200          31.7004
 122868780.858 7                  23381137.545
        47.700
 200834138.192 5                  38217465.187
        35.400
 125723934.271 5                  23544054.216    23544054.651
        31.300
 137995551.135 6                  26259677.947
        41.200
 104777443.178 8  81493615.903 8  19628335.487    19628335.571    19628340.693
        49.600          48.400
 130947612.423 6                  24918500.185
        38.500
 122222602.703 6                  22848233.306    22848232.034
        37.100
 198904984.356 6                  37850358.743
        40.900
 202060548.098 7                  38450839.634
        42.900
 111500595.875 6  86883617.07345  21217848.891    21217848.5614   21217848.1714
        41.200          31.0004
 106494762.835 7  82829282.677 7  19936029.904    19936029.374    19936039.149
        45.500          47.100
 105902711.444 8  82368767.334 8  19818222.719    19818222.766    19818227.431
        52.100          48.000
 126436459.624 7                  24060046.339
        47.700
 125584243.514 8                  23897873.990
        50.700
 109002953.438 8  84780065.021 8  20369800.922    20369800.158    20369808.164
        50.500          48.600
 25  1  1  0 19 30.0000000  0 23G06G14G19G12G11G03E27G24E25E34S35E15
                                R22E36R23S31S33G17R12R11E02E30R21
 108517988.339 8  84559514.28247  20650276.498    20650276.2574   20650280.0794
        48.600          44.0004
 112385593.757 8  87573159.83645  21386240.264    21386240.1534   21386243.9374
        48.800          33.5004
 106341644.946 8  82863656.44146  20236124.498    20236123.2154   20236123.9314
        48.100          38.4004


 123036940.799 6  95872897.75944  23413127.607    23413127.3034   23413133.4384
        41.000          24.4004
 121131290.360 5  94388004.79742  23050511.249    23050511.2274   23050519.3434
        34.200          15.3004
 143760494.883 6                  27356713.532
        36.600
 119896464.309 7  93425845.25046  22815534.373    22815534.2264   22815538.6114
        43.800          36.9004


 122856859.820 8                  23378869.043
        48.000


 137953188.555 6                  26251616.757
        40.900
 104760740.504 8  81480625.042 8  19625206.078    19625207.121    19625212.740
        51.200          49.800
 130976711.049 7                  24924038.663
        42.300
 122171553.395 5                  22838694.667    22838696.719
        33.000
 198904993.186 7                  37850363.783
        43.500
 202060548.479 6                  38450843.287
        41.300
 111521364.312 7  86899800.38244  21221799.361    21221799.0444   21221799.6144
        42.200          29.7004
 106460783.005 7  82802853.970 7  19929669.418    19929670.423    19929676.580
        47.400          45.400
 105938481.192 8  82396588.229 7  19824916.573    19824917.142    19824922.004
        51.700          47.100
 126457426.801 7                  24064035.844
        46.200
 125567709.916 7                  23894727.165
        47.900
 109042362.628 8  84810716.657 7  20377164.536    20377165.086    20377171.943
        51.800          47.600
 25  1  1  0 19 45.0000000  0 23G06G14G19G12G11G03E27G24E34S35R13E15
                                R22E36R23S31S33G17R12R11E02E30R21
 108492211.876 7  84539428.76147  20645371.005    20645370.7554   20645375.7334
        47.300          44.3004
 112421300.020 8  87600982.86045  21393035.361    21393035.2594   21393038.3264
        48.200          33.2004
 106336749.528 8  82859841.85646  20235193.370    20235192.0924   20235192.0364
        50.900          40.4004
 129500537.046 5 100909572.64142  24643134.433    24643133.8834   24643147.9494
        33.000          16.0004
 122986142.277 6  95833314.56943  23403462.115    23403461.8744   23403465.9014
        41.900          23.3004
 121135032.568 6  94390920.69342  23051224.817    23051224.6614   23051231.3284
        38.400          16.0004
 143721986.791 5                  27349382.727
        34.200
 119894330.313 7  93424182.45246  22815128.465    22815128.3364   22815135.0074
        43.100          38.9004
 122845037.025 7                  23376619.242
        47.100
 200834173.628 6                  38217465.621
        37.500
 125598743.074 5                  23520601.489
        32.500
 137910870.796 6                  26243564.864
        41.000
 104744179.024 8  81467743.873 8  19622104.581    19622105.130    19622109.362
        51.100          49.700
 131005875.470 6                  24929587.115
        38.500
 122120604.448 6                  22829155.148    22829156.271
        39.200
 198905002.869 7                  37850366.497
        43.700
 202060547.672 6                  38450835.694
        41.600
 111542168.378 7  86916011.34945  21225758.801    21225758.4624   21225757.7244
        44.600          31.8004
 106426948.591 7  82776538.376 7  19923334.987    19923334.447    19923343.542
        44.500          45.700
 105974410.794 8  82424533.470 7  19831638.666    19831639.570    19831644.771
        50.200          47.600
 126478459.296 7                  24068039.219
        44.800
 125551233.060 7                  23891591.401
        47.000
 109081849.992 8  84841429.010 7  20384543.877    20384544.493    20384551.412
        52.700          46.800
 25  1  1  0 20  0.0000000  0 21G06G14G19G12G11G03E27G24E34S35E15R22
                                E36S31S33G17R12R11E02E30R21
 108466560.404 8  84519440.67047  20640490.331    20640490.0904   20640495.2974
        49.000          45.4004
 112457094.679 7  87628874.86045  21399847.286    21399847.1794   21399850.0874
        45.900          32.8004
 106331919.414 7  82856078.15046  20234273.715    20234272.4234   20234272.8854
        47.900          38.7004
 129447956.744 5 100868601.06443  24633129.745    24633129.1554   24633142.6354
        32.900          20.5004
 122935396.648 6  95793772.60043  23393805.539    23393805.3294   23393809.2454
        36.900          22.6004
 121138923.210 6  94393952.39043  23051963.759    23051963.6074   23051969.6334
        40.700          22.3004
 143683477.258 5                  27342054.362
        33.200
 119892341.555 7  93422632.81946  22814750.432    22814750.3124   22814757.7954
        44.100          37.7004
 122833309.251 8                  23374387.465
        48.400


 137868595.105 6                  26235519.508
        40.200
 104727755.399 8  81454970.000 8  19619027.468    19619028.237    19619033.347
        51.600          50.300
 131035102.566 6                  24935149.152
        39.300
 198905010.494 6                  37850365.281
        38.300
 202060545.547 6                  38450840.819
        41.700
 111563004.666 7  86932247.40945  21229723.745    21229723.4194   21229722.6184
        46.500          32.4004
 106393256.961 8  82750333.802 7  19917028.025    19917028.766    19917035.478
        49.400          45.700
 106010496.865 8  82452600.435 7  19838392.883    19838393.638    19838397.311
        51.100          46.300
 126499553.951 7                  24072052.361
        44.700
 125534809.961 8                  23888466.747
        50.100
 109121412.049 8  84872199.484 7  20391937.484    20391938.236    20391943.881
        51.700          46.700
 25  1  1  0 20 15.0000000  0 22G06G14G19G12G11G03E27G24E34S35E15R22
                                E36R23S31S33G17R12R11E02E30R21
 108441032.062 7  84499548.49047  20635631.978    20635631.7334   20635636.8164
        46.900          42.7004
 112492975.690 7  87656834.07244  21406675.208    21406675.0924   21406677.6914
        46.500          29.5004
 106327152.353 8  82852363.57446  20233367.201    20233365.9184   20233365.8664
        51.300          41.5004
 129395390.030 6 100827625.09144  24623125.598    24623125.2724   24623136.0524
        37.400          26.6004
 122884702.163 6  95754270.52543  23384157.490    23384157.3654   23384162.9764
        40.600          23.7004
 121142960.384 6  94397098.27544  23052731.572    23052731.4654   23052738.1084
        38.200          25.3004
 143644964.478 6                  27334725.941
        38.200
 119890496.072 5  93421194.83045  22814398.424    22814398.3404   22814406.4684
        32.300          30.8004
 122821674.623 7                  23372173.759
        47.800


 137826359.484 6                  26227482.602
        41.800
 104711467.670 8  81442301.770 8  19615975.308    19615975.792    19615981.643
        50.200          49.400
 131064389.846 7                  24940722.373
        42.200
 122018888.112 5                  22810142.244    22810139.940
        35.300
 198905013.616 7                  37850377.801
        43.200
 202060539.020 7                  38450839.777
        43.200
 111583871.343 7  86948507.14645  21233693.941    21233693.6064   21233694.8774
        42.300          34.0004
 106359706.570 8  82724239.081 7  19910747.849    19910748.305    19910755.764
        49.000          45.600
 106046737.080 8  82480787.235 7  19845173.978    19845174.375    19845180.096
        51.500          46.500
 126520708.800 7                  24076077.960
        43.100
 125518438.806 8                  23885351.368
        49.400
 109161046.108 8  84903025.920 7  20399344.056    20399344.486    20399351.200
        51.200          47.000
 25  1  1  0 20 30.0000000  0 22G06G14G19G12G11G03E27G24E34S35E15R22
                                E36R23S31S33G17R12R11E02E30R21
 108415638.392 7  84479761.24147  20630800.426    20630800.1674   20630804.7234
        47.600          44.8004
 112528954.354 7  87684869.39745  21413521.373    21413521.2534   21413524.2064
        45.000          30.4004
 106322459.785 7  82848707.05846  20232473.714    20232472.4224   20232472.9684
        47.500          38.4004
 129342822.876 6 100786658.06643  24613120.260    24613120.1174   24613131.4454
        37.300          22.3004
 122834070.489 6  95714817.33844  23374523.301    23374523.1674   23374527.9884
        38.000          24.0004
 121147155.560 6  94400367.25844  23053532.556    23053532.4674   23053536.3154
        36.900          24.3004
 143606459.834 6                  27327398.758
        39.200
 119888805.232 6  93419877.30745  22814076.198    22814076.1314   22814084.4354
        39.100          32.1004
 122810144.574 7                  23369979.146
        47.600


 137784175.727 7                  26219455.589
        43.100
 104695327.363 8  81429748.226 8  19612952.969    19612953.552    19612958.339
        50.300          50.100
 131093748.809 6                  24946308.517
        37.300
 121968094.263 5                  22800656.080    22800651.600
        32.700
 198905024.584 6                  37850368.804
        38.700
 202060539.601 7                  38450841.458
        44.300
 111604779.731 6  86964799.46345  21237672.372    21237672.0374   21237672.7294
        38.900          32.4004
 106326309.535 8  82698263.632 7  19904497.198    19904497.965    19904503.465
        51.000          46.800
 106083142.948 8  82509102.879 7  19851986.835    19851988.077    19851991.625
        52.200          46.400
 126541935.269 7                  24080117.592
        45.800
 125502131.193 8                  23882248.023
        50.400
 109200763.659 8  84933917.355 7  20406766.479    20406767.120    20406773.601
        52.600          47.600
 25  1  1  0 20 45.0000000  0 22G06G14G19G12G11G03E27G24E34S35E15R22
                                E36R23S31S33G17R12R11E02E30R21
 108390367.846 7  84460069.95847  20625991.159    20625990.8784   20625995.3184
        47.500          43.8004
 112565018.949 7  87712971.60544  21420384.667    21420384.5334   21420387.3864
        46.200          28.4004
 106317830.016 8  82845099.45646  20231592.893    20231591.5834   20231592.3224
        49.300          40.9004
 129290255.163 6 100745696.45043  24603118.912    24603119.1754   24603128.1884
        38.100          23.4004
 122783490.311 6  95675404.31643  23364897.211    23364897.1404   23364900.9614
        37.500          22.0004
 121151497.028 5  94403750.24544  23054357.476    23054357.3474   23054362.5954
        35.100          27.5004
 143567951.858 6                  27320072.021
        40.300
 119887257.498 5  93418671.31643  22813777.576    22813777.5504   22813789.5324
        33.400          23.3004
 122798707.271 7                  23367803.185
        46.900


 137742032.156 7                  26211435.985
        43.400
 104679322.489 8  81417300.008 8  19609954.306    19609954.452    19609959.387
        50.100          49.300
 131123167.476 6                  24951907.331
        41.900
 121917411.682 5                  22791176.800    22791175.529
        32.700
 198905031.499 7                  37850372.024
        43.100
 202060536.830 7                  38450840.863
        42.000
 111625718.381 6  86981115.26445  21241658.433    21241658.1254   21241658.4614
        40.500          34.4004
 106293054.146 8  82672398.454 7  19898270.760    19898270.717    19898278.416
        51.300          47.800
 106119702.200 8  82537537.898 7  19858828.832    19858829.383    19858834.052
        51.500          47.100
 126563221.769 7                  24084167.308
        43.500
 125485875.608 8                  23879154.572
        50.000
 109240552.339 8  84964864.105 7  20414201.613    20414202.579    20414208.157
        51.000          45.500
 25  1  1  0 21  0.0000000  0 22G06G14G19G12G11G03E27G24E34S35E15R22
                                E36R23S31S33G17R12R11E02E30R21
 108365222.511 7  84440476.23647  20621206.343    20621206.0444   20621209.8734
        47.900          45.0004
 112601171.337 7  87741142.21544  21427264.859    21427264.7074   21427266.9154
        45.600          28.0004
 106313265.141 8  82841542.41446  20230724.367    20230723.0484   20230723.9874
        49.700          41.7004
 129237689.903 5 100704736.65143  24593114.023    24593114.0764   24593124.5254
        35.900          23.6004
 122732963.689 6  95636033.04744  23355283.523    23355283.4474   23355285.9664
        38.700          24.4004
 121155986.726 6  94407248.69444  23055211.984    23055211.8684   23055217.6144
        36.700          28.7004
 143529442.696 6                  27312743.750
        39.700
 119885854.576 6  93417578.14043  22813513.124    22813513.2044   22813519.8044
        36.500          18.5004
 122787364.937 7                  23365644.171
        45.600


 137699930.961 7                  26203424.195
        42.900
 104663455.044 8  81404958.731 8  19606982.741    19606982.679    19606987.198
        51.900          49.500
 131152647.663 6                  24957517.188
        38.300
 121866800.789 5                  22781718.094
        35.500
 198905035.030 6                  37850383.422
        41.700
 202060531.324 7                  38450845.988
        45.300
 111646688.862 6  86997455.92645  21245648.034    21245647.7984   21245649.7284
        41.300          33.3004
 106259943.202 8  82646645.513 7  19892071.812    19892071.344    19892079.956
        50.100          47.400
 106156416.778 8  82566093.676 8  19865699.398    19865699.333    19865705.322
        51.400          48.200
 126584570.243 6                  24088229.497
        41.300
 125469674.172 8                  23876071.580
        49.900
 109280413.798 8  84995867.450 7  20421649.726    20421650.862    20421656.740
        51.500          45.300
 25  1  1  0 21 15.0000000  0 21G06G14G19G12G11G03E27G24E34S35E15R22
                                E36S31S33G17R12R11E02E30R21
 108340208.148 8  84420984.56547  20616446.813    20616446.5184   20616450.3814
        48.700          46.2004
 112637416.940 7  87769385.58444  21434161.247    21434161.0824   21434163.9994
        46.600          28.2004
 106308770.837 8  82838040.39646  20229869.263    20229867.9404   20229868.8164
        51.000          41.9004
 129185133.224 5 100663783.68042  24583113.216    24583113.0604   24583121.9924
        32.400          17.4004
 122682496.570 7  95596708.11544  23345680.029    23345679.9764   23345683.6134
        42.700          26.7004
 121160630.584 7  94410867.31344  23056095.280    23056095.1964   23056101.0064
        42.600          29.7004
 143490938.210 6                  27305416.296
        37.600
 119884602.127 6  93416602.02542  22813273.857    22813273.8614   22813279.6154
        39.800          14.0004
 122776123.058 7                  23363505.587
        47.700
 200834348.469 5                  38217517.362
        34.300
 137657877.968 7                  26195421.038
        43.300
 104647730.698 8  81392728.712 8  19604037.005    19604037.029    19604041.687
        52.500          50.000
 131182194.748 6                  24963139.823
        39.100
 198905042.921 7                  37850383.766
        42.600
 202060529.575 7                  38450837.510
        43.800
 111667696.595 6  87013825.61345  21249644.723    21249644.4734   21249647.7124
        40.500          33.9004
 106226982.773 8  82621009.681 7  19885901.729    19885901.203    19885909.640
        50.000          45.300
 106193292.103 8  82594774.477 8  19872600.920    19872599.901    19872605.197
        52.100          48.100
 126605986.285 7                  24092305.823
        43.900
 125453532.700 8                  23872999.811
        50.500
 109320353.511 8  85026931.682 8  20429114.551    20429114.550    20429122.923
        52.300          48.000
 25  1  1  0 21 30.0000000  0 21G06G14G19G12G11G03E27G24E34S35E15R22
                                E36S31S33G17R12R11E02E30R21
 108315322.375 8  84401593.08447  20611710.516    20611710.2264   20611714.8164
        48.800          46.7004
 112673753.376 7  87797699.61344  21441075.796    21441075.6224   21441078.8414
        45.800          29.7004
 106304344.492 8  82834591.28047  20229026.859    20229025.5314   20229026.4204
        52.100          42.8004
 129132582.813 6 100622833.57943  24573115.075    24573114.9104   24573121.6824
        40.400          19.9004
 122632086.871 6  95557427.90944  23336084.763    23336084.6834   23336091.5134
        39.200          24.3004
 121165425.902 6  94414603.93344  23057007.113    23057007.0114   23057013.1814
        39.800          28.5004
 143452435.863 6                  27298090.713
        37.300
 119883497.659 7  93415741.44242  22813065.224    22813065.2464   22813073.4154
        42.300          16.8004
 122764979.173 8                  23361384.924
        48.000


 137615870.897 6                  26187426.876
        40.500
 104632146.871 8  81380607.984 8  19601117.107    19601117.010    19601122.061
        52.100          50.000
 131211806.156 6                  24968774.077
        40.400
 198905051.716 7                  37850379.800
        42.600
 202060528.560 6                  38450839.379
        41.300
 111688739.290 5  87030222.60645  21253650.326    21253650.0984   21253651.9704
        34.500          30.0004
 106194170.663 8  82595489.210 7  19879759.607    19879759.684    19879765.568
        52.400          43.700
 106230325.311 8  82623578.106 8  19879530.297    19879530.008    19879536.413
        50.400          49.100
 126627467.628 6                  24096391.394
        38.300
 125437448.839 8                  23869939.039
        49.200
 109360368.530 8  85058054.470 7  20436592.119    20436592.034    20436600.004
        51.700          46.400
 25  1  1  0 21 45.0000000  0 21G06G14G19G12G11G03E27G24E34S35E15R22
                                E36S31S33G17R12R11E02E30R21
 108290564.850 7  84382301.55747  20606998.627    20606998.3324   20607003.5774
        46.700          45.8004
 112710179.862 6  87826083.89744  21448007.158    21448006.9714   21448010.9114
        41.700          29.1004
 106299985.555 8  82831194.77246  20228196.678    20228195.3504   20228196.7194
        51.100          40.8004
 129080038.329 5 100581890.14643  24563113.385    24563113.0414   24563121.1184
        31.500          18.5004
 122581734.300 6  95518192.21443  23326502.362    23326502.3274   23326510.0824
        40.200          23.9004
 121170372.360 6  94418458.32043  23057949.360    23057949.2674   23057953.7644
        40.500          22.2004
 143413935.408 6                  27290763.476
        37.800
 119882540.752 6  93414995.77044  22812883.432    22812883.4814   22812896.2634
        40.800          26.3004
 122753932.891 8                  23359282.485
        49.400
 200834453.305 6                  38217533.165
        39.300
 137573909.364 6                  26179442.579
        38.900
 104616703.089 8  81368596.203 8  19598224.341    19598224.211    19598229.673
        51.600          51.100
 131241481.146 6                  24974421.274
        38.100
 198905060.228 7                  37850377.980
        42.200
 202060527.776 6                  38450838.373
        40.700
 111709816.530 6  87046646.41644  21257659.841    21257659.6054   21257661.8754
        40.900          28.4004
 106161506.994 8  82570084.179 7  19873645.580    19873646.126    19873651.353
        52.000          43.600
 106267515.877 8  82652504.068 8  19886490.145    19886489.955    19886496.256
        51.700          48.100
 126649013.673 7                  24100494.053
        45.000
 125421422.353 8                  23866889.868
        48.900
 109400457.944 9  85089235.063 7  20444083.662    20444084.157    20444090.432
        54.200          47.200
 25  1  1  0 22  0.0000000  0 22G06G14G19G12G11G03E27G24E34S35E15R22
                                E36R23S31S33G17R12R11E02E30R21
 108265929.157 7  84363104.96047  20602310.193    20602309.9254   20602315.7834
        47.300          45.5004
 112746689.951 6  87854533.30644  21454954.077    21454953.9174   21454958.4844
        36.800          24.9004
 106295687.501 8  82827845.66446  20227379.241    20227377.9184   20227378.6994
        52.000          41.2004
 129027493.187 6 100540946.10243  24553115.154    24553114.9494   24553123.1064
        38.200          22.0004
 122531432.499 6  95478996.08444  23316933.027    23316933.0194   23316938.8024
        41.300          28.0004
 121175463.470 6  94422425.48543  23058917.613    23058917.5204   23058925.0234
        37.800          22.0004
 143375430.453 6                  27283434.355
        37.100
 119881724.627 6  93414359.83942  22812728.366    22812728.4734   22812746.3124
        41.000          16.5004
 122742977.525 8                  23357197.840
        50.100
 200834486.192 6                  38217536.036
        39.800
 137531986.906 7                  26171465.101
        42.100
 104601392.569 8  81356688.013 8  19595356.375    19595356.300    19595361.820
        52.600          50.100
 131271213.056 6                  24980078.876
        37.500
 121665143.762 6                  22744015.725    22744016.269
        38.700
 198905063.135 7                  37850378.338
        43.200
 202060520.505 7                  38450838.051
        44.300
 111730921.337 6  87063091.81944  21261678.600    21261678.3054   21261677.7054
        39.300          29.9004
 106128985.494 8  82544789.751 7  19867556.945    19867557.726    19867561.871
        51.100          43.700
 106304856.699 8  82681546.951 8  19893477.975    19893477.482    19893483.958
        51.000          49.300
 126670617.811 6                  24104603.315
        41.800
 125405446.772 8                  23863849.594
        49.700
 109440614.684 8  85120468.067 7  20451588.670    20451588.519    20451594.780
        52.700          45.400
 25  1  1  0 22 15.0000000  0 22G06G14G19G12G11G03E27G24E34S35E15R22
                                E36R23S31S33G17R12R11E02E30R21
 108241425.563 7  84344011.30247  20597647.379    20597647.1204   20597652.4984
        44.100          44.5004


 106291460.582 8  82824551.98146  20226574.614    20226573.2824   20226573.6954
        51.700          40.7004
 128974958.211 6 100500010.01644  24543120.869    24543120.5074   24543126.8304
        38.200          24.9004
 122481191.966 7  95439847.65744  23307372.953    23307372.9574   23307378.5134
        43.300          28.4004
 121180709.376 6  94426513.20342  23059915.521    23059915.4014   23059921.9454
        40.200          17.8004
 143336931.331 5                  27276108.851
        33.500
 119881059.678 6  93413842.08444  22812602.556    22812602.5734   22812613.8674
        40.900          26.1004
 122732123.381 8                  23355132.368
        49.800
 200834522.636 6                  38217546.437
        39.100
 137490114.073 6                  26163497.133
        41.500
 104586225.614 8  81344891.523 8  19592514.715    19592515.178    19592519.854
        52.700          48.900
 131301011.590 4                  24985752.403
        28.900
 121614909.265 6                  22734624.257    22734622.695
        38.300
 198905070.218 7                  37850381.468
        44.100
 202060518.452 7                  38450838.806
        45.800
 111752064.093 6  87079566.69845  21265702.470    21265702.1934   21265702.0804
        38.400          30.2004
 106096616.908 8  82519614.244 7  19861495.944    19861497.224    19861501.834
        50.500          42.000
 106342358.115 8  82710714.727 7  19900495.794    19900496.512    19900501.092
        52.000          47.800
 126692290.571 7                  24108728.471
        43.600
 125389532.517 8                  23860821.370
        50.100
 109480848.898 8  85151761.375 7  20459106.980    20459106.917    20459113.416
        53.000          46.500
 25  1  1  0 22 30.0000000  0 22G06G14G19G12G11G03E27G24E34S35E15R22
                                E36R23S31S33G17R12R11E02E30R21
 108217048.434 7  84325016.18747  20593009.038    20593008.7664   20593012.9124
        44.900          43.5004


 106287298.959 8  82821309.18046  20225782.935    20225781.6124   20225781.1894
        51.700          40.5004
 128922427.863 6 100459077.44144  24533122.304    24533121.8534   24533131.1034
        37.300          25.1004
 122431007.201 6  95400742.73044  23297822.010    23297822.0454   23297829.0334
        41.500          27.6004
 121186104.354 6  94430716.99843  23060942.995    23060942.8484   23060945.7904
        36.800          21.6004
 143298432.327 6                  27268781.990
        39.200
 119880539.878 7  93413437.07345  22812503.957    22812503.9444   22812510.6304
        45.100          30.8004
 122721364.653 8                  23353085.176
        49.400
 200834557.131 5                  38217570.525
        35.000
 137448285.128 6                  26155537.073
        41.000
 104571196.438 8  81333202.203 8  19589699.156    19589699.255    19589703.568
        52.400          48.700
 131330871.571 5                  24991430.266
        33.200
 121564748.569 6                  22725245.879    22725247.554
        36.900
 198905075.597 7                  37850389.588
        43.000
 202060513.217 7                  38450838.028
        45.200
 111773238.864 6  87096066.48444  21269730.761    21269730.4224   21269731.4774
        40.300          27.6004
 106064395.996 8  82494553.628 7  19855465.650    19855466.682    19855471.020
        49.300          43.100
 106380013.938 8  82740002.666 7  19907542.001    19907542.546    19907548.566
        51.900          47.600
 126714025.929 7                  24112865.103
        47.600
 125373673.956 8                  23857803.420
        51.100
 109521154.236 8  85183110.011 7  20466638.848    20466638.314    20466646.436
        52.400          47.400
 25  1  1  0 22 45.0000000  0 22G06G14G19G12G11G03E27G24E34S35E15R22
                                E36R23S31S33G17R12R11E02E30R21
 108192800.279 7  84306121.55147  20588394.742    20588394.4074   20588398.1714
        44.500          43.7004
 112856622.234 6  87940243.05443  21475901.421    21475901.0374   21475905.2374
        36.700          23.5004
 106283205.082 8  82818119.18446  20225004.278    20225002.9684   20225001.7634
        52.000          40.6004
 128869904.524 6 100418150.39444  24523127.944    24523127.5424   24523135.5164
        38.500          25.2004
 122380880.818 6  95361683.28844  23288283.323    23288283.3674   23288290.0914
        39.600          24.7004
 121191650.807 7  94435038.89444  23062000.516    23062000.4584   23062002.2334
        42.000          26.6004
 143259936.069 6                  27261456.701
        41.000
 119880167.676 7  93413147.13145  22812432.759    22812432.7424   22812438.8304
        42.200          33.1004
 122710703.738 8                  23351056.373
        49.800
 200834593.556 5                  38217628.759
        32.100
 137406502.722 6                  26147586.339
        37.900
 104556307.194 8  81321621.724 7  19586908.852    19586909.526    19586913.369
        51.000          46.800


 121514663.991 6                  22715888.241    22715884.710
        36.600
 198905081.385 6                  37850377.667
        41.200
 202060509.841 7                  38450837.219
        45.700
 111794448.194 7  87112593.19444  21273766.593    21273766.2634   21273765.2704
        42.200          28.8004
 106032325.311 8  82469609.780 7  19849460.607    19849461.226    19849468.023
        49.200          44.400
 106417826.373 8  82769412.317 7  19914618.789    19914619.412    19914624.989
        51.700          47.000
 126735826.407 8                  24117013.713
        48.700
 125357873.682 8                  23854796.410
        50.900
 109561532.675 8  85214515.500 7  20474183.859    20474183.274    20474191.168
        51.800          46.100
 25  1  1  0 23  0.0000000  0 22G06G14G19G12G11G03E27G24E34S35E15R22
                                E36R23S31S33G17R12R11E02E30R21
 108168680.710 7  84287327.12547  20583805.693    20583805.3894   20583808.6144
        44.900          44.9004
 112893493.036 6  87968973.55044  21482916.852    21482916.6784   21482921.4274
        40.500          25.2004
 106279178.520 8  82814981.63246  20224237.876    20224236.5714   20224236.0204
        52.300          41.2004
 128817388.018 6 100377228.64943  24513133.885    24513133.5554   24513140.6484
        36.500          21.8004
 122330812.568 6  95322669.14344  23278756.960    23278757.0624   23278761.2024
        40.900          24.2004
 121197348.269 7  94439478.49644  23063084.333    23063084.3074   23063088.8064
        43.600          29.7004
 143221442.137 6                  27254131.772
        40.400
 119879942.455 6  93412971.69745  22812389.497    22812389.4714   22812396.6894
        40.700          32.8004
 122700140.133 8                  23349046.600
        50.400
 200834629.566 6                  38217566.814
        39.600
 137364766.439 6                  26139642.971
        40.200
 104541557.533 8  81310149.790 7  19584145.873    19584146.014    19584150.577
        50.200          47.600
 131390765.143 5                  25002834.885
        34.200
 121464655.460 6                  22706533.576    22706536.519
        39.000
 198905088.177 6                  37850383.265
        41.400
 202060506.633 7                  38450834.818
        45.000
 111815691.454 7  87129146.41445  21277808.487    21277808.1924   21277806.2624
        45.900          31.2004
 106000405.055 8  82444783.003 7  19843484.410    19843486.396    19843491.860
        48.400          43.400
 106455794.633 8  82798943.173 7  19921725.065    19921725.303    19921730.013
        52.700          46.300
 126757691.512 8                  24121175.063
        49.300
 125342131.326 8                  23851800.851
        50.400
 109601983.374 8  85245977.162 7  20481743.018    20481743.272    20481749.990
        52.400          45.900
 25  1  1  0 23 15.0000000  0 22G06G14G19G12G11G03E27G24E34S35E15R22
                                E36R23S31S33G17R12R11E02E30R21
 108144689.747 7  84268632.91547  20579239.984    20579239.6854   20579243.5664
        45.700          45.3004
 112930453.091 6  87997773.56044  21489950.519    21489950.3594   21489955.7734
        36.700          25.1004
 106275219.099 8  82811896.39247  20223484.313    20223483.0124   20223483.6294
        52.200          43.3004


 122280802.720 6  95283700.47443  23269240.287    23269240.3674   23269244.4634
        38.700          23.6004
 121203196.763 6  94444035.84344  23064196.435    23064196.4354   23064201.9594
        41.800          29.8004
 143182950.646 7                  27246808.171
        42.400
 119879864.154 7  93412910.79445  22812377.439    22812377.4394   22812382.5594
        42.200          34.8004
 122689673.797 8                  23347055.085
        50.500


 137323076.393 6                  26131709.441
        40.300
 104526947.189 8  81298786.213 7  19581408.798    19581409.452    19581413.940
        50.400          47.800
 131420812.419 5                  25008548.115
        33.400
 121414722.873 6                  22697194.699    22697201.242
        39.300
 198905094.508 7                  37850388.336
        42.600
 202060502.902 7                  38450833.825
        46.000
 111836968.565 7  87145725.93945  21281857.132    21281856.8604   21281854.4494
        46.000          33.5004
 105968635.570 8  82420073.419 7  19837536.538    19837537.274    19837545.506
        48.200          43.800
 106493918.430 8  82828594.974 7  19928859.344    19928859.093    19928862.859
        53.000          44.200
 126779621.225 8                  24125347.515
        49.800
 125326447.002 8                  23848816.276
        49.800
 109642505.948 9  85277494.649 7  20489316.392    20489317.646    20489323.819
        54.100          47.100
 25  1  1  0 23 30.0000000  0 23G06G14G19G12G11G03E27G24E34S35R13E15
                                R22E36R23S31S33G17R12R11E02E30R21
 108120827.303 7  84250038.86047  20574699.083    20574698.7934   20574703.3264
        45.200          46.0004
 112967502.123 6  88026642.87344  21497003.738    21497003.7384   21497005.3034
        41.400          24.3004
 106271326.556 8  82808863.24147  20222743.602    20222742.3064   20222743.8224
        51.200          43.4004


 122230851.219 6  95244777.30843  23259733.497    23259733.5814   23259738.2584
        40.600          22.4004
 121209195.995 6  94448710.63344  23065337.029    23065336.9984   23065343.0364
        39.800          28.4004
 143144461.484 7                  27239483.137
        43.700
 119879932.456 6  93412964.08046  22812389.776    22812389.7004   22812396.3854
        40.700          36.5004
 122679304.446 8                  23345081.959
        51.000


 124662682.673 5                  23345317.880
        35.100
 137281432.578 6                  26123784.289
        39.000
 104512475.850 8  81287530.774 8  19578697.910    19578697.261    19578704.195
        48.900          48.600
 131450921.447 6                  25014291.572
        36.400
 121364866.223 6                  22687884.335    22687885.601
        36.700
 198905101.117 7                  37850393.121
        42.700
 202060500.277 7                  38450833.262
        45.300
 111858278.954 7  87162331.46245  21285912.243    21285911.9894   21285911.5874
        47.100          35.9004
 105937017.049 7  82395481.275 7  19831618.838    19831618.987    19831626.821
        47.800          43.800
 106532197.252 8  82858367.389 7  19936021.355    19936020.772    19936027.517
        50.600          44.100
 126801615.268 8                  24129532.867
        48.100
 125310820.588 8                  23845842.638
        49.400
 109683099.910 9  85309067.758 7  20496902.012    20496903.039    20496909.435
        54.000          47.100
 25  1  1  0 23 45.0000000  0 23G06G14G19G12G11G03E27G24E34S35R13E15
                                R22E36R23S31S33G17R12R11E02E30R21
 108097095.060 7  84231546.23847  20570182.555    20570182.2744   20570187.4394
        45.600          45.2004
 113004641.474 6  88055582.62843  21504067.325    21504067.3174   21504070.8874
        38.800          21.3004
 106267502.349 8  82805883.35147  20222016.198    20222014.9024   20222016.1064
        51.800          44.0004
 128659950.008 5 100254501.86343  24483158.030    24483157.9904   24483169.7274
        34.600          20.6004
 122180959.863 6  95205901.01443  23250240.187    23250240.2584   23250243.4344
        40.100          21.0004
 121215347.662 6  94453504.19444  23066506.444    23066506.3914   23066513.2204
        36.000          25.9004
 143105976.369 7                  27232159.336
        43.000
 119880148.989 7  93413132.90145  22812430.148    22812430.0724   22812437.4794
        42.700          33.2004
 122669033.712 8                  23343127.231
        49.500


 124600519.017 5                  23333674.913    23333677.402
        33.600
 137239836.648 6                  26115868.864
        40.600
 104498145.138 7  81276384.694 8  19576013.323    19576011.725    19576020.314
        47.400          50.000
 131481093.521 6                  25020020.477
        38.000
 121315087.291 6                  22678570.424    22678572.745
        38.100
 198905109.548 7                  37850388.511
        42.900
 202060498.678 7                  38450831.956
        44.500
 111879624.561 7  87178964.40545  21289974.287    21289974.0374   21289974.7364
        45.700          35.9004
 105905551.442 8  82371008.080 7  19825728.111    19825727.450    19825734.555
        49.100          42.100
 106570632.468 8  82888261.400 7  19943214.151    19943214.084    19943220.595
        52.200          43.700
 126823675.299 8                  24133730.956
        48.300
 125295253.966 8                  23842880.422
        49.000
 109723766.369 8  85340697.206 7  20504502.474    20504503.232    20504507.857
        53.200          46.700
 25  1  1  0 24  0.0000000  0 23G06G14G19G12G11G03E27G24E34S35R13E15
                                R22E36R23S31S33G17R12R11E02E30R21
 108073495.770 7  84213157.21647  20565691.308    20565691.0274   20565696.6694
        43.900          44.0004
 113041873.759 6  88084594.77743  21511155.784    21511155.7444   21511154.2014
        37.900          21.0004
 106263749.243 8  82802958.86747  20221301.509    20221300.2084   20221301.7594
        52.000          45.0004
 128607468.430 6 100213607.28244  24473175.580    24473175.2004   24473180.0064
        38.700          25.8004
 122131131.730 6  95167073.99343  23240758.586    23240758.5944   23240761.1174
        39.400          20.5004


 143067498.048 7                  27224838.807
        44.500
 119880516.202 7  93413419.11245  22812500.246    22812500.1934   22812507.0004
        42.900          35.2004
 122658864.200 8                  23341191.377
        48.900
 200834834.074 6                  38217597.078
        36.400
 124538391.610 5                  23322043.254    23322040.541
        32.400
 137198291.358 6                  26107964.040
        39.300
 104483957.611 8  81265349.945 8  19573355.998    19573355.501    19573362.403
        49.500          49.900


 121265389.408 6                  22669286.954    22669284.152
        40.000
 198905121.888 7                  37850387.898
        43.600
 202060501.718 7                  38450832.322
        43.400
 111901007.703 7  87195626.64246  21294042.699    21294042.4544   21294045.6884
        44.700          36.0004
 105874242.028 8  82346656.285 7  19819868.166    19819868.614    19819874.083
        50.700          44.300
 106609226.544 8  82918279.020 7  19950435.800    19950436.452    19950441.904
        52.300          43.900
 126845803.922 8                  24137941.783
        49.400
 125279749.779 8                  23839930.627
        49.800
 109764507.503 8  85372384.796 7  20512115.772    20512115.387    20512121.595
        51.600          47.200
 25  1  1  0 24 15.0000000  0 23G06G14G19G12G11G03E27G24E34S35R13E15
                                R22E36R23S31S33G17R12R11E02E30R21
 108050019.293 7  84194863.91147  20561224.483    20561224.1934   20561228.9594
        44.200          43.9004
 113079188.607 6  88113671.30343  21518255.567    21518255.5004   21518254.3424
        41.500          22.2004
 106260057.119 8  82800081.91647  20220599.010    20220597.7094   20220599.1294
        51.300          45.5004
 128554988.503 6 100172714.04144  24463185.371    24463184.9474   24463191.9224
        40.800          26.6004
 122081356.482 7  95128288.19443  23231286.800    23231286.7424   23231287.1484
        42.100          19.6004
 121228060.807 5  94463458.60043  23068934.009    23068933.9564   23068941.8524
        32.900          22.5004
 143029016.527 7                  27217515.127
        42.600
 119881023.950 6  93413814.78245  22812595.668    22812595.6464   22812603.2604
        38.400          34.3004
 122648785.660 8                  23339273.014
        48.500


 124476267.260 5                  23310410.790
        30.700
 137156786.826 6                  26100065.696
        36.500
 104469902.825 8  81254418.409 8  19570723.106    19570723.124    19570728.868
        50.200          49.700
 131541620.887 5                  25031540.647
        33.200
 121215761.747 5                  22660000.751    22660001.184
        33.800
 198905128.587 6                  37850388.448
        41.000
 202060498.437 7                  38450835.824
        42.200
 111922418.139 7  87212310.10145  21298116.959    21298116.6914   21298121.2464
        42.200          34.9004
 105843078.555 8  82322418.109 7  19814033.491    19814033.849    19814040.493
        49.300          44.300
 106647968.774 8  82948411.811 7  19957687.005    19957687.796    19957692.327
        51.400          45.300
 126867990.963 8                  24142163.174
        49.800
 125264298.046 8                  23836989.760
        49.800
 109805312.653 8  85404122.121 8  20519740.906    20519740.652    20519747.625
        51.300          48.000
 25  1  1  0 24 30.0000000  0 21G06G14G19G12G11G03E27G24E34S35E15R22
                                E36S31S33G17R12R11E02E30R21
 108026671.579 7  84176670.90647  20556780.871    20556780.6084   20556785.4634
        43.300          42.8004
 113116591.759 6  88142816.59443  21525371.700    21525371.6244   21525372.8924
        38.600          22.6004
 106256431.609 8  82797256.85047  20219909.133    20219907.8324   20219909.1444
        52.900          46.5004
 128502516.458 7 100131826.91844  24453201.197    24453200.9254   24453206.1534
        42.100          28.6004
 122031640.565 7  95089548.65443  23221825.483    23221825.4034   23221825.6024
        44.100          23.1004
 121234662.867 5  94468603.02244  23070194.035    23070194.0754   23070197.0144
        35.100          24.7004
 142990537.710 7                  27210193.082
        42.000
 119881678.020 6  93414324.43544  22812719.126    22812719.1434   22812727.4964
        39.600          29.9004
 122638803.984 8                  23337374.035
        48.200
 200834830.788 5                  38217595.289
        33.600
 137115328.927 6                  26092177.533
        38.700
 104455986.646 8  81243594.773 8  19568116.077    19568116.624    19568121.684
        51.800          49.300


 198905134.967 6                  37850394.713
        40.800
 202060494.217 7                  38450829.997
        43.500
 111943861.705 7  87229019.40345  21302198.180    21302197.8764   21302201.5214
        42.200          35.1004
 105812067.614 8  82298298.537 7  19808228.806    19808228.981    19808235.643
        50.800          46.000
 106686864.923 8  82978664.291 7  19964966.043    19964966.676    19964972.978
        52.000          46.900
 126890242.303 8                  24146397.648
        48.300
 125248904.799 8                  23834060.691
        49.600
 109846187.553 8  85435913.671 7  20527378.690    20527378.935    20527386.892
        51.700          47.500
 25  1  1  0 24 45.0000000  0 22G06G14G19G12G11G03E27G24E34S35E15R22
                                E36R23S31S33G17R12R11E02E30R21
 108003455.503 7  84158580.45547  20552363.241    20552362.9824   20552367.8854
        44.700          45.1004
 113154085.878 7  88172032.81644  21532505.884    21532505.8174   21532510.4204
        43.800          26.4004
 106252875.624 8  82794485.96047  20219232.757    20219231.4564   20219232.2794
        52.700          46.2004
 128450055.588 6 100090948.53944  24443218.327    24443218.0064   24443222.2324
        37.400          27.7004
 121981986.880 7  95050857.53844  23212375.984    23212375.9004   23212377.4264
        44.700          24.3004
 121241418.568 6  94473867.18744  23071478.685    23071478.6454   23071481.2064
        38.700          25.0004
 142952064.548 6                  27202870.665
        41.200
 119882481.020 5  93414950.20044  22812871.790    22812871.8214   22812879.2764
        32.700          28.2004
 122628921.894 8                  23335493.788
        49.300
 200835013.451 5                  38217629.063
        31.800
 137073920.595 5                  26084295.966
        35.600
 104442211.802 8  81232881.052 8  19565535.645    19565535.595    19565541.326
        51.200          49.900
 131602414.137 5                  25043106.376
        33.800
 121116815.586 6                  22641500.219    22641500.186
        39.200
 198905144.018 7                  37850397.753
        42.000
 202060494.374 7                  38450829.635
        44.400
 111965341.283 7  87245756.79245  21306285.493    21306285.1274   21306289.0714
        42.300          34.5004
 105781212.538 8  82274300.165 7  19802453.684    19802453.751    19802459.532
        53.200          46.200
 106725917.485 8  83009038.529 7  19972274.592    19972275.204    19972280.419
        51.200          47.800
 126912560.711 8                  24150645.283
        49.600
 125233572.926 8                  23831143.052
        48.000
 109887134.474 8  85467761.248 7  20535030.509    20535031.750    20535038.464
        52.400          47.200
 25  1  1  0 25  0.0000000  0 22G06G14G19G12G11G03E27G24E34S35E15R22
                                E36R23S31S33G17R12R11E02E30R21
 107980363.503 7  84140586.73147  20547968.873    20547968.6054   20547973.9254
        45.700          46.2004
 113191663.266 7  88201313.93945  21539658.832    21539658.7564   21539663.1304
        43.400          30.7004
 106249381.387 8  82791763.20147  20218567.728    20218566.4324   20218567.4924
        53.100          46.0004
 128397597.884 5 100050072.50544  24433236.111    24433235.7634   24433239.0804
        35.800          27.3004
 121932387.958 7  95012209.16544  23202937.993    23202937.9094   23202939.2264
        47.100          26.4004
 121248319.936 6  94479244.87844  23072790.310    23072790.3544   23072795.8764
        38.500          26.7004
 142913589.601 6                  27195547.741
        41.100


 122619131.781 8                  23333630.267
        48.800


 137032554.494 5                  26076424.906
        34.700
 104428570.548 8  81222271.250 8  19562979.422    19562979.951    19562985.673
        50.000          49.400


 121067416.235 6                  22632267.453    22632266.397
        39.800
 198905148.505 6                  37850389.946
        40.000
 202060488.888 7                  38450837.062
        42.700
 111986848.954 7  87262516.03545  21310378.537    21310378.1804   21310382.6634
        44.500          35.7004
 105750505.795 8  82250417.198 7  19796704.390    19796705.216    19796711.011
        53.200          46.600
 106765118.448 8  83039528.195 7  19979609.539    19979608.763    19979615.847
        49.100          47.500
 126934938.618 7                  24154903.097
        46.600
 125218294.975 8                  23828235.237
        48.000
 109928145.328 8  85499658.611 7  20542693.271    20542693.840    20542701.966
        50.700          47.500
 25  1  1  0 25 15.0000000  0 22G06G14G19G12G11G03E27G24E34S35E15R22
                                E36R23S31S33G17R12R11E02E30R21
 107957405.228 7  84122697.19247  20543600.862    20543600.6034   20543605.0164
        42.700          45.7004
 113229333.440 6  88230667.31244  21546827.463    21546827.3704   21546832.0354
        38.700          28.3004
 106245958.468 8  82789096.01347  20217916.247    20217914.9464   20217916.0934
        52.900          46.5004
 128345153.689 6 100009207.12745  24423256.348    24423255.9914   24423260.3864
        39.400          30.2004
 121882853.775 7  94973611.21444  23193512.553    23193512.4824   23193514.5794
        45.300          26.3004
 121255376.669 6  94484743.65243  23074131.803    23074131.7454   23074140.1624
        38.700          20.5004
 142875122.352 6                  27188229.372
        40.800
 119884525.321 5  93416526.34744  22813260.007    22813259.7844   22813268.3834
        33.000          27.0004
 122609443.153 7                  23331787.039
        47.900
 200834943.200 5                  38217618.108
        34.900
 136991240.171 6                  26068560.795
        38.600
 104415072.417 8  81211772.752 8  19560450.944    19560450.980    19560456.612
        50.700          48.000
 131663427.078 5                  25054716.723
        31.300
 121018099.576 6                  22623036.996    22623037.773
        37.000
 198905157.132 6                  37850404.926
        37.000
 202060487.378 6                  38450837.487
        40.500


 105719957.788 8  82226657.672 7  19790984.895    19790984.633    19790992.047
        50.100          46.300
 106804477.308 8  83070140.682 7  19986973.989    19986973.074    19986981.455
        48.200          47.500
 126957385.506 7                  24159174.999
        46.600
 125203080.677 8                  23825340.333
        49.300
 109969229.520 8  85531613.021 8  20550372.751    20550372.148    20550380.136
        49.800          48.800
 25  1  1  0 25 30.0000000  0 22G06G14G19G12G11G03E27G24E34S35E15R22
                                E36R23S31S33G17R12R11E02E30R21
 107934572.334 7  84104905.32447  20539255.293    20539255.0484   20539259.8824
        46.200          46.5004
 113267087.597 7  88260086.19945  21554012.202    21554012.0824   21554016.6184
        46.500          31.0004
 106242598.360 8  82786477.76547  20217276.314    20217275.0134   20217276.4504
        51.000          43.1004
 128292714.331 6  99968345.45345  24413277.783    24413277.4484   24413281.8534
        41.600          32.2004
 121833375.873 7  94935057.08744  23184097.281    23184097.2194   23184100.1194
        47.600          28.2004
 121262580.413 5  94490357.00843  23075501.226    23075501.2704   23075510.0664
        33.800          20.9004
 142836654.679 6                  27180909.006
        38.700
 119885762.565 6  93417490.44945  22813495.701    22813495.8214   22813503.7344
        39.400          32.3004
 122599847.445 8                  23329960.765
        49.800
 200835023.469 6                  38217636.276
        38.000
 136949969.226 5                  26060707.674
        34.400
 104401708.765 8  81201378.775 8  19557947.963    19557948.016    19557953.613
        50.400          49.800
 131694020.570 6                  25060535.877
        36.800
 120968855.480 6                  22613839.332    22613839.435
        41.400
 198905162.360 7                  37850399.041
        42.900
 202060482.567 6                  38450829.908
        41.200
 112029967.865 7  87296060.93644  21318582.658    21318582.3104   21318586.8694
        43.100          29.5004
 105689559.996 8  82203014.975 7  19785294.541    19785294.668    19785302.064
        49.800          44.100
 106843985.079 8  83100868.891 8  19994368.356    19994368.628    19994374.751
        51.000          48.200
 126979892.906 7                  24163457.554
        42.100
 125187921.646 7                  23822454.458
        46.100
 110010377.950 8  85563617.327 7  20558061.403    20558061.854    20558069.766
        51.200          47.500
 25  1  1  0 25 45.0000000  0 22G06G14G19G12G11G03E27G24E34S35E15R22
                                E36R23S31S33G17R12R11E02E30R21
 107911869.991 8  84087215.21748  20534935.859    20534935.6234   20534940.0854
        48.800          48.5004
 113304930.860 7  88289574.48645  21561212.837    21561212.7214   21561217.2894
        44.400          30.6004
 106239306.114 8  82783912.39646  20216649.416    20216648.1244   20216648.9424
        50.800          40.5004
 128240285.389 7  99927491.91845  24403299.600    24403299.2924   24403306.2174
        43.100          33.9004
 121783959.826 7  94896551.21744  23174692.736    23174692.6604   23174698.3274
        44.900          28.1004
 121269936.119 5  94496088.80943  23076899.437    23076899.6154   23076908.4054
        30.400          20.4004
 142798191.750 5                  27173587.787
        34.400
 119887147.062 6  93418569.32645  22813758.260    22813758.2524   22813767.7564
        41.000          31.7004
 122590349.890 8                  23328153.266
        49.600
 200835060.115 6                  38217645.452
        36.900
 136908747.188 6                  26052865.787
        37.100
 104388484.608 8  81191093.356 8  19555469.666    19555469.825    19555476.674
        49.000          50.400
 131724675.029 5                  25066366.885
        33.700
 120919690.255 6                  22604639.344    22604640.985
        37.500
 198905168.491 6                  37850395.258
        41.500
 202060479.601 7                  38450831.710
        45.400
 112051576.655 6  87312898.95544  21322694.219    21322693.9514   21322696.3044
        41.500          29.4004
 105659318.149 8  82179493.635 7  19779632.141    19779632.852    19779639.537
        49.600          42.400
 106883646.754 8  83131716.861 7  20001791.204    20001791.436    20001795.936
        52.300          46.200
 127002465.933 6                  24167752.437
        39.700
 125172823.184 7                  23819581.717
        47.400
 110051595.530 8  85595675.480 7  20565765.167    20565765.083    20565771.541
        52.200          46.600
 25  1  1  0 26  0.0000000  0 22G06G14G19G12G11G03E27G24E34S35E15R22
                                E36R23S31S33G17R12R11E02E30R21
 107889298.467 7  84069627.03447  20530640.588    20530640.3344   20530645.1004
        47.100          47.7004
 113342863.277 7  88319132.20944  21568430.502    21568430.3914   21568434.7614
        42.500          28.7004
 106236081.995 8  82781400.11246  20216036.018    20216034.7494   20216034.7614
        50.800          40.8004
 128187867.198 6  99886646.73545  24393324.299    24393324.0314   24393333.0644
        41.700          33.7004
 121734605.905 7  94858093.70544  23165301.684    23165301.6084   23165305.6484
        45.100          26.6004
 121277444.013 5  94501939.09543  23078330.965    23078330.9344   23078339.6424
        33.600          19.6004
 142759733.847 5                  27166270.141
        34.200
 119888678.918 6  93419763.00945  22814050.946    22814050.7994   22814059.3644
        38.900          30.9004
 122580950.575 8                  23326364.934
        51.100


 136867574.227 6                  26045031.068
        37.900
 104375400.144 8  81180916.588 8  19553018.641    19553018.902    19553025.715
        49.500          50.700
 131755390.738 5                  25072213.464
        35.800
 120870604.173 6                  22595465.371    22595464.501
        39.000
 198905176.258 7                  37850406.393
        42.200
 202060477.807 7                  38450831.240
        44.800
 112073219.664 7  87329763.64745  21326813.815    21326813.3774   21326815.2544
        43.400          32.6004
 105629233.037 7  82156094.091 7  19773998.678    19773998.943    19774005.900
        46.700          42.100
 106923462.223 8  83162684.498 7  20009241.927    20009242.358    20009246.688
        52.500          46.100
 127025104.971 6                  24172059.430
        39.900
 125157785.629 7                  23816719.845
        47.100
 110092882.003 8  85627787.186 7  20573479.007    20573479.374    20573486.244
        51.600          46.200
 25  1  1  0 26 15.0000000  0 22G06G14G19G12G11G03E27G24E34S35E15R22
                                E36R23S31S33G17R12R11E02E30R21
 107866857.840 7  84052140.84147  20526370.657    20526370.4074   20526374.2314
        47.000          47.5004
 113380884.663 7  88348759.20645  21575667.613    21575667.5064   21575669.2834
        42.600          30.5004
 106232925.920 8  82778940.88147  20215435.578    20215434.3004   20215434.3424
        49.200          42.2004
 128135459.994 7  99845810.14645  24383351.009    24383350.7554   24383359.7534
        43.100          30.6004
 121685314.427 7  94819684.90944  23155921.339    23155921.2954   23155924.2914
        45.100          25.7004
 121285104.042 6  94507908.07844  23079791.180    23079790.9664   23079797.0254
        37.700          25.0004
 142721281.140 6                  27158951.878
        37.500
 119890357.986 6  93421071.45544  22814370.900    22814370.6724   22814378.8844
        36.800          27.6004
 122571649.450 8                  23324593.962
        48.400
 200835143.788 5                  38217656.997
        33.500
 136826450.385 5                  26037203.401
        34.200
 104362455.191 8  81170848.305 7  19550595.101    19550594.929    19550598.961
        50.600          47.100
 131786167.320 5                  25078070.079
        34.300
 120821597.383 6                  22586305.247    22586307.449
        41.800
 198905185.685 6                  37850391.028
        39.200
 202060476.887 7                  38450824.645
        44.700
 112094896.919 6  87346655.07544  21330937.152    21330936.5894   21330940.2194
        38.600          29.3004
 105599304.795 8  82132816.621 7  19768398.614    19768398.437    19768406.034
        49.900          45.400
 106963431.143 8  83193771.472 7  20016721.186    20016721.464    20016727.377
        52.400          47.500
 127047809.699 7                  24176382.386
        46.400
 125142809.113 8                  23813870.819
        49.500
 110134236.973 8  85659952.118 7  20581207.917    20581208.144    20581214.513
        51.300          45.600
 25  1  1  0 26 30.0000000  0 23G06G14G19G12G11G03E27G24E34S35R13E15
                                R22E36R23S31S33G17R12R11E02E30R21
 107844544.947 8  84034754.21947  20522124.390    20522124.1404   20522127.6664
        49.200          47.5004
 113418991.675 7  88378453.04544  21582917.972    21582917.8654   21582920.4574
        44.200          26.9004
 106229834.713 8  82776532.13546  20214847.341    20214846.0584   20214846.5924
        49.700          39.5004
 128083060.863 5  99804979.82045  24373378.828    24373378.5474   24373388.2014
        35.400          31.7004
 121636082.399 7  94781322.34144  23146552.479    23146552.4534   23146555.6694
        44.600          26.4004
 121292913.227 5  94513993.08042  23081274.378    23081274.4314   23081282.3594
        31.600          13.3004
 142682830.651 5                  27151635.403
        35.300
 119892181.112 7  93422491.95745  22814717.841    22814717.6094   22814726.7234
        42.600          31.8004
 122562443.353 8                  23322843.377
        50.200


 123918863.488 5                  23206024.737
        32.500
 136785372.772 6                  26029387.886
        38.800
 104349646.551 8  81160886.044 8  19548194.056    19548194.612    19548200.105
        50.500          50.000
 131817001.268 6                  25083937.875
        40.300
 120772666.940 6                  22577157.217    22577157.557
        41.200
 198905193.434 6                  37850401.791
        41.000
 202060475.282 7                  38450824.636
        44.400
 112116605.464 6  87363570.77845  21335069.144    21335068.6354   21335071.3004
        41.500          30.4004
 105569530.736 7  82109659.121 7  19762821.367    19762821.045    19762830.721
        44.400          44.100
 107003550.138 8  83224975.084 7  20024228.734    20024228.344    20024235.437
        50.500          47.800
 127070577.095 6                  24180715.243
        40.300
 125127890.629 7                  23811031.951
        47.300
 110175656.970 8  85692167.710 7  20588947.917    20588948.420    20588956.055
        52.700          46.200
 25  1  1  0 26 45.0000000  0 23G06G14G19G12G11G03E27G24E34S35R13E15
                                R22E36R23S31S33G17R12R11E02E30R21
 107822359.705 8  84017467.03748  20517902.295    20517902.0324   20517905.6854
        49.200          48.1004
 113457184.050 7  88408213.33443  21590185.328    21590185.2124   21590187.3004
        42.300          23.6004
 106226808.113 8  82774173.77446  20214271.725    20214270.4384   20214270.2404
        50.400          39.2004
 128030669.626 6  99764155.66545  24363411.792    24363411.4354   24363418.3964
        40.700          30.7004
 121586909.756 7  94743006.09044  23137194.153    23137194.1044   23137197.7984
        43.100          25.4004


 142644381.956 6                  27144320.603
        37.100
 119894147.913 6  93424024.51845  22815092.178    22815091.9424   22815100.9304
        39.300          33.0004
 122553331.947 8                  23321109.388
        49.800
 200835169.509 5                  38217678.980
        30.600
 123857107.719 5                  23194460.853    23194459.037
        33.900
 136744341.293 6                  26021578.407
        39.600
 104336973.703 8  81151029.420 8  19545820.803    19545821.182    19545825.598
        50.000          48.100
 131847892.203 6                  25089816.586
        36.000
 120723812.734 6                  22568023.215    22568023.714
        40.800
 198905198.518 6                  37850397.695
        41.400
 202060470.496 7                  38450825.342
        42.900
 112138344.454 6  87380510.25545  21339206.587    21339206.1584   21339209.1214
        39.700          34.6004
 105539911.015 7  82086621.581 7  19757276.742    19757275.329    19757286.987
        44.900          44.300
 107043818.556 8  83256294.984 7  20031764.820    20031764.991    20031770.863
        50.000          47.800
 127093406.874 7                  24185060.691
        43.700
 125113030.017 8                  23808204.318
        48.400
 110217141.104 8  85724433.177 7  20596700.371    20596700.716    20596708.856
        52.900          47.300
 25  1  1  0 27  0.0000000  0 23G06G14G19G12G11G03E27G24E34S35R13E15
                                R22E36R23S31S33G17R12R11E02E30R21
 107800305.037 8  84000281.60647  20513705.720    20513705.4574   20513708.6424
        49.300          47.8004
 113495464.517 6  88438042.17643  21597469.399    21597469.2474   21597471.9314
        40.500          21.4004
 106223848.898 8  82771867.92946  20213708.363    20213707.0764   20213707.4424
        50.100          38.8004
 127978289.572 6  99723340.25145  24353441.760    24353441.3984   24353450.6134
        41.900          30.7004
 121537799.657 7  94704738.57044  23127849.331    23127849.3144   23127851.6594
        43.700          25.5004


 142605938.381 6                  27137003.699
        36.400
 119896261.123 6  93425671.18945  22815494.306    22815494.0294   22815503.8824
        40.600          33.6004
 122544318.177 8                  23319393.711
        50.400


 123795389.979 5                  23182897.043    23182898.528
        33.500
 136703358.872 6                  26013780.753
        40.800
 104324439.565 8  81141280.659 7  19543473.198    19543473.137    19543477.509
        50.800          47.100
 131878842.920 6                  25095706.749
        36.900
 120675037.671 5                  22558904.013    22558901.125
        34.400
 198905205.041 7                  37850403.741
        42.200
 202060467.168 7                  38450826.603
        43.900
 112160116.885 6  87397475.78245  21343349.863    21343349.5014   21343352.5714
        39.300          33.1004
 105510448.922 7  82063706.633 7  19751763.624    19751762.892    19751770.597
        45.300          43.500
 107084239.048 8  83287733.111 7  20039329.397    20039328.977    20039334.313
        49.700          45.100
 127116302.009 7                  24189416.537
        46.100
 125098230.377 8                  23805388.024
        48.100
 110258692.054 8  85756750.584 7  20604465.396    20604465.608    20604473.542
        52.200          47.600
 25  1  1  0 27 15.0000000  0 23G06G14G19G12G11G03E27G24E34S35R13E15
                                R22E36R23S31S33G17R12R11E02E30R21
 107778380.131 8  83983197.29847  20509533.412    20509533.1444   20509536.9004
        49.500          47.9004
 113533832.023 7  88467938.90043  21604770.796    21604770.6854   21604772.5614
        43.000          19.1004
 106220956.177 8  82769613.87746  20213158.324    20213157.0234   20213157.3434
        50.400          40.7004
 127925920.224 6  99682533.19644  24343477.406    24343476.9824   24343484.2384
        38.900          28.8004
 121488751.514 7  94666519.36744  23118516.646    23118516.6064   23118517.9574
        42.000          24.8004
 121317234.074 5  94532944.03043  23085906.354    23085907.0154   23085910.5064
        35.100          18.3004
 142567499.213 3                  27129686.544
        23.700
 119898519.875 6  93427431.29445  22815923.393    22815923.0984   22815934.2624
        40.300          32.7004
 122535401.061 8                  23317697.137
        51.000


 123733708.791 4                  23171348.153    23171345.783
        29.500
 136662424.878 6                  26005991.203
        40.400
 104312043.145 8  81131639.040 7  19541148.677    19541148.314    19541154.858
        48.200          47.200
 131909852.194 5                  25101607.869
        34.400
 120626341.310 6                  22549802.803    22549802.639
        38.700
 198905212.154 6                  37850407.752
        38.200
 202060463.932 7                  38450822.780
        44.800
 112181921.916 6  87414466.73445  21347498.973    21347498.6474   21347501.2844
        41.100          33.2004
 105481144.110 7  82040914.025 7  19746275.577    19746277.088    19746286.782
        44.500          44.300
 107124810.464 8  83319288.654 7  20046920.671    20046920.304    20046926.936
        49.400          45.100
 127139261.526 7                  24193785.601
        44.000
 125083490.926 8                  23802583.024
        48.700
 110300308.533 8  85789118.975 7  20612242.375    20612243.535    20612249.282
        52.500          46.800
 25  1  1  0 27 30.0000000  0 22G06G14G19G12G11G03E27G24E34S35E15R22
                                E36R23S31S33G17R12R11E02E30R21
 107756585.210 8  83966214.29347  20505385.377    20505385.1184   20505389.6054
        49.600          47.1004
 113572286.665 6  88497903.51042  21612086.541    21612086.4654   21612089.2854
        40.100          13.8004
 106218130.151 8  82767411.80846  20212620.576    20212619.2754   20212619.5054
        50.300          39.4004
 127873561.613 6  99641734.43645  24333514.067    24333513.6474   24333518.7004
        41.400          30.8004
 121439765.628 7  94628348.62443  23109193.671    23109193.6134   23109195.0804
        43.500          23.4004
 121325644.849 6  94539497.83243  23087506.262    23087506.6864   23087510.0154
        36.800          18.7004
 142529016.181 5                  27122375.038
        34.500
 119900924.134 6  93429304.80045  22816380.783    22816380.4974   22816390.1224
        39.900          32.0004
 122526580.743 8                  23316018.548
        50.000


 136621539.437 6                  25998209.989
        40.900
 104299784.507 8  81122104.557 7  19538853.567    19538853.737    19538858.564
        50.100          47.400
 131940919.973 4                  25107518.074
        27.900
 120577723.521 5                  22540713.826    22540713.279
        34.600
 198905218.443 7                  37850414.764
        44.100
 202060460.677 5                  38450816.860
        35.400
 112203759.795 6  87431483.30645  21351654.752    21351654.4804   21351656.1954
        36.200          32.0004
 105451996.841 7  82018243.931 7  19740823.077    19740822.142    19740828.192
        45.900          44.200
 107165532.563 8  83350961.404 7  20054540.872    20054541.706    20054548.137
        50.100          43.800
 127162285.768 7                  24198166.514
        46.600
 125068811.967 8                  23799789.935
        49.100
 110341990.415 8  85821538.216 7  20620030.956    20620031.666    20620038.862
        53.000          46.700
 25  1  1  0 27 45.0000000  0 22G06G14G19G12G11G03E27G24E34S35E15R22
                                E36R23S31S33G17R12R11E02E30R21
 107734920.182 7  83949332.48347  20501263.121    20501262.8584   20501266.7554
        47.400          46.5004
 113610827.971 5  88527935.72241  21619422.537    21619422.4884   21619422.6834
        34.800           9.4004
 106215370.575 8  82765261.51546  20212095.181    20212093.8804   20212094.1664
        51.000          40.1004
 127821213.758 7  99600944.09444  24323552.165    24323551.8034   24323557.9194
        42.600          29.3004
 121390842.126 7  94590226.52544  23099885.565    23099885.4724   23099886.1864
        43.300          27.4004
 121334206.155 6  94546168.95343  23089136.422    23089136.8554   23089138.8354
        36.500          20.5004
 142490585.871 4                  27115064.008
        28.600
 119903473.622 5  93431291.41945  22816866.910    22816866.6334   22816874.6714
        35.100          32.0004
 122517857.059 8                  23314358.264
        49.100


 136580702.647 6                  25990439.221
        41.300
 104287663.344 8  81112677.040 8  19536583.117    19536583.217    19536588.500
        51.700          49.000
 131972046.833 4                  25113442.727
        29.600
 120529184.763 7                  22531641.092    22531642.691
        43.400
 198905225.151 6                  37850418.131
        39.300
 202060457.615 6                  38450819.189
        41.700
 112225629.995 6  87448525.00745  21355817.125    21355816.8354   21355818.7354
        40.700          33.0004
 105423007.698 7  81995696.843 7  19735394.329    19735394.330    19735402.500
        46.700          46.700
 107206405.186 8  83382751.224 7  20062190.613    20062191.208    20062197.389
        48.900          46.500
 127185374.327 7                  24202559.508
        47.500
 125054193.555 8                  23797008.000
        50.100
 110383736.953 8  85854007.751 7  20627833.224    20627833.900    20627839.500
        52.300          47.800
 25  1  1  0 28  0.0000000  0 22G06G14G19G12G11G03E27G24E34S35E15R22
                                E36R23S31S33G17R12R11E02E30R21
 107713386.813 7  83932553.25247  20497165.084    20497164.8164   20497169.3674
        46.400          46.3004


 106212679.097 8  82763164.33146  20211582.722    20211581.4264   20211581.9554
        49.800          38.6004
 127768878.889 6  99560163.93145  24313592.357    24313591.9914   24313599.4594
        39.600          30.3004
 121341982.805 7  94552154.45244  23090587.899    23090587.8154   23090589.1464
        45.200          29.2004
 121342919.718 6  94552958.72843  23090793.834    23090794.4424   23090798.1024
        39.000          23.7004


 119906169.984 7  93433392.53345  22817379.769    22817379.5284   22817387.8084
        42.400          31.0004
 122509231.575 8                  23312717.145
        50.000
 200835336.488 5                  38217680.836
        31.800
 136539916.283 6                  25982678.046
        37.300
 104275681.304 8  81103357.671 8  19534338.852    19534338.927    19534343.111
        51.900          48.300
 132003229.418 5                  25119380.152
        34.400
 120480726.751 6                  22522576.809    22522577.151
        37.500
 198905234.232 6                  37850416.087
        41.900
 202060456.642 7                  38450815.509
        42.800
 112247534.183 6  87465593.23945  21359985.011    21359984.6904   21359987.8304
        39.400          34.1004
 105394178.472 7  81973274.148 7  19729997.997    19729998.298    19730005.457
        46.600          45.000
 107247429.343 8  83414658.863 7  20069868.160    20069867.942    20069874.105
        48.800          47.100
 127208528.888 8                  24206966.508
        48.400
 125039637.448 8                  23794237.760
        49.800
 110425549.619 8  85886528.752 8  20635645.676    20635646.303    20635654.399
        50.700          48.500
 25  1  1  0 28 15.0000000  0 22G06G14G19G12G11G03E27G24E34S35E15R22
                                E36R23S31S33G17R12R11E02E30R21
 107691977.841 7  83915870.97347  20493090.597    20493090.3384   20493095.9564
        45.900          46.7004


 106210048.323 8  82761114.40846  20211082.426    20211081.1394   20211081.1154
        50.800          37.9004
 127716549.726 6  99519388.14444  24303636.479    24303636.1494   24303643.2394
        36.800          29.8004
 121293180.710 7  94514126.94845  23081300.641    23081300.5484   23081303.3474
        46.800          30.4004
 121351778.372 5  94559861.58243  23092479.996    23092480.6624   23092484.8204
        33.200          23.1004


 119909005.918 6  93435602.42344  22817919.932    22817919.7314   22817925.6504
        36.800          28.2004
 122500697.067 8                  23311092.846
        50.700
 200835370.106 5                  38217696.759
        35.100
 136499173.309 6                  25974923.878
        38.100
 104263830.839 8  81094140.695 8  19532118.503    19532119.102    19532124.073
        52.000          49.000


 120432342.132 6                  22513531.679    22513530.876
        37.100
 198905236.607 6                  37850416.110
        40.500
 202060448.787 7                  38450816.949
        43.500
 112269465.088 6  87482682.19044  21364155.380    21364155.1084   21364160.1084
        37.300          29.0004
 105365502.365 8  81950970.558 7  19724630.523    19724630.249    19724636.478
        49.100          47.900
 107288597.647 8  83446678.651 7  20077571.007    20077570.678    20077577.821
        49.800          45.200
 127231742.310 7                  24211383.042
        46.700
 125025136.521 8                  23791478.328
        49.800
 110467420.668 8  85919095.143 7  20643471.557    20643471.638    20643478.415
        52.500          47.500
 25  1  1  0 28 30.0000000  0 22G06G14G19G12G11G03E27G24E34S35E15R22
                                E36R23S31S33G17R12R11E02E30R21
 107670703.828 7  83899293.80547  20489042.120    20489041.8754   20489048.2754
        47.100          47.2004
 113726962.034 5  88618421.98842  21641524.573    21641524.3904   21641524.9304
        34.400          17.3004
 106207488.886 8  82759120.11246  20210594.947    20210593.6554   20210593.9364
        48.800          36.5004
 127664237.303 6  99478625.40344  24293680.459    24293680.0974   24293688.2054
        41.600          28.5004
 121244446.537 7  94476152.37144  23072026.421    23072026.3014   23072029.4264
        45.000          29.1004
 121360792.195 5  94566885.33242  23094192.681    23094193.3334   23094200.5514
        32.400          16.3004


 119911991.845 6  93437929.18144  22818488.243    22818488.0024   22818492.4784
        37.000          29.6004
 122492263.892 8                  23309488.063
        50.300
 200835407.898 6                  38217713.434
        39.700
 136458484.079 5                  25967181.440
        35.800
 104252122.492 8  81085034.237 8  19529924.935    19529925.328    19529930.979
        53.000          49.300


 120384041.669 6                  22504509.150    22504505.679
        37.500
 198905244.627 6                  37850410.046
        39.800
 202060447.517 7                  38450828.311
        43.700
 112291433.118 6  87499800.18744  21368336.588    21368336.3654   21368340.5394
        40.000          28.7004
 105336990.446 8  81928794.646 8  19719292.554    19719293.690    19719299.391
        49.900          48.100
 107329920.234 8  83478818.404 7  20085304.790    20085304.958    20085310.168
        50.600          46.400
 127255024.922 7                  24215813.043
        45.500
 125010701.356 8                  23788732.019
        51.000
 110509360.275 8  85951714.825 7  20651308.700    20651309.235    20651316.149
        52.500          47.500
 25  1  1  0 28 45.0000000  0 22G06G14G19G12G11G03E27G24E34S35E15R22
                                E36R23S31S33G17R12R11E02E30R21
 107649556.307 7  83882815.27347  20485018.268    20485018.0234   20485023.5824
        47.500          46.4004
 113765846.513 6  88648721.56743  21648923.260    21648922.9614   21648925.8374
        39.200          18.6004
 106204992.205 8  82757174.66546  20210119.622    20210118.3214   20210119.2964
        49.800          38.2004
 127611933.123 6  99437869.11445  24283727.766    24283727.3424   24283735.5134
        38.300          30.7004
 121195771.957 6  94438224.25544  23062763.579    23062763.4414   23062766.8264
        41.900          29.6004
 121369953.047 5  94574023.59741  23095939.274    23095939.6714   23095944.0004
        33.000          11.2004
 142336961.890 5                  27085824.676
        32.500
 119915118.862 6  93440365.85545  22819083.300    22819083.1224   22819087.8794
        39.800          31.9004
 122483923.563 8                  23307901.283
        50.700


 136417840.572 6                  25959446.616
        36.700
 104240547.485 8  81076031.479 8  19527757.062    19527757.115    19527761.880
        51.700          49.500
 132097127.302 5                  25137246.547
        30.600
 120335816.952 6                  22495490.310    22495487.499
        38.000
 198905248.942 6                  37850413.820
        38.700
 202060441.116 7                  38450821.729
        44.600
 112313429.746 7  87516940.46145  21372524.111    21372523.8664   21372524.9674
        44.800          33.0004
 105308634.282 8  81906739.903 7  19713984.645    19713985.409    19713989.876
        50.100          44.400
 107371388.323 8  83511071.272 7  20093065.334    20093065.016    20093070.821
        50.500          46.200
 127278368.260 7                  24220255.967
        45.300
 124996323.615 8                  23785995.582
        50.600
 110551359.268 8  85984380.729 7  20659156.584    20659156.136    20659164.952
        50.600          47.900
 25  1  1  0 29  0.0000000  0 22G06G14G19G12G11G03E27G24E34S35E15R22
                                E36R23S31S33G17R12R11E02E30R21
 107628538.752 7  83866437.97547  20481018.264    20481018.0234   20481023.6044
        46.800          47.5004
 113804816.689 6  88679087.95543  21656339.590    21656339.2064   21656341.0754
        40.600          22.0004
 106202561.464 8  82755280.64746  20209657.063    20209655.7534   20209657.5834
        48.000          38.1004
 127559640.552 6  99397121.82744  24273774.927    24273774.4764   24273785.0984
        39.700          28.2004
 121147160.562 7  94400345.34645  23053513.412    23053513.2694   23053516.6634
        45.500          30.1004


 142298538.041 6                  27078510.050
        36.400
 119918390.448 6  93442915.11745  22819705.143    22819704.9834   22819711.0134
        38.700          32.1004
 122475679.334 8                  23306332.186
        51.100


 136377246.021 5                  25951722.451
        35.000
 104229109.113 8  81067134.993 8  19525614.541    19525615.239    19525619.123
        53.400          49.300


 120287671.691 6                  22486491.629    22486489.668
        40.000
 198905252.337 7                  37850417.084
        43.300
 202060434.506 7                  38450819.306
        45.300
 112335458.172 5  87534105.48845  21376716.789    21376716.5794   21376716.5634
        34.300          31.6004
 105280437.885 7  81884809.436 7  19708704.607    19708704.803    19708713.960
        47.100          47.900
 107413004.912 8  83543439.746 7  20100853.250    20100853.536    20100859.525
        51.200          46.200
 127301775.643 7                  24224709.659
        44.200
 124982006.814 8                  23783271.252
        50.900
 110593421.025 8  86017095.382 7  20667017.770    20667017.593    20667024.302
        51.600          45.400
 25  1  1  0 29 15.0000000  0 22G06G14G19G12G11G03E27G24E34S35E15R22
                                E36R23S31S33G17R12R11E02E30R21
 107607655.973 7  83850165.73047  20477044.913    20477044.6774   20477049.5484
        46.200          46.1004
 113843877.376 6  88709524.85443  21663771.941    21663771.5124   21663774.0704
        39.800          20.8004
 106200201.633 8  82753441.83646  20209208.126    20209206.8344   20209209.5134
        49.800          38.0004
 127507364.666 6  99356387.57744  24263826.721    24263826.2214   24263837.9024
        41.100          27.4004
 121098617.328 7  94362519.53744  23044275.114    23044274.9404   23044278.9704
        44.100          29.3004
 121388789.668 5                  23099513.127
        30.300
 142260139.087 6                  27071204.057
        37.100
 119921811.099 6  93445580.58245  22820355.629    22820355.4734   22820362.7434
        39.900          31.8004
 122467536.016 8                  23304782.720
        51.700
 200835648.032 6                  38217748.643
        40.900
 136336705.396 6                  25944007.408
        37.200
 104217812.148 8  81058348.520 8  19523497.346    19523498.212    19523502.628
        52.800          48.600


 120239610.722 7                  22477510.924    22477509.036
        42.300
 198905261.087 7                  37850418.900
        42.000
 202060433.775 7                  38450816.417
        44.100
 112357523.104 6  87551299.00745  21380916.710    21380916.5994   21380915.1574
        40.100          32.7004
 105252406.420 8  81863007.177 8  19703457.203    19703457.296    19703466.717
        49.600          49.400
 107454774.601 8  83575927.284 7  20108669.033    20108669.798    20108676.342
        49.700          45.800
 127325251.930 7                  24229177.077
        43.300
 124967755.871 8                  23780559.351
        50.400
 110635549.714 8  86049862.116 7  20674889.956    20674890.524    20674896.513
        52.400          44.500
 25  1  1  0 29 30.0000000  0 22G06G14G19G12G11G03E27G24E34S35E15R22
                                E36R23S31S33G17R12R11E02E30R21
 107586904.782 7  83833996.02847  20473096.898    20473096.6534   20473100.3944
        46.300          45.4004
 113883025.135 6  88740029.58543  21671221.993    21671221.5694   21671222.4744
        38.200          19.2004
 106197909.418 8  82751655.71046  20208772.328    20208771.0504   20208773.2844
        49.100          38.9004
 127455102.778 6  99315664.20044  24253878.551    24253877.9614   24253892.0524
        40.200          24.2004
 121050139.365 7  94324744.58744  23035049.879    23035049.7014   23035053.9994
        42.700          29.2004
 121398407.168 6  94596155.05343  23101343.718    23101344.0354   23101348.0014
        37.400          21.1004
 142221746.781 5                  27063895.775
        34.900


 122459490.328 8                  23303251.793
        51.400
 200835687.660 5                  38217760.578
        34.200
 136296215.625 6                  25936302.481
        37.100
 104206653.240 8  81049669.382 8  19521406.604    19521407.165    19521411.903
        51.600          48.800
 132191510.405 5                  25155208.769
        35.200
 120191630.761 6                  22468537.801    22468537.812
        40.200
 198905270.607 7                  37850421.122
        42.000
 202060433.335 7                  38450822.954
        45.800
 112379621.344 7  87568518.45845  21385120.711    21385120.6094   21385120.7684
        43.700          35.7004
 105224536.844 8  81841330.863 8  19698240.432    19698240.450    19698249.317
        48.700          48.800
 107496693.901 8  83608531.167 7  20116514.865    20116515.359    20116519.800
        51.300          43.400
 127348793.832 7                  24233656.817
        43.100
 124953567.731 8                  23777859.266
        50.200
 110677741.890 8  86082678.266 7  20682774.935    20682775.099    20682781.106
        51.300          44.900
 25  1  1  0 29 45.0000000  0 22G06G14G19G12G11G03E27G24E34S35E15R22
                                E36R23S31S33G17R12R11E02E30R21
 107566280.161 7  83817924.92747  20469171.466    20469171.1944   20469175.9424
        46.400          45.6004
 113922254.789 6  88770598.17643  21678687.316    21678686.9774   21678687.7854
        38.000          19.5004
 106195679.592 8  82749918.22246  20208348.012    20208346.7474   20208348.0154
        49.400          36.7004
 127402849.883 5  99274947.80543  24243936.163    24243935.5694   24243947.0244
        31.700          20.1004
 121001721.735 7  94287016.67044  23025836.550    23025836.3724   23025840.6594
        43.700          28.7004
 121408171.086 4  94603763.37743  23103198.721    23103199.0164   23103208.3534
        27.400          19.9004
 142183356.256 6                  27056590.958
        38.200
 119929032.025 6  93451234.64544  22821738.133    22821737.9374   22821745.8074
        36.300          25.1004
 122451537.082 8                  23301738.323
        51.400
 200835710.847 5                  38217767.554
        33.400
 136255771.795 6                  25928606.828
        36.100
 104195627.043 8  81041093.474 8  19519341.699    19519341.910    19519347.261
        52.000          50.100
 132223092.636 5                  25161222.124
        32.600
 120143727.060 6                  22459583.382    22459583.021
        41.700
 198905276.033 7                  37850421.838
        43.500
 202060429.502 7                  38450818.872
        43.800
 112401747.725 7  87585759.78545  21389330.256    21389330.1894   21389331.3864
        42.800          35.8004
 105196824.514 8  81819776.859 8  19693053.223    19693053.033    19693061.162
        48.900          48.700
 107538757.095 8  83641246.958 7  20124386.719    20124387.127    20124390.956
        49.900          43.700
 127372396.250 7                  24238148.238
        45.400
 124939437.349 8                  23775170.336
        50.200
 110719991.804 7  86115539.333 7  20690669.208    20690668.421    20690677.267
        47.200          46.600
 25  1  1  0 30  0.0000000  0 23G06G14G19G12G11G03E27G24E34S35R13E15
                                R22E36R23S31S33G17R12R11E02E30R21
 107545787.571 8  83801956.71047  20465272.167    20465271.9084   20465276.7404
        48.000          46.1004
 113961571.464 6  88801234.55542  21686167.828    21686167.4804   21686169.5204
        41.100          17.9004
 106193517.524 7  82748233.53246  20207936.593    20207935.3244   20207935.6244
        47.500          36.1004
 127350611.514 5  99234242.73542  24233997.209    24233996.6554   24234004.2734
        35.400          17.0004
 120953369.995 7  94249340.07944  23016635.601    23016635.4454   23016638.5704
        44.600          28.1004
 121418086.972 6  94611490.05543  23105088.081    23105088.2954   23105094.6044
        36.600          21.9004
 142144972.879 5                  27049286.661
        35.900
 119932885.238 5  93454237.14743  22822474.253    22822474.0614   22822478.9924
        35.200          22.6004
 122443681.673 8                  23300243.622
        50.800
 200835748.665 5                  38217786.867
        32.000
 123057840.255 5                  23044781.524
        34.100
 136215379.353 6                  25920920.852
        38.400
 104184738.901 8  81032624.934 8  19517302.301    19517302.649    19517307.329
        52.400          50.500
 132254732.814 4                  25167237.172
        28.500
 120095905.167 6                  22450639.376    22450640.085
        40.400
 198905283.755 7                  37850424.579
        43.600
 202060427.181 7                  38450822.141
        44.900
 112423907.527 6  87603027.15246  21393547.579    21393547.5124   21393548.6724
        41.600          36.5004
 105169275.313 8  81798349.699 8  19687896.473    19687897.467    19687902.479
        53.100          48.400
 107580969.477 8  83674078.799 7  20132285.733    20132285.600    20132291.070
        49.600          44.600
 127396064.493 7                  24242651.953
        44.800
 124925370.357 8                  23772493.141
        50.100
 110762304.690 8  86148449.280 7  20698577.256    20698577.715    20698584.701
        49.400          46.100
 25  1  1  0 30 15.0000000  0 23G06G14G19G12G11G03E27G24E34S35R13E15
                                R22E36R23S31S33G17R12R11E02E30R21
 107525423.009 7  83786088.27047  20461396.353    20461396.0814   20461401.5474
        45.900          45.6004
 114000971.077 6  88831935.48642  21693664.130    21693663.8044   21693666.5224
        38.100          17.1004
 106191419.138 8  82746598.51146  20207537.089    20207535.8294   20207535.6194
        49.700          36.6004
 127298383.930 6  99193546.05142  24224060.056    24224059.4624   24224064.4114
        36.800          15.2004
 120905080.368 7  94211711.88744  23007445.844    23007445.7464   23007448.3844
        42.200          26.5004
 121428150.517 5  94619331.62942  23107000.279    23107000.2444   23107009.9974
        32.000          17.9004
 142106592.848 5                  27041983.221
        33.700


 122435920.033 8                  23298766.364
        51.000


 122996644.140 5                  23033317.871    23033318.430
        33.100
 136175034.421 6                  25913243.272
        40.900
 104173984.598 8  81024260.479 8  19515287.227    19515287.633    19515292.725
        50.600          50.200
 132286426.504 5                  25173270.870
        33.000
 120048161.192 6                  22441715.096    22441714.377
        36.800
 198905288.965 7                  37850425.446
        42.700
 202060421.322 6                  38450823.536
        40.700
 112446096.763 6  87620317.44545  21397769.895    21397769.8194   21397771.5784
        38.700          34.8004
 105141885.443 8  81777046.511 7  19682767.861    19682769.088    19682774.664
        52.400          47.100
 107623326.718 8  83707023.333 7  20140212.344    20140212.298    20140218.242
        48.400          46.800
 127419794.649 7                  24247168.392
        46.500
 124911362.811 8                  23769827.500
        50.400
 110804676.076 8  86181404.783 7  20706496.170    20706496.704    20706503.632
        51.600          46.100
 25  1  1  0 30 30.0000000  0 22G06G14G19G12G11G03E27G24E34S35E15R22
                                E36R23S31S33G17R12R11E02E30R21
 107505195.862 7  83770326.87047  20457548.601    20457548.3154   20457552.0394
        42.600          43.5004
 114040462.794 6  88862708.10942  21701180.982    21701180.7414   21701182.7034
        37.000          17.7004
 106189393.829 8  82745020.38045  20207151.829    20207150.5694   20207149.6834
        48.000          35.9004
 127246176.579 6  99152865.15341  24214123.466    24214122.8674   24214128.6624
        37.000          11.6004
 120856862.459 6  94174139.58144  22998270.931    22998270.8514   22998272.0464
        41.500          25.9004


 142068225.511 4                  27034678.325
        29.500


 122428261.372 8                  23297308.777
        50.400


 136134746.466 6                  25905576.370
        40.600
 104163373.483 8  81016007.410 8  19513299.295    19513299.805    19513305.160
        51.800          50.700
 132318182.781 6                  25179312.636
        37.200
 120000504.322 6                  22432807.697    22432807.951
        40.100
 198905300.390 7                  37850426.010
        42.200
 202060423.617 7                  38450815.254
        43.900
 112468324.674 6  87637637.85845  21402000.415    21402000.2504   21402001.9304
        37.200          33.7004
 105114664.735 8  81755874.896 7  19677672.335    19677673.053    19677678.392
        51.000          46.800
 107665837.782 7  83740087.518 7  20148167.077    20148167.211    20148173.974
        46.000          46.000
 127443595.933 7                  24251697.876
        47.400
 124897424.137 8                  23767175.635
        49.800
 110847114.950 8  86214412.818 7  20714425.631    20714426.576    20714433.996
        50.100          45.900
 25  1  1  0 30 45.0000000  0 23G06G14G19G12G11G03E27G24E34S35R13E15
                                R22E36R23S31S33G17R12R11E02E30R21
 107485095.024 8  83754663.95847  20453723.210    20453722.9154   20453726.0434
        49.200          45.3004
 114080035.373 7  88893543.93343  21708710.070    21708709.8254   21708714.7264
        42.100          20.5004
 106187430.298 8  82743490.39146  20206777.972    20206776.7204   20206774.9654
        49.700          37.5004
 127193978.694 6  99112191.75641  24204190.939    24204190.4074   24204194.1304
        36.800           9.5004
 120808705.255 7  94136614.70644  22989106.041    22989106.0064   22989107.0634
        42.000          25.4004


 142029860.174 5                  27027379.554
        32.400
 119945336.750 5  93463937.35644  22824835.924    22824835.6964   22824849.1044
        34.400          25.2004
 122420694.678 8                  23295868.636
        49.600


 122874389.427 5                  23010426.960    23010425.229
        34.700
 136094504.442 7                  25897918.259
        43.700
 104152894.201 8  81007856.861 8  19511335.632    19511335.850    19511341.371
        49.900          49.000
 132349990.432 5                  25185364.874
        34.800
 119952924.225 6                  22423913.938    22423912.508
        40.200
 198905307.866 6                  37850428.916
        41.000
 202060421.197 7                  38450817.267
        42.700
 112490579.923 6  87654979.65745  21406234.334    21406234.0934   21406236.2574
        38.400          33.5004
 105087602.641 8  81734826.632 7  19672605.196    19672606.074    19672612.405
        50.600          46.800
 107708491.207 8  83773262.384 7  20156149.849    20156149.966    20156156.187
        50.000          46.900
 127467457.280 7                  24256238.580
        47.900
 124883543.497 8                  23764534.228
        48.700
 110889609.947 8  86247464.504 7  20722366.318    20722367.789    20722375.052
        50.100          46.500
 25  1  1  0 31  0.0000000  0 22G06G14G19G12G11E27G24E34S35R13E15R22
                                E36R23S31S33G17R12R11E02E30R21
 107465126.570 8  83739104.21047  20449923.205    20449922.9064   20449925.4324
        49.000          46.1004
 114119694.621 6  88924447.44043  21716256.754    21716256.5444   21716261.7164
        40.600          18.5004
 106185534.442 8  82742013.05146  20206416.474    20206415.2224   20206414.2444
        48.900          38.3004
 127141796.439 5  99071530.48843  24194260.432    24194259.9634   24194263.8104
        35.200          18.3004
 120760615.086 7  94099141.96544  22979956.214    22979956.1744   22979958.0294
        42.700          26.6004
 141991502.550 6                  27020080.604
        36.600


 122413225.728 8                  23294447.341
        48.700


 122813329.276 5                  22998990.966    22998989.573
        33.300
 136054314.600 6                  25890270.504
        40.500
 104142552.618 8  80999813.474 8  19509398.835    19509398.538    19509403.938
        50.900          49.300
 132381855.039 6                  25191433.824
        39.000
 119905426.427 5                  22415035.009    22415031.548
        35.200
 198905316.830 6                  37850433.558
        41.200
 202060420.940 5                  38450812.504
        33.700
 112512868.298 6  87672347.18946  21410477.368    21410477.0784   21410476.7324
        40.300          36.2004
 105060705.241 8  81713906.427 8  19667570.996    19667571.228    19667578.177
        49.600          49.400
 107751292.670 8  83806552.380 7  20164159.543    20164160.466    20164165.082
        48.600          45.300
 127491384.579 7                  24260791.231
        46.700
 124869726.840 8                  23761904.924
        49.400
 110932166.657 8  86280564.090 7  20730321.485    20730321.294    20730326.617
        50.400          47.000
 25  1  1  0 31 15.0000000  0 23G06G14G19G12G11G03E27G24E34S35R13E15
                                R22E36R23S31S33G17R12R11E02E30R21
 107445284.983 8  83723643.23647  20446146.068    20446145.7644   20446150.4214
        48.800          45.5004
 114159434.812 7  88955413.75043  21723821.131    21723820.9124   21723822.9034
        43.300          18.0004
 106183700.845 8  82740584.25846  20206067.643    20206066.4054   20206066.7234
        49.600          38.8004
 127089624.743 6  99030877.54642  24184331.796    24184331.2244   24184335.6274
        37.300          14.7004
 120712586.502 6  94061717.12644  22970815.698    22970815.6814   22970818.4444
        41.500          26.0004
 121469928.544 6                  23114951.094
        37.100
 141953147.366 5                  27012780.862
        35.100
 119954339.407 5  93470915.46743  22826549.773    22826549.9744   22826551.8674
        34.400          22.4004
 122405848.981 8                  23293043.521
        49.200


 122752272.078 4                  22987561.122    22987560.678
        27.700
 136014171.309 7                  25882631.813
        42.300
 104132342.997 8  80991872.667 8  19507485.867    19507486.342    19507492.440
        51.300          49.300
 132413771.117 5                  25197502.639
        35.000
 119858005.868 6                  22406170.477    22406167.563
        39.100
 198905322.157 6                  37850408.848
        39.900
 202060415.360 7                  38450817.772
        42.200
 112535184.472 6  87689736.44146  21414723.221    21414722.9224   21414723.7544
        39.900          37.8004
 105033967.264 8  81693110.303 8  19662566.441    19662566.548    19662573.237
        52.000          48.000
 107794236.262 8  83839952.999 7  20172195.497    20172196.097    20172201.312
        49.400          46.200
 127515372.344 8                  24265356.346
        48.000
 124855968.920 8                  23759286.318
        48.900
 110974778.748 8  86313706.887 8  20738282.081    20738282.924    20738290.742
        49.200          48.900
 25  1  1  0 31 30.0000000  0 23G06G14G19G12G11G03E27G24E34S35R13E15
                                R22E36R23S31S33G17R12R11E02E30R21
 107425574.603 7  83708284.55147  20442396.591    20442396.2874   20442400.2424
        47.300          44.7004
 114199260.273 6  88986446.42244  21731397.695    21731397.4944   21731402.8764
        41.100          25.2004
 106181934.079 7  82739207.64946  20205732.111    20205730.8774   20205730.9084
        47.700          38.5004
 127037467.875 6  98990236.03343  24174407.044    24174406.4774   24174413.6694
        38.500          21.0004
 120664624.175 7  94024343.95244  22961687.636    22961687.6144   22961692.6184
        42.000          26.1004


 141914799.375 6                  27005483.145
        36.900
 119959055.643 6  93474589.73744  22827446.137    22827446.1374   22827452.7114
        37.400          25.0004
 122398568.775 8                  23291658.226
        49.700


 122691298.729 5                  22976142.607    22976143.110
        32.400
 135974079.190 6                  25875001.752
        38.200
 104122269.665 8  80984037.872 8  19505599.972    19505600.436    19505604.369
        53.100          48.200
 132445742.494 5                  25203589.078
        31.700
 119810666.562 6                  22397321.375    22397321.285
        41.000
 198905327.857 7                  37850428.746
        42.600
 202060411.405 7                  38450809.835
        43.500
 112557532.747 7  87707150.71846  21418975.951    21418975.6384   21418976.9744
        45.600          38.6004
 105007393.692 7  81672442.066 7  19657589.840    19657589.587    19657597.703
        46.800          46.900
 107837326.153 8  83873467.404 8  20180258.909    20180258.365    20180266.433
        49.000          48.000
 127539424.876 7                  24269933.148
        47.400
 124842274.111 8                  23756680.613
        50.200
 111017450.518 8  86346896.038 8  20746259.133    20746258.166    20746264.821
        50.300          48.000
 25  1  1  0 31 45.0000000  0 23G06G14G19G12G11G03E27G24E34S35R13E15
                                R22E36R23S31S33G17R12R11E02E30R21
 107405991.960 7  83693025.35747  20438671.150    20438670.8244   20438674.1154
        46.500          44.3004
 114239167.058 7  89017542.60544  21738993.794    21738993.6204   21738997.3414
        43.500          27.3004
 106180230.150 8  82737879.94846  20205407.954    20205406.7344   20205407.8384
        49.200          39.3004
 126985322.675 6  98949603.57343  24164485.138    24164484.5624   24164492.7844
        37.900          23.8004
 120616724.683 7  93987019.74644  22952573.343    22952573.2854   22952578.3114
        43.600          27.1004


 141876454.581 6                  26998186.901
        37.300
 119963911.395 5  93478403.57044  22828369.088    22828369.3694   22828381.4984
        32.600          24.1004
 122391381.392 8                  23290290.578
        49.800
 200835931.739 5                  38217823.127
        31.000
 122630368.210 5                  22964733.469    22964730.586
        32.200
 135934034.790 6                  25867381.928
        39.300
 104112328.785 8  80976306.091 7  19503736.711    19503737.137    19503741.455
        52.000          47.700
 132477765.344 6                  25209683.176
        37.100
 119763405.577 6                  22388487.856    22388487.867
        40.200
 198905330.276 6                  37850428.670
        41.700
 202060404.581 7                  38450818.179
        46.100
 112579909.358 7  87724587.09146  21423233.957    21423233.6274   21423235.2734
        46.700          38.9004
 104980981.074 8  81651898.942 7  19652647.547    19652647.926    19652652.254
        50.200          45.800
 107880558.147 8  83907092.324 7  20188348.376    20188348.345    20188355.496
        48.900          46.000
 127563538.522 7                  24274521.849
        46.600
 124828638.983 8                  23754085.840
        49.900
 111060177.932 8  86380128.444 7  20754243.740    20754244.444    20754249.355
        50.500          47.900
 25  1  1  0 32  0.0000000  0 23G06G14G19G12G11G03E27G24E34S35R13E15
                                R22E36R23S31S33G17R12R11E02E30R21
 107386546.765 7  83677873.28047  20434969.805    20434969.4434   20434973.9324
        47.400          43.8004
 114279164.802 7  89048709.63844  21746605.209    21746605.0084   21746608.2174
        43.100          27.2004
 106178598.872 7  82736608.84446  20205096.641    20205095.3984   20205097.8434
        46.400          36.3004
 126933199.024 7  98908988.02143  24154566.196    24154565.6824   24154572.5344
        42.300          23.4004
 120568897.900 6  93949752.20044  22943471.609    22943471.5334   22943476.9134
        40.800          27.9004


 141838123.283 6                  26990892.762
        37.900
 119968915.197 6  93482305.23245  22829324.636    22829325.0384   22829333.5744
        41.100          33.0004
 122384296.484 8                  23288942.266
        48.100


 122569490.478 6                  22953336.958    22953334.955
        36.200
 135894047.808 6                  25859772.071
        41.600
 104102530.083 8  80968684.921 8  19501901.131    19501901.188    19501906.444
        51.800          48.500
 132509849.399 6                  25215789.442
        36.000
 119716232.372 6                  22379666.822    22379668.320
        38.000
 198905339.278 7                  37850430.526
        43.700
 202060403.511 7                  38450811.798
        45.400
 112602324.040 7  87742053.11546  21427499.016    21427498.6724   21427500.5534
        43.800          36.7004
 104954739.784 7  81631489.061 7  19647731.729    19647731.985    19647740.834
        45.700          47.300
 107923942.063 8  83940835.250 7  20196468.766    20196468.449    20196473.771
        50.300          42.900
 127587722.993 7                  24279123.773
        46.100
 124815073.362 8                  23751504.303
        49.300
 111102970.182 8  86413411.296 7  20762240.289    20762240.706    20762245.850
        51.700          46.800
 25  1  1  0 32 15.0000000  0 22G06G14G19G12G11G03E27G24E34S35R13E15
                                R22E36S31S33G17R12R11E02E30R21
 107367233.411 7  83662823.91847  20431294.451    20431294.0894   20431299.1614
        44.400          42.5004
 114319247.690 7  89079943.00644  21754231.316    21754231.0974   21754234.8114
        45.300          27.9004
 106177034.377 7  82735389.75345  20204798.989    20204797.7424   20204799.0854
        46.800          34.8004
 126881091.281 6  98868384.80744  24144650.135    24144649.6624   24144653.4744
        40.900          26.6004
 120521138.464 6  93912537.12544  22934382.670    22934382.6394   22934387.3574
        38.300          24.6004


 141799799.649 6                  26983600.497
        37.700
 119974065.293 6  93486318.34345  22830304.334    22830304.8704   22830313.5614
        40.600          35.7004
 122377308.391 7                  23287612.628
        47.100


 122508660.248 6                  22941943.111    22941943.358
        38.000
 135854112.866 6                  25852171.232
        40.700
 104092867.677 8  80961169.720 7  19500091.146    19500091.316    19500096.184
        51.900          47.900
 132541988.695 6                  25221904.197
        36.900
 198905349.193 7                  37850431.080
        43.000
 202060402.785 7                  38450817.177
        44.600
 112624771.056 7  87759544.26245  21431769.602    21431769.2314   21431772.1014
        44.200          35.4004
 104928664.434 7  81611208.247 7  19642850.255    19642850.592    19642859.361
        46.100          47.000
 107967471.568 8  83974691.528 7  20204614.024    20204613.894    20204618.997
        50.600          42.300
 127611972.607 7                  24283736.786
        44.700
 124801571.753 8                  23748934.901
        49.300
 111145821.521 8  86446740.066 7  20770247.331    20770247.750    20770253.355
        50.100          47.000
 25  1  1  0 32 30.0000000  0 22G06G14G19G12G11G03E27G24E34S35R13E15
                                R22E36S31S33G17R12R11E02E30R21
 107348046.255 7  83647872.88646  20427642.834    20427642.4774   20427647.6704
        47.100          40.8004
 114359409.908 7  89111238.21244  21761874.456    21761874.2554   21761876.5904
        43.900          28.4004
 106175531.064 8  82734218.37146  20204513.133    20204511.8864   20204512.5934
        48.600          36.1004
 126828994.139 6  98827789.80044  24134735.660    24134735.1954   24134739.2974
        41.700          26.0004
 120473440.761 6  93875370.11744  22925306.962    22925306.8864   22925310.5494
        41.100          24.1004


 141761478.237 6                  26976308.402
        38.900
 119979353.921 6  93490439.39645  22831309.660    22831309.9014   22831320.1244
        36.600          33.5004
 122370411.351 7                  23286300.243
        47.000
 200836115.170 5                  38217831.498
        33.700
 122447872.291 5                  22930558.003    22930557.986
        33.200
 135814224.295 6                  25844581.038
        40.300
 104083335.712 8  80953756.018 7  19498305.416    19498306.048    19498309.292
        51.300          46.700
 132574177.324 5                  25228027.954
        32.200
 198905354.330 6                  37850434.922
        40.400
 202060399.502 7                  38450814.427
        44.800
 112647244.530 7  87777056.02945  21436046.886    21436046.5204   21436048.3774
        45.800          35.3004
 104902749.518 6  81591052.255 7  19638001.346    19637997.039    19638007.543
        39.300          46.500
 108011140.630 8  84008656.388 7  20212785.229    20212786.062    20212790.610
        49.400          42.900
 127636281.654 7                  24288363.710
        44.000
 124788128.621 8                  23746376.883
        49.900
 111188725.652 7  86480109.923 7  20778265.265    20778265.141    20778271.327
        47.300          46.800
 25  1  1  0 32 45.0000000  0 23G06G14G19G12G11G03E27G24E34S35R13E15
                                R22E36R23S31S33G17R12R11E02E30R21
 107328989.585 8  83633023.53047  20424016.795    20424016.4294   20424020.2814
        48.700          44.7004
 114399655.584 7  89142598.44944  21769532.579    21769532.3514   21769535.3174
        43.800          28.2004
 106174093.266 8  82733097.97746  20204239.562    20204238.3024   20204239.3944
        48.500          38.2004
 126776912.300 6  98787206.79343  24124822.465    24124821.9834   24124828.8394
        38.500          23.3004
 120425809.408 7  93838254.91744  22916242.812    22916242.7284   22916247.3084
        43.000          24.7004


 141723163.524 6                  26969016.665
        41.100
 119984784.828 5  93494671.41344  22832343.909    22832343.9764   22832353.6364
        35.800          29.2004
 122363609.567 8                  23285006.030
        49.200


 122387130.346 4                  22919179.320    22919178.636
        28.200
 135774386.524 6                  25837001.191
        41.900
 104073938.346 8  80946446.865 7  19496544.869    19496544.788    19496549.508
        51.300          47.400
 132606419.129 5                  25234168.031
        32.500
 119575159.608 6                  22353297.574    22353296.859
        36.100
 198905359.165 7                  37850433.549
        42.900
 202060393.681 6                  38450819.784
        39.300
 112669748.875 7  87794591.87946  21440329.478    21440329.1344   21440330.9884
        46.600          36.2004
 104876999.834 7  81571024.811 7  19633180.240    19633179.072    19633187.617
        45.900          46.900
 108054953.320 7  84042732.877 6  20220984.288    20220984.639    20220989.773
        47.000          40.600
 127660654.434 7                  24293001.698
        45.000
 124774748.334 8                  23743830.767
        50.200
 111231686.560 7  86513523.982 7  20786292.616    20786291.360    20786299.884
        46.900          45.200
 25  1  1  0 33  0.0000000  0 22G06G14G19G12G11G03E27G24E34S35E15R22
                                E36R23S31S33G17R12R11E02E30R21
 107310068.950 7  83618280.19746  20420415.928    20420415.5534   20420419.8254
        47.600          41.7004
 114439990.045 7  89174027.91744  21777207.638    21777207.4424   21777210.7774
        43.400          28.0004
 106172726.326 8  82732032.90045  20203979.862    20203978.5884   20203978.2564
        49.800          35.6004
 126724851.665 6  98746640.26444  24114914.494    24114914.0034   24114923.9144
        37.100          25.3004
 120378250.095 7  93801195.73344  22907193.798    22907193.7144   22907198.1524
        43.400          26.9004


 141684861.074 6                  26961727.621
        40.600
 119990363.949 7  93499018.80145  22833406.783    22833406.8724   22833415.8574
        43.400          30.8004
 122356908.618 8                  23283730.440
        49.100


 135734605.316 7                  25829431.155
        42.500
 104064681.066 8  80939246.842 7  19494810.992    19494811.135    19494813.834
        51.800          44.600


 119528314.160 6                  22344542.985    22344543.086
        38.300
 198905368.682 7                  37850434.000
        42.300
 202060393.143 7                  38450813.354
        44.900
 112692289.319 7  87812155.82745  21444618.514    21444618.1434   21444618.9214
        43.000          33.5004
 104851421.447 7  81551130.472 7  19628393.703    19628393.635    19628401.103
        47.400          47.600
 108098915.022 8  84076925.304 7  20229211.124    20229210.644    20229217.384
        48.400          42.400
 127685096.420 7                  24297653.825
        47.500
 124761436.624 8                  23741297.397
        50.700
 111274709.575 7  86546986.289 7  20794332.723    20794331.878    20794340.112
        46.000          47.200
 25  1  1  0 33 15.0000000  0 22G06G14G19G12G11G03E27G24E34S35E15R22
                                E36R23S31S33G17R12R11E02E30R21
 107291279.529 7  83603639.13446  20416840.520    20416840.1404   20416844.6954
        47.300          41.5004
 114480408.276 6  89205522.62444  21784900.615    21784900.3964   21784902.7644
        40.700          28.3004
 106171425.337 8  82731019.17045  20203731.968    20203730.6944   20203728.9454
        50.700          33.8004
 126672806.923 6  98706086.06444  24105012.154    24105011.6134   24105021.2604
        38.500          25.8004
 120330758.100 7  93764189.06244  22898156.505    22898156.3894   22898160.9494
        43.200          25.2004
 121560613.348 5  94722603.63042  23132212.567    23132212.4604   23132227.1584
        31.500          17.6004
 141646566.154 7                  26954440.372
        42.400
 119996085.870 5  93503477.45944  22834494.941    22834495.0034   22834505.6504
        32.100          24.1004
 122350303.448 8                  23282473.485
        49.300


 135694875.722 7                  25821870.124
        42.000
 104055558.790 8  80932151.758 7  19493100.333    19493101.182    19493105.616
        50.600          45.100
 132671073.178 5                  25246469.723
        31.300
 119481550.961 5                  22335798.273    22335797.777
        34.600
 198905378.170 6                  37850447.854
        41.500
 202060392.407 7                  38450813.703
        44.800
 112714861.067 6  87829744.13445  21448913.699    21448913.3064   21448915.7614
        41.600          33.3004
 104826009.514 8  81531365.657 7  19623636.103    19623635.954    19623642.022
        50.700          45.600
 108143020.217 8  84111229.308 7  20237465.476    20237465.501    20237470.475
        49.100          43.400
 127709602.685 8                  24302318.203
        49.300
 124748188.637 8                  23738776.622
        51.400
 111317789.114 8  86580492.555 7  20802384.907    20802384.108    20802390.598
        48.500          47.000
 25  1  1  0 33 30.0000000  0 22G06G14G19G12G11G03E27G24E34S35E15R22
                                E36R23S31S33G17R12R11E02E30R21
 107272618.176 7  83589097.84347  20413289.160    20413288.7894   20413293.6734
        47.400          42.7004
 114520906.941 7  89237080.01344  21792606.452    21792606.2294   21792609.4174
        42.300          29.3004
 106170187.170 8  82730054.33246  20203496.173    20203494.8954   20203493.3224
        51.300          37.1004
 126620775.388 6  98665542.21844  24095110.647    24095110.0534   24095120.0374
        38.900          24.5004
 120283330.611 7  93727232.66443  22889131.087    22889130.9674   22889134.7654
        43.600          23.2004
 121572627.265 5  94731965.27541  23134500.475    23134500.4084   23134514.2234
        35.200          11.2004
 141608275.705 6                  26947153.701
        41.500
 120001947.462 6  93508044.90143  22835609.430    22835609.4564   22835618.0374
        36.600          23.4004
 122343790.869 8                  23281234.430
        49.700


 135655194.815 7                  25814319.934
        43.700
 104046568.134 8  80925159.029 7  19491417.533    19491417.348    19491421.898
        51.600          47.000
 132703477.426 5                  25252638.153
        32.100
 119434866.689 6                  22327073.457    22327070.440
        36.000
 198905385.141 7                  37850437.470
        42.300
 202060389.555 7                  38450811.172
        42.400
 112737460.847 7  87847354.38945  21453214.180    21453213.7744   21453216.5054
        42.800          33.3004
 104800761.386 7  81511728.281 7  19618908.337    19618907.669    19618916.094
        45.000          47.000
 108187265.506 8  84145642.291 7  20245745.241    20245745.448    20245752.519
        49.200          44.500
 127734170.097 8                  24306991.774
        48.900
 124735001.440 8                  23736266.788
        49.100
 111360921.661 7  86614040.146 8  20810441.602    20810441.238    20810451.610
        44.300          48.500
 25  1  1  0 33 45.0000000  0 22G06G14G19G12G11G03E27G24E34S35R13E15
                                R22E36S31S33G17R12R11E02E30R21
 107254089.393 7  83574659.89846  20409763.013    20409762.6294   20409767.2134
        47.700          40.4004
 114561490.378 6  89268703.48444  21800329.409    21800329.1864   21800332.6744
        40.800          29.2004
 106169016.104 8  82729141.94245  20203273.980    20203272.7024   20203270.1574
        50.100          33.7004
 126568761.782 6  98625012.23544  24085216.517    24085215.9184   24085222.1804
        39.500          29.7004
 120235972.141 6  93690330.00844  22880119.364    22880119.2574   22880121.4544
        38.600          25.0004
 121584792.238 5  94741444.36042  23136815.628    23136815.6904   23136828.6324
        34.300          14.2004
 141569994.308 6                  26939868.434
        41.600
 120007953.032 5  93512724.69542  22836750.365    22836750.4094   22836757.1164
        34.800          17.2004
 122337375.273 8                  23280013.329
        49.900


 122144684.774 6                  22873778.138    22873778.029
        37.600
 135615567.058 6                  25806778.457
        41.500
 104037713.450 8  80918272.096 7  19489758.540    19489758.810    19489763.566
        50.000          46.900
 132735936.164 5                  25258818.974
        32.500
 198905392.964 7                  37850446.798
        43.100
 202060388.296 7                  38450805.801
        45.400
 112760093.057 6  87864989.78244  21457520.562    21457520.1964   21457522.9954
        37.400          28.9004
 104775681.813 8  81492222.027 7  19614214.006    19614214.053    19614218.833
        52.000          44.300
 108231654.972 7  84180167.432 7  20254052.304    20254051.912    20254058.804
        46.400          44.600
 127758803.030 7                  24311679.286
        47.300
 124721879.524 8                  23733770.301
        50.700
 111404111.596 7  86647632.242 7  20818516.259    20818515.786    20818522.213
        45.400          46.700
 25  1  1  0 34  0.0000000  0 23G06G14G19G12G11G03E27G24E34S35R13E15
                                R22E36R23S31S33G17R12R11E02E30R21
 107235687.132 7  83560320.51446  20406261.049    20406260.6744   20406264.5594
        46.500          39.4004
 114602152.339 7  89300388.13244  21808067.417    21808067.1634   21808071.0994
        43.400          29.6004
 106167906.262 8  82728277.13045  20203062.833    20203061.5554   20203059.3964
        49.200          34.9004
 126516760.501 6  98584491.95244  24075318.509    24075317.8834   24075326.0064
        40.000          29.8004
 120188676.907 7  93653476.65644  22871119.307    22871119.1914   22871120.4844
        46.200          25.8004


 141531716.064 7                  26932584.682
        43.400
 120014096.376 6  93517511.64043  22837919.587    22837919.7164   22837925.6544
        37.200          18.8004
 122331050.559 8                  23278809.976
        49.000


 122084187.367 4                  22862448.071    22862445.185
        29.700
 135575986.786 6                  25799246.615
        41.900
 104028988.500 8  80911486.048 7  19488124.191    19488124.159    19488128.678
        50.300          45.800
 132768507.562 3                  25265003.509
        22.900
 119341656.452 6                  22309662.230    22309662.445
        37.900
 198905396.394 7                  37850450.657
        46.000
 202060381.827 7                  38450807.523
        43.800
 112782752.484 5  87882614.69744  21461833.804    21461833.3174   21461832.7324
        34.600          26.7004
 104750765.109 8  81472842.424 7  19609549.060    19609549.587    19609556.281
        49.600          46.500
 108276182.150 7  84214799.741 7  20262384.427    20262383.783    20262391.668
        45.000          45.800
 127783495.499 7                  24316376.204
        43.800
 124708817.059 8                  23731284.695
        51.200
 111447352.311 7  86681263.843 7  20826596.838    20826595.409    20826603.262
        43.700          47.100
 25  1  1  0 34 15.0000000  0 23G06G14G19G12G11G03E27G24E34S35R13E15
                                R22E36R23S31S33G17R12R11E02E30R21
 107217419.803 7  83546086.21947  20402784.897    20402784.5354   20402788.4184
        46.700          42.2004
 114642901.003 7  89332140.33644  21815821.464    21815821.1784   21815826.1534
        42.100          29.2004
 106166866.011 8  82727466.59345  20202864.998    20202863.7244   20202861.7414
        50.100          34.0004
 126464779.979 6  98543987.88144  24065426.308    24065425.7634   24065433.0374
        37.100          27.5004
 120141453.462 7  93616679.17944  22862131.201    22862131.0584   22862133.9184
        45.800          26.6004
 121609578.743 4  94760754.21342  23141533.438    23141533.3804   23141542.2824
        28.300          16.2004
 141493449.379 7                  26925302.915
        42.700
 120020385.556 6  93522412.45443  22839118.278    22839118.4564   22839121.9074
        40.500          22.1004
 122324824.939 8                  23277625.737
        50.900


 122023743.981 5                  22851132.076    22851129.100
        35.400
 135536462.119 6                  25791725.033
        41.900
 104020401.544 8  80904807.339 8  19486515.828    19486516.969    19486520.472
        52.500          48.200


 119295220.199 6                  22300986.311    22300985.324
        36.400
 198905403.398 6                  37850444.768
        40.700
 202060377.852 7                  38450807.183
        42.600
 112805445.702 5  87900297.73843  21466151.660    21466151.0704   21466152.8694
        30.400          21.8004
 104726020.173 8  81453596.361 7  19604917.377    19604916.902    19604921.400
        50.300          43.500
 108320855.196 7  84249545.373 7  20270744.179    20270743.732    20270751.443
        47.800          45.100
 127808255.584 6                  24321089.232
        41.400
 124695822.468 8                  23728811.633
        51.200
 111490651.591 7  86714941.093 7  20834686.316    20834686.367    20834694.440
        46.500          47.300
 25  1  1  0 34 30.0000000  0 23G06G14G19G12G11G03E27G24E34S35R13E15
                                R22E36R23S31S33G17R12R11E02E30R21
 107199279.819 7  83531951.17847  20399333.431    20399333.0874   20399337.5604
        47.400          42.2004
 114683728.795 7  89363954.23445  21823592.163    21823591.8644   21823595.4634
        43.600          30.0004
 106165887.741 8  82726704.37146  20202678.537    20202677.2634   20202676.0844
        48.900          36.0004


 120094294.533 7  93579932.15043  22853157.535    22853157.4284   22853157.7804
        46.900          23.5004
 121622186.830 5  94770578.61842  23143932.516    23143932.4364   23143942.6844
        34.600          16.9004
 141455186.991 7                  26918021.601
        43.500
 120026813.121 5  93527420.95143  22840341.677    22840341.8204   22840344.1584
        35.700          22.1004
 122318691.014 8                  23276457.983
        50.000
 200836467.904 5                  38217914.545
        32.800
 121963347.485 4                  22839814.999    22839814.008
        28.000
 135496985.930 6                  25784214.875
        36.800
 104011944.956 8  80898230.003 7  19484930.782    19484930.656    19484936.060
        50.500          47.700


 119248862.497 6                  22292317.573    22292314.991
        37.300
 198905406.110 7                  37850450.724
        43.000
 202060371.456 6                  38450801.303
        41.000
 112828166.158 5  87918002.05043  21470474.616    21470474.2194   21470476.8704
        35.800          23.5004
 104701439.565 8  81434478.178 7  19600315.592    19600315.293    19600321.500
        50.500          45.800
 108365666.235 8  84284398.394 7  20279131.683    20279131.284    20279138.561
        48.700          47.400
 127833076.154 7                  24325812.121
        45.800
 124682888.494 8                  23726350.425
        50.100
 111534001.920 7  86748658.001 7  20842787.293    20842787.583    20842794.037
        46.200          44.600
 25  1  1  0 34 45.0000000  0 22G06G14G19G12G11G03E27G24E34S35E15R22
                                E36R23S31S33G17R12R11E02E30R21
 107181271.516 8  83517918.71746  20395905.818    20395905.4614   20395910.8484
        48.200          41.6004
 114724639.649 7  89395832.81045  21831376.535    21831376.2494   21831380.3844
        42.800          30.1004
 106164975.521 8  82725993.51846  20202505.048    20202503.7794   20202503.8864
        48.100          36.2004


 120047204.591 7  93543238.77843  22844195.981    22844195.8744   22844196.1924
        43.300          21.4004


 141416933.134 6                  26910741.230
        39.100
 120033382.974 6  93532540.35243  22841592.671    22841592.8234   22841595.9264
        37.500          22.7004
 122312652.776 8                  23275309.160
        50.100


 135457562.359 6                  25776712.478
        36.800
 104003622.710 8  80891757.116 7  19483371.905    19483372.577    19483377.047
        52.200          47.400
 132866434.914 5                  25283614.115
        32.300
 119202588.419 6                  22283668.743    22283666.868
        38.700
 198905409.642 6                  37850447.903
        41.600
 202060364.675 6                  38450794.618
        41.000
 112850917.581 6  87935741.43844  21474803.978    21474803.4694   21474806.4564
        40.300          27.8004
 104677027.945 8  81415491.424 7  19595744.527    19595744.718    19595752.517
        48.200          47.700
 108410619.118 8  84319361.729 7  20287544.306    20287545.273    20287550.349
        51.100          46.400
 127857961.111 7                  24330548.069
        45.800
 124670019.355 8                  23723901.055
        49.200
 111577406.920 7  86782417.433 7  20850897.712    20850898.798    20850906.111
        47.100          47.700
 25  1  1  0 35  0.0000000  0 22G06G14G19G12G11G03E27G24E34S35E15R22
                                E36R23S31S33G17R12R11E02E30R21
 107163398.737 7  83503991.92046  20392504.855    20392504.4934   20392509.6884
        46.900          41.4004
 114765637.176 7  89427778.93845  21839179.461    21839179.1754   21839181.9214
        45.100          30.7004
 106164133.054 7  82725337.03745  20202344.549    20202343.2844   20202344.3254
        47.100          35.3004
 126308808.855 5  98422477.32844  24035769.089    24035769.3254   24035776.1774
        30.200          28.2004
 120000187.461 7  93506602.14844  22835249.572    22835249.4294   22835251.1814
        44.300          24.0004
 121647856.296 5  94790568.78842  23148814.745    23148814.4504   23148819.8974
        34.500          15.5004
 141378691.807 6                  26903464.524
        40.600
 120040098.949 5  93537773.56543  22842870.010    22842870.1484   22842874.3364
        35.600          23.8004
 122306714.016 8                  23274179.000
        50.400


 135418195.347 6                  25769220.432
        40.300
 103995438.595 8  80885391.707 8  19481839.187    19481839.799    19481843.880
        51.500          49.000
 132899158.168 5                  25289851.423
        30.800
 119156401.290 6                  22275035.369    22275033.323
        37.100
 198905416.923 6                  37850448.882
        40.200
 202060361.945 7                  38450805.591
        45.500
 112873703.950 6  87953497.02444  21479139.872    21479139.3994   21479141.6094
        39.500          25.5004
 104652789.616 8  81396639.402 7  19591207.527    19591207.381    19591213.838
        50.500          46.300
 108455717.221 8  84354438.033 7  20295982.730    20295983.372    20295989.902
        49.200          44.800
 127882914.193 7                  24335296.627
        47.100
 124657218.965 8                  23721465.078
        50.200
 111620870.186 8  86816222.215 8  20859021.759    20859022.064    20859028.983
        49.800          48.400
 25  1  1  0 35 15.0000000  0 22G06G14G19G12G11G03E27G24E34S35E15R22
                                E36R23S31S33G17R12R11E02E30R21
 107145658.131 7  83490168.06646  20389129.006    20389128.6534   20389134.0114
        47.300          41.9004
 114806718.025 7  89459789.91744  21846995.476    21846995.1904   21846998.8054
        44.400          27.1004
 106163357.166 7  82724732.56445  20202197.320    20202196.0644   20202197.4774
        45.900          33.9004


 119953240.086 7  93470019.78844  22826315.596    22826315.4094   22826318.8204
        42.900          24.3004


 141340459.786 6                  26896188.835
        40.100
 120046957.413 6  93543113.77343  22844176.679    22844176.8444   22844183.1854
        38.100          23.1004
 122300871.314 8                  23273067.474
        51.600


 135378881.828 6                  25761738.555
        41.400
 103987389.033 8  80879130.933 8  19480331.084    19480331.990    19480336.353
        52.800          49.300
 132931932.008 4                  25296073.122
        28.900
 119110298.364 6                  22266417.144    22266416.833
        41.500
 198905424.661 6                  37850450.769
        40.200
 202060360.335 6                  38450805.153
        36.200
 112896521.833 6  87971277.23744  21483482.866    21483482.5184   21483482.7634
        39.100          26.4004
 104628721.508 8  81377919.778 7  19586702.785    19586702.673    19586708.173
        50.800          47.200
 108500956.893 7  84389624.555 6  20304446.964    20304447.961    20304453.306
        46.300          40.900
 127907932.162 7                  24340058.195
        46.400
 124644484.162 8                  23719042.381
        51.900
 111664387.660 8  86850069.124 7  20867153.883    20867154.894    20867161.273
        49.800          47.400
 25  1  1  0 35 30.0000000  0 22G06G14G19G12G11G03E27G24E34S35E15R22
                                E36R23S31S33G17R12R11E02E30R21
 107128048.840 7  83476446.55947  20385778.507    20385778.1414   20385782.9104
        47.600          44.1004
 114847881.056 7  89491865.00944  21854828.967    21854828.6634   21854830.7764
        45.000          25.0004
 106162646.984 7  82724179.19845  20202061.470    20202060.2144   20202061.8404
        45.700          34.6004


 119906361.975 7  93433491.49543  22817394.499    22817394.3344   22817398.1974
        42.600          23.8004


 141302236.354 6                  26888914.685
        37.700


 122295123.863 8                  23271973.331
        50.500
 200836472.383 6                  38217911.437
        37.500
 135339621.008 6                  25754267.283
        40.800
 103979473.145 8  80872974.165 8  19478847.754    19478848.673    19478854.734
        52.100          50.500
 132964756.858 5                  25302323.250
        32.300
 119064278.218 6                  22257810.491    22257812.130
        40.700
 198905432.961 7                  37850450.219
        44.200
 202060313.684 6                  38450798.428
        40.300
 112919370.403 6  87989081.32044  21487831.705    21487831.3794   21487831.9124
        41.900          29.0004
 104604823.169 8  81359332.237 7  19582228.762    19582228.770    19582235.043
        51.200          47.600
 108546337.174 7  84424920.300 6  20312939.540    20312939.559    20312946.272
        45.800          39.400
 127933014.188 7                  24344830.447
        47.000
 124631814.337 8                  23716630.514
        51.300
 111707958.778 8  86883957.750 8  20875295.097    20875295.890    20875303.534
        50.300          48.400
 25  1  1  0 35 45.0000000  0 22G06G14G19G12G11G03E27G24E34S35E15R22
                                E36R23S31S33G17R12R11E02E30R21
 107110569.351 7  83462826.23347  20382451.814    20382451.4794   20382455.9024
        47.100          43.9004
 114889124.498 7  89524002.58443  21862676.461    21862676.1444   21862677.4724
        44.000          22.2004
 106162000.566 7  82723675.53745  20201938.275    20201937.0464   20201938.4684
        44.300          34.6004


 119859551.455 7  93397015.76243  22808487.212    22808487.0654   22808490.9214
        45.000          23.8004


 141264019.994 6                  26881643.386
        36.700
 120061097.235 5  93554147.79243  22846864.389    22846864.7244   22846876.1614
        31.000          18.3004
 122289469.846 8                  23270897.787
        50.700


 135300411.315 7                  25746806.247
        43.100
 103971688.938 8  80866919.839 8  19477390.336    19477390.065    19477395.778
        51.200          51.300
 132997631.849 5                  25308579.292
        33.100
 119018340.151 5                  22249221.143    22249220.377
        35.300
 198905439.173 6                  37850453.850
        41.400
 202060310.814 7                  38450803.905
        45.500
 112942247.833 7  88006907.98045  21492184.884    21492184.5544   21492185.7664
        43.800          34.5004
 104581093.051 8  81340875.516 8  19577785.919    19577786.173    19577792.871
        51.700          48.000
 108591855.780 7  84460323.644 6  20321458.806    20321460.008    20321465.044
        46.300          40.700
 127958158.482 7                  24349615.014
        47.800
 124619207.863 8                  23714232.016
        52.100
 111751580.775 8  86917885.979 7  20883448.616    20883448.530    20883455.297
        50.700          46.700
 25  1  1  0 36  0.0000000  0 21G06G14G19G12G11G03E27G24E34S35E15R22
                                E36S31S33G17R12R11E02E30R21
 107093223.929 7  83449310.36947  20379150.613    20379150.2744   20379154.7984
        45.900          44.3004
 114930452.671 6  89556206.36243  21870541.597    21870541.2894   21870539.4074
        41.900          19.7004
 106161422.556 5  82723225.09344  20201826.682    20201825.4354   20201828.2334
        34.100          29.0004
 126101344.692 6  98260779.42743  23996279.171    23996279.3234   23996284.5724
        37.900          23.2004
 119812813.347 7  93360596.64744  22799592.749    22799592.6114   22799597.4414
        47.000          28.3004


 141225815.203 5                  26874375.990
        34.600


 122283913.565 8                  23269839.871
        48.100


 135261257.274 6                  25739354.213
        40.300
 103964040.756 8  80860971.240 8  19475957.557    19475958.180    19475962.274
        51.800          50.500
 133030559.719 5                  25314843.434
        32.500
 198905447.659 7                  37850447.388
        42.000
 202060308.921 7                  38450806.892
        44.000
 112965158.630 7  88024760.57245  21496545.026    21496544.6914   21496545.2094
        47.000          35.6004
 104557536.163 8  81322553.557 8  19573376.397    19573376.853    19573383.122
        51.700          48.200
 108637516.904 7  84495837.725 5  20330003.889    20330003.937    20330006.617
        47.300          34.800
 127983369.458 8                  24354412.843
        48.800
 124606669.243 8                  23711846.297
        51.300
 111795258.198 8  86951857.319 7  20891609.539    20891609.098    20891617.565
        49.700          47.300
 25  1  1  0 36 15.0000000  0 22G06G14G19G12G11G03E27G24E34S35E15R22
                                E36R23S31S33G17R12R11E02E30R21
 107076004.744 7  83435892.83547  20375874.680    20375874.3324   20375877.9754
        47.800          45.7004
 114971857.256 6  89588469.68443  21878420.520    21878420.2524   21878418.1424
        40.400          19.1004
 106160904.831 6  82722821.72145  20201730.944    20201729.6924   20201729.2054
        41.000          32.1004
 126049507.029 6  98220386.62643  23986414.752    23986415.0204   23986419.6684
        40.000          23.6004
 119766139.760 7  93324227.71644  22790711.059    22790710.9394   22790715.7704
        43.800          29.1004


 141187614.251 6                  26867103.725
        36.700
 120075815.560 4                  22849671.293
        29.600
 122278447.150 7                  23268799.528
        47.500


 135222151.062 7                  25731913.263
        42.100
 103956520.460 8  80855122.152 8  19474548.529    19474548.837    19474553.141
        51.100          49.600


 118926700.511 6                  22232096.421    22232094.680
        37.700
 198905451.327 6                  37850455.911
        38.800
 202060303.099 7                  38450803.521
        43.100
 112988094.718 7  88042632.86745  21500908.696    21500908.3574   21500909.1464
        46.500          31.6004
 104534144.755 8  81304360.252 7  19568996.085    19568996.309    19569004.044
        49.600          47.800
 108683312.099 8  84531456.204 7  20338574.285    20338575.269    20338579.487
        48.100          42.500
 128008639.126 8                  24359221.946
        48.100
 124594190.789 8                  23709471.401
        50.100
 111838982.383 8  86985865.009 7  20899780.135    20899780.210    20899787.675
        49.100          46.500
 25  1  1  0 36 30.0000000  0 21G06G14G19G12G11E27G24E34S35E15R22E36
                                R23S31S33G17R12R11E02E30R21
 107058917.298 7  83422577.96747  20372622.323    20372621.9794   20372626.7394
        46.800          46.8004
 115013343.879 6  89620796.84843  21886314.427    21886314.1994   21886314.7594
        40.300          19.9004
 106160452.981 7  82722469.61345  20201644.272    20201643.0344   20201643.1304
        42.900          31.6004
 125997688.955 7  98180009.14244  23976554.261    23976554.3504   23976557.5494
        42.000          25.7004
 119719536.593 7  93287913.62645  22781843.602    22781843.4774   22781847.3084
        46.700          30.1004
 141149422.686 5                  26859836.424
        34.500


 122273076.006 7                  23267777.671
        45.800


 135183098.444 6                  25724481.080
        39.700
 103949133.499 8  80849376.765 8  19473164.601    19473164.601    19473169.026
        51.600          49.400
 133096409.841 5                  25327404.489
        33.900
 118881011.006 5                  22223554.610    22223554.855
        35.900
 198905455.041 6                  37850448.940
        40.900
 202060296.943 7                  38450795.467
        43.400
 113011061.545 7  88060529.14144  21505279.586    21505279.2424   21505278.3284
        46.500          29.8004
 104510924.866 8  81286300.372 7  19564650.964    19564650.732    19564656.729
        51.000          47.100
 108729246.719 8  84567182.959 7  20347169.724    20347170.371    20347178.135
        48.400          42.900
 128033973.120 7                  24364042.594
        46.800
 124581778.128 8                  23707109.476
        50.400
 111882758.861 7  87019913.374 7  20907959.217    20907960.078    20907967.145
        47.200          43.500
 25  1  1  0 36 45.0000000  0 21G06G14G19G12G11E27G24E34S35E15R22E36
                                R23S31S33G17R12R11E02E30R21
 107041963.803 8  83409367.49147  20369396.829    20369396.5084   20369401.1924
        49.000          47.0004
 115054914.445 6  89653189.47042  21894223.381    21894223.0554   21894227.2864
        40.200          16.9004
 106160069.186 7  82722170.49645  20201570.820    20201569.5734   20201569.7154
        46.300          32.8004
 125945893.135 7  98139648.94344  23966696.461    23966696.5284   23966700.9354
        42.100          25.1004
 119673006.045 7  93251656.06244  22772989.206    22772989.0634   22772992.9994
        44.400          28.7004
 141111243.108 6                  26852569.551
        39.300
 120091104.416 6  93577482.71144  22852569.601    22852569.9004   22852574.4174
        41.300          25.4004
 122267802.263 7                  23266773.825
        46.900


 135144101.693 6                  25717061.370
        41.900
 103941881.839 8  80843736.652 8  19471806.525    19471806.274    19471810.717
        52.600          48.700
 133129486.265 4                  25333701.166
        28.700
 118835407.851 6                  22215035.830    22215035.095
        40.100
 198905461.286 7                  37850460.996
        42.700
 202060292.730 6                  38450789.431
        40.300
 113034061.206 7  88078451.09845  21509655.959    21509655.6204   21509654.4594
        44.800          31.3004
 104487878.952 8  81268375.775 7  19560336.616    19560336.918    19560340.965
        50.300          45.000
 108775322.544 8  84603019.650 7  20355791.455    20355792.134    20355801.337
        48.600          44.900
 128059373.447 7                  24368876.053
        43.400
 124569433.535 8                  23704760.161
        51.200
 111926589.207 7  87054003.632 7  20916149.581    20916150.879    20916158.183
        46.400          45.200
 25  1  1  0 37  0.0000000  0 22G06G14G19G12G11G03E27G24E34S35E15R22
                                E36R23S31S33G17R12R11E02E30R21
 107025144.567 8  83396261.58548  20366196.907    20366196.5904   20366201.0224
        49.000          50.3004
 115096568.860 6  89685647.44243  21902149.609    21902149.2884   21902156.0994
        39.500          20.9004
 106159753.484 7  82721924.57945  20201511.057    20201509.8234   20201509.9484
        46.400          35.8004
 125894119.723 7  98099306.25144  23956845.408    23956845.4574   23956848.8324
        42.900          25.6004
 119626548.630 7  93215455.52745  22764147.634    22764147.5004   22764152.5704
        46.500          30.2004


 141073075.499 6                  26845306.602
        38.400
 120098960.569 5  93583599.41944  22854061.360    22854061.3734   22854068.3154
        35.800          26.8004
 122262626.030 8                  23265788.724
        48.400


 135105160.821 6                  25709649.946
        39.000
 103934765.605 8  80838201.826 8  19470472.962    19470473.302    19470477.686
        51.800          49.000
 133162616.594 5                  25340002.499
        34.400
 118789891.327 6                  22206530.949    22206527.757
        37.100
 198905469.891 7                  37850451.046
        43.300
 202060291.716 6                  38450796.956
        38.500
 113057093.917 7  88096398.61345  21514038.481    21514038.1014   21514038.0094
        45.200          30.3004
 104465007.575 8  81250586.958 8  19556054.137    19556054.695    19556061.210
        49.800          48.800
 108821539.381 7  84638966.251 6  20364439.454    20364441.128    20364445.704
        47.200          37.200
 128084840.281 7                  24373722.245
        47.000
 124557157.350 8                  23702424.082
        50.700
 111970473.401 7  87088135.738 7  20924352.435    20924352.885    20924361.504
        47.200          46.100
 25  1  1  0 37 15.0000000  0 23G06G14G19G12G11G03E27G24E34S35R13E15
                                R22E36R23S31S33G17R12R11E02E30R21
 107008458.148 8  83383259.24048  20363021.091    20363020.7744   20363025.4814
        50.200          49.0004
 115138305.759 7  89718169.83043  21910095.378    21910095.0794   21910098.7474
        43.600          23.0004
 106159504.662 7  82721730.66746  20201463.086    20201461.8394   20201462.7724
        47.300          36.4004
 125842367.631 6  98058980.21943  23946996.865    23946996.8964   23946999.4804
        37.800          22.6004
 119580163.166 7  93179311.08645  22755320.253    22755320.1334   22755324.8544
        47.500          30.3004


 141034918.809 6                  26838044.807
        39.200


 122257545.909 7                  23264822.187
        46.000


 121302512.364 5                  22716066.075    22716064.993
        35.300
 135066275.047 6                  25702251.991
        41.000
 103927783.335 8  80832771.147 8  19469164.929    19469164.511    19469169.509
        50.500          48.400


 118744460.159 6                  22198029.974    22198029.761
        36.500
 198905479.910 6                  37850463.665
        40.700
 202060292.018 7                  38450800.413
        45.100
 113080158.332 7  88114370.87945  21518427.786    21518427.4114   21518428.3684
        43.900          34.2004
 104442309.643 8  81232933.103 8  19551804.667    19551805.071    19551812.042
        49.200          48.000
 108867895.581 7  84675020.921 7  20373115.006    20373115.437    20373123.782
        47.700          45.200
 128110372.393 7                  24378580.828
        45.700
 124544948.446 8                  23700100.683
        50.400
 112014409.664 7  87122308.381 7  20932561.539    20932561.863    20932570.602
        46.000          45.500
 25  1  1  0 37 30.0000000  0 22G06G14G19G12G11G03E27G24E34S35R13E15
                                R22E36S31S33G17R12R11E02E30R21
 106991898.072 8  83370355.31448  20359869.190    20359868.8824   20359873.7924
        50.200          48.9004
 115180118.495 7  89750751.20843  21918051.281    21918051.0274   21918053.7464
        46.500          23.2004
 106159316.066 7  82721583.70746  20201427.595    20201426.3704   20201427.2454
        47.600          38.2004
 125790630.652 6  98018665.86043  23937153.599    23937153.5644   23937153.2944
        40.900          23.5004
 119533843.383 7  93143217.74744  22746506.539    22746506.4104   22746509.9584
        44.800          26.3004


 140996766.701 7                  26830786.223
        42.100
 120115034.412 5  93596147.63944  22857128.202    22857128.5154   22857134.7614
        32.100          29.8004
 122252555.307 7                  23263872.752
        47.100
 200836761.973 6                  38217962.852
        39.700
 121242764.813 6                  22704878.941
        36.300
 135027437.643 6                  25694858.771
        40.400
 103920928.118 8  80827439.345 7  19467880.422    19467880.995    19467885.026
        52.000          47.400
 133229026.393 5                  25352638.922
        31.500
 198905484.958 6                  37850453.890
        38.000
 202060286.708 6                  38450786.998
        39.600
 113103247.770 6  88132362.66045  21522821.930    21522821.5644   21522822.8514
        40.200          33.8004
 104419779.022 8  81215409.311 8  19547587.593    19547587.611    19547594.430
        50.100          48.600
 108914384.220 7  84711178.758 7  20381816.847    20381816.821    20381824.093
        47.700          44.700
 128135963.115 7                  24383450.964
        46.800
 124532800.302 8                  23697789.141
        50.200
 112058391.068 8  87156516.087 7  20940782.181    20940783.192    20940789.454
        50.300          44.500
