     2.11           OBSERVATION DATA    M (MIXED)           RINEX VERSION / TYPE
teqc  2019Feb25                         20260317 16:18:01UTCPGM / RUN BY / DATE
Linux 2.4.21-27.ELsmp|Opteron|gcc -static|Linux 64|=+       COMMENT
BIT 2 OF LLI FLAGS DATA COLLECTED UNDER A/S CONDITION       COMMENT
-Unknown-                                                   MARKER NAME
-Unknown-           -Unknown-                               OBSERVER / AGENCY
-Unknown-           -Unknown-           -Unknown-           REC # / TYPE / VERS
-Unknown-           -Unknown-                               ANT # / TYPE
        0.0000        0.0000        0.0000                  APPROX POSITION XYZ
        0.0000        0.0000        0.0000                  ANTENNA: DELTA H/E/N
     1     1                                                WAVELENGTH FACT L1/2
     7    L1    L2    C1    P1    P2    S1    S2            # / TYPES OF OBSERV
 SNR is mapped to RINEX snr flag value [0-9]                COMMENT
  L1 & L2: min(max(int(snr_dBHz/6), 0), 9)                  COMMENT
  2025     1     1    15     0    0.0000000     GPS         TIME OF FIRST OBS
    18                                                      LEAP SECONDS
                                                            END OF HEADER
 25  1  1 15  0  0.0000000  0 25E27E10E29G32G16G04G28G03G26R06G09E04
                                R07E21S35R05S31G31E06S33E19E11R16E12
                                R15
 136755905.985 5                  26023784.751
        30.600
 144648149.414 5                  27525628.057
        35.000
 132045769.968 6                  25127479.849
        37.800


 112571388.857 7  87717777.78944  21421573.687    21421572.6324   21421576.0144
        46.500          28.9004
 118283674.316 7  92169107.75044  22508634.202    22508633.6884   22508636.6764
        44.000          26.5004
 117175151.240 6  91305267.34543  22297688.863    22297688.5734   22297689.0894
        38.800          20.2004
 108682920.727 8  84688293.85348  20681666.524    20681666.2794   20681669.2364
        50.600          49.9004
 106295644.511 8  82827789.76648  20227371.856    20227371.3294   20227375.2994
        49.100          48.7004
 105381436.533 6                  19748434.765    19748433.126
        37.900


 136910471.032 4                  26053183.372
        29.800
 124172151.428 6  96578336.232 6  23196391.993    23196389.815    23196395.239
        38.200          38.600
 125839117.437 8                  23946384.064
        48.000


 109686438.540 8  85311240.098 7  20519018.936    20519018.577    20519025.081
        49.900          42.200
 198905373.965 7                  37850445.358
        42.500
 107774955.132 7  83980492.54446  20508889.247    20508888.8724   20508889.0094
        44.800          38.9004


 202029161.774 7                  38444884.094
        45.200
 120938977.885 7                  23013925.070
        42.400
 144826363.452 5                  27559541.073
        31.300
 101988000.631 8  79324124.879 7  19092372.918    19092373.624    19092377.706
        52.800          47.500


 113524546.380 7  88296850.573 7  21244565.756    21244564.363    21244573.844
        42.100          44.200
 25  1  1 15  0 15.0000000  0 25E27E10E29G32G16G04G28G03G26R06G09E04
                                R07E21S35R05S31G31E06S33E19E11R16E12
                                R15


 144677359.432 6                  27531187.088
        38.700
 132069917.733 6                  25132073.397
        37.900


 112524987.080 7  87681620.64144  21412744.007    21412742.9434   21412746.0804
        45.100          28.4004
 118242542.435 7  92137056.92344  22500807.266    22500806.7934   22500808.6184
        43.300          27.1004
 117211659.067 7  91333714.98343  22304636.544    22304636.2454   22304637.5884
        42.300          21.3004
 108680395.267 8  84686325.95048  20681185.511    20681185.2664   20681189.7754
        50.200          49.6004
 106287384.055 8  82821353.00248  20225799.218    20225798.7184   20225803.5424
        48.400          48.3004
 105350587.760 6                  19742653.621    19742652.463
        37.800
 131203845.974 5 102236746.71642  24967261.267    24967260.9324   24967263.8174
        33.500          12.1004
 136878626.862 5                  26047127.647
        32.700
 124113856.705 6  96532995.952 6  23185501.080    23185500.699    23185504.146
        40.000          37.600
 125827065.293 8                  23944091.398
        48.500


 109722756.304 8  85339487.182 7  20525812.359    20525812.076    20525820.145
        48.000          43.600
 198905375.599 7                  37850452.039
        43.900
 107797539.940 7  83998091.08146  20513187.453    20513187.0874   20513186.3764
        45.400          40.2004


 202029186.090 7                  38444888.937
        44.300
 120935963.297 7                  23013351.877
        42.100
 144840407.411 5                  27562212.224
        30.900
 101985269.706 8  79322000.827 8  19091861.023    19091861.824    19091867.213
        52.400          48.200


 113576090.774 7  88336940.591 7  21254212.915    21254213.016    21254218.280
        44.400          43.600
 25  1  1 15  0 30.0000000  0 25E27E10E29G32G16G04G28G03G26R06G09E04
                                R07E21S35R05S31G31E06S33E19E11R16E12
                                R15


 144706634.632 6                  27536759.154
        38.800
 132094109.175 6                  25136677.827
        38.700


 112478691.242 7  87645546.02944  21403934.931    21403933.9124   21403935.0744
        44.100          27.2004
 118201434.877 7  92105025.06444  22492985.243    22492984.7924   22492984.5354
        43.200          26.0004
 117248199.947 6  91362188.33843  22311589.278    22311588.9164   22311593.2014
        38.800          22.2004
 108678030.744 8  84684483.46848  20680735.701    20680735.4514   20680739.9934
        48.800          48.7004
 106279281.675 8  82815039.49647  20224257.321    20224256.8434   20224262.0534
        48.000          47.8004
 105319860.396 6                  19736894.777    19736894.202
        37.900
 131155337.125 6 102198947.56542  24958032.340    24958031.9874   24958033.3244
        38.000          15.7004
 136846790.175 4                  26041068.581
        29.700
 124055565.316 6  96487658.251 6  23174612.720    23174610.322    23174617.543
        37.600          36.000
 125815119.981 8                  23941817.995
        49.400


 109759201.881 7  85367833.615 7  20532630.245    20532629.834    20532638.323
        46.900          44.100
 198905380.013 7                  37850449.070
        42.900
 107820202.143 7  84015749.91546  20517500.663    20517500.2924   20517499.6814
        43.400          39.6004


 202029213.068 7                  38444896.141
        47.500
 120932996.600 7                  23012787.309
        42.500
 144854549.207 4                  27564903.944
        28.200
 101982718.370 8  79320016.482 8  19091383.689    19091383.388    19091389.666
        51.600          48.200


 113627715.205 7  88377092.905 7  21263871.673    21263872.991    21263878.827
        45.800          43.500
 25  1  1 15  0 45.0000000  0 25E27E10E29G32G16G04G28G03G26R06G09E04
                                R07E21S35R05S31G31E06S33E19E11R16E12
                                R15
 136842150.195 5                  26040195.438
        34.600
 144735967.005 5                  27542338.098
        35.000
 132118336.508 6                  25141288.309
        36.000
 125452495.891 5  97755236.55542  23872815.080    23872814.8084   23872827.4024
        32.700          15.6004
 112432493.954 7  87609548.18244  21395143.399    21395142.3494   21395143.6854
        45.100          26.5004
 118160343.803 6  92073006.04943  22485166.411    22485165.9644   22485164.3114
        40.400          23.8004
 117284765.860 6  91390681.16943  22318548.204    22318547.8024   22318553.2954
        40.000          23.2004
 108675819.299 8  84682760.25948  20680315.230    20680314.9944   20680318.6944
        48.500          48.1004
 106271329.490 7  82808842.98947  20222743.936    20222743.4494   20222749.2454
        47.600          47.7004
 105289246.454 6                  19731158.024    19731157.012
        36.200
 131106811.356 5 102161135.26242  24948797.273    24948796.8984   24948798.0154
        35.700          14.4004
 136814953.043 6                  26035009.064
        37.500
 123997269.219 6  96442316.869 5  23163723.867    23163720.798    23163728.010
        37.100          34.700
 125803273.622 8                  23939563.528
        49.900


 109795767.204 8  85396273.205 7  20539472.020    20539471.801    20539479.932
        48.400          43.900
 198905380.278 7                  37850447.482
        43.500
 107842933.520 7  84033462.67146  20521826.808    20521826.4424   20521826.3564
        43.600          39.2004


 202029235.964 7                  38444904.346
        46.600
 120930070.013 6                  23012230.202
        41.800
 144868780.829 4                  27567612.314
        29.800
 101980338.302 8  79318165.314 8  19090939.574    19090939.754    19090944.171
        52.900          48.700


 113679410.916 7  88417300.645 7  21273545.874    21273546.725    21273553.791
        46.000          44.000
 25  1  1 15  1  0.0000000  0 25E27E10E29G32G16G04G28G03G26R06G09E04
                                R07E21S35R05S31G31E06S33E19E11R16E12
                                R15
 136871055.963 5                  26045696.174
        34.400
 144765361.437 4                  27547931.864
        27.400
 132142604.906 6                  25145907.605
        36.900


 112386400.834 7  87573631.51844  21386372.063    21386370.9864   21386372.6294
        46.400          28.4004
 118119274.710 6  92041004.17043  22477351.090    22477350.6934   22477350.1424
        36.200          22.8004
 117321361.849 6  91419197.46843  22325511.940    22325511.5384   22325517.8924
        40.200          21.2004
 108673766.179 8  84681160.41547  20679924.202    20679923.9574   20679927.6464
        49.100          47.9004
 106263532.679 8  82802767.51747  20221260.506    20221260.0064   20221265.3414
        48.300          47.2004
 105258751.801 5                  19725444.383    19725442.520
        35.100
 131058274.036 5 102123314.08942  24939562.298    24939561.8964   24939560.2464
        35.900          14.7004
 136783120.818 6                  26028950.865
        38.200
 123938973.984 6  96396976.045 5  23152835.179    23152831.320    23152839.480
        39.800          35.900
 125791531.369 8                  23937329.515
        51.000


 109832457.247 7  85424809.835 6  20546335.137    20546335.268    20546341.083
        47.700          41.300
 198905380.889 6                  37850441.638
        41.900
 107865739.088 7  84051233.24746  20526166.080    20526165.7094   20526165.9994
        45.700          38.7004
 148824868.654 5                  28320430.495
        33.500
 202029259.455 7                  38444909.104
        46.800
 120927188.856 7                  23011682.223
        42.200
 144883107.457 5                  27570339.837
        33.200
 101978134.623 8  79316451.336 8  19090525.577    19090526.638    19090531.552
        51.900          49.300


 113731183.095 7  88457567.875 7  21283235.695    21283235.380    21283243.931
        45.800          44.900
 25  1  1 15  1 15.0000000  0 25E27E10E29G32G16G04G28G03G26R06G09E04
                                R07E21S35R05S31G31E06S33E19E11R16E12
                                R15
 136900035.716 5                  26051210.045
        32.100
 144794815.653 3                  27553533.506
        23.500
 132166912.433 6                  25150532.779
        41.300


 112340410.189 7  87537794.73345  21377620.340    21377619.2814   21377621.3914
        47.600          31.1004
 118078225.649 6  92009017.85443  22469540.142    22469539.7364   22469540.5474
        38.600          23.8004
 117357985.747 6  91447735.43942  22332480.093    22332479.7004   22332485.5614
        41.400          15.1004
 108671869.401 8  84679682.42448  20679563.300    20679563.0464   20679567.1934
        50.500          50.0004
 106255889.290 7  82796811.61347  20219806.469    20219805.9694   20219810.0784
        47.400          47.5004
 105228374.888 5                  19719750.423    19719750.493
        35.700
 131009723.140 6 102085482.36042  24930326.154    24930325.6984   24930321.3964
        37.400          17.1004
 136751291.577 6                  26022893.985
        36.800
 123880678.093 7  96351634.695 6  23141942.118    23141942.203    23141951.486
        42.900          37.300
 125779891.115 8                  23935115.106
        51.600


 109869269.961 7  85453441.887 6  20553223.201    20553219.992    20553226.438
        43.900          40.600
 198905380.328 7                  37850439.890
        43.500
 107888616.783 7  84069060.04646  20530519.819    20530519.4714   20530517.5814
        45.300          37.3004
 148789484.082 5                  28313696.157
        32.700
 202029280.762 7                  38444911.993
        45.600
 120924351.170 6                  23011142.126
        41.500
 144897526.867 5                  27573084.118
        34.100
 101976105.329 8  79314873.007 8  19090144.066    19090144.820    19090152.296
        49.600          49.600


 113783028.978 7  88497892.476 7  21292938.302    21292936.825    21292946.816
        46.000          44.900
 25  1  1 15  1 30.0000000  0 25E27E10E29G32G16G04G28G03G26R06G09E04
                                R07E21S35R05S31G31E06S33E19E11R16E12
                                R15
 136929097.086 5                  26056740.871
        30.700
 144824337.028 5                  27559155.204
        30.800
 132191266.770 7                  25155166.280
        42.800


 112294530.191 8  87502044.15745  21368889.536    21368888.4814   21368891.2544
        48.800          33.1004
 118037204.613 6  91977053.41644  22461732.569    22461732.1634   22461736.2024
        40.200          24.0004
 117394645.106 6  91476301.01642  22339455.510    22339455.2154   22339459.2894
        40.200          13.6004
 108670136.636 8  84678332.19948  20679233.311    20679233.0524   20679237.3534
        50.300          49.5004
 106248407.076 8  82790981.32547  20218383.203    20218382.7214   20218385.5224
        48.200          46.7004
 105198123.570 6                  19714081.021    19714080.937
        36.700
 130961166.555 5 102047646.07542  24921083.405    24921082.9404   24921083.4974
        34.700          17.4004
 136719473.039 6                  26016839.829
        36.200
 123822389.635 7  96306299.121 6  23131054.433    23131053.615    23131062.097
        43.000          37.800
 125768360.818 8                  23932920.694
        51.000


 109906213.052 7  85482175.269 7  20560133.431    20560130.179    20560138.869
        44.700          42.300
 198905385.848 7                  37850442.103
        42.700
 107911573.977 7  84086948.76646  20534887.826    20534887.4734   20534885.5474
        45.100          37.6004
 148754092.694 5                  28306962.717
        32.500
 202029309.459 7                  38444912.131
        44.900
 120921564.817 6                  23010611.573
        40.900
 144912046.580 5                  27575846.604
        34.200
 101974258.117 8  79313436.263 8  19089798.339    19089798.658    19089806.488
        49.100          49.600


 113834955.909 7  88538280.122 7  21302655.052    21302654.957    21302663.106
        47.000          43.600
 25  1  1 15  1 45.0000000  0 25E27E10E29G32G16G04G28G03G26R06G09E04
                                R07E21S35R05S31G31E06S33E19E11R16E12
                                R15
 136958228.274 5                  26062285.581
        30.800
 144853914.129 5                  27564783.478
        31.200
 132215656.672 6                  25159806.408
        41.400
 125616630.675 5  97883158.26143  23904052.482    23904051.9594   23904065.1294
        35.500          22.7004
 112248749.920 7  87466371.25345  21360177.738    21360176.6974   21360179.5994
        47.900          33.8004
 117996200.428 6  91945102.09943  22453929.857    22453929.4154   22453932.5674
        40.800          21.9004
 117431328.478 6  91504885.40042  22346435.855    22346435.6324   22346438.6154
        40.200          15.5004
 108668556.694 8  84677101.06348  20678932.914    20678932.6604   20678935.5144
        50.500          48.9004
 106241074.719 8  82785267.79347  20216987.899    20216987.3994   20216990.0144
        49.200          47.1004
 105167987.042 6                  19708434.905    19708434.342
        38.500
 130912593.249 5 102009796.81642  24911840.712    24911840.2794   24911841.0694
        31.000          14.2004
 136687653.992 6                  26010783.006
        37.000
 123764097.472 7  96260960.714 6  23120163.703    23120163.988    23120174.492
        43.400          38.300
 125756929.172 8                  23930744.884
        50.100


 109943274.880 8  85511001.031 7  20567064.744    20567066.148    20567073.202
        48.200          44.600
 198905386.470 7                  37850442.072
        42.700
 107934599.183 7  84104890.48046  20539269.539    20539269.1914   20539267.7724
        46.100          38.5004
 148718683.223 4                  28300224.629
        25.800
 202029332.226 7                  38444919.992
        44.800
 120918818.509 6                  23010088.468
        40.900
 144926655.150 5                  27578625.864
        33.000
 101972581.253 8  79312132.030 8  19089485.618    19089485.497    19089492.017
        49.400          49.100


 113886952.002 8  88578721.549 6  21312386.253    21312387.238    21312390.879
        50.300          40.900
 25  1  1 15  2  0.0000000  0 25E27E10E29G32G16G04G28G03G26R06G09E04
                                R07E21S35R05S31G31E06S33E19E11R16E12
                                R15
 136987433.727 5                  26067844.247
        33.100
 144883550.753 4                  27570426.242
        28.000
 132240086.480 6                  25164456.433
        40.400
 125657795.177 5  97915234.12344  23911885.782    23911885.8354   23911897.7084
        35.300          24.8004
 112203074.123 7  87430779.75645  21351486.088    21351485.0334   21351487.8024
        47.100          32.8004
 117955217.640 6  91913167.50043  22446131.160    22446130.6784   22446130.7624
        40.900          19.3004
 117468040.146 6  91533491.91742  22353421.986    22353421.7764   22353424.0364
        40.300          16.3004
 108667133.941 8  84675992.41847  20678662.203    20678661.9624   20678663.1794
        51.600          47.9004
 106233896.658 8  82779674.50947  20215621.810    20215621.3014   20215624.4574
        50.500          47.4004
 105137970.121 6                  19702810.932    19702809.814
        40.100
 130864007.621 5 101971937.81341  24902597.946    24902597.3794   24902595.6144
        32.300           6.8004
 136655838.924 6                  26004728.738
        36.700
 123705806.346 6  96215623.087 6  23109273.662    23109273.495    23109287.419
        41.500          39.000
 125745600.514 7                  23928588.755
        47.300


 109980459.816 8  85539922.617 7  20574020.618    20574023.559    20574029.124
        48.100          45.300
 198905385.549 7                  37850448.551
        43.200
 107957696.670 7  84122888.51346  20543664.538    20543664.1814   20543663.8254
        45.100          39.0004


 202029354.361 7                  38444922.143
        44.000
 120916116.711 6                  23009573.691
        40.400
 144941356.758 5                  27581422.964
        34.700
 101971079.095 8  79310963.675 8  19089204.973    19089204.532    19089211.333
        50.100          49.100


 113939021.332 8  88619220.005 6  21322131.134    21322132.093    21322134.062
        51.500          40.400
 25  1  1 15  2 15.0000000  0 25E27E10E29G32G16G04G28G03G26R06G09E04
                                R07E21S35R05S31G31E06S33E19E11R16E12
                                R15
 137016716.561 5                  26073415.145
        34.700
 144913250.699 4                  27576073.520
        24.800
 132264559.913 6                  25169113.400
        41.000
 125699011.570 5  97947350.42343  23919728.938    23919729.2774   23919740.5904
        32.100          22.1004
 112157506.706 7  87395272.72945  21342814.843    21342813.7664   21342816.6064
        46.900          33.4004
 117914260.067 6  91881252.54443  22438337.923    22438337.4634   22438333.8314
        41.400          19.0004
 117504783.695 6  91562123.23142  22360416.103    22360415.8264   22360416.4694
        37.700          17.1004
 108665872.069 8  84675009.13948  20678421.800    20678421.5504   20678422.7314
        51.200          48.1004
 106226876.570 8  82774204.32147  20214285.333    20214284.8334   20214289.0744
        49.400          47.2004
 105108076.930 6                  19697207.849    19697207.801
        40.400
 130815413.284 5 101934072.0974   24893350.057    24893349.3424   24893348.4064
        31.800           5.1004
 136624031.579 5                  25998677.033
        34.500
 123647520.129 7  96170289.260 6  23098385.832    23098386.637    23098402.760
        42.200          40.600
 125734378.647 7                  23926453.602
        46.000


 110017771.505 7  85568942.770 7  20581001.837    20581002.286    20581008.790
        46.600          44.900
 198905388.358 7                  37850448.158
        43.000
 107980869.887 7  84140945.56646  20548074.407    20548073.9784   20548074.5714
        46.400          40.6004


 202029380.334 7                  38444925.908
        44.100
 120913463.378 6                  23009069.795
        41.200
 144956154.932 5                  27584238.350
        33.900
 101969755.076 8  79309933.886 8  19088957.300    19088957.180    19088963.332
        50.800          49.100


 113991166.916 8  88659777.637 6  21331889.027    21331889.692    21331893.512
        51.900          40.700
 25  1  1 15  2 30.0000000  0 25E27E10E29G32G16G04G28G03G26R06G09E04
                                R07E21S35R05S31G31E06S33E19E11R16E12
                                R15
 137046071.608 5                  26079001.838
        35.100
 144943008.331 5                  27581740.004
        30.000
 132289071.759 6                  25173777.695
        40.400


 112112042.815 7  87359846.37445  21334162.865    21334161.8244   21334164.8354
        47.500          34.1004
 117873322.649 7  91849353.30943  22430547.995    22430547.5754   22430543.7864
        42.900          22.0004
 117541553.667 6  91590775.15342  22367413.335    22367413.0184   22367413.8654
        41.300          17.0004
 108664765.865 8  84674147.15748  20678211.607    20678211.3444   20678213.3434
        50.100          48.5004
 106220009.231 7  82768853.16347  20212978.587    20212978.0914   20212982.6584
        47.700          45.4004
 105078302.396 6                  19691627.483    19691627.225
        40.200
 130766805.441 5 101896195.90241  24884094.860    24884093.9174   24884098.6134
        30.700           9.0004
 136592226.745 5                  25992625.853
        34.700
 123589234.320 7  96124955.872 6  23087499.914    23087497.967    23087516.336
        42.300          37.100
 125723258.368 7                  23924337.148
        45.800


 110055204.406 7  85598057.212 7  20588002.858    20588003.940    20588009.867
        45.300          43.500
 198905388.937 7                  37850450.832
        43.300
 108004113.355 7  84159057.37046  20552497.807    20552497.3784   20552498.7094
        45.200          41.5004


 202029402.668 7                  38444933.474
        44.900
 120910853.164 7                  23008573.387
        42.300
 144971044.300 5                  27587071.785
        33.300
 101968603.808 8  79309038.470 8  19088741.835    19088741.522    19088747.523
        50.700          48.600


 114043383.076 8  88700390.163 6  21341660.650    21341661.377    21341665.215
        52.400          40.300
 25  1  1 15  2 45.0000000  0 25E27E10E29G32G16G04G28G03G26R06G09E04
                                R07E21S35R05S31G31E06S33E19E11R16E12
                                R15
 137075504.037 5                  26084603.193
        35.800
 144972828.472 4                  27587415.170
        28.500
 132313627.165 6                  25178450.162
        40.800


 112066687.903 8  87324504.94145  21325532.801    21325531.7774   21325533.8574
        48.500          35.5004
 117832410.608 7  91817473.80044  22422761.223    22422760.8304   22422762.1074
        43.000          25.7004
 117578355.011 7  91619451.48742  22374414.857    22374414.4604   22374416.5164
        42.100          17.3004
 108663820.486 8  84673410.48448  20678032.209    20678031.9554   20678034.6884
        50.600          49.0004
 106213299.753 7  82763625.02347  20211702.436    20211701.9224   20211705.8584
        45.900          43.8004
 105048652.350 6                  19686071.897    19686071.377
        40.000
 130718188.958 4 101858312.82341  24874841.595    24874840.6214   24874847.3184
        24.200          11.2004
 136560429.542 5                  25986573.807
        34.200
 123530954.014 7  96079626.683 5  23076610.587    23076610.358    23076634.906
        43.100          30.100
 125712244.803 7                  23922241.095
        46.200


 110092763.811 7  85627270.018 7  20595031.013    20595030.227    20595035.617
        45.900          42.800
 198905391.912 7                  37850449.146
        43.600
 108027432.013 7  84177227.76647  20556935.482    20556935.0674   20556937.3044
        47.000          43.0004


 202029428.650 7                  38444935.482
        45.100
 120908291.350 7                  23008085.894
        43.900
 144986029.774 5                  27589924.904
        35.100
 101967630.361 8  79308281.375 8  19088559.388    19088559.393    19088564.620
        51.300          48.200


 114095674.478 8  88741061.227 6  21351447.089    21351447.277    21351450.798
        51.800          40.100
 25  1  1 15  3  0.0000000  0 25E27E10E29G32G16G04G28G03G26R06G09E04
                                R07E21S35R05S31G31E06S33E19E11R16E12
                                R15
 137105008.771 6                  26090219.268
        36.700
 145002706.084 4                  27593109.948
        27.800
 132338221.449 6                  25183130.499
        38.900
 125823009.329 5  98043939.43642  23943316.192    23943315.7364   23943326.5974
        35.900          12.8004
 112021437.697 8  87289245.08446  21316921.276    21316920.2754   21316923.4844
        48.000          36.0004
 117791519.510 6  91785610.59244  22414979.646    22414979.2844   22414983.8054
        41.700          26.5004
 117615182.899 7  91648148.52242  22381422.977    22381422.5754   22381424.5054
        43.000          17.5004
 108663031.250 8  84672795.49048  20677881.536    20677881.2774   20677885.0774
        50.300          48.6004
 106206743.506 7  82758516.29847  20210454.825    20210454.3254   20210458.5754
        47.300          42.5004
 105019122.467 6                  19680536.884    19680537.588
        39.000


 136528635.376 6                  25980524.536
        38.200
 123472674.756 7                  23065723.393    23065722.051
        43.700
 125701333.236 8                  23920164.906
        48.100


 110130444.350 7  85656577.047 7  20602078.419    20602078.877    20602084.920
        46.800          42.200
 198905393.403 7                  37850447.643
        43.300
 108050820.849 7  84195452.81747  20561385.740    20561385.3114   20561388.5094
        46.700          43.2004


 202029453.353 7                  38444939.600
        45.000
 120905773.290 7                  23007607.075
        44.800
 145001106.549 5                  27592792.169
        32.800
 101966829.651 8  79307658.625 8  19088409.241    19088409.862    19088415.295
        51.800          48.700


 114148035.908 8  88781786.715 6  21361245.441    21361245.841    21361249.393
        50.500          39.700
 25  1  1 15  3 15.0000000  0 25E27E10E29G32G16G04G28G03G26R06G09E04
                                R07E21S35R05S31G31E06S33E19E11R16E12
                                R15
 137134594.123 6                  26095849.959
        37.500
 145032649.671 5                  27598814.642
        30.600
 132362863.132 6                  25187819.967
        39.500
 125864425.564 5  98076211.59241  23951191.014    23951191.1834   23951207.9934
        34.600          10.4004
 111976301.113 7  87254073.75645  21308330.940    21308329.9434   21308335.1654
        45.000          34.5004
 117750657.994 6  91753770.42644  22407204.741    22407204.4424   22407209.7194
        39.800          26.7004
 117652045.707 7  91676872.72142  22388438.457    22388438.1274   22388439.6764
        42.800          17.1004
 108662406.715 8  84672308.82348  20677762.663    20677762.4044   20677765.5774
        49.800          48.0004
 106200348.936 8  82753533.54147  20209237.099    20209236.5994   20209241.5464
        48.800          42.4004
 104989721.756 6                  19675025.865    19675025.790
        36.200


 136496852.995 6                  25974475.631
        39.000
 123414405.777 7  95988973.505 6  23054837.630    23054837.710    23054846.156
        46.300          38.000
 125690532.273 8                  23918109.696
        48.800


 110168255.008 8  85685985.265 7  20609153.870    20609154.634    20609158.437
        49.900          42.100
 198905401.224 7                  37850447.241
        42.500
 108074288.308 7  84213739.13847  20565852.237    20565851.8314   20565853.4114
        46.100          43.3004


 202029483.902 7                  38444945.722
        44.600
 120903307.571 7                  23007137.990
        45.300
 145016283.071 5                  27595680.835
        31.600
 101966210.572 8  79307177.135 8  19088293.451    19088293.511    19088299.476
        51.700          49.100


 114200475.844 8  88822573.347 6  21371058.161    21371058.258    21371062.583
        49.100          40.100
 25  1  1 15  3 30.0000000  0 25E27E10E29G32G16G04G28G03G26R06G09E04
                                R07E21S35R05S31G31E06S33E19E11R16E12
                                R15
 137164246.006 6                  26101493.426
        36.700
 145062645.488 4                  27604530.326
        29.500
 132387538.562 6                  25192514.907
        38.600


 111931264.736 6  87218980.46645  21299762.161    21299761.1604   21299765.6004
        41.200          31.6004
 117709812.497 6  91721942.75744  22399431.332    22399431.0824   22399437.4944
        40.700          26.6004
 117688929.629 6  91705613.41741  22395456.569    22395456.3064   22395458.1384
        40.800          11.6004
 108661933.177 8  84671939.85148  20677672.798    20677672.5264   20677674.7144
        50.100          48.2004
 106194102.406 8  82748666.16146  20208048.325    20208047.8344   20208051.2414
        49.600          41.9004
 104960436.442 6                  19669539.656    19669539.333
        36.500


 136465068.585 6                  25968426.227
        37.300
 123356133.071 7  95943650.284 6  23043951.469    23043951.983    23043959.674
        46.200          40.800
 125679828.259 7                  23916072.254
        47.900


 110206181.477 8  85715483.567 7  20616248.069    20616249.279    20616255.291
        50.700          43.300
 198905401.915 6                  37850444.321
        41.900
 108097820.395 7  84232075.82047  20570330.319    20570329.9394   20570330.2924
        46.400          43.1004


 202029507.485 7                  38444951.186
        44.100
 120900880.595 7                  23006676.041
        45.100
 145031545.339 4                  27598582.521
        27.400
 101965758.639 8  79306825.630 8  19088209.209    19088209.753    19088214.636
        52.300          49.000


 114252979.624 8  88863409.564 6  21380882.698    21380883.651    21380887.914
        49.200          39.700
 25  1  1 15  3 45.0000000  0 25E27E10E29G32G16G04G28G03G26R06G09E04
                                R07E21S35R05S31G31E06S33E19E11R16E12
                                R15
 137193973.450 4                  26107148.310
        26.300
 145092702.220 5                  27610231.759
        30.600
 132412256.791 6                  25197218.274
        37.600


 111886337.925 7  87183972.56445  21291213.458    21291212.4524   21291215.5134
        44.400          31.7004
 117668992.442 6  91690134.96444  22391662.897    22391662.5844   22391669.7584
        39.200          25.1004
 117725843.511 5  91734377.42841  22402480.188    22402479.8844   22402482.2524
        34.500          10.5004
 108661619.702 8  84671695.59348  20677613.331    20677613.0594   20677615.4024
        50.400          48.5004
 106188012.965 8  82743921.19147  20206888.972    20206888.4814   20206891.6284
        48.100          42.6004
 104931276.268 6                  19664074.762    19664074.312
        36.600


 136433291.388 6                  25962380.386
        40.100
 123297866.516 7  95898331.921 7  23033067.843    23033066.654    23033075.275
        44.700          42.600
 125669230.218 7                  23914055.133
        46.700


 110244232.749 8  85745078.926 7  20623364.380    20623365.348    20623373.309
        48.400          43.800
 198905405.131 7                  37850453.416
        42.400
 108121425.978 7  84250469.76947  20574822.259    20574821.8844   20574821.2594
        47.800          42.4004


 202029533.088 7                  38444956.879
        45.800
 120898501.488 7                  23006223.469
        44.600
 145046902.290 5                  27601508.185
        33.300
 101965483.136 8  79306611.336 8  19088158.598    19088158.754    19088163.427
        52.500          48.800
 147613103.048 5                  28089837.774
        35.800
 114305556.003 8  88904302.213 6  21390723.000    21390723.698    21390727.514
        49.200          39.800
 25  1  1 15  4  0.0000000  0 24E10E29G32G16G04G28G03G26R06G09E04R07
                                E21S35R05S31G31E06S33E19E11R16E12R15
 145122815.057 4                  27615959.503
        28.600
 132437013.445 6                  25201930.308
        38.700
 125988900.567 5  98173248.11742  23974891.321    23974891.1114   23974905.4914
        34.800          16.8004
 111841516.968 7  87149047.17045  21282684.015    21282683.0184   21282684.9364
        47.300          31.9004
 117628193.395 6  91658343.47643  22383901.696    22383901.3574   22383905.4964
        36.200          22.9004
 117762782.849 6  91763161.18641  22409511.097    22409510.8254   22409511.2764
        39.900          10.4004
 108661461.923 8  84671572.61048  20677582.322    20677582.0324   20677586.7174
        49.900          49.8004
 106182076.268 7  82739295.20747  20205759.957    20205759.4484   20205762.3924
        47.800          42.7004
 104902237.263 6                  19658634.594    19658633.314
        37.300


 136401517.073 5                  25956332.322
        35.000
 123239602.076 7  95853015.080 7  23022185.127    23022185.314    23022189.646
        47.300          42.600
 125658733.928 7                  23912058.252
        47.100


 110282404.422 8  85774767.891 7  20630507.266    20630508.277    20630514.638
        50.600          44.200
 198905405.612 7                  37850457.915
        44.600
 108145100.509 8  84268917.45147  20579326.480    20579326.0914   20579326.1154
        48.400          43.4004


 202029556.618 7                  38444960.161
        45.200
 120896166.031 7                  23005778.846
        44.500
 145062349.432 5                  27604448.389
        33.800
 101965379.251 8  79306530.534 8  19088137.773    19088137.925    19088143.702
        51.800          48.600
 147650872.082 5                  28097023.074
        34.600
 114358200.229 8  88945247.701 6  21400576.374    21400577.276    21400579.513
        50.600          40.100
 25  1  1 15  4 15.0000000  0 25E27E10E29G32G16G04G28G03G26R06G09E04
                                R07E21S35R05S31G31E06S33E19E11R16E12
                                R15


 145152986.690 5                  27621698.241
        34.000
 132461811.977 6                  25206649.500
        38.600
 126030503.809 5  98205665.85143  23982808.247    23982808.2254   23982820.9294
        31.500          21.7004
 111796805.359 7  87114206.97044  21274174.621    21274173.6334   21274173.4754
        47.600          29.6004
 117587418.983 5  91626571.15943  22376142.027    22376141.6924   22376145.4424
        35.700          19.6004
 117799750.819 5  91791967.30841  22416543.865    22416543.5844   22416545.8054
        35.100           8.5004
 108661463.318 8  84671573.69248  20677584.133    20677583.8474   20677587.7724
        51.200          49.9004
 106176295.664 8  82734790.82847  20204660.063    20204659.5094   20204663.0124
        49.300          45.6004
 104873323.439 6                  19653214.719    19653215.151
        36.400


 136369749.138 6                  25950288.670
        37.300
 123181343.027 7  95807702.439 7  23011299.773    23011301.599    23011306.106
        47.700          43.700
 125648342.699 7                  23910081.064
        46.700


 110320699.954 8  85804553.172 7  20637670.131    20637671.329    20637677.525
        49.400          43.800
 198905407.382 7                  37850453.179
        42.900
 108168847.266 7  84287421.41147  20583845.780    20583845.3874   20583844.8154
        46.200          43.1004


 202029581.429 7                  38444970.714
        43.900
 120893877.729 7                  23005343.471
        44.900
 145077889.944 5                  27607405.851
        34.000
 101965450.481 8  79306585.928 8  19088150.852    19088151.108    19088157.479
        51.200          48.900
 147688660.724 5                  28104215.128
        30.600
 114410915.052 8  88986248.039 6  21410438.448    21410439.945    21410444.802
        49.300          40.100
 25  1  1 15  4 30.0000000  0 24E10E29G32G16G04G28G03G26R06G09E04R07
                                E21S35R05S31G31E06S33E19E11R16E12R15
 145183217.627 5                  27627448.694
        32.500
 132486652.706 6                  25211377.633
        41.100


 111752203.692 7  87079452.48245  21265687.299    21265686.3204   21265684.8334
        46.800          30.5004
 117546669.656 6  91594818.43743  22368387.222    22368386.9904   22368390.0794
        37.800          18.8004
 117836747.708 6  91820795.97042  22423585.632    22423585.3514   22423586.1424
        39.400          14.5004
 108661624.105 8  84671698.93948  20677613.715    20677613.4344   20677618.2294
        50.100          49.1004
 106170671.492 7  82730408.34547  20203589.549    20203589.0044   20203593.4184
        47.100          44.6004
 104844535.076 6                  19647818.370    19647819.383
        36.900


 136337987.981 5                  25944243.347
        35.400
 123123089.839 7  95762394.398 7  23000416.321    23000417.786    23000423.916
        46.300          43.600
 125638056.905 7                  23908123.876
        47.300


 110359119.372 8  85834434.888 7  20644858.438    20644858.689    20644866.092
        49.500          44.900
 198905410.286 7                  37850461.139
        44.400
 108192666.267 8  84305981.67047  20588378.231    20588377.8744   20588377.5734
        48.100          44.3004


 202029607.290 7                  38444968.957
        47.000
 120891636.956 7                  23004916.566
        44.600
 145093523.931 5                  27610379.762
        34.600
 101965696.725 8  79306777.419 7  19088197.974    19088197.984    19088202.625
        52.100          46.900
 147726469.081 4                  28111411.090
        29.500
 114463700.592 8  89027303.388 6  21420319.094    21420319.503    21420323.100
        48.500          40.900
 25  1  1 15  4 45.0000000  0 24E10E29G32G16G04G28G03G26R06G09E04R07
                                E21S35R05S31G31E06S33E19E11R16E12R15
 145213507.507 5                  27633213.976
        33.800
 132511535.604 7                  25216112.115
        43.300


 111707712.391 7  87044783.95045  21257221.097    21257220.1364   21257219.7884
        46.600          32.0004
 117505945.622 5  91563085.32241  22360637.154    22360636.9404   22360639.6664
        35.300          11.4004
 117873773.346 6  91849647.04742  22430632.498    22430632.2354   22430633.3744
        41.300          17.9004
 108661944.318 8  84671948.43148  20677675.140    20677674.8724   20677678.3544
        50.200          48.9004
 106165203.768 7  82726147.78547  20202549.469    20202548.9334   20202553.2564
        46.500          44.4004
 104815872.716 6                  19642449.261    19642447.444
        37.200


 136306233.488 6                  25938202.381
        36.400
 123064843.439 7  95717091.639 6  22989535.544    22989536.088    22989541.302
        45.600          41.800
 125627876.627 7                  23906186.698
        47.000


 110397662.692 8  85864412.915 7  20652069.213    20652069.807    20652076.695
        50.000          45.700
 198905414.541 7                  37850460.437
        43.500
 108216557.298 7  84324598.04347  20592924.519    20592924.1844   20592924.7664
        47.500          44.9004


 202029634.001 7                  38444974.296
        46.600
 120889443.739 7                  23004499.680
        43.200
 145109251.288 5                  27613372.057
        32.100
 101966117.835 8  79307104.963 7  19088276.038    19088276.013    19088281.200
        50.900          46.500
 147764296.826 5                  28118610.239
        33.200
 114516556.053 8  89068413.105 6  21430211.147    21430211.215    21430214.199
        49.500          40.200
 25  1  1 15  5  0.0000000  0 24E10E29G32G16G04G28G03G26R06G09E04R07
                                E21S35R05S31G31E06S33E19E11R16E12R15
 145243850.063 5                  27638987.714
        32.800
 132536454.563 6                  25220851.624
        40.800


 111663325.713 7  87010196.93745  21248774.310    21248773.3454   21248776.3144
        46.300          33.7004
 117465240.989 5  91531367.27741  22352890.997    22352890.4654   22352893.6944
        34.500           7.6004
 117910821.406 6  91878515.68643  22437680.953    22437680.6364   22437684.8554
        40.500          19.0004
 108662417.785 8  84672317.31348  20677765.160    20677764.9244   20677767.6264
        49.100          48.2004
 106159886.310 7  82722004.28947  20201538.353    20201537.7954   20201541.3104
        45.200          43.5004
 104787330.631 6                  19637099.220    19637099.451
        38.200


 136274479.686 7                  25932161.016
        42.500
 123006597.832 7  95671789.497 6  22978657.391    22978656.957    22978660.413
        44.600          41.400
 125617795.736 8                  23904268.870
        48.400


 110436323.208 8  85894482.105 7  20659301.770    20659301.950    20659309.249
        48.600          46.000
 198905413.915 7                  37850451.976
        43.600
 108240514.014 8  84343265.61847  20597484.187    20597483.8524   20597484.3234
        49.000          46.0004


 202029655.843 7                  38444978.030
        46.300
 120887292.108 6                  23004090.017
        41.600
 145125065.768 5                  27616382.214
        30.700
 101966707.756 8  79307563.767 7  19088386.977    19088387.044    19088392.669
        51.700          46.200
 147802137.564 5                  28125810.869
        33.400
 114569474.839 7  89109572.119 6  21440112.827    21440113.145    21440117.211
        46.800          39.700
 25  1  1 15  5 15.0000000  0 25E27E10E29G32G16G04G28G03G26R06G09E04
                                R07E21S35R05S31G31E06S33E19E11R16E12
                                R15


 145274252.318 5                  27644774.146
        33.200
 132561417.001 6                  25225602.323
        38.600


 111619051.239 8  86975697.35045  21240350.321    21240349.3514   21240353.1814
        48.300          35.5004
 117424563.053 6  91499670.21241  22345151.979    22345151.4254   22345153.5834
        40.500          11.0004
 117947899.071 5  91907407.42142  22444736.364    22444736.0784   22444741.0134
        34.300          16.6004
 108663051.928 8  84672811.41948  20677885.660    20677885.4154   20677888.2074
        49.400          48.4004
 106154726.537 7  82717983.68447  20200555.402    20200554.8484   20200559.1944
        45.700          43.0004
 104758916.713 6                  19631775.393    19631774.030
        37.800


 136242734.042 7                  25926119.374
        43.100
 122948360.768 7  95626493.991 6  22967776.472    22967777.106    22967781.371
        43.800          41.400
 125607821.416 8                  23902370.754
        48.500


 110475108.259 7  85924648.227 7  20666557.598    20666556.102    20666565.150
        45.000          46.000
 198905415.744 7                  37850454.458
        42.900
 108264543.603 8  84361989.97547  20602056.523    20602056.1884   20602058.0204
        49.600          46.7004
 148221608.248 5                  28205633.560
        33.100
 202029681.335 7                  38444984.071
        46.300
 120885189.503 6                  23003690.537
        41.000


 101967473.442 8  79308159.334 7  19088529.836    19088530.605    19088535.591
        51.100          45.300
 147839998.385 6                  28133015.959
        37.100
 114622464.118 7  89150785.956 6  21450027.561    21450027.783    21450033.275
        46.200          40.100
 25  1  1 15  5 30.0000000  0 25E27E10E29G32G16G04G28G03G26R06G09E04
                                R07E21S35R05S31G31E06S33E19E11R16E12
                                R15


 145304709.634 5                  27650568.029
        31.300
 132586418.437 5                  25230359.031
        35.200


 111574884.907 8  86941282.02545  21231945.958    21231944.9884   21231949.0624
        48.200          32.8004
 117383907.725 6  91467990.9784   22337413.403    22337412.9304   22337417.3854
        41.300           5.0004
 117985001.793 6  91936318.68942  22451797.484    22451797.1804   22451801.5134
        38.500          14.7004
 108663842.270 8  84673427.25948  20678036.166    20678035.9254   20678039.1114
        49.300          49.4004
 106149719.861 7  82714082.40647  20199601.569    20199601.0194   20199606.8734
        44.800          42.0004
 104730626.673 6                  19626474.451    19626473.865
        40.100


 136210992.147 7                  25920079.627
        42.400
 122890128.050 7  95581201.805 6  22956901.508    22956905.885    22956903.850
        45.000          40.500
 125597949.555 8                  23900492.262
        49.100


 110514013.274 6  85954907.618 7  20673838.151    20673833.632    20673842.877
        41.400          45.400
 198905415.752 6                  37850452.151
        41.100
 108288641.368 8  84380767.42447  20606641.914    20606641.5794   20606644.0174
        50.400          46.2004
 148186006.131 5                  28198859.347
        35.100
 202029704.652 7                  38444988.113
        44.500
 120883131.538 6                  23003297.944
        41.200


 101968410.381 8  79308888.063 7  19088705.241    19088705.397    19088710.543
        49.900          44.100
 147877874.578 5                  28140222.557
        34.000
 114675518.906 8  89192050.731 6  21459957.028    21459958.461    21459962.679
        48.500          41.100
 25  1  1 15  5 45.0000000  0 25E27E10E29G32G16G04G28G03G26R06G09E04
                                R07E21S35R05S31G31E06S33E19E11R16E12
                                R15


 145335224.227 4                  27656374.551
        26.800
 132611461.666 5                  25235126.226
        34.300
 126281162.362 6  98400994.62942  24030506.491    24030506.4784   24030527.1944
        37.000          14.2004
 111530829.973 8  86906953.53845  21223562.650    21223561.6714   21223564.8504
        48.800          32.6004
 117343277.862 7  91436331.49142  22329682.426    22329682.0784   22329684.7074
        42.600          17.4004


 108664791.546 8  84674166.93248  20678216.909    20678216.6734   20678219.7964
        48.800          49.2004
 106144869.121 7  82710302.60147  20198678.730    20198678.1584   20198684.1894
        43.500          42.5004
 104702463.823 6                  19621194.964    19621196.116
        39.700


 136179256.861 6                  25914040.335
        41.500
 122831902.751 7  95535915.428 6  22946035.563                    22946028.533
        42.000          41.800
 125588182.831 7                  23898633.515
        47.600


 110553041.090 7  85985262.517 7  20681134.818    20681134.244    20681142.997
        45.000          44.600
 198905416.123 7                  37850445.376
        42.500
 108312809.705 8  84399599.83247  20611241.305    20611240.9664   20611243.1084
        50.700          46.4004
 148150392.347 5                  28192082.484
        31.900
 202029727.591 7                  38444993.345
        45.900
 120881121.034 6                  23002915.389
        41.300


 101969520.957 8  79309751.868 7  19088913.995    19088913.667    19088918.975
        49.700          44.100
 147915768.677 5                  28147432.612
        33.000
 114728641.446 8  89233368.218 6  21469898.721    21469900.398    21469903.516
        49.400          41.500
 25  1  1 15  6  0.0000000  0 25E27E10E29G32G16G04G28G03G26R06G09E04
                                R07E21S35R05S31G31E06S33E19E11R16E12
                                R15




 132636546.034 6                  25239901.015
        40.100
 126323100.937 6  98433673.68741  24038494.674    24038494.6034   24038504.8154
        36.100           6.8004
 111486885.953 7  86872711.46544  21215199.683    21215198.6774   21215200.7424
        47.600          28.4004
 117302672.948 7  91404691.26843  22321955.531    22321955.2234   22321957.6404
        43.100          23.4004


 108665899.065 8  84675029.92948  20678427.558    20678427.3264   20678430.4234
        49.700          49.8004
 106140173.555 7  82706643.70847  20197786.463    20197785.8784   20197790.5534
        43.100          42.8004
 104674427.667 6                  19615941.793    19615940.828
        38.000


 136147527.604 6                  25908002.256
        38.900
 122773684.430 6  95490634.574 6  22935144.530    22935143.406    22935151.056
        41.600          38.500
 125578520.282 7                  23896794.509
        45.700


 110592190.702 7  86015712.064 7  20688458.968    20688459.576    20688467.318
        45.100          43.000
 198905416.981 6                  37850454.150
        41.400
 108337047.904 8  84418486.71947  20615854.525    20615854.1774   20615855.4214
        49.200          45.8004
 148114766.204 5                  28185301.971
        30.600
 202029751.407 7                  38445001.796
        45.300
 120879157.237 6                  23002540.991
        41.000


 101970804.376 8  79310750.064 7  19089154.070    19089154.612    19089159.177
        50.100          44.900
 147953679.700 4                  28154646.698
        29.700
 114781830.701 8  89274737.622 6  21479852.755    21479853.009    21479857.554
        49.800          41.900
 25  1  1 15  6 15.0000000  0 25E27E10E29G32G16G04G28G03G26R06G09E04
                                R07E21S35R05S31G31E06S33E19E11R16E12
                                R15
 137495269.607 5                  26164479.048
        32.400


 132661672.046 6                  25244681.694
        39.900


 111443053.756 7  86838556.52844  21206858.400    21206857.4084   21206858.0504
        46.400          24.8004
 117262093.842 7  91373071.21244  22314234.240    22314233.9364   22314236.0514
        44.400          27.3004
 118096549.693 5                  22473029.141
        32.900
 108667165.406 8  84676016.67648  20678669.013    20678668.7854   20678671.8014
        50.900          50.3004
 106135633.806 7  82703106.25647  20196922.847    20196922.2714   20196926.3954
        46.300          44.9004
 104646519.424 6                  19610711.578    19610711.467
        39.200


 136115804.942 5                  25901965.856
        35.300
 122715474.153 7  95445359.913 5  22924274.464    22924273.168    22924273.816
        44.800          34.500
 125568962.873 7                  23894975.778
        44.200


 110631462.286 7  86046256.572 7  20695808.161    20695808.540    20695814.606
        46.800          42.500
 198905418.754 6                  37850456.859
        41.800
 108361356.257 8  84437428.24847  20620480.204    20620479.8604   20620480.5374
        50.400          44.9004
 148079128.414 4                  28178520.970
        28.700
 202029776.014 7                  38445001.376
        45.300
 120877241.168 7                  23002176.946
        42.300
 145205519.993 5                  27631691.301
        32.700
 101972261.159 8  79311883.108 7  19089425.909    19089426.343    19089431.383
        49.200          44.400


 114835086.623 8  89316158.889 6  21489817.898    21489819.205    21489823.705
        48.400          41.700
 25  1  1 15  6 30.0000000  0 25E27E10E29G32G16G04G28G03G26R06G09E04
                                R07E21S35R05S31G31E06S33E19E11R16E12
                                R15
 137525790.702 5                  26170293.564
        32.100


 132686838.574 6                  25249470.948
        39.400


 111399332.785 7  86804488.26143  21198537.078    21198536.1314   21198538.9274
        42.200          22.7004
 117221539.522 7  91341470.46345  22306517.314    22306517.0514   22306518.4474
        45.600          30.0004
 118133760.658 4                  22480107.787
        29.800
 108668589.426 8  84677126.27548  20678940.124    20678939.9234   20678942.9434
        52.000          50.1004
 106131248.668 7  82699689.26247  20196087.774    20196087.2114   20196091.7984
        45.900          45.3004
 104618738.187 6                  19605506.078    19605505.711
        39.800


 136084087.875 5                  25895929.524
        34.500
 122657271.011 8  95400090.868 5  22913401.234    22913402.126    22913399.537
        49.400          33.800
 125559509.384 7                  23893177.222
        44.300


 110670855.264 7  86076895.497 6  20703176.663    20703177.291    20703183.397
        43.200          40.200
 198905419.546 7                  37850453.076
        42.300
 108385733.579 8  84456423.52847  20625118.509    20625118.1654   20625118.7854
        50.700          44.2004


 202029799.382 7                  38445004.689
        44.500
 120875371.299 6                  23001821.049
        41.300
 145221883.912 5                  27634805.707
        34.000
 101973889.974 8  79313149.969 7  19089729.509    19089730.199    19089736.499
        48.700          44.800


 114888407.514 8  89357630.641 7  21499797.090    21499798.033    21499802.291
        49.200          42.700
 25  1  1 15  6 45.0000000  0 25E27E10E29G32G16G04G28G03G26R06G09E04
                                R07E21S35R05S31G31E06S33E19E11R16E12
                                R15
 137556387.279 5                  26176118.714
        30.500


 132712050.307 6                  25254268.756
        37.000


 111355727.811 7  86770510.35843  21190240.847    21190239.9044   21190242.3454
        42.500          19.3004
 117181014.630 7  91309892.62744  22298804.877    22298804.6414   22298807.0404
        44.700          29.9004
 118171001.660 5  92081242.42642  22487175.356    22487175.7404   22487180.4134
        34.800          14.0004
 108670175.721 8  84678362.30648  20679240.735    20679240.5344   20679244.5544
        51.200          49.3004
 106127022.716 7  82696396.32947  20195284.469    20195283.8974   20195287.3844
        46.500          45.7004
 104591089.067 6                  19600324.595    19600324.800
        40.700


 136052380.897 5                  25889896.285
        34.100
 122599079.468 7  95354830.687 5  22902529.927    22902530.695    22902529.045
        47.200          32.100
 125550164.477 7                  23891399.056
        43.400


 110710373.442 7  86107631.802 6  20710568.678    20710566.643    20710574.171
        42.500          36.600
 198905424.307 6                  37850454.726
        41.100
 108410184.188 8  84475475.94247  20629771.122    20629770.7874   20629771.5674
        50.500          43.7004


 202029827.974 7                  38445015.895
        45.200
 120873552.671 7                  23001475.878
        42.100
 145238342.660 5                  27637937.840
        35.300
 101975695.240 8  79314554.039 7  19090068.154    19090068.500    19090075.574
        49.100          46.100


 114941797.336 8  89399155.814 7  21509786.847    21509789.208    21509793.537
        49.400          43.100
 25  1  1 15  7  0.0000000  0 25E27E10E29G32G16G04G28G03G26R06G09E04
                                R07E21S35R05S31G31E06S33E19E11R16E12
                                R15




 132737299.513 6                  25259074.354
        39.200


 111312231.507 7  86736617.14744  21181964.300    21181963.3884   21181966.2264
        46.200          24.4004
 117140511.546 7  91278331.73844  22291096.994    22291096.7664   22291099.5994
        43.700          29.3004
 118208265.238 6  92110278.99142  22494271.589    22494272.0454   22494271.6154
        36.700          12.1004
 108671916.517 8  84679718.74248  20679572.485    20679572.2934   20679575.4094
        50.200          48.5004
 106122948.167 7  82693221.35047  20194508.238    20194507.6574   20194512.2914
        46.300          46.1004
 104563564.668 6                  19595165.409    19595165.916
        40.300


 136020676.601 6                  25883862.506
        38.900
 122540892.765 7  95309574.471 6  22891656.948    22891659.094    22891664.629
        46.900          36.100
 125540920.284 7                  23889639.402
        43.700


 110750009.119 7  86138459.383 5  20717983.853    20717985.628    20717986.945
        44.800          35.900
 198905425.753 7                  37850460.039
        43.400
 108434700.012 7  84494579.06446  20634436.362    20634436.0144   20634436.1404
        47.900          41.5004


 202029852.020 7                  38445016.696
        45.600
 120871777.437 6                  23001138.158
        41.500
 145254888.343 5                  27641085.517
        35.200
 101977668.628 8  79316088.905 7  19090438.697    19090437.851    19090444.326
        49.000          45.700


 114995248.430 8  89440728.740 6  21519789.574    21519790.635    21519794.710
        48.400          41.400
 25  1  1 15  7 15.0000000  0 25E27E10E29G32G16G04G28G03G26R06G09E04
                                R07E21S35R05S31G31E06S33E19E11R16E12
                                R15




 132762589.496 6                  25263886.011
        39.700


 111268847.493 7  86702811.39944  21173708.569    21173707.6714   21173711.3654
        47.200          27.1004
 117100034.130 6  91246790.81344  22283394.184    22283393.9794   22283397.4084
        36.900          26.6004
 118245554.583 6  92139335.61141  22501363.927    22501363.9104   22501365.7734
        36.100           6.3004
 108673815.175 8  84681198.20447  20679934.071    20679933.8844   20679936.3144
        48.600          47.3004
 106119028.412 7  82690166.98547  20193762.918    20193762.3954   20193766.7784
        45.500          45.8004
 104536168.651 6                  19590032.282    19590032.154
        41.400


 135988978.212 6                  25877830.379
        40.800
 122482714.037 7  95264324.398 6  22880785.944    22880787.301    22880797.075
        43.400          37.800
 125531780.240 7                  23887899.648
        43.800


 110789765.465 7  86169380.900 6  20725421.904    20725419.696    20725427.282
        43.100          40.000
 198905427.046 7                  37850453.877
        42.500
 108459284.372 8  84513735.68846  20639114.257    20639113.9004   20639113.8864
        48.500          41.2004


 202029876.767 7                  38445020.063
        46.000
 120870049.190 7                  23000809.755
        42.700
 145271524.079 6                  27644250.675
        36.100
 101979813.607 8  79317757.229 7  19090840.652    19090840.512    19090845.024
        50.800          44.800


 115048763.932 7  89482351.947 6  21529804.246    21529803.716    21529809.812
        46.400          41.900
 25  1  1 15  7 30.0000000  0 25E27E10E29G32G16G04G28G03G26R06G09E04
                                R07E21S35R05S31G31E06S33E19E11R16E12
                                R15




 132787922.423 6                  25268707.543
        40.800


 111225578.204 8  86669095.13844  21165474.559    21165473.6704   21165475.4464
        49.600          27.4004
 117059584.374 5  91215271.48743  22275696.648    22275696.4884   22275700.4044
        35.600          23.8004


 108675873.805 8  84682802.31647  20680325.941    20680325.7814   20680328.2614
        49.300          47.5004
 106115265.513 7  82687234.83747  20193046.991    20193046.4914   20193050.5984
        46.200          46.1004
 104508903.499 7                  19584922.679    19584922.976
        42.200


 135957288.006 6                  25871800.245
        39.200
 122424546.429 6  95219082.918 6  22869924.536    22869921.576    22869929.637
        41.100          37.700
 125522746.431 7                  23886181.068
        44.400


 110829644.434 7  86200397.856 7  20732880.338    20732878.971    20732889.862
        42.800          42.600
 198905429.428 7                  37850458.635
        44.800
 108483939.230 7  84532947.26746  20643806.045    20643805.6834   20643804.9904
        47.700          40.1004


 202029902.786 7                  38445026.600
        46.300
 120868370.123 7                  23000489.849
        42.700
 145288251.874 5                  27647433.867
        33.600
 101982132.113 8  79319560.512 7  19091273.597    19091273.642    19091279.165
        49.900          44.800


 115102344.959 7  89524026.106 7  21539830.518    21539830.789    21539836.473
        45.500          42.400
 25  1  1 15  7 45.0000000  0 25E27E10E29G32G16G04G28G03G26R06G09E04
                                R07E21S35R05S31G31E06S33E19E11R16E12
                                R15




 132813294.960 6                  25273535.965
        41.500


 111182420.767 8  86635466.07144  21157260.973    21157260.0664   21157259.8144
        48.700          27.8004
 117019159.253 6  91183771.35444  22268002.691    22268002.5224   22268006.9064
        40.700          24.5004


 108678089.016 8  84684528.42047  20680747.138    20680747.0274   20680749.4564
        49.900          47.6004
 106111656.162 7  82684422.34147  20192359.823    20192359.3274   20192363.2294
        46.900          47.3004
 104481766.344 7                  19579837.613    19579837.400
        42.000
 129743632.855 6 101098968.77943  24689396.161    24689396.3664   24689394.8354
        40.500          23.3004
 135925602.597 5                  25865771.093
        35.900
 122366386.747 7  95173847.613 6  22859064.140    22859062.075    22859063.724
        45.700          37.100
 125513815.680 7                  23884481.241
        45.400


 110869642.578 7  86231507.359 6  20740365.469    20740365.125    20740370.162
        46.600          41.900
 198905430.997 7                  37850454.320
        43.600
 108508660.875 7  84552210.87446  20648509.862    20648509.4914   20648508.3004
        45.200          38.3004


 202029927.077 7                  38445034.810
        45.800
 120866736.905 7                  23000178.625
        42.100
 145305068.149 5                  27650633.531
        34.200
 101984620.773 8  79321496.140 7  19091740.162    19091739.769    19091745.421
        50.700          45.400


 115155987.494 7  89565747.965 6  21549869.454    21549869.251    21549875.123
        43.300          41.700
 25  1  1 15  8  0.0000000  0 25E27E10E29G32G16G04G28G03G26R06G09E04
                                R07E21S35R05S31G31E06S33E19E11R16E12
                                R15


 145612397.852 5                  27709116.413
        34.800
 132838708.222 6                  25278371.276
        40.100
 126660322.976 5  98696406.21342  24102660.200    24102660.6914   24102670.6764
        35.900          13.2004
 111139376.648 7  86601925.24544  21149070.704    21149069.7974   21149069.1304
        46.200          28.2004
 116978759.939 7  91152291.33644  22260315.132    22260314.9134   22260317.5264
        43.100          25.2004
 118357508.907 5  92226651.52641  22522684.113    22522684.3814   22522690.2704
        34.600          11.6004
 108680461.930 7  84686377.40447  20681198.450    20681198.3524   20681200.9024
        47.500          47.0004
 106108201.355 8  82681730.25347  20191703.348    20191702.8524   20191705.7494
        48.300          47.3004
 104454758.428 6                  19574775.623    19574775.402
        41.600
 129694805.981 6 101060921.87944  24680103.269    24680103.5994   24680102.6514
        38.800          26.1004
 135893923.316 5                  25859743.476
        33.000
 122308236.121 7  95128619.423 6  22848202.473    22848202.051    22848201.809
        46.400          37.800
 125504988.982 7                  23882802.072
        45.300


 110909760.681 7  86262710.223 6  20747868.737    20747869.920    20747873.862
        46.200          41.300
 198905432.241 7                  37850448.913
        43.200
 108533450.188 7  84571527.17446  20653227.317    20653226.9554   20653224.7224
        43.800          36.6004


 202029950.889 7                  38445039.666
        46.900
 120865150.715 6                  22999876.561
        41.600
 145321973.888 5                  27653851.075
        33.500
 101987280.258 8  79323564.660 7  19092237.367    19092237.085    19092243.756
        50.200          45.700


 115209692.483 7  89607518.449 7  21559920.480    21559920.278    21559926.664
        43.800          42.000
 25  1  1 15  8 15.0000000  0 25E27E10E29G32G16G04G28G03G26R06G09E04
                                R07E21S35R05S31G31E06S33E19E11R16E12
                                R15


 145643465.857 5                  27715028.750
        34.700
 132864163.247 6                  25283214.108
        38.400
 126702689.135 6  98729418.23142  24110721.459    24110721.7674   24110730.3064
        38.100          12.0004
 111096447.047 7  86568473.60344  21140901.952    21140901.0404   21140902.1234
        45.200          28.6004
 116938387.802 7  91120832.52944  22252633.480    22252633.2354   22252634.1704
        42.800          25.7004
 118394901.622 5  92255788.59342  22529803.027    22529803.2774   22529803.1734
        34.000          13.6004
 108682993.519 7  84688350.04947  20681680.329    20681680.2674   20681683.2474
        46.200          46.2004
 106104902.131 8  82679159.39547  20191074.836    20191074.3224   20191078.4704
        49.100          47.1004
 104427881.361 7                  19569739.618    19569739.398
        42.200
 129645971.239 6 101022868.81444  24670811.309    24670811.6354   24670810.9554
        39.500          27.3004
 135862251.242 5                  25853716.000
        34.900
 122250095.924 7  95083399.237 6  22837343.906    22837345.027    22837343.819
        47.100          38.600
 125496267.324 7                  23881143.205
        45.400


 110949999.920 7  86294007.314 7  20755396.120    20755395.035    20755403.314
        44.300          43.200
 198905433.152 7                  37850452.616
        43.100
 108558308.044 7  84590896.89345  20657956.772    20657956.4014   20657955.7974
        42.700          35.4004


 202029975.624 7                  38445045.001
        46.300
 120863612.739 6                  22999583.570
        39.200
 145338969.898 5                  27657085.895
        31.700
 101990111.468 8  79325766.739 7  19092768.067    19092768.296    19092773.890
        52.500          46.100


 115263460.504 7  89649337.944 7  21569982.029    21569982.609    21569989.237
        46.200          42.500
 25  1  1 15  8 30.0000000  0 26E27E10E29G32G16R23G04G28G03G26R06G09
                                E04R07E21S35R05S31G31E06S33E19E11R16
                                E12R15
 137772493.587 5                  26217234.977
        35.900
 145674588.828 5                  27720950.966
        34.600
 132889660.785 5                  25288064.665
        35.900
 126745103.537 5  98762467.95442  24118793.286    24118793.2694   24118802.4354
        31.700          13.1004
 111053633.215 7  86535112.16444  21132754.130    21132753.1914   21132755.8284
        45.800          28.2004
 131634746.014 4                  24607725.481
        28.300
 116898043.544 6  91089395.41444  22244957.206    22244956.9524   22244956.7834
        41.900          25.5004
 118432321.040 5  92284946.52942  22536923.708    22536923.4314   22536922.2424
        34.100          12.2004
 108685684.445 7  84690446.84447  20682191.970    20682191.9354   20682196.0534
        45.100          45.4004
 106101759.183 8  82676710.31147  20190476.374    20190475.8514   20190480.7254
        50.100          46.9004
 104401136.349 6                  19564726.427    19564726.598
        41.400
 129597129.490 6 100984810.29044  24661517.851    24661517.8294   24661517.1974
        41.400          27.7004
 135830587.116 6                  25847691.564
        39.500
 122191967.250 7  95038188.068 6  22826487.858    22826488.406    22826484.900
        45.800          38.500
 125487651.588 7                  23879503.133
        46.400


 110990360.650 7  86325398.910 7  20762948.185    20762948.907    20762954.481
        46.600          44.700
 198905435.895 7                  37850461.711
        43.800
 108583234.948 6  84610320.44445  20662700.905    20662700.5434   20662700.7434
        36.300          35.3004


 202030001.592 7                  38445046.222
        46.600
 120862123.921 6                  22999300.686
        40.800
 145356056.732 5                  27660338.312
        31.600
 101993114.861 8  79328102.693 7  19093330.084    19093330.397    19093335.347
        52.200          46.400
 148333668.569 6                  28226958.436
        36.200
 115317291.815 7  89691206.606 7  21580056.854    21580057.264    21580063.991
        47.200          43.200
 25  1  1 15  8 45.0000000  0 25E27E10E29G32G16G04G28G03G26R06G09E04
                                R07E21S35R05S31G31E06S33E19E11R16E12
                                R15
 137803651.593 6                  26223166.326
        38.600
 145705767.407 6                  27726882.517
        36.900
 132915201.560 5                  25292926.942
        35.500
 126787567.098 6  98795556.07842  24126874.432    24126874.5704   24126883.8684
        37.600          16.6004
 111010936.138 7  86501841.72544  21124628.214    21124627.2754   21124630.6174
        44.300          28.0004
 116857728.360 7  91057981.01744  22237285.506    22237285.2474   22237285.4424
        43.700          25.8004
 118469767.619 5  92314125.73741  22544047.585    22544047.5594   22544047.5674
        32.200           9.2004
 108688535.559 7  84692668.49547  20682735.288    20682735.2664   20682739.0604
        46.000          45.2004
 106098773.273 8  82674383.64747  20189907.908    20189907.3764   20189911.8814
        51.300          45.7004
 104374524.410 6                  19559739.587    19559739.357
        41.300
 129548281.536 6 100946746.94244  24652222.125    24652222.0634   24652222.3354
        38.100          28.8004
 135798931.804 5                  25841665.773
        35.100
 122133851.690 7  94992987.077 6  22815634.596    22815633.587    22815634.257
        44.400          38.600
 125479142.557 7                  23877883.636
        45.400


 111030843.545 7  86356885.516 7  20770519.677    20770521.112    20770526.981
        47.600          43.100
 198905440.876 7                  37850460.311
        43.500
 108608231.546 6  84629798.30145  20667456.336    20667455.9254   20667458.4694
        39.800          34.2004


 202030029.563 7                  38445052.737
        46.100
 120860684.929 6                  22999026.737
        37.500
 145373235.049 4                  27663607.252
        29.900
 101996291.178 8  79330573.164 7  19093924.888    19093925.207    19093929.661
        52.600          46.200
 148371749.984 6                  28234205.474
        37.600
 115371186.584 7  89733124.535 7  21590142.283    21590142.325    21590149.185
        47.200          43.400
 25  1  1 15  9  0.0000000  0 25E27E10E29G32G16G04G28G03G26R06G09E04
                                R07E21S35R05S31G31E06S33E19E11R16E12
                                R15
 137834875.179 5                  26229102.901
        34.700
 145736995.754 5                  27732828.224
        32.400
 132940780.013 6                  25297795.296
        39.200
 126830074.058 6  98828678.01643  24134962.540    24134962.6474   24134977.5774
        36.800          21.8004
 110968350.577 7  86468658.19144  21116524.780    21116523.8914   21116526.0964
        45.300          26.7004
 116817436.691 7  91026584.95044  22229617.112    22229616.8264   22229619.4894
        45.900          26.9004


 108691541.055 7  84695010.41847  20683306.999    20683306.9914   20683310.5114
        47.100          44.2004
 106095938.731 8  82672174.95147  20189368.709    20189368.1774   20189371.2854
        50.500          46.1004
 104348040.346 6                  19554777.971    19554777.537
        41.100
 129499421.992 6 100908674.53744  24642925.090    24642924.9614   24642927.1244
        39.600          29.9004
 135767279.799 6                  25835643.503
        36.300
 122075742.259 6                  22804834.955
        40.600
 125470734.560 7                  23876282.781
        43.300


 111071442.640 7  86388462.563 6  20778113.823    20778113.248    20778120.914
        43.200          41.700
 198905442.086 7                  37850460.092
        44.300
 108633292.006 6  84649325.94145  20672226.533    20672226.1224   20672227.7454
        38.100          35.5004


 202030054.014 7                  38445054.476
        46.600
 120859290.297 6                  22998761.802
        38.900
 145390499.012 5                  27666891.743
        33.400
 101999634.388 8  79333173.451 7  19094550.737    19094550.770    19094555.943
        51.600          46.200
 148409841.383 5                  28241453.329
        34.200
 115425138.967 8  89775087.438 7  21600239.399    21600239.709    21600245.698
        48.200          43.000
 25  1  1 15  9 15.0000000  0 25E27E10E29G32G16G04G28G03G26R06G09E04
                                R07E21S35R05S31G31E06S33E19E11R16E12
                                R15
 137866166.918 6                  26235058.205
        36.400
 145768276.233 4                  27738782.779
        28.700
 132966398.835 6                  25302670.577
        37.800
 126872626.835 5  98861835.67943  24143058.601    24143058.6994   24143077.6974
        35.700          23.9004
 110925879.434 7  86435563.82544  21108442.247    21108441.3224   21108443.1424
        44.500          26.5004
 116777171.311 7  90995209.36944  22221954.962    22221954.6634   22221957.5694
        45.300          26.2004
 118544728.056 5  92372536.60541  22558312.811    22558312.2174   22558310.9884
        35.000           8.6004
 108694703.740 7  84697474.81147  20683909.246    20683909.2244   20683912.3204
        43.800          44.3004
 106093258.178 8  82670086.21047  20188858.624    20188858.0924   20188860.8804
        51.500          46.8004
 104321687.263 6                  19549837.657    19549837.132
        37.800
 129450553.582 6 100870595.30445  24633625.748    24633625.6504   24633628.9304
        39.800          30.2004
 135735633.848 5                  25829623.131
        35.100
 122017644.160 7  94902604.122 5  22793897.244    22793914.956    22793911.410
        47.100          34.400
 125462430.175 6                  23874702.902
        41.900


 111112160.766 7  86420132.044 6  20785730.995    20785730.357    20785737.845
        44.100          40.900
 198905442.506 7                  37850458.894
        43.900
 108658418.669 6  84668905.18346  20677007.391    20677006.9494   20677009.2024
        38.800          37.3004


 202030077.020 7                  38445062.718
        47.200
 120857942.646 6                  22998504.573
        38.600
 145407851.015 5                  27670196.489
        34.800
 102003147.132 8  79335905.574 7  19095207.967    19095208.451    19095213.442
        51.000          46.300
 148447945.065 4                  28248703.242
        29.900
 115479151.226 8  89817096.918 7  21610347.547    21610348.456    21610354.172
        48.600          42.800
 25  1  1 15  9 30.0000000  0 25E27E10E29G32G16G04G28G03G26R06G09E04
                                R07E21S35R05S31G31E06S33E19E11R16E12
                                R15
 137897528.267 5                  26241024.759
        35.400
 145799610.379 4                  27744742.466
        28.800
 132992059.757 6                  25307553.532
        40.100
 126915227.043 5  98895030.28643  24151165.951    24151166.1164   24151184.7404
        34.900          22.7004
 110883524.796 7  86402560.25044  21100383.440    21100382.4794   21100382.2824
        45.000          26.3004
 116736934.163 7  90963855.73944  22214297.478    22214297.1974   22214300.1534
        44.500          25.4004
 118582246.277 5  92401771.54641  22565451.266    22565450.6234   22565450.3224
        30.900           8.2004
 108698025.274 7  84700062.99747  20684541.416    20684541.4204   20684543.9954
        46.800          44.5004
 106090733.276 8  82668118.77747  20188378.253    20188377.6994   20188381.6214
        50.400          47.7004
 104295467.191 6                  19544924.310    19544924.594
        37.000
 129401678.116 6 100832510.53645  24624325.198    24624325.0914   24624328.8094
        40.900          30.4004
 135703995.774 5                  25823603.984
        34.100
 121959558.486 8  94857426.476 6  22783062.958    22783062.959    22783065.190
        48.100          39.300
 125454231.249 6                  23873142.940
        41.200


 111152999.316 8  86451895.206 6  20793373.077    20793373.246    20793377.317
        48.000          40.000
 198905443.897 7                  37850458.433
        43.000
 108683613.134 7  84688537.21446  20681803.163    20681802.7664   20681803.3094
        42.300          38.7004


 202030102.032 7                  38445064.958
        47.000
 120856643.890 6                  22998257.859
        39.800
 145425292.825 5                  27673513.968
        34.600
 102006830.616 8  79338770.491 7  19095897.810    19095897.484    19095903.073
        50.800          47.000


 115533224.491 8  89859153.791 6  21620467.487    21620467.603    21620472.420
        49.000          40.900
 25  1  1 15  9 45.0000000  0 24E27E10E29G32G16G04G28G03G26R06G09E04
                                R07E21S35R05S31G31S33E19E11R16E12R15
 137928956.724 6                  26247005.173
        36.600


 133017760.296 6                  25312444.431
        40.200
 126957872.279 6  98928259.98643  24159280.713    24159280.7804   24159301.3394
        37.000          20.4004
 110841284.675 7  86369645.90044  21092345.330    21092344.4004   21092345.3594
        46.500          28.9004
 116696723.040 7  90932522.41344  22206645.919    22206645.6654   22206647.7804
        42.200          25.4004
 118619787.500 5  92431024.43441  22572600.755    22572600.2994   22572593.7484
        34.000          10.7004
 108701503.129 8  84702773.01347  20685203.074    20685203.0744   20685205.6704
        48.700          45.5004
 106088361.631 8  82666270.76848  20187927.027    20187926.4734   20187931.3874
        51.200          48.3004
 104269378.097 6                  19540035.684    19540035.564
        37.700
 129352793.442 7 100794418.60544  24615022.342    24615022.2354   24615025.3444
        42.000          29.5004
 135672363.133 5                  25817585.992
        32.000
 121901483.215 7  94812256.841 7  22772212.542    22772212.889    22772219.278
        47.300          43.200
 125446135.361 7                  23871603.861
        43.700


 111193955.427 7  86483749.840 7  20801033.651    20801034.226    20801041.897
        47.300          43.200
 198905442.869 7                  37850460.455
        44.500
 108708872.754 5  84708220.01546  20686608.037    20686607.5504   20686609.6824
        35.600          36.6004
 202030124.701 7                  38445070.467
        46.600
 120855391.702 6                  22998019.507
        40.400
 145442821.621 5                  27676849.120
        32.500
 102010682.539 8  79341766.411 7  19096619.282    19096619.468    19096624.587
        51.700          47.600


 115587356.004 7  89901256.058 6  21630595.801    21630595.270    21630600.592
        46.300          38.100
 25  1  1 15 10  0.0000000  0 25E27E10E29G32G16G04G28G03G26R06G09E04
                                R07E21S35R05S31G31E06S33E19E11R16E12
                                R15
 137960458.353 6                  26252999.115
        36.200


 133043506.914 6                  25317343.375
        38.400
 127000568.857 6  98961529.68343  24167406.620    24167406.5534   24167428.1824
        37.700          20.8004
 110799165.763 7  86336826.01645  21084330.190    21084329.2344   21084332.1804
        47.900          30.2004
 116656544.338 7  90901214.35244  22199002.087    22199001.8684   22199002.5444
        44.700          26.0004
 118657358.109 6  92460300.19442  22579744.606    22579744.1284   22579742.6744
        38.200          12.2004
 108705143.719 8  84705609.82747  20685895.407    20685895.4074   20685898.9234
        48.600          46.7004
 106086149.501 8  82664547.01748  20187505.700    20187505.1424   20187510.6834
        50.900          48.6004
 104243426.855 6                  19535170.837    19535170.935
        36.200
 129303905.951 6 100756324.40444  24605718.347    24605718.2404   24605719.2004
        39.100          26.6004
 135640742.303 6                  25811564.288
        37.400
 121843425.048 7  94767100.452 7  22761362.687    22761362.801    22761372.960
        42.000          45.100
 125438148.859 7                  23870082.384
        42.800


 111235035.593 8  86515700.960 7  20808719.820    20808720.776    20808729.059
        48.900          44.300
 198905447.193 7                  37850454.735
        44.400
 108734203.767 7  84727958.45746  20691431.426    20691430.9444   20691429.6934
        46.200          40.8004
 147543112.549 5                  28076517.559
        32.800
 202030152.150 7                  38445079.754
        45.600
 120854192.375 6                  22997790.887
        38.000
 145460443.533 5                  27680200.134
        30.800
 102014709.018 8  79344898.113 8  19097372.534    19097372.543    19097378.655
        50.700          48.700


 115641551.623 7  89943408.157 6  21640738.447    21640736.704    21640741.646
        46.100          38.900
 25  1  1 15 10 15.0000000  0 25E27E10E29G32G16G04G28G03G26R06G09E04
                                R07E21S35R05S31G31E06S33E19E11R16E12
                                R15
 137992022.417 5                  26259006.193
        32.900
 145893945.624 4                  27762689.711
        27.300
 133069288.953 6                  25322249.051
        41.200
 127043306.103 6  98994830.85142  24175540.260    24175540.0824   24175561.3754
        36.600          16.0004
 110757157.857 8  86304092.65045  21076336.552    21076335.5914   21076338.6014
        48.100          31.9004
 116616387.846 7  90869923.54444  22191359.162    22191358.9304   22191360.5544
        42.100          26.1004
 118694947.287 6  92489590.47542  22586896.220    22586895.7474   22586895.3974
        36.800          16.3004
 108708936.369 7  84708565.11247  20686617.384    20686617.3844   20686620.9924
        46.800          46.4004
 106084086.288 8  82662939.32548  20187113.498    20187112.9174   20187118.2454
        50.800          48.4004
 104217603.074 6                  19530332.658    19530332.733
        38.000
 129255005.245 6 100718219.93844  24596412.358    24596412.3054   24596413.8964
        37.100          26.8004
 135609122.966 6                  25805548.049
        38.200
 121785373.882 6  94721949.635 7  22750520.216    22750517.274    22750528.036
        39.300          44.900
 125430261.144 6                  23868581.694
        41.900


 111276229.150 8  86547740.258 7  20816425.177    20816425.475    20816433.879
        48.400          42.300
 198905445.326 6                  37850461.496
        41.600
 108759595.374 7  84747744.16447  20696261.701    20696261.2104   20696261.2724
        43.300          42.4004
 147507278.362 5                  28069699.283
        31.200
 202030173.555 7                  38445077.926
        44.500
 120853035.683 6                  22997571.618
        39.500


 102018899.018 8  79348157.005 8  19098157.117    19098157.080    19098162.920
        49.600          50.200


 115695800.374 7  89985601.749 6  21650890.103    21650889.407    21650894.738
        47.600          40.100
 25  1  1 15 10 30.0000000  0 25E27E10E29G32G16G04G28G03G26R06G09E04
                                R07E21S35R05S31G31E06S33E19E11R16E12
                                R15
 138023657.275 5                  26265026.750
        32.800


 133095115.437 7                  25327163.637
        42.200
 127086092.817 6  99028170.79143  24183682.624    24183682.4644   24183702.5904
        38.200          18.2004
 110715270.069 7  86271452.83245  21068365.284    21068364.3324   21068366.2344
        46.400          30.9004
 116576262.522 7  90838657.09844  22183724.213    22183723.9854   22183724.5934
        46.000          27.4004
 118732563.933 6  92518902.11143  22594054.662    22594054.2204   22594053.8924
        39.100          19.7004
 108712889.955 7  84711645.81447  20687369.795    20687369.7914   20687373.0654
        47.600          45.7004
 106082180.910 8  82661454.63647  20186750.715    20186750.1524   20186754.0984
        52.000          47.7004
 104191916.223 6                  19525520.110    19525520.297
        40.600
 129206100.333 6 100680112.22044  24587105.693    24587105.6714   24587108.4904
        38.900          27.8004
 135577514.038 6                  25799531.036
        38.800
 121727338.788 7  94676811.106 7  22739683.584    22739681.468    22739686.024
        42.600          43.500
 125422481.241 6                  23867101.753
        41.800


 111317544.510 7  86579874.372 7  20824154.935    20824151.965    20824163.540
        45.300          42.600
 198905446.574 6                  37850459.918
        41.800
 108785056.356 7  84767583.91846  20701106.634    20701106.1744   20701106.1104
        47.000          41.8004
 147471435.606 5                  28062877.537
        30.100
 202030197.941 7                  38445085.165
        44.700
 120851930.485 6                  22997361.079
        40.900


 102023261.341 8  79351549.938 8  19098973.789    19098974.327    19098979.854
        50.000          50.300


 115750110.524 8  90027842.922 6  21661053.924    21661053.713    21661059.702
        48.900          40.500
 25  1  1 15 10 45.0000000  0 25E27E10E29G32G16G04G28G03G26R06G09E04
                                R07E21S35R05S31G31E06S33E19E11R16E12
                                R15
 138055361.728 5                  26271060.588
        31.700


 133120984.678 6                  25332087.639
        41.200
 127128927.265 6  99061547.83342  24191832.833    24191832.5884   24191851.7244
        37.400          14.8004
 110673501.198 7  86238905.67444  21060416.091    21060415.1794   21060416.0964
        43.500          27.6004
 116536167.021 7  90807413.89544  22176094.748    22176094.5474   22176094.9314
        45.700          28.7004
 118770206.323 6  92548233.82243  22601218.083    22601217.6364   22601218.2944
        38.700          22.0004
 108717002.874 7  84714850.68547  20688152.345    20688152.3284   20688155.0494
        46.200          45.7004
 106080431.713 8  82660091.62447  20186417.722    20186417.1724   20186420.4934
        49.700          46.9004
 104166364.759 6                  19520730.944    19520731.972
        41.100
 129157189.808 6 100642000.13944  24577800.014    24577799.9524   24577801.0804
        38.400          28.6004
 135545914.034 6                  25793517.193
        38.900
 121669318.584 7  94631684.342 7  22728838.002    22728840.395    22728846.341
        42.900          42.100
 125414807.480 6                  23865641.385
        40.100


 111358980.211 7  86612101.944 6  20831904.451    20831905.562    20831913.385
        45.200          37.300
 198905449.072 7                  37850464.202
        44.600
 108810584.719 7  84787476.11746  20705963.916    20705963.4294   20705963.6474
        44.900          41.1004
 147435582.561 4                  28056055.561
        28.500
 202030223.751 7                  38445090.817
        47.500
 120850875.431 6                  22997159.815
        40.600


 102027794.273 8  79355075.568 8  19099821.592    19099822.594    19099828.362
        49.800          50.000


 115804479.952 7  90070130.172 6  21671227.112    21671227.567    21671234.038
        47.200          41.500
 25  1  1 15 11  0.0000000  0 26E27E10G29E29G32G16G04G28G03G26R06G09
                                E04R07E21S35R05S31G31E06S33E19E11R16
                                E12R15
 138087131.418 5                  26277105.207
        31.400


 131723212.690 5                  25066089.989
        30.400
 133146892.957 7                  25337017.520
        42.600
 127171805.650 6  99094959.18443  24199993.653    24199993.3854   24200010.1904
        39.100          20.3004
 110631847.665 7  86206448.39444  21052489.333    21052488.4704   21052488.5134
        42.100          24.9004
 116496097.808 6  90776191.20144  22168469.271    22168469.0974   22168470.0954
        41.900          24.5004
 118807870.423 7  92577582.44543  22608385.626    22608385.1304   22608386.6004
        42.900          23.0004
 108721271.309 7  84718176.75147  20688965.997    20688965.9894   20688967.0254
        46.900          46.1004
 106078834.790 8  82658847.26147  20186114.086    20186113.5414   20186116.6914
        48.600          45.5004
 104140945.567 6                  19515968.076    19515968.500
        40.700
 129108269.967 6 100603880.83644  24568491.042    24568490.9174   24568492.7234
        38.800          29.2004
 135514319.172 6                  25787505.373
        40.200
 121611309.494 6  94586566.182 7  22718007.880    22718004.088    22718009.650
        41.100          42.900
 125407236.042 6                  23864199.652
        38.200


 111400531.932 6  86644419.674 5  20839675.634    20839676.061    20839682.310
        37.400          34.000
 198905449.425 7                  37850451.829
        42.400
 108836176.641 7  84807417.84946  20710833.487    20710832.9604   20710833.6064
        45.200          40.8004
 147399715.571 5                  28049231.333
        32.100
 202030247.601 7                  38445094.247
        46.700
 120849866.474 6                  22996968.701
        40.800


 102032493.538 8  79358730.554 8  19100701.386    19100701.156    19100707.626
        48.300          49.300


 115858904.454 8  90112460.272 7  21681412.928    21681413.614    21681419.438
        48.400          42.300
 25  1  1 15 11 15.0000000  0 26E27E10G29E29G32G16G04G28G03G26R06G09
                                E04R07E21S35R05S31G31E06S33E19E11R16
                                E12R15
 138118967.809 6                  26283165.778
        37.500


 131716676.872 5                  25064846.454
        31.700
 133172841.960 7                  25341955.970
        45.400
 127214729.507 5  99128405.95743  24208162.273    24208161.8894   24208178.0344
        35.100          18.7004
 110590311.655 6  86174082.67344  21044585.971    21044585.0824   21044585.1174
        39.400          24.4004
 116456056.713 5  90744990.31843  22160852.816    22160852.5804   22160851.1254
        34.500          21.9004
 118845557.859 6  92606949.24343  22615556.307    22615555.8024   22615558.5424
        40.900          23.0004
 108725696.929 7  84721625.30047  20689807.863    20689807.8634   20689809.8234
        47.700          47.2004
 106077391.856 7  82657722.90947  20185838.842    20185838.3014   20185841.8164
        47.900          43.5004
 104115660.654 6                  19511229.843    19511229.058
        39.700
 129059342.596 6 100565755.64045  24559180.374    24559180.2144   24559182.4244
        39.400          30.2004
 135482731.260 6                  25781494.880
        40.900
 121553314.249 7  94541458.800 7  22707175.209    22707171.627    22707175.298
        45.200          42.200
 125399768.602 5                  23862779.638
        35.200


 111442201.664 6  86676829.200 6  20847475.330    20847476.360    20847484.062
        39.300          40.400
 198905449.223 7                  37850458.523
        44.200
 108861833.400 7  84827410.12746  20715716.673    20715716.1154   20715716.2204
        45.200          41.1004
 147363836.306 5                  28042403.508
        33.600
 202030270.096 7                  38445100.074
        46.800
 120848905.789 6                  22996785.766
        41.500


 102037360.920 8  79362516.312 8  19101612.100    19101612.026    19101618.782
        48.200          48.700


 115913385.718 7  90154834.506 6  21691607.609    21691607.747    21691611.688
        45.800          38.900
 25  1  1 15 11 30.0000000  0 25E27E10E29G32G16G04G28G03G26R06G09E04
                                R07E21S35R05S31G31E06S33E19E11R16E12
                                R15
 138150873.803 6                  26289236.595
        38.100


 133198834.550 7                  25346901.241
        45.600
 127257701.631 5  99161890.34143  24216340.758    24216340.3074   24216354.9374
        35.000          18.3004
 110548896.314 7  86141810.99944  21036705.160    21036704.2574   21036705.0854
        44.500          28.4004


 118883271.278 6  92636336.29443  22622732.099    22622731.5544   22622733.8644
        41.100          20.5004
 108730282.417 8  84725198.39347  20690680.615    20690680.6024   20690683.1664
        48.200          47.3004
 106076105.696 7  82656720.73046  20185593.484    20185592.9524   20185596.1584
        44.500          41.0004
 104090513.243 6                  19506514.862    19506515.239
        36.900
 129010410.704 6 100527626.91145  24549868.777    24549868.5764   24549871.5944
        40.300          31.2004
 135451153.109 6                  25775485.179
        37.900
 121495335.407 7  94496364.207 7  22696340.747    22696340.986    22696344.952
        47.700          42.300
 125392408.126 5                  23861377.974
        30.000


 111483991.661 6  86709332.514 6  20855288.697    20855290.529    20855300.950
        36.700          41.900
 198905450.857 7                  37850463.875
        44.600
 108887557.805 7  84847455.10146  20720611.135    20720610.5634   20720611.7254
        45.900          41.6004
 147327947.675 5                  28035575.072
        33.100
 202030296.240 7                  38445105.444
        45.800
 120847995.975 6                  22996612.352
        41.500


 102042398.785 8  79366434.663 8  19102554.493    19102554.885    19102561.946
        48.400          48.300


 115967925.699 7  90197254.409 6  21701812.975    21701813.501    21701817.933
        45.300          38.900
 25  1  1 15 11 45.0000000  0 25E27E10E29G32G16G04G28G03G26R06G09E04
                                R07E21S35R05S31G31E06S33E19E11R16E12
                                R15
 138182845.896 6                  26295321.383
        36.100
 146084031.195 6                  27798854.515
        37.000
 133224867.634 7                  25351855.620
        46.500
 127300718.886 6  99195409.88443  24224526.268    24224525.9114   24224541.2434
        37.400          19.6004
 110507598.819 7  86109631.16545  21028846.426    21028845.5194   21028848.0114
        45.300          32.9004
 116376122.655 6  90682695.84043  22145623.162    22145622.8904   22145635.2494
        37.500          20.6004
 118921007.495 6  92665741.10242  22629912.744    22629912.1634   22629913.6804
        39.700          17.8004
 108735024.761 8  84728893.71548  20691583.044    20691583.0404   20691585.9424
        49.000          48.6004
 106074973.213 7  82655838.30846  20185378.485    20185377.9584   20185380.4474
        42.500          39.9004
 104065500.533 5                  19501828.092    19501828.572
        35.800
 128961471.470 6 100489492.49445  24540555.207    24540554.9934   24540559.7714
        38.000          30.6004
 135419581.917 6                  25769479.619
        39.400
 121437370.275 8  94451280.155 6  22685514.063    22685515.126    22685516.453
        49.900          41.300
 125385151.437 5                  23859995.757
        35.000


 111525899.131 7  86741927.092 6  20863132.708    20863135.338    20863139.248
        43.200          40.700
 198905451.865 7                  37850460.938
        43.300
 108913346.545 7  84867550.21047  20725519.091    20725518.5154   20725519.6404
        45.100          42.5004
 147292046.650 5                  28028742.013
        30.000
 202030320.236 7                  38445110.407
        47.500
 120847134.229 6                  22996448.878
        41.900


 102047604.308 8  79370483.407 7  19103530.266    19103530.812    19103536.048
        49.900          47.800


 116022521.159 7  90239717.649 6  21712029.946    21712029.956    21712035.247
        45.300          39.800
 25  1  1 15 12  0.0000000  0 25E27E10E29G32G16G04G28G03G26R06G09E04
                                R07E21S35R05S31G31E06S33E19E11R16E12
                                R15
 138214886.857 6                  26301419.001
        36.200
 146115880.729 6                  27804908.134
        36.200
 133250944.139 7                  25356818.081
        45.900
 127343784.156 4  99228966.71542  24232717.901    24232717.5444   24232736.2924
        27.500          13.0004
 110466422.485 8  86077545.72645  21021011.470    21021010.6164   21021013.1154
        48.000          34.8004
 116336172.060 7  90651565.48944  22138022.138    22138022.2584   22138029.1224
        42.000          24.4004
 118958769.352 6  92695165.88742  22637098.596    22637097.9394   22637098.4154
        37.000          12.1004
 108739926.825 8  84732713.47547  20692515.520    20692515.5164   20692518.7324
        48.100          47.9004
 106073997.217 7  82655077.83946  20185193.189    20185192.6664   20185196.0914
        45.100          41.1004
 104040625.919 6                  19497168.052    19497167.415
        37.000
 128912527.778 6 100451354.59745  24531243.244    24531243.0124   24531247.4604
        38.000          31.0004
 135388020.604 6                  25763472.268
        37.700
 121379422.508 8  94406209.658 6  22674688.807    22674691.120    22674692.090
        49.100          40.500
 125378001.500 6                  23858633.245
        36.100


 111567926.403 6  86774614.862 6  20870989.900    20870992.234    20871001.541
        41.700          41.600
 198905454.533 7                  37850458.071
        43.600
 108939202.335 7  84887697.55546  20730440.077    20730439.5054   20730439.5204
        44.900          41.9004
 147256136.172 4                  28021910.100
        29.500
 202030346.514 7                  38445108.395
        46.500
 120846323.493 7                  22996294.414
        42.200


 102052979.627 8  79374664.213 7  19104537.071    19104538.171    19104541.770
        52.700          47.600


 116077174.375 7  90282225.759 6  21722258.122    21722258.023    21722265.805
        46.000          41.900
 25  1  1 15 12 15.0000000  0 25E27E10E29G32G16G04G28G03G26R06G09E04
                                R07E21S35R05S31G31E06S33E19E11R16E12
                                R15
 138246996.514 5                  26307528.331
        31.000
 146147782.151 5                  27810978.748
        35.600
 133277064.155 7                  25361788.477
        45.500


 110425367.745 7  86045555.03245  21013198.231    21013197.3644   21013200.2474
        46.100          34.2004
 116296253.139 6  90620459.87544  22130427.607    22130427.8974   22130431.2634
        41.700          26.6004
 118996556.679 5  92724610.54841  22644291.982    22644291.2854   22644288.8064
        33.600           9.0004
 108744988.586 8  84736657.69447  20693478.763    20693478.7414   20693481.7054
        49.000          47.7004
 106073177.744 7  82654439.26847  20185035.831    20185035.2994   20185041.2484
        45.200          43.5004
 104015889.921 6                  19492532.954    19492532.248
        38.000
 128863579.834 6 100413213.34445  24521928.076    24521927.8084   24521933.5984
        36.300          30.9004
 135356469.221 6                  25757468.130
        39.600
 121321492.349 8  94361152.874 6  22663867.934    22663868.461    22663868.559
        48.400          41.000
 125370958.282 6                  23857294.870
        39.100


 111610073.656 7  86807395.980 7  20878878.808    20878877.712    20878886.975
        42.000          42.100
 198905459.689 7                  37850469.729
        43.300
 108965125.070 7  84907897.06547  20735372.865    20735372.2934   20735372.2974
        45.000          42.4004


 202030375.155 7                  38445118.201
        46.700
 120845563.995 7                  22996149.932
        42.800


 102058525.074 8  79378977.345 7  19105576.095    19105576.396    19105580.492
        52.500          47.200


 116131885.031 8  90324778.500 7  21732496.771    21732497.046    21732503.330
        48.400          42.600
 25  1  1 15 12 30.0000000  0 25E27E10E29G32G16G04G28G03G26R06G09E04
                                R07E21S35R05S31G31E06S33E19E11R16E12
                                R15
 138279167.145 5                  26313649.904
        31.300
 146179727.939 5                  27817058.623
        33.900
 133303220.363 7                  25366765.676
        44.500


 110384427.413 7  86013653.51745  21005408.597    21005407.7304   21005408.4544
        46.300          34.1004
 116256358.565 7  90589373.19244  22122836.762    22122837.0884   22122839.2034
        43.700          28.2004
 119034361.986 5  92754069.1794   22651482.310    22651481.3854   22651482.3064
        30.400           4.1004
 108750202.650 7  84740720.58747  20694471.057    20694471.0314   20694473.2334
        47.500          46.8004
 106072507.369 7  82653916.92847  20184910.065    20184909.5654   20184913.5614
        44.500          43.5004
 103991285.382 6                  19487921.764    19487922.001
        39.600
 128814620.419 6 100375063.11744  24512612.010    24512611.7204   24512616.1634
        36.300          27.0004
 135324920.580 6                  25751464.584
        41.900
 121263572.546 7  94316104.126 7  22653044.201    22653045.905    22653051.910
        44.900          42.100
 125364014.746 6                  23855972.763
        37.800


 111652333.133 7  86840264.315 7  20886787.339    20886787.132    20886791.055
        44.300          42.800
 198905459.376 7                  37850467.086
        44.000
 108991107.203 7  84928142.89347  20740317.570    20740316.9894   20740316.9374
        44.100          42.0004


 202030397.319 7                  38445120.723
        46.200
 120844848.358 7                  22996013.293
        43.100
 145641471.739 5                  27714649.595
        30.500
 102064232.364 8  79383416.334 8  19106643.839    19106643.616    19106649.174
        51.200          48.000


 116186644.950 8  90367369.428 7  21742742.877    21742744.355    21742753.353
        48.600          44.100
 25  1  1 15 12 45.0000000  0 25E27E10E29G32G16G04G28G03G26R06G09E04
                                R07E21S35R05S31G31E06S33E19E11R16E12
                                R15
 138311404.744 5                  26319796.811
        31.600
 146211723.611 6                  27823148.501
        36.500
 133329418.606 7                  25371751.269
        44.100
 127473282.342 6                  24257359.509
        38.000
 110343607.792 7  85981846.05045  20997640.612    20997639.7364   20997639.4524
        44.200          31.9004
 116216494.423 6  90558310.22344  22115249.361    22115249.6654   22115252.2104
        40.700          24.9004
 119072191.243 6  92783546.32542  22658683.407    22658682.6434   22658680.5984
        39.600          12.5004
 108755574.807 7  84744906.66347  20695492.721    20695492.6594   20695494.7984
        47.900          46.2004
 106071991.930 7  82653515.29147  20184811.945    20184811.4494   20184815.5564
        46.200          44.6004
 103966818.568 6                  19483336.362    19483335.587
        39.000
 128765655.601 5 100336908.68843  24503294.869    24503294.5074   24503297.6334
        30.100          18.9004
 135293380.656 7                  25745462.396
        42.100
 121205669.789 7  94271068.669 7  22642231.928    22642230.883    22642234.321
        42.900          42.600
 125357176.414 6                  23854673.507
        41.500


 111694710.340 6  86873224.293 7  20894711.184    20894711.925    20894720.490
        40.900          42.500
 198905459.518 7                  37850462.825
        42.700
 109017154.424 7  84948439.40846  20745273.111    20745272.5444   20745273.3954
        45.900          41.4004
 147148409.553 5                  28001411.955
        32.900
 202030421.977 7                  38445123.545
        44.800
 120844182.559 7                  22995886.910
        42.500
 145660051.413 4                  27718182.628
        25.400
 102070107.591 8  79387985.939 8  19107742.854    19107743.278    19107748.711
        51.700          48.100


 116241459.842 8  90410003.121 7  21753002.108    21753003.098    21753008.845
        48.700          43.200
 25  1  1 15 13  0.0000000  0 24E27E10E29G32G16G04G28G03G26R06G09E04
                                R07E21S35R05S31G31E06S33E19E11R16R15
 138343710.169 5                  26325941.448
        35.600
 146243770.063 6                  27829246.603
        36.800
 133355660.024 7                  25376745.188
        44.000
 127516529.369 5  99363617.20442  24265589.890    24265589.5244   24265612.5874
        35.800          13.9004
 110302910.443 7  85950133.83345  20989895.800    20989894.9154   20989894.9294
        46.400          32.7004
 116176662.049 6  90527272.03044  22107670.551    22107670.7654   22107671.9434
        39.300          24.1004
 119110045.243 6  92813042.88142  22665886.941    22665886.2314   22665884.4324
        38.600          14.2004
 108761106.189 8  84749216.81447  20696544.681    20696544.6144   20696547.4854
        48.800          46.8004
 106071632.622 7  82653235.30847  20184743.620    20184743.1294   20184747.1314
        47.000          45.0004
 103942491.110 6                  19478775.090    19478774.680
        36.200
 128716686.769 4 100298751.24242  24493975.406    24493974.9734   24493978.1904
        28.800          14.3004
 135261850.722 6                  25739462.077
        40.600
 121147785.278 6  94226047.353 7  22631413.720    22631417.083    22631421.455
        41.900          42.900
 125350444.581 7                  23853392.857
        47.300


 111737206.798 7  86906276.921 6  20902663.561    20902662.416    20902670.064
        43.900          41.000
 198905461.221 6                  37850461.134
        41.700
 109043267.595 7  84968787.32147  20750242.526    20750241.9544   20750242.7094
        46.700          43.2004


 202030447.271 7                  38445131.768
        46.400
 120843567.871 7                  22995770.130
        44.200
 145678719.235 4                  27721735.603
        25.500
 102076151.743 8  79392686.919 8  19108874.235    19108874.460    19108880.384
        51.200          48.000
 116296330.768 8  90452680.500 7  21763271.535    21763273.006    21763278.114
        50.500          42.900
 25  1  1 15 13 15.0000000  0 24E27E10E29G32G16G04G28G03G26R06G09E04
                                R07E21S35R05S31G31E06S33E19E11R16R15
 138376080.679 5                  26332098.438
        35.800
 146275864.733 5                  27835350.898
        30.100
 133381942.357 6                  25381746.270
        40.900
 127559821.322 6  99397350.74043  24273831.813    24273831.3134   24273850.5724
        39.000          19.8004
 110262333.320 7  85918515.33145  20982173.371    20982172.5044   20982174.8694
        46.000          34.1004
 116136859.343 6  90496256.95744  22100096.684    22100096.8094   22100098.0964
        38.600          24.2004
 119147921.593 6  92842556.82043  22673094.021    22673093.3424   22673093.4964
        41.700          19.5004
 108766794.491 7  84753649.23847  20697626.996    20697626.9294   20697630.4584
        47.000          47.0004
 106071426.827 7  82653074.95847  20184703.364    20184702.8554   20184708.0904
        47.400          46.6004
 103918301.076 6                  19474243.439    19474243.155
        38.900


 135230328.346 7                  25733464.748
        43.300
 121089917.128 6  94181038.750 7  22620605.646    22620610.369    22620610.221
        39.000          42.100
 125343816.852 8                  23852131.699
        48.800


 111779819.570 7  86939420.155 6  20910631.044    20910629.703    20910641.152
        42.000          41.300
 198905462.177 7                  37850462.002
        42.900
 109069444.127 7  84989184.57047  20755223.355    20755222.8284   20755224.2844
        46.800          43.0004
 147076484.313 4                  27987709.460
        26.700
 202030471.127 7                  38445138.270
        45.100
 120843002.060 6                  22995662.313
        41.700
 145697472.389 4                  27725306.754
        27.700
 102082362.202 8  79397517.247 7  19110037.707    19110038.195    19110042.988
        52.200          47.900
 116351254.750 7  90495399.162 6  21773549.166    21773547.592    21773555.074
        47.000          41.300
 25  1  1 15 13 30.0000000  0 24E27E10E29G32G16G04G28G03G26R06G09E04
                                R07E21S35R05S31G31E06S33E19E11R16R15
 138408516.862 5                  26338269.239
        35.800
 146308008.011 4                  27841468.314
        29.700
 133408266.304 6                  25386755.986
        40.000
 127603158.838 5  99431119.87242  24282079.213    24282078.7714   24282097.1394
        34.900          13.5004
 110221877.413 7  85886991.23945  20974474.315    20974473.4574   20974477.0254
        46.000          33.7004
 116097087.133 6  90465265.68144  22092529.859    22092529.7974   22092529.7364
        39.700          25.2004
 119185820.931 6  92872088.71243  22680306.061    22680305.4494   22680308.1514
        41.300          21.6004
 108772640.263 7  84758204.36847  20698740.638    20698740.5624   20698743.4054
        46.600          46.7004
 106071375.382 8  82653034.83347  20184694.103    20184693.5714   20184698.6374
        48.800          47.1004
 103894249.379 6                  19469736.491    19469735.983
        39.900
 128618813.193 5 100222448.28242  24475342.747    24475342.4794   24475345.5654
        33.400          12.1004
 135198814.533 6                  25727467.143
        41.400
 121032066.364 6  94136043.623 6  22609795.754    22609792.548    22609801.871
        36.500          40.300
 125337294.113 8                  23850890.573
        48.600


 111822549.502 8  86972654.397 7  20918627.698    20918628.139    20918635.260
        48.100          42.100
 198905463.792 7                  37850459.677
        43.800
 109095684.682 8  85009631.73847  20760218.307    20760217.7754   20760218.3624
        48.400          44.0004
 147040504.512 4                  27980860.237
        28.200
 202030497.009 7                  38445140.546
        45.200
 120842485.967 7                  22995564.508
        42.600


 102088739.329 8  79402477.203 8  19111231.615    19111232.150    19111237.176
        52.200          48.500
 116406231.964 7  90538159.197 6  21783837.810    21783836.827    21783842.811
        46.800          40.900
 25  1  1 15 13 45.0000000  0 24E27E10E29G32G16G04G28G03G26R06G09E04
                                R07E21S35R05S31G31E06S33E19E11R16R15
 138441016.335 6                  26344452.762
        38.000
 146340197.700 5                  27847596.605
        33.700
 133434629.884 6                  25391772.754
        41.100


 110181541.055 7  85855560.32845  20966799.270    20966798.4304   20966801.3914
        47.300          35.2004
 116057343.767 6  90434296.84244  22084967.133    22084966.9774   22084967.7084
        41.300          28.7004
 119223741.127 6  92901636.85943  22687521.489    22687520.9134   22687524.9884
        41.300          22.3004
 108778641.468 8  84762880.59848  20699882.500    20699882.4244   20699885.8694
        48.400          48.8004
 106071476.117 8  82653113.29248  20184714.067    20184713.5354   20184717.7534
        51.300          49.0004
 103870334.539 6                  19465254.373    19465254.894
        41.100
 128569825.168 5 100184275.86443  24466012.749    24466012.0924   24466019.1554
        35.700          20.2004
 135167307.257 6                  25721471.267
        41.900
 120974231.236 6  94091060.712 7  22598995.926    22598993.683    22598999.486
        40.100          42.200
 125330874.181 8                  23849669.224
        49.100


 111865394.096 8  87005977.843 6  20926641.670    20926642.722    20926649.852
        48.300          41.200
 198905463.123 6                  37850459.422
        41.200
 109121987.209 8  85030127.23947  20765223.747    20765223.2294   20765223.4764
        49.700          44.4004
 147004511.705 4                  27974012.406
        25.000
 202030519.334 7                  38445151.283
        45.200
 120842017.705 6                  22995474.653
        40.900


 102095280.856 8  79407565.010 8  19112456.178    19112456.963    19112462.279
        52.500          49.100
 116461260.357 8  90580959.142 6  21794135.548    21794135.510    21794140.618
        48.100          39.700
 25  1  1 15 14  0.0000000  0 24E27E10E29G32G16G04G28G03G26R06G09E04
                                R07E21S35R05S31G31E06S33E19E11R16R15
 138473583.459 6                  26350647.401
        36.000
 146372437.598 5                  27853732.893
        33.400
 133461037.164 6                  25396797.039
        40.900


 110141328.510 8  85824225.90946  20959147.438    20959146.5804   20959149.0184
        49.300          37.7004
 116017633.385 7  90403353.69944  22077409.360    22077409.1554   22077411.1144
        43.500          29.9004
 119261686.100 6  92931204.33243  22694743.145    22694742.6224   22694746.0144
        39.800          21.6004
 108784802.162 8  84767681.12248  20701054.171    20701054.0914   20701058.4404
        49.700          49.9004
 106071733.148 8  82653313.57248  20184762.607    20184762.0714   20184767.1024
        51.900          50.8004
 103846560.956 6                  19460799.784    19460799.718
        41.300
 128520834.226 5 100146101.17243  24456690.469    24456689.3434   24456693.4434
        33.900          21.2004
 135135810.673 6                  25715478.564
        40.900
 120916416.475 7  94046093.697 6  22588195.171    22588194.522    22588199.029
        44.600          41.700
 125324561.171 8                  23848467.592
        48.200


 111908357.271 8  87039393.513 6  20934680.219    20934680.593    20934685.867
        48.400          38.900
 198905464.263 6                  37850455.630
        41.100
 109148355.249 8  85050673.75847  20770241.205    20770240.7054   20770240.6954
        51.300          44.6004


 202030543.938 7                  38445150.156
        44.800
 120841601.295 6                  22995395.650
        40.700


 102101990.754 8  79412783.822 8  19113711.693    19113712.389    19113717.822
        51.800          48.800
 116516343.250 8  90623801.551 6  21804443.120    21804443.969    21804452.385
        49.000          40.300
 25  1  1 15 14 15.0000000  0 24E27E10E29G32G16G04G28G03G26R06G09E04
                                R07E21S35R05S31G31E06S33E19E11R16R15
 138506215.369 5                  26356858.301
        35.700
 146404725.283 5                  27859877.599
        32.600
 133487485.888 6                  25401830.104
        38.800


 110101238.054 8  85792986.63246  20951518.403    20951517.5274   20951519.9784
        49.600          38.8004
 115977953.924 7  90372434.64645  22069858.670    22069858.4604   22069860.1394
        44.300          32.3004
 119299653.419 6  92960789.22943  22701968.559    22701968.0684   22701971.0964
        41.200          22.1004
 108791120.002 8  84772604.09348  20702256.196    20702256.1034   20702261.0474
        48.600          50.6004
 106072144.085 8  82653633.79248  20184841.201    20184840.6604   20184845.3334
        51.700          50.9004
 103822926.616 7                  19456371.886    19456371.721
        42.700
 128471838.016 4 100107922.29542  24447366.808    24447365.3874   24447368.9704
        29.800          17.8004
 135104322.645 6                  25709486.441
        40.200
 120858619.964 7  94001140.856 6  22577397.939    22577398.147    22577403.159
        47.300          41.800
 125318352.904 7                  23847286.305
        47.300


 111951436.845 7  87072899.696 6  20942735.641    20942736.480    20942744.903
        45.400          40.800
 198905465.467 6                  37850460.844
        41.000
 109174786.393 8  85071269.41847  20775270.178    20775269.6734   20775269.7374
        50.200          43.7004


 202030569.718 7                  38445153.568
        44.700
 120841234.784 6                  22995325.448
        40.500


 102108866.660 8  79418131.741 8  19114999.235    19114999.148    19115004.665
        51.100          48.100
 116571477.731 7  90666684.018 6  21814760.210    21814760.717    21814769.326
        47.900          40.600
 25  1  1 15 14 30.0000000  0 24E27E10E29G32G16G04G28G03G26R06G09E04
                                R07E21S35R05S31G31E06S33E19E11R16R15
 138538912.513 5                  26363077.298
        33.800
 146437061.246 5                  27866031.611
        33.100
 133513976.878 6                  25406870.578
        38.400
 127777046.404 6  99566581.81541  24315155.267    24315155.1654   24315176.2664
        36.500          10.0004
 110061270.699 8  85761843.26946  20943912.899    20943912.0144   20943914.7104
        48.400          39.0004
 115938306.412 7  90341540.46545  22062313.400    22062313.2044   22062314.7284
        45.700          33.1004
 119337643.832 6  92990392.09843  22709196.494    22709196.0524   22709200.5304
        37.600          20.3004
 108797595.736 8  84777650.09248  20703488.957    20703488.8324   20703493.6284
        49.600          50.9004
 106072709.707 8  82654074.57148  20184948.946    20184948.4144   20184952.5404
        52.300          50.8004
 103799432.968 7                  19451968.680    19451969.069
        43.900
 128422837.504 5 100069740.15942  24438057.456    24438056.2134   24438044.9894
        33.900          15.6004
 135072844.084 6                  25703496.480
        38.100
 120800842.721 8  93956203.006 6  22566604.724    22566605.166    22566607.289
        48.400          40.700
 125312250.086 7                  23846124.890
        46.200


 111994633.029 7  87106496.614 7  20950818.008    20950816.313    20950826.368
        45.200          42.500
 198905467.669 6                  37850463.048
        41.400
 109201281.553 8  85091914.99047  20780312.132    20780311.6234   20780311.8854
        49.200          42.9004


 202030594.465 7                  38445158.254
        43.800
 120840918.958 6                  22995265.112
        40.600


 102115908.990 8  79423609.135 8  19116318.505    19116318.737    19116323.378
        52.200          48.500
 116626664.268 8  90709606.913 7  21825088.590    21825089.128    21825097.049
        48.500          42.500
 25  1  1 15 14 45.0000000  0 24E27E10E29G32G16G04G28G03G26R06G09E04
                                R07E21S35R05S31G31E06S33E19E11R16R15
 138571672.219 4                  26369310.673
        28.800
 146469442.474 5                  27872189.793
        30.400
 133540507.424 6                  25411920.379
        39.700
 127820608.550 6  99600526.00642  24323440.105    24323440.1094   24323466.7214
        37.300          17.7004
 110021424.148 7  85730794.03046  20936330.590    20936329.6784   20936332.3904
        47.000          37.3004
 115898688.291 7  90310669.16345  22054774.303    22054774.1384   22054774.9284
        45.400          33.0004
 119375654.466 6  93020010.68343  22716429.869    22716429.4364   22716433.7864
        39.400          18.4004
 108804226.638 8  84782817.01348  20704750.861    20704750.7364   20704754.9524
        50.500          50.5004
 106073427.206 8  82654633.65448  20185085.179    20185084.6564   20185088.8404
        51.900          50.5004
 103776077.522 7                  19447592.488    19447592.392
        43.200
 128373830.136 5 100031552.68141  24428729.785    24428728.3774   24428719.8634
        32.700          11.6004
 135041372.311 6                  25697506.676
        37.600
 120743082.614 7  93911278.499 6  22555811.158    22555812.592    22555814.993
        44.600          38.400
 125306250.032 7                  23844983.396
        46.900
 200858071.794 5                  38222030.311
        33.200
 112037943.532 7  87140182.421 7  20958919.875    20958919.926    20958928.666
        46.800          43.800
 198905467.493 7                  37850465.516
        42.800
 109227837.732 8  85112608.14546  20785365.740    20785365.2264   20785365.4894
        48.600          41.5004


 202030617.812 7                  38445166.017
        44.100
 120840651.218 6                  22995214.208
        41.100


 102123114.671 8  79429213.557 8  19117666.934    19117666.886    19117672.230
        51.600          48.200
 116681899.809 7  90752568.019 7  21835424.447    21835424.930    21835432.998
        47.400          43.200
 25  1  1 15 15  0.0000000  0 25E27E10E29G32G16G04G28G03G26R06G09E04
                                R07E21S35R05S31G31E06S33E19E11R16E12
                                R15


 146501872.537 5                  27878362.385
        31.200
 133567081.423 6                  25416976.759
        38.100
 127864217.430 6  99634506.56043  24331740.887    24331740.7804   24331767.7884
        38.200          22.8004
 109981702.642 7  85699842.22346  20928772.251    20928771.3304   20928773.4384
        46.100          36.3004
 115859103.645 7  90279823.95145  22047242.202    22047242.0284   22047242.3064
        44.900          33.1004
 119413689.160 5  93049648.07342  22723666.466    22723666.1184   22723670.8664
        31.000          14.4004
 108811016.465 8  84788107.74548  20706043.230    20706043.0834   20706045.2704
        50.200          49.0004
 106074300.387 8  82655314.04548  20185251.283    20185250.7474   20185255.0504
        51.500          49.6004
 103752864.399 7                  19443242.535    19443242.139
        42.900
 128324820.162 5  99993363.03541  24419391.686    24419390.3764   24419394.5404
        30.300           9.4004
 135009911.288 6                  25691521.035
        36.700
 120685344.017 7  93866370.827 6  22545025.372    22545025.625    22545030.588
        43.400          39.700
 125300356.659 7                  23843861.901
        47.300


 112081371.673 7  87173959.767 7  20967044.099    20967044.516    20967053.184
        44.700          44.100
 198905468.717 7                  37850464.443
        43.400
 109254458.551 7  85133351.65046  20790431.436    20790430.9364   20790431.3014
        47.800          41.6004


 202030643.464 7                  38445170.765
        45.500
 120840435.409 6                  22995173.725
        41.900


 102130487.550 8  79434948.030 7  19119047.259    19119047.808    19119051.864
        52.700          47.700


 116737187.840 7  90795569.912 7  21845770.572    21845770.557    21845779.220
        46.100          43.100
 25  1  1 15 15 15.0000000  0 25E27E10E29G32G16G04G28G03G26R06G09E04
                                R07E21S35R05S31G31E06S33E19E11R16E12
                                R15
 138637385.910 4                  26381815.687
        28.200
 146534347.004 5                  27884541.682
        32.200
 133593694.698 5                  25422042.790
        35.700
 127907868.759 5  99668520.16243  24340046.398    24340046.3404   24340075.9204
        35.100          19.8004
 109942102.083 7  85668984.66345  20921236.486    20921235.5434   20921236.7824
        45.000          35.6004
 115819548.555 7  90249001.79445  22039715.561    22039715.3744   22039715.4964
        42.900          32.0004
 119451743.508 6  93079300.77542  22730911.243    22730910.9844   22730911.5544
        40.000          12.5004
 108817960.956 8  84793519.01548  20707365.114    20707364.9454   20707365.8794
        49.100          49.3004
 106075324.979 8  82656112.41748  20185445.974    20185445.4334   20185449.8834
        50.200          49.4004
 103729789.739 6                  19438917.111    19438916.197
        40.300
 128275803.291 4  99955167.98241  24410078.366    24410077.0974   24410068.2644
        28.200          11.1004
 134978456.925 6                  25685533.936
        36.300
 120627622.912 6  93821476.743 7  22534243.087    22534241.628    22534250.606
        40.100          42.700
 125294565.689 7                  23842759.578
        47.500


 112124912.703 6  87207824.908 7  20975188.387    20975188.105    20975199.233
        40.500          44.400
 198905468.455 7                  37850459.569
        42.900
 109281139.586 7  85154142.10246  20795508.465    20795507.9784   20795508.2424
        46.600          41.8004


 202030666.405 7                  38445172.290
        45.200
 120840267.504 7                  22995142.083
        43.200


 102138023.113 8  79440808.991 7  19120457.181    19120457.769    19120462.196
        52.100          47.400


 116792523.541 7  90838608.889 7  21856124.206    21856124.697    21856134.460
        43.800          42.800
 25  1  1 15 15 30.0000000  0 25E27E10E29G32G16G04G28G03G26R06G09E04
                                R07E21S35R05S31G31E06S33E19E11R16E12
                                R15
 138670340.803 4                  26388086.214
        27.500
 146566870.831 5                  27890732.842
        34.500
 133620352.693 5                  25427115.082
        31.400
 127951567.847 5  99702570.92942  24348361.626    24348361.2824   24348390.8534
        33.100          12.9004
 109902628.272 7  85638225.90345  20913724.364    20913723.3904   20913724.2864
        45.700          34.5004
 115780028.554 7  90218206.99645  22032194.822    22032194.6534   22032195.0504
        44.300          32.0004
 119489822.760 6  93108972.84342  22738155.754    22738155.3834   22738156.6204
        39.500          13.2004
 108825065.439 8  84799054.94448  20708717.273    20708717.1044   20708718.5984
        49.600          49.8004
 106076506.393 8  82657033.00748  20185670.614    20185670.0824   20185674.7704
        49.600          48.5004
 103706859.846 6                  19434618.882    19434619.102
        39.400


 134947014.804 5                  25679549.738
        35.600
 120569925.086 7  93776600.586 7  22523462.538    22523463.148    22523471.487
        42.200          44.000
 125288882.615 7                  23841678.051
        46.600


 112168572.550 6  87241782.540 7  20983356.181    20983353.977    20983367.251
        38.600          43.800
 198905470.755 7                  37850457.512
        42.400
 109307885.921 7  85174983.37846  20800597.232    20800596.7504   20800597.6914
        47.000          41.1004


 202030692.882 7                  38445180.272
        45.400
 120840153.011 7                  22995120.435
        43.700


 102145726.383 8  79446800.424 7  19121899.641    19121900.136    19121904.884
        51.400          47.800


 116847912.052 6  90881688.923 7  21866488.430    21866489.140    21866499.435
        41.500          43.100
 25  1  1 15 15 45.0000000  0 25E27E10E29G32G16G04G28G03G26R06G09E04
                                R07E21S35R05S31G31E06S33E19E11R16E12
                                R15
 138703357.635 5                  26394371.616
        31.400
 146599439.229 6                  27896929.845
        36.700
 133647050.511 4                  25432193.451
        25.200
 127995309.830 4  99736655.2194   24356682.745    24356682.3794   24356714.5324
        27.000           2.2004
 109863276.690 7  85607562.37645  20906235.371    20906234.3974   20906236.0404
        46.200          35.5004
 115740539.067 7  90187435.97345  22024679.496    22024679.3624   22024680.5784
        46.500          32.8004
 119527922.064 6  93138660.56842  22745405.755    22745405.3894   22745405.8854
        38.600          15.7004
 108832325.085 8  84804711.78648  20710098.399    20710098.2304   20710101.1124
        49.500          50.6004
 106077839.680 7  82658071.92647  20185924.695    20185924.1594   20185928.5264
        47.300          47.3004
 103684069.734 6                  19430348.227    19430347.661
        38.100
 128177698.269 5  99878712.40441  24391404.163    24391404.4934   24391402.2494
        35.800           8.2004
 134915580.159 5                  25673568.609
        34.500
 120512246.049 6  93731739.071 7  22512686.678    22512687.781    22512695.999
        41.300          44.200
 125283302.581 7                  23840616.305
        47.900


 112212345.786 7  87275828.251 7  20991549.531    20991551.588    20991556.383
        46.800          42.800
 198905471.191 7                  37850457.378
        42.100
 109334692.695 7  85195871.75846  20805698.523    20805698.0414   20805698.7214
        46.700          40.5004
 146716145.705 5                  27919154.768
        34.400
 202030716.786 7                  38445183.058
        44.500
 120840087.069 7                  22995107.481
        43.800


 102153592.354 8  79452918.406 8  19123371.237    19123371.836    19123377.256
        50.300          48.100


 116903348.053 6  90924805.863 7  21876863.476    21876866.015    21876873.488
        41.300          42.400
 25  1  1 15 16  0.0000000  0 25E27E10E29G32G16G04G28G03G26R06G09E04
                                R07E21S35R05S31G31E06S33E19E11R16E12
                                R15
 138736438.670 5                  26400668.014
        32.600
 146632054.227 4                  27903134.084
        28.400
 133673790.725 4                  25437283.315
        27.600


 109824050.266 7  85576996.38246  20898771.258    20898770.3064   20898772.4464
        47.100          36.1004
 115701082.754 7  90156690.81945  22017170.831    22017170.7114   22017172.4644
        47.400          34.0004
 119566043.773 6  93168365.79542  22752660.253    22752659.9364   22752659.9164
        40.200          16.3004
 108839742.255 8  84810491.37148  20711509.808    20711509.6394   20711512.9064
        49.100          50.7004
 106079327.233 7  82659231.04547  20186208.334    20186207.8024   20186210.7124
        46.700          45.7004
 103661422.422 6                  19426106.058    19426105.021
        38.700
 128128670.855 6  99840509.16042  24382074.401    24382074.4774   24382081.3094
        36.600          12.5004
 134884155.480 6                  25667589.814
        38.800
 120454588.871 6  93686894.582 7  22501917.772    22501916.443    22501924.880
        41.600          44.500
 125277827.934 8                  23839574.021
        48.800


 112256234.821 7  87309964.080 6  20999758.052    20999761.393    20999765.960
        47.900          41.100
 198905472.808 6                  37850462.981
        41.900
 109361562.101 7  85216808.95046  20810812.914    20810812.4414   20810812.3884
        47.500          41.1004
 146680057.459 5                  27912283.540
        35.000
 202030741.829 7                  38445189.841
        45.600
 120840072.440 7                  22995105.129
        44.100


 102161623.377 8  79459164.743 8  19124874.290    19124874.731    19124881.076
        49.100          48.300


 116958833.523 7  90967961.257 6  21887255.078    21887256.120    21887256.233
        43.500          39.400
 25  1  1 15 16 15.0000000  0 24E27E10E29G32G16G04G28G03G26R06G09E04
                                R07E21S35R05S31G31E06S33E19E11R16R15
 138769585.080 5                  26406985.548
        33.100
 146664716.937 4                  27909349.314
        27.300




 109784950.683 7  85546529.20946  20891330.040    20891329.0884   20891332.4084
        47.700          36.0004
 115661661.084 7  90125972.61345  22009669.764    22009669.6394   22009670.7584
        47.800          34.6004
 119604189.036 6  93198089.29242  22759918.846    22759918.5694   22759918.7104
        38.200          17.2004
 108847318.249 8  84816394.72848  20712951.166    20712951.0064   20712954.7144
        49.900          51.6004
 106080970.375 7  82660511.40947  20186520.402    20186519.8794   20186522.6304
        45.100          44.2004
 103638919.688 6                  19421887.223    19421886.859
        38.100
 128079641.445 5  99802304.37042  24372745.233    24372745.2114   24372752.7264
        33.300          15.3004
 134852742.280 6                  25661609.894
        38.300
 120396954.945 7  93642068.099 7  22491151.905    22491152.322    22491159.511
        42.000          44.800
 125272460.135 8                  23838552.959
        49.400


 112300240.710 8  87344190.690 5  21007989.495    21007991.392    21007995.374
        48.100          34.800
 198905475.843 7                  37850467.529
        42.700
 109388495.517 7  85237796.06046  20815937.641    20815937.1594   20815937.9684
        47.400          41.5004
 146643960.566 5                  27905411.168
        31.000
 202030769.447 7                  38445193.647
        47.200
 120840110.582 7                  22995113.035
        44.500


 102169820.478 7  79465540.273 8  19126409.112    19126408.542    19126415.934
        47.500          49.000
 117014369.572 7  91011156.051 6  21897643.099    21897643.543    21897646.907
        44.800          38.000
 25  1  1 15 16 30.0000000  0 24E27E10E29G32G16G04G28G03G26R06G09E04
                                R07E21S35R05S31G31E06S33E19E11R16R15








 109745974.415 7  85516158.13245  20883913.739    20883912.8234   20883915.4184
        45.400          35.3004
 115622270.593 7  90095278.72945  22002174.651    22002174.5314   22002175.2904
        46.400          34.6004
 119642354.033 5  93227828.21942  22767181.162    22767180.7734   22767181.7034
        33.500          14.1004
 108855049.243 8  84822418.87048  20714421.436    20714421.2714   20714425.8694
        48.200          50.5004
 106082765.283 7  82661910.03847  20186862.567    20186862.0494   20186864.0924
        44.300          43.0004
 103616558.074 6                  19417696.823    19417697.239
        37.900
 128030606.711 6  99764095.48743  24363413.722    24363413.5484   24363420.2134
        36.100          19.8004
 134821336.919 6                  25655633.764
        36.600
 120339341.380 7  93597257.559 7  22480392.388    22480391.054    22480394.903
        43.100          44.100
 125267195.434 8                  23837551.171
        49.900


 112344359.642 8                  21016244.759    21016245.251
        49.100
 198905477.549 7                  37850469.398
        42.600
 109415488.830 7  85258829.82946  20821074.480    20821073.9984   20821075.6434
        46.200          41.5004
 146607851.512 5                  27898541.306
        31.400
 202030794.310 7                  38445198.856
        47.300
 120840197.712 7                  22995129.325
        44.100


 102178179.783 8  79472041.947 8  19127975.110    19127974.285    19127980.581
        48.700          48.600
 117069951.805 7  91054386.696 6  21908044.288    21908044.658    21908047.919
        44.900          38.000
 25  1  1 15 16 45.0000000  0 24E27E10E29G32G16G04G28G03G26R06G09E04
                                R07E21S35R05S31G31E06S33E19E11R16R15




 133754381.391 4                  25452597.768
        29.500
 128170674.394 5  99873383.3774   24390070.698    24390070.5384   24390101.7954
        35.000           4.1004
 109707120.875 7  85485882.68545  20876519.731    20876518.8734   20876521.3394
        45.200          34.2004
 115582910.500 7  90064608.48345  21994684.113    21994683.9794   21994685.5424
        46.800          34.3004
 119680537.784 5  93257581.69542  22774448.640    22774448.1714   22774448.1704
        34.100          14.4004
 108862934.202 8  84828562.99048  20715923.047    20715922.8694   20715926.3314
        49.000          50.5004
 106084710.858 7  82663426.07247  20187233.542    20187232.9924   20187234.5754
        43.300          43.2004
 103594336.874 6                  19413532.547    19413532.379
        37.100
 127981565.740 5  99725881.76643  24354080.111    24354079.8974   24354087.1494
        31.600          18.6004
 134789938.431 5                  25649661.833
        34.600
 120281747.280 7  93552462.174 7  22469631.793    22469631.963    22469637.275
        45.100          45.100
 125262032.824 8                  23836568.956
        49.300


 112388590.460 8  87412992.760 6  21024517.439    21024517.995    21024526.149
        48.000          36.600
 198905476.182 7                  37850465.575
        42.200
 109442541.177 7  85279909.60346  20826223.017    20826222.5084   20826223.5324
        45.300          41.6004
 146571729.188 5                  27891669.463
        31.500
 202030816.961 7                  38445204.933
        44.300
 120840333.049 7                  22995154.585
        43.500


 102186700.061 8  79478668.857 8  19129569.185    19129568.951    19129575.985
        49.100          48.900
 117125579.024 7  91097652.283 6  21918453.985    21918454.085    21918456.904
        42.900          37.800
 25  1  1 15 17  0.0000000  0 24E27E10E29G32G16G04G28G03G26R06G09E04
                                R07E21S35R05S31G31E06S33E19E11R16R15




 133781288.674 5                  25457717.305
        33.400
 128214639.610 6  99907641.82542  24398437.899    24398437.6314   24398471.7964
        36.600          13.7004
 109668395.837 7  85455707.37245  20869150.166    20869149.3124   20869151.5964
        45.500          32.3004
 115543586.467 7  90033966.34145  21987200.552    21987200.3964   21987202.3494
        44.800          33.2004
 119718745.506 5  93287353.93242  22781716.232    22781715.7274   22781719.3644
        32.400          12.7004
 108870978.587 8  84834831.33848  20717453.661    20717453.4964   20717457.3564
        49.900          50.4004
 106086812.691 6  82665063.80146  20187632.610    20187632.0474   20187635.1794
        41.100          41.7004
 103572262.206 6                  19409396.548    19409395.417
        36.900
 127932524.254 6  99687667.53243  24344748.983    24344748.8234   24344753.3174
        37.600          19.0004
 134758552.672 5                  25643688.172
        34.000
 120224178.248 7  93507686.288 7  22458876.633    22458877.451    22458882.928
        44.600          45.200
 125256977.790 8                  23835607.346
        51.600


 112432938.358 6  87447485.403 6  21032816.033    21032812.828    21032821.612
        40.300          36.500
 198905477.941 7                  37850467.851
        43.500
 109469657.603 7  85301039.31546  20831383.632    20831383.1274   20831383.2384
        44.600          41.3004


 202030842.554 7                  38445207.392
        46.500
 120840522.155 7                  22995189.936
        43.200


 102195386.258 8  79485424.844 8  19131195.444    19131195.432    19131202.318
        49.100          48.700
 117181256.437 7  91140956.954 6  21928872.896    21928873.422    21928877.224
        43.800          38.200
 25  1  1 15 17 15.0000000  0 24E27E10E29G32G16G04G28G03G26R06G09E04
                                R07E21S35R05S31G31E06S33E19E11R16R15






 128258649.405 5  99941934.74241  24406814.690    24406814.3464   24406848.4104
        34.100          11.0004
 109629797.164 7  85425630.51745  20861805.716    20861804.8314   20861806.1954
        45.300          32.2004
 115504296.378 7  90003350.67745  21979725.255    21979725.0814   21979726.5114
        45.400          34.6004
 119756974.828 6  93317143.00741  22788993.276    22788992.7674   22788994.2464
        36.300          10.7004
 108879179.835 8  84841221.91848  20719014.262    20719014.0934   20719017.8594
        51.600          51.4004
 106089068.169 7  82666821.26247  20188060.346    20188059.7884   20188064.9654
        42.500          43.8004
 103550331.755 6                  19405286.704    19405286.667
        38.000
 127883479.737 5  99649450.87842  24335414.365    24335414.2054   24335422.5034
        34.200          13.7004
 134727176.876 6                  25637718.405
        37.800
 120166632.410 7  93462928.385 7  22448124.875    22448124.237    22448133.380
        42.500          44.500
 125252027.910 8                  23834664.958
        50.500


 112477400.835 6  87482067.118 7  21041137.454    21041137.737    21041142.872
        39.400          42.000
 198905479.552 7                  37850462.865
        43.800
 109496835.394 7  85322216.79346  20836554.824    20836554.3064   20836554.5134
        46.300          38.9004


 202030868.893 7                  38445217.959
        45.100
 120840762.663 6                  22995235.235
        41.800


 102204235.920 8  79492307.901 8  19132852.415    19132852.383    19132858.885
        51.300          48.100
 117236980.878 7  91184298.202 6  21939301.922    21939303.155    21939305.428
        45.400          40.500
 25  1  1 15 17 30.0000000  0 24E27E10E29G32G16G04G28G03G26R06G09E04
                                R07E21S35R05S31G31E06S33E19E11R16R15
 138936291.529 5                  26438698.584
        35.400


 133835142.082 5                  25467981.147
        35.500
 128302699.800 5  99976258.97741  24415208.328    24415207.8634   24415231.2984
        34.300           7.6004
 109591321.258 7  85395649.30745  20854483.599    20854482.7014   20854485.1034
        45.200          34.3004
 115465036.531 7  89972758.60645  21972253.498    21972253.3154   21972255.8434
        45.500          34.2004
 119795221.687 6  93346945.76742  22796273.226    22796272.6414   22796272.7064
        37.400          13.2004
 108887534.077 8  84847731.70148  20720604.232    20720604.0724   20720607.3114
        51.400          50.8004
 106091473.320 7  82668695.41147  20188519.929    20188519.4204   20188522.6534
        43.900          44.3004
 103528542.315 6                  19401203.405    19401203.593
        38.900
 127834428.871 5  99611229.47342  24326081.829    24326081.7944   24326087.3344
        33.700          13.5004
 134695807.556 6                  25631747.760
        38.300
 120109106.465 6  93418185.953 7  22437380.201    22437378.632    22437387.629
        41.100          43.300
 125247179.388 8                  23833742.682
        50.700


 112521603.232 5  87516734.757 7  21049490.670    21049488.112    21049479.783
        34.700          42.700
 198905478.301 7                  37850468.638
        44.000
 109524070.735 7  85343439.17346  20841737.284    20841736.7664   20841737.5764
        45.700          39.8004
 146463275.193 5                  27871032.436
        30.700
 202030891.050 7                  38445218.138
        45.700
 120841050.921 7                  22995291.260
        42.500


 102213244.929 8  79499314.901 7  19134539.214    19134539.701    19134544.583
        52.400          47.100
 117292748.073 7  91227672.684 6  21949739.346    21949739.399    21949742.146
        47.000          41.100
 25  1  1 15 17 45.0000000  0 24E27E10E29G32G16G04G28G03G26R06G09E04
                                R07E21S35R05S31G31E06S33E19E11R16R15
 138969812.273 5                  26445070.397
        32.000


 133862175.192 6                  25473126.031
        37.000
 128346797.814 4 100010620.5784   24423595.313    24423594.6564   24423621.6504
        26.400           5.0004
 109552975.463 7  85365769.50745  20847186.459    20847185.5434   20847188.8244
        45.900          35.1004
 115425813.926 7  89942195.52745  21964789.205    21964789.0314   21964791.4484
        43.300          32.6004
 119833492.703 6  93376767.31842  22803553.779    22803553.2034   22803555.8354
        36.500          13.4004
 108896048.050 8  84854365.93948  20722223.742    20722223.5904   20722227.6254
        50.600          50.1004
 106094034.915 7  82670691.44847  20189006.121    20189005.6074   20189010.3554
        42.900          44.7004
 103506900.874 6                  19397148.352    19397148.153
        39.200
 127785378.331 6  99573008.54642  24316747.483    24316747.3454   24316751.8604
        37.000          13.9004
 134664451.623 5                  25625779.590
        35.300
 120051607.476 7  93373464.410 6  22426639.073    22426640.563    22426644.918
        45.300          40.600
 125242439.041 8                  23832840.435
        50.400


 112566293.185 7  87551493.482 7  21057825.703    21057832.052    21057839.236
        45.600          43.600
 198905480.277 7                  37850462.717
        43.600
 109551370.168 7  85364711.41946  20846931.850    20846931.3414   20846932.4614
        46.700          39.0004
 146427114.611 5                  27864151.846
        32.400
 202030917.312 7                  38445218.728
        46.100
 120841393.687 7                  22995356.186
        42.400


 102222419.698 8  79506450.870 7  19136257.297    19136258.074    19136262.111
        53.600          46.600
 117348564.497 7  91271085.395 6  21960181.927    21960182.610    21960188.634
        44.100          40.700
 25  1  1 15 18  0.0000000  0 23E27E10E29G16G04G28G03G26R06G09E04R07
                                E21S35R05S31G31E06S33E19E11R16R15
 139003393.025 5                  26451460.214
        33.100


 133889248.078 5                  25478277.201
        33.300
 109514754.675 7  85335987.10146  20839914.207    20839913.3044   20839916.4854
        47.500          37.6004
 115386623.526 7  89911657.59745  21957331.220    21957331.0284   21957332.0664
        45.900          31.8004
 119871782.649 5  93406603.57841  22810843.341    22810842.7964   22810842.1784
        34.700          10.8004
 108904716.286 8  84861120.39248  20723873.421    20723873.2744   20723877.0774
        49.200          49.6004
 106096747.488 7  82672805.10247  20189522.618    20189522.1094   20189526.7964
        44.300          45.3004
 103485402.671 6                  19393119.254    19393118.899
        38.400
 127736323.041 6  99534783.72444  24307414.300    24307414.1844   24307419.1814
        38.500          24.8004
 134633103.698 5                  25619814.776
        30.000
 119994130.615 7  93328760.224 6  22415902.425    22415904.076    22415906.258
        44.900          38.100
 125237801.367 8                  23831957.765
        49.200


 112611094.591 7  87586338.919 7  21066213.421    21066214.449    21066221.610
        47.600          42.600
 198905480.467 7                  37850463.710
        43.600
 109578728.101 7  85386029.27846  20852137.315    20852136.8064   20852137.9484
        45.000          36.9004
 146390941.809 5                  27857271.021
        33.900
 202030941.137 7                  38445227.273
        46.100
 120841785.905 7                  22995430.957
        42.500


 102231755.051 8  79513711.744 7  19138003.872    19138004.139    19138010.002
        52.700          47.100
 117404424.594 7  91314532.185 7  21970635.867    21970635.958    21970642.411
        45.700          42.000
 25  1  1 15 18 15.0000000  0 24E27E10E29G32G16G04G28G03G26R06G09E04
                                R07E21S35R05S31G31E06S33E19E11R16R15
 139037038.801 5                  26457862.845
        33.700


 133916366.128 5                  25483440.540
        33.000
 128435206.267 5 100079448.04141  24440390.499    24440391.0134   24440419.8904
        33.100          10.8004
 109476664.486 7  85306306.47646  20832666.255    20832665.3614   20832668.5804
        47.500          38.3004
 115347470.804 7  89881149.01745  21949880.410    21949880.2004   21949880.7384
        46.500          33.3004
 119910096.591 4  93436458.6514   22818126.719    22818126.1164   22818133.0344
        28.600           4.4004
 108913544.129 8  84867999.21648  20725553.409    20725553.2754   20725556.5434
        48.000          48.5004
 106099616.412 6  82675040.60847  20190067.782    20190067.2374   20190072.4954
        40.900          43.5004
 103464053.239 6                  19389116.418    19389117.235
        37.100
 127687268.618 6  99496559.49244  24298080.599    24298080.5154   24298086.6994
        36.500          26.9004


 119936681.394 7  93284077.546 6  22405167.025    22405170.009    22405172.763
        42.900          36.600
 125233271.936 8                  23831096.279
        49.200


 112656012.784 7  87621275.233 6  21074615.182    21074615.644    21074624.688
        46.600          41.800
 198905483.747 7                  37850461.555
        43.400
 109606149.839 7  85407396.86445  20857354.884    20857354.4024   20857356.2024
        46.000          35.6004
 146354762.337 5                  27850386.567
        32.900
 202030968.140 7                  38445234.191
        45.400
 120842232.732 6                  22995515.643
        41.800


 102241255.758 8  79521101.202 7  19139783.399    19139783.644    19139788.397
        52.900          47.200
 117460333.143 7  91358016.589 6  21981097.619    21981097.860    21981104.846
        46.000          41.900
 25  1  1 15 18 30.0000000  0 24E27E10E29G32G16G04G28G03G26R06G09E04
                                R07E21S35R05S31G31E06S33E19E11R16R15
 139070742.050 5                  26464277.471
        33.700


 133943521.979 5                  25488607.624
        33.500
 128479432.775 5 100113909.83441  24448810.019    24448810.5554   24448833.4004
        31.500           9.8004
 109438697.789 8  85276722.07046  20825441.459    20825440.5834   20825443.4844
        49.200          37.5004
 115308348.571 7  89850664.21345  21942437.247    21942437.0334   21942436.2824
        45.900          33.6004
 119948427.083 4                  22825424.020
        29.400
 108922524.050 8  84874996.56648  20727262.276    20727262.1604   20727265.4904
        49.200          48.6004
 106102634.212 6  82677392.13647  20190642.690    20190642.1634   20190646.3924
        40.000          42.1004
 103442845.243 5                  19385142.589    19385142.195
        35.200
 127638207.670 6  99458330.12044  24288744.901    24288744.7544   24288751.8564
        37.700          26.6004


 119879252.832 6  93239410.856 5  22394438.267    22394439.944    22394442.939
        40.300          35.300
 125228843.119 8                  23830253.496
        49.400


 112701040.144 7  87656296.449 6  21083038.415    21083037.909    21083047.414
        46.900          39.500
 198905483.268 7                  37850464.197
        42.600
 109633627.803 7  85428808.24545  20862583.095    20862582.6134   20862585.2734
        44.200          33.2004
 146318568.825 5                  27843499.380
        31.200
 202030991.851 7                  38445235.295
        47.100
 120842727.280 6                  22995609.761
        40.900


 102250913.914 8  79528613.131 7  19141590.600    19141591.002    19141596.283
        52.500          46.200
 117516282.405 7  91401532.734 6  21991568.617    21991567.024    21991574.899
        44.300          41.100
 25  1  1 15 18 45.0000000  0 24E27E10E29G32G16G04G28G03G26R06G09E04
                                R07E21S35R05S31G31E06S33E19E11R16R15
 139104508.239 5                  26470701.143
        33.900


 133970721.321 6                  25493782.589
        36.400
 128523704.454 5 100148406.61941  24457236.713    24457237.4914   24457257.3064
        33.500           7.5004
 109400860.811 8  85247238.76246  20818241.071    20818240.1914   20818242.5674
        48.600          36.7004
 115269262.630 8  89820207.66445  21934999.123    21934998.9044   21934998.8524
        48.000          35.1004


 108931661.673 8  84882116.80048  20729000.178    20729000.0714   20729004.8704
        48.800          48.4004
 106105806.455 7  82679864.00646  20191246.440    20191245.9404   20191250.3394
        42.600          41.7004
 103421785.211 5                  19381196.826    19381195.658
        35.300
 127589146.171 6  99420100.31644  24279407.786    24279407.6174   24279416.0884
        36.000          25.5004


 119821851.438 6  93194765.348 6  22383717.151    22383716.090    22383723.145
        40.700          38.700
 125224520.697 7                  23829430.601
        47.500


 112746181.728 7  87691406.563 6  21091480.688    21091479.649    21091492.958
        44.400          38.300
 198905484.165 7                  37850465.615
        42.800
 109661167.507 7  85450267.74845  20867824.953    20867824.4804   20867825.8224
        43.600          30.2004


 202031016.732 7                  38445241.256
        46.600
 120843275.116 6                  22995714.274
        38.200


 102260735.592 8  79536252.274 7  19143429.003    19143429.363    19143435.480
        51.700          47.300
 117572277.553 7  91445084.504 6  22002046.897    22002046.294    22002053.360
        46.200          40.600
 25  1  1 15 19  0.0000000  0 24E27E10E29G32G16G04G28G03G26R06G09E04
                                R07E21S35R05S31G31E06S33E19E11R16R15
 139138330.493 5                  26477137.655
        33.200


 133997957.708 6                  25498966.355
        38.300
 128568014.875 5 100182933.65441  24465671.902    24465672.5144   24465689.5174
        34.600          11.5004
 109363147.244 8  85217851.64045  20811064.319    20811063.4614   20811064.2574
        50.400          35.4004
 115230206.819 7  89789774.56945  21927567.253    21927567.0254   21927567.2034
        47.000          34.9004
 120025129.807 6  93526083.76741  22840025.329    22840024.7884   22840024.8594
        37.400          10.1004
 108940950.417 8  84889354.77847  20730769.031    20730768.9384   20730772.1454
        48.000          47.2004
 106109126.546 7  82682451.11547  20191877.546    20191877.0194   20191882.6934
        45.500          43.2004
 103400866.659 6                  19377277.494    19377276.844
        36.300
 127540077.767 5  99381865.11343  24270069.960    24270069.7284   24270074.2334
        34.200          23.4004


 119764470.446 6  93150135.708 6  22373001.241    22372998.822    22373004.599
        40.500          41.000
 125220298.234 7                  23828626.968
        45.000


 112791431.551 7  87726600.805 6  21099943.257    21099944.461    21099957.462
        45.300          37.500
 198905480.462 7                  37850465.736
        43.500
 109688762.209 7  85471770.05645  20873076.038    20873075.5604   20873076.0354
        44.100          31.1004


 202031037.418 7                  38445243.827
        45.400
 120843869.874 6                  22995827.745
        38.200


 102270713.563 8  79544012.938 7  19145297.031    19145297.387    19145303.129
        51.700          46.900
 117628311.772 7  91488666.634 6  22012533.752    22012532.709    22012539.507
        45.200          40.200
 25  1  1 15 19 15.0000000  0 24E27E10E29G32G16G04G28G03G26R06G09E04
                                R07E21S35R05S31G31E06S33E19E11R16R15
 139172220.250 5                  26483586.781
        34.900


 134025242.591 6                  25504158.014
        39.200
 128612375.391 5 100217499.88942  24474117.171    24474117.6944   24474131.0014
        33.900          13.1004
 109325568.779 8  85188569.77745  20803912.622    20803911.7684   20803910.9584
        50.400          33.1004
 115191192.724 7  89759373.92845  21920143.370    21920143.1564   21920143.1114
        45.900          33.6004
 120063524.853 5  93556001.95142  22847332.433    22847331.6334   22847330.1764
        35.900          13.5004
 108950401.674 7  84896719.39347  20732567.966    20732567.8504   20732570.2384
        47.800          46.1004
 106112605.897 8  82685162.30947  20192539.977    20192539.4594   20192544.7264
        48.500          44.3004
 103380101.797 6                  19373385.969    19373386.045
        37.000
 127491014.049 5  99343633.58143  24260732.378    24260732.1644   24260734.4044
        35.600          21.6004
 134476548.837 6                  25590028.516
        36.800
 119707122.523 7  93105531.815 7  22362289.658    22362288.633    22362291.767
        45.200          42.900
 125216187.096 7                  23827844.191
        43.800


 112836800.615 7  87761887.815 6  21108431.601    21108432.782    21108443.824
        46.400          36.000
 198905483.508 7                  37850463.392
        43.400
 109716423.153 7  85493324.03745  20878340.009    20878339.5224   20878340.6684
        46.400          33.2004
 146209948.754 5                  27822826.778
        35.400
 202031064.320 7                  38445246.859
        45.500
 120844523.102 6                  22995951.783
        38.200


 102280859.277 8  79551904.058 7  19147196.551    19147196.571    19147201.520
        51.300          46.500
 117684396.019 6  91532287.723 6  22023027.761    22023026.659    22023033.368
        41.800          39.000
 25  1  1 15 19 30.0000000  0 24E27E10E29G32G16G04G28G03G26R06G09E04
                                R07E21S35R05S31G31E06S33E19E11R16R15
 139206171.739 5                  26490047.660
        34.000
 147093265.361 5                  27990916.859
        34.600
 134052570.270 6                  25509358.366
        41.700
 128656780.027 4 100252100.58341  24482591.815    24482592.3384   24482580.9554
        27.300           8.1004
 109288120.039 7  85159388.97345  20796786.214    20796785.3434   20796784.1534
        46.200          31.1004
 115152215.051 7  89729001.70145  21912725.759    21912725.5144   21912725.3784
        44.300          31.5004
 120101940.989 6  93585936.55042  22854643.376    22854643.0144   22854639.7094
        38.500          14.9004
 108960009.674 8  84904206.14047  20734395.563    20734395.4344   20734398.9894
        49.100          46.4004
 106116238.672 8  82687993.02547  20193231.413    20193230.9084   20193235.1714
        48.900          45.5004
 103359485.181 6                  19369522.643    19369522.102
        37.300
 127441949.379 5  99305401.28143  24251395.166    24251395.0144   24251396.1994
        31.700          21.2004
 134445267.500 6                  25584068.461
        39.000
 119649801.634 7  93060948.846 7  22351579.121    22351580.305    22351584.472
        45.600          44.500
 125212181.595 7                  23827081.703
        43.600


 112882282.880 7  87797262.748 5  21116942.005    21116941.474    21116950.563
        47.300          31.900
 198905487.601 7                  37850463.039
        42.800
 109744144.561 7  85514925.11445  20883615.338    20883614.8424   20883617.1704
        45.700          34.9004
 146173719.947 5                  27815931.748
        34.200
 202031092.263 7                  38445251.322
        46.200
 120845229.267 6                  22996086.038
        37.700


 102291166.711 8  79559920.956 7  19149126.545    19149126.849    19149130.874
        52.100          46.400
 117740524.273 6  91575942.962 6  22033531.160    22033529.660    22033538.555
        37.600          39.500
 25  1  1 15 19 45.0000000  0 24E27E10E29G32G16G04G28G03G26R06G09E04
                                R07E21S35R05S31G31E06S33E19E11R16R15
 139240180.965 5                  26496517.419
        30.700
 147126538.055 5                  27997245.355
        30.100
 134079937.236 6                  25514566.534
        40.400
 128701225.084 5 100286732.97141  24491006.458    24491007.2094   24491038.2604
        35.100           8.9004
 109250797.834 7  85130306.73444  20789684.773    20789683.8884   20789682.9714
        44.800          29.3004
 115113270.427 7  89698655.26945  21905315.175    21905314.9074   21905314.6784
        46.400          34.0004
 120140374.548 6  93615884.78042  22861956.887    22861956.3374   22861954.6224
        36.300          17.0004
 108969770.765 7  84911812.17447  20736252.438    20736252.2914   20736256.9034
        46.600          46.7004
 106120021.309 8  82690940.51647  20193951.951    20193951.4334   20193954.9464
        50.300          47.0004
 103339013.432 5                  19365684.603    19365682.763
        34.000
 127392880.655 5  99267165.96544  24242058.503    24242058.3744   24242062.1024
        31.800          24.5004
 134413994.423 6                  25578113.830
        37.000
 119592504.842 7  93016384.755 7  22340875.811    22340876.197    22340879.501
        44.300          43.100
 125208278.256 7                  23826339.252
        42.600


 112927874.811 8  87832722.845 5  21125472.460    21125472.181    21125481.851
        48.500          34.700
 198905488.844 6                  37850477.044
        41.100
 109771922.643 7  85536570.35345  20888901.109    20888900.6274   20888901.8144
        44.700          30.0004
 146137478.781 4                  27809036.515
        28.200
 202031118.067 7                  38445264.978
        45.200
 120845984.894 6                  22996229.561
        39.400


 102301631.787 8  79568060.469 7  19151085.411    19151086.355    19151089.860
        51.700          46.300
 117796648.451 6  91619629.324 6  22044039.569    22044039.529    22044047.749
        37.300          36.100
 25  1  1 15 20  0.0000000  0 24E27E10E29G32G16G04G28G03G26R06G09E04
                                R07E21S35R05S31G31E06S33E19E11R16R15
 139274247.771 5                  26503000.672
        30.400


 134107343.258 6                  25519781.161
        41.300
 128745710.791 6 100321396.85342  24499483.351    24499484.2184   24499503.2604
        36.900          14.3004
 109213602.438 7  85101323.32445  20782606.991    20782606.1024   20782606.1274
        46.800          32.3004
 115074358.639 7  89668334.37045  21897909.749    21897909.4994   21897910.3334
        45.400          34.4004
 120178825.309 6  93645846.41042  22869272.942    22869272.4014   22869272.8394
        36.900          16.3004
 108979684.638 8  84919537.22947  20738139.888    20738139.7774   20738143.6554
        48.400          46.0004
 106123953.492 8  82694004.59447  20194699.379    20194698.8654   20194703.6974
        51.300          47.7004
 103318686.826 6                  19361877.462    19361875.843
        36.500
 127343807.538 6  99228927.05744  24232721.275    24232721.0744   24232727.7474
        39.100          26.2004
 134382729.450 6                  25572166.852
        37.000
 119535232.418 7  92971839.536 7  22330177.056    22330177.375    22330182.105
        44.400          45.800
 125204476.667 7                  23825615.876
        42.800


 112973575.711 8  87868290.972 5  21134021.259    21134020.783    21134029.478
        49.800          35.500
 198905487.445 7                  37850474.227
        42.800
 109799756.936 7  85558259.48745  20894198.149    20894197.6894   20894197.2884
        45.900          30.5004
 146101225.094 5                  27802132.991
        33.200
 202031140.491 7                  38445264.540
        45.100
 120846789.817 6                  22996382.340
        38.200


 102312254.357 8  79576322.447 7  19153073.530    19153073.830    19153078.503
        49.700          46.000
 117852855.909 6  91663346.323 6  22054557.504    22054558.731    22054569.490
        40.100          36.500
 25  1  1 15 20 15.0000000  0 24E27E10E29G32G16G04G28G03G26R06G09E04
                                R07E21S35R05S31G31E06S33E19E11R16R15
 139308375.164 5                  26509497.147
        35.800
 147193279.194 5                  28009950.819
        31.100
 134134792.006 6                  25525002.499
        37.300
 128790240.395 5 100356094.78741  24507956.376    24507957.1944   24507977.4864
        30.100          10.9004
 109176537.533 8  85072441.63945  20775553.088    20775552.1764   20775553.4754
        49.600          32.6004
 115035483.745 7  89638042.24245  21890511.262    21890510.9994   21890513.4244
        45.700          34.0004
 120217296.733 5  93675824.08542  22876595.940    22876595.3684   22876593.8874
        35.600          16.1004
 108989754.840 8  84927384.13147  20740055.952    20740055.8454   20740059.6524
        50.600          46.0004
 106128038.659 8  82697187.87247  20195476.753    20195476.2354   20195481.0574
        50.500          46.6004
 103298509.225 6                  19358095.388    19358095.502
        38.900
 127294733.932 6  99190687.84744  24223381.789    24223381.5304   24223388.7014
        39.200          25.7004
 134351476.252 6                  25566215.809
        37.000
 119477988.097 7  92927316.138 7  22319483.397    22319485.556    22319489.258
        46.000          46.200
 125200780.564 7                  23824913.180
        46.100


 113019389.070 8  87903923.441 5  21142591.980    21142593.152    21142596.369
        49.400          35.300
 198905486.958 7                  37850473.047
        42.800
 109827651.139 7  85579995.21745  20899507.545    20899507.1034   20899505.2964
        47.100          35.3004
 146064962.555 5                  27795232.187
        35.800
 202031163.748 6                  38445264.231
        39.700
 120847647.602 6                  22996546.035
        38.700


 102323037.728 7  79584709.506 7  19155091.094    19155091.319    19155097.234
        47.400          46.000
 117909106.015 7  91707096.350 6  22065086.355    22065087.184    22065094.228
        45.100          39.700
 25  1  1 15 20 30.0000000  0 23E27E29G32G16G04G28G03G26R06G09E04R07
                                E21S35R05S31G31E06S33E19E11R16R15
 139342564.638 6                  26515999.583
        36.300
 134162284.849 6                  25530236.233
        41.800
 128834814.909 5 100390827.87141  24516439.981    24516440.8484   24516460.5434
        32.200          11.4004
 109139604.743 7  85043662.89745  20768524.965    20768524.0444   20768526.6564
        47.700          34.7004
 114996647.193 7  89607780.00445  21883120.581    21883120.3224   21883123.3214
        45.800          33.0004
 120255789.907 5  93705818.86842  22883917.369    22883916.8024   22883919.4914
        32.700          14.2004
 108999982.601 8  84935353.80747  20742002.314    20742002.2124   20742004.8034
        48.500          44.2004
 106132278.125 8  82700491.36448  20196283.704    20196283.1904   20196287.2424
        51.300          48.4004
 103278482.568 6                  19354342.837    19354343.166
        39.500
 127245661.337 6  99152449.50744  24214043.778    24214043.5464   24214045.5674
        38.600          25.2004
 134320236.366 5                  25560271.623
        34.100
 119420773.888 7  92882816.134 7  22308792.670    22308793.209    22308801.373
        42.900          46.300
 125197191.225 7                  23824229.437
        43.700


 113065316.130 8  87939644.267 6  21151183.556    21151183.188    21151196.176
        49.400          39.900
 198905488.249 6                  37850464.680
        38.300
 109855606.119 7  85601778.36645  20904826.337    20904825.8994   20904825.4814
        47.200          34.4004
 146028692.657 6                  27788330.771
        38.000
 202031190.062 7                  38445278.728
        44.200
 120848559.917 6                  22996719.383
        40.900


 102333982.759 8  79593222.342 7  19157141.926    19157142.792    19157146.718
        50.100          46.500
 117965399.784 7  91750880.366 5  22075621.771    22075622.590    22075626.106
        45.700          32.000
 25  1  1 15 20 45.0000000  0 24E27E10E29G32G16G04G28G03G26R06G09E04
                                R07E21S35R05S31G31E06S33E19E11R16R15
 139376808.557 5                  26522516.311
        33.700


 134189814.391 6                  25535474.276
        36.300
 128879427.331 5 100425590.34741  24524927.279    24524928.1154   24524950.3574
        31.700           9.0004
 109102797.032 8  85014981.60645  20761520.862    20761519.9504   20761522.8344
        48.400          34.4004
 114957841.866 8  89577542.14845  21875737.364    21875737.1234   21875738.4594
        48.000          32.4004
 120294297.360 5  93735824.70441  22891244.839    22891244.2094   22891247.3944
        30.600           7.9004
 109010360.395 8  84943440.38647  20743977.203    20743977.1014   20743978.5514
        49.300          42.8004
 106136664.450 8  82703909.30047  20197118.898    20197118.3664   20197122.0944
        50.000          47.6004
 103258599.530 6                  19350616.766    19350616.543
        40.300
 127196582.613 6  99114206.38944  24204704.279    24204704.0654   24204703.3954
        38.500          26.7004
 134289002.431 6                  25554330.918
        41.200
 119363582.619 7  92838334.017 7  22298107.330    22298107.636    22298117.768
        42.300          46.200
 125193701.315 7                  23823565.427
        44.500


 113111349.257 8  87975447.756 6  21159793.755    21159794.080    21159805.954
        48.200          40.700
 198905484.744 6                  37850473.717
        40.900
 109883614.376 7  85623603.00745  20910155.673    20910155.2584   20910155.2174
        47.400          35.1004
 145992407.857 6                  27781426.024
        37.500
 202031210.211 7                  38445275.737
        45.400
 120849519.363 7                  22996902.269
        42.500


 102345082.081 8  79601855.116 7  19159220.723    19159220.885    19159224.417
        51.300          46.200
 118021729.091 7  91794691.884 5  22086164.187    22086163.841    22086167.804
        45.600          35.400
 25  1  1 15 21  0.0000000  0 25E27E10E29G32G16G04G28G03G26R06G09E04
                                R07E21S35R05S31G31E06S33E19E11R16E12
                                R15
 139411117.682 6                  26529047.955
        37.400


 134217391.494 4                  25540720.657
        28.500
 128924088.323 5 100460390.74641  24533432.667    24533433.4714   24533449.7174
        32.900           6.6004
 109066126.005 7  84986406.80645  20754541.916    20754541.0224   20754544.0314
        46.500          32.2004
 114919078.833 7  89547337.17745  21868360.538    21868360.3024   21868361.2214
        47.500          32.6004
 120332844.280 5  93765864.28141  22898577.187    22898576.4854   22898581.9464
        30.400           8.0004
 109020899.150 7  84951652.35947  20745982.773    20745982.6714   20745983.4744
        47.500          43.0004
 106141208.472 8  82707450.15848  20197983.508    20197982.9814   20197986.5664
        50.900          48.0004
 103238871.671 6                  19346919.115    19346918.990
        40.400
 127147508.711 6  99075966.94844  24195367.490    24195367.3214   24195363.6784
        36.200          26.9004
 134257785.603 6                  25548390.123
        41.700
 119306425.802 7  92793878.655 7  22287432.171    22287432.111    22287439.471
        43.000          44.500
 125190321.711 7                  23822922.370
        43.700


 113157499.491 7  88011342.234 7  21168426.523    21168428.336    21168438.100
        46.600          42.600
 198905487.268 6                  37850472.005
        40.400
 109911686.753 8  85645477.59546  20915497.916    20915497.5014   20915496.3374
        48.200          36.0004
 145956119.484 5                  27774517.113
        32.600
 202031236.901 7                  38445282.060
        44.300
 120850537.140 7                  22997096.163
        43.800


 102356346.133 8  79610616.071 7  19161327.898    19161328.615    19161333.190
        49.700          46.300
 150248866.545 5                  28591408.582
        33.300
 118078104.795 7  91838539.546 5  22096713.890    22096713.186    22096718.549
        42.300          35.300
 25  1  1 15 21 15.0000000  0 25E27E10E29G32G16G04G28G03G26R06G09E04
                                R07E21S35R05S31G31E06S33E19E11R16E12
                                R15
 139445485.328 5                  26535588.647
        32.300


 134245010.024 5                  25545979.121
        32.200


 109029585.219 7  84957933.49845  20747588.820    20747587.9224   20747589.5894
        44.200          30.6004
 114880352.043 8  89517160.54345  21860992.449    21860992.2084   21860991.1604
        48.100          32.1004
 120371396.022 5  93795904.56842  22905918.068    22905917.8454   22905917.3704
        33.400          14.3004
 109031592.429 8  84959984.81547  20748018.476    20748018.3784   20748020.2584
        49.400          47.5004
 106145903.781 8  82711108.84648  20198877.101    20198876.5694   20198879.6434
        50.200          48.1004
 103219292.997 6                  19343249.720    19343249.254
        39.400
 127098433.787 5  99037726.75345  24186027.597    24186027.4194   24186029.6674
        35.100          30.0004
 134226579.560 6                  25542451.450
        40.300
 119249297.361 7  92749445.340 7  22276764.153    22276764.354    22276765.055
        47.800          42.400
 125187046.049 7                  23822299.230
        45.000


 113203759.922 7  88047322.454 6  21177082.731    21177082.947    21177091.548
        45.900          41.500
 198905488.267 7                  37850469.138
        42.300
 109939816.683 8  85667397.00546  20920851.024    20920850.6094   20920850.3944
        49.200          39.1004


 202031262.865 7                  38445285.266
        45.500
 120851606.902 7                  22997299.372
        43.500


 102367768.460 8  79619500.156 7  19163466.299    19163466.319    19163470.585
        49.500          45.800
 150287291.468 5                  28598721.475
        34.900
 118134520.067 7  91882418.089 5  22107271.678    22107271.067    22107275.298
        44.400          34.500
 25  1  1 15 21 30.0000000  0 25E27E10E29G32G16G04G28G03G26R06G09E04
                                R07E21S35R05S31G31E06S33E19E11R16E12
                                R15
 139479906.127 5                  26542139.864
        35.400


 134272664.606 5                  25551239.084
        35.300


 108993169.986 6  84929558.00344  20740658.561    20740657.6404   20740659.1604
        39.600          27.7004
 114841656.522 7  89487008.21245  21853628.938    21853628.6704   21853628.5574
        46.500          30.9004
 120409961.167 6  93825955.36443  22913256.133    22913256.1254   22913256.6804
        41.700          21.6004
 109042434.904 8  84968433.49948  20750080.798    20750080.7144   20750085.4554
        48.700          48.2004
 106150744.980 8  82714881.22948  20199798.191    20199797.6464   20199800.9804
        51.000          48.8004
 103199858.430 6                  19339607.609    19339606.367
        38.100
 127049352.532 6  98999481.55444  24176687.731    24176687.5534   24176692.1144
        36.900          28.2004
 134195379.276 6                  25536513.660
        37.700
 119192192.591 7  92705030.464 6  22266092.676    22266093.953    22266097.329
        46.900          41.300
 125183869.113 7                  23821693.983
        44.000


 113250125.143 7  88083384.203 6  21185755.826    21185755.502    21185763.857
        46.400          38.700
 198905484.427 6                  37850467.779
        41.900
 109967998.932 8  85689357.18746  20926213.854    20926213.4434   20926215.3044
        48.400          38.4004


 202031282.484 7                  38445287.032
        44.900
 120852723.572 7                  22997511.842
        43.100
 146363424.858 5                  27852031.450
        31.600
 102379343.194 8  79628502.769 7  19165633.111    19165632.874    19165637.515
        49.100          45.700
 150325710.861 5                  28606038.255
        32.100
 118190968.937 7  91926322.605 6  22117835.901    22117835.749    22117841.930
        44.700          36.900
 25  1  1 15 21 45.0000000  0 23E27E10E29G16G04G28G03G26R06G09E04R07
                                E21S35R05S31G31E06S33E19E11R16R15
 139514393.061 4                  26548705.046
        29.100


 134300368.678 5                  25556513.885
        34.600
 108956893.577 7  84901290.72544  20733756.265    20733755.3534   20733756.0884
        42.000          28.0004
 114803005.658 7  89456890.69045  21846274.038    21846273.7484   21846274.2234
        47.100          30.3004
 120448552.897 7  93856026.80343  22920599.472    22920599.6824   22920601.4454
        43.900          22.0004
 109053439.704 7  84977008.66347  20752174.618    20752174.5344   20752180.4374
        47.000          46.2004
 106155745.198 8  82718777.53148  20200749.588    20200749.0344   20200753.4004
        51.200          49.6004
 103180581.636 6                  19335995.220    19335995.102
        39.100
 127000278.340 6  98961241.89944  24167348.101    24167347.8874   24167354.5174
        38.500          27.2004
 134164197.982 6                  25530580.099
        41.100
 119135125.087 7  92660644.558 7  22255432.977    22255434.066    22255436.855
        45.500          42.600
 125180804.132 7                  23821111.434
        45.000


 113296608.188 7  88119537.538 6  21194451.548    21194451.605    21194460.502
        43.100          40.900
 198905487.681 7                  37850473.749
        42.400
 109996246.338 7  85711368.08246  20931589.276    20931588.8744   20931590.8744
        45.100          37.8004
 145847164.815 5                  27753791.756
        31.800
 202031311.293 7                  38445300.183
        44.700
 120853900.442 7                  22997735.433
        43.000
 146384996.301 5                  27856137.251
        32.800
 102391083.922 8  79637634.403 7  19167831.307    19167831.459    19167835.908
        48.700          46.200
 118247464.910 7  91970263.863 6  22128407.759    22128407.318    22128416.629
        45.000          40.600
 25  1  1 15 22  0.0000000  0 23E27E10E29G16G04G28G03G26R06G09E04R07
                                E21S35R05S31G31E06S33E19E11R16R15




 134328114.992 6                  25561792.661
        36.800
 108920749.431 7  84873126.47145  20726878.085    20726877.1554   20726878.7194
        46.300          33.7004
 114764392.747 7  89426802.75744  21838925.389    21838925.0944   21838925.8314
        44.700          29.4004
 120487164.096 7  93886113.40543  22927946.343    22927946.4364   22927948.7334
        42.600          19.4004
 109064599.719 7  84985704.75447  20754299.128    20754299.0484   20754302.6734
        47.900          44.6004
 106160897.399 8  82722792.21748  20201729.927    20201729.3694   20201733.1244
        51.800          48.3004
 103161456.082 6                  19332411.669    19332411.607
        40.200
 126951204.461 6  98923002.51544  24158010.002    24158009.7974   24158015.4394
        37.500          25.1004
 134133028.780 6                  25524649.394
        41.600
 119078088.163 6  92616282.572 7  22244774.191    22244774.133    22244782.593
        37.600          44.400
 125177844.070 7                  23820547.097
        42.200


 113343202.022 7  88155777.025 6  21203170.527    21203170.250    21203175.122
        47.000          39.800
 198905491.560 7                  37850475.439
        42.900
 110024551.970 7  85733424.43745  20936975.389    20936975.0184   20936976.3584
        43.000          34.7004
 145810840.449 4                  27746879.387
        28.800
 202031339.305 7                  38445301.006
        45.300
 120855130.589 7                  22997969.912
        43.100
 146406647.597 5                  27860256.971
        30.800
 102402982.765 7  79646889.086 8  19170057.782    19170056.516    19170064.328
        45.500          48.100
 118304000.037 7  92014235.510 6  22138986.423    22138987.414    22138995.191
        46.000          39.800
 25  1  1 15 22 15.0000000  0 24E27E10E29G32G16G04G28G03G26R06G09E04
                                R07E21S35R05S31G31E06S33E19E11R16R15




 134355900.391 6                  25567079.407
        36.400


 108884734.482 7  84845062.90045  20720024.682    20720023.8024   20720025.8104
        46.700          35.4004
 114725814.529 6  89396741.78144  21831584.374    21831584.0534   21831584.8754
        41.500          29.7004
 120525791.263 6  93916212.41943  22935296.425    22935296.5094   22935299.3694
        38.300          18.8004
 109075911.472 8  84994519.06647  20756451.416    20756451.3274   20756453.9494
        48.600          45.0004
 106166198.119 8  82726922.67348  20202738.321    20202737.7714   20202741.1534
        51.500          49.2004
 103142478.619 6                  19328856.004    19328855.379
        40.300
 126902127.680 5  98884760.82943  24148670.886    24148670.6094   24148672.4624
        32.600          18.7004


 119021079.045 7  92571942.029 7  22234127.452    22234127.200    22234133.696
        44.000          43.300
 125174985.494 6                  23820004.063
        41.600


 113389902.863 6  88192099.770 7  21211907.525    21211906.539    21211914.894
        39.000          43.900
 198905492.607 7                  37850472.215
        44.200
 110052912.029 7  85755523.15045  20942371.627    20942371.2654   20942372.9804
        44.200          35.2004


 202031363.822 7                  38445305.786
        46.200
 120856410.612 7                  22998213.415
        43.500
 146428375.127 5                  27864389.538
        30.000
 102415036.725 8  79656264.394 7  19172315.839    19172315.759    19172320.212
        50.100          46.700
 118360570.634 7  92058234.808 6  22149573.452    22149573.131    22149580.729
        44.900          38.500
 25  1  1 15 22 30.0000000  0 24E27E10E29G32G16G04G28G03G26R06G09E04
                                R07E21S35R05S31G31E06S33E19E11R16R15




 134383729.646 6                  25572373.598
        36.000


 108848853.876 8  84817103.98646  20713196.752    20713195.8674   20713198.0584
        49.900          38.4004
 114687276.037 7  89366711.77545  21824250.468    21824250.1474   21824251.0524
        45.000          31.2004
 120564439.222 6  93946327.58741  22942651.683    22942651.8124   22942653.2394
        40.000           7.3004
 109087379.626 8  85003455.27647  20758633.361    20758633.2634   20758635.5064
        48.000          44.9004
 106171652.000 8  82731172.43548  20203775.687    20203775.1244   20203779.3344
        50.500          49.6004
 103123654.389 6                  19325326.925    19325327.416
        40.300
 126853053.022 5  98846520.90342  24139333.215    24139332.9614   24139331.0144
        34.600          16.4004
 134070721.973 4                  25512789.964
        28.800
 118964102.559 6  92527626.980 7  22223481.255    22223482.051    22223490.452
        41.000          43.300
 125172233.240 7                  23819480.891
        44.200


                  88228509.269 7                  21220654.375    21220672.102
                        44.200
 198905495.292 7                  37850470.399
        43.700
 110081331.367 6  85777667.95145  20947779.517    20947779.1734   20947779.3194
        41.400          33.2004


 202031391.312 7                  38445311.653
        44.700
 120857745.621 7                  22998467.839
        43.900
 146450183.561 4                  27868549.973
        29.600
 102427249.892 8  79665763.530 7  19174601.306    19174601.710    19174605.842
        50.900          46.100
 118417181.323 7  92102265.302 6  22160167.843    22160165.980    22160175.009
        44.100          36.700
 25  1  1 15 22 45.0000000  0 23E27E10E29G32G16G04G28G03G26R06G09E04
                                R07E21S35R05S31G31S33E19E11R16R15
 139652979.557 5                  26575078.561
        34.300


 134411597.864 6                  25577677.642
        38.600


 108813102.856 8  84789246.09146  20706393.594    20706392.7094   20706395.2764
        50.500          39.9004
 114648772.621 7  89336709.11245  21816923.301    21816922.9714   21816923.7224
        45.500          31.6004
 120603102.856 6  93976454.7424   22950008.284    22950008.5384   22950011.1154
        39.400           4.7004
 109098999.180 7  85012509.43547  20760845.476    20760845.3654   20760846.0354
        47.600          43.8004
 106177254.016 8  82735537.64248  20204841.920    20204841.3534   20204845.8564
        50.000          49.7004
 103104978.854 6                  19321828.494    19321827.602
        39.900
 126803975.650 5  98808278.79643  24129991.942    24129991.6564   24129995.3134
        35.600          21.3004
 134039584.192 4                  25506864.521
        29.200
 118907154.954 6  92483334.397 7  22212845.739    22212843.877    22212852.064
        40.600          43.200
 125169582.384 7                  23818976.166
        44.800


 113483495.962 5  88265001.637 7  21229436.570    21229434.656    21229447.702
        35.400          43.500
 198905495.272 7                  37850467.368
        42.600
 110109804.739 6  85799854.96845  20953198.199    20953197.8244   20953197.8794
        39.000          33.1004
 202031415.291 7                  38445315.190
        46.100
 120859130.811 7                  22998731.465
        44.000
 146472067.750 4                  27872711.559
        25.600
 102439617.051 8  79675382.428 7  19176917.431    19176917.287    19176921.253
        51.400          46.300
 118473826.721 6  92146322.795 6  22170766.913    22170765.465    22170774.727
        40.800          36.300
 25  1  1 15 23  0.0000000  0 24E27E10E29G32G16G04G28G03G26R06G09E04
                                R07E21S35R05S31G31E06S33E19E11R16R15


 147562773.943 5                  28080267.996
        31.000
 134439510.948 6                  25582989.394
        39.500


 108777487.789 8  84761494.12646  20699616.092    20699615.2124   20699618.0404
        50.600          39.6004
 114610310.525 7  89306738.68945  21809604.199    21809603.8824   21809604.7804
        44.900          32.4004
 120641788.143 6  94006598.9194   22957367.797    22957367.8994   22957373.4274
        38.900           2.6004
 109110776.022 7  85021686.15447  20763086.349    20763086.2204   20763087.5384
        47.800          43.5004
 106183010.069 8  82740022.87848  20205937.653    20205937.0814   20205941.4084
        50.400          49.4004
 103086458.313 6                  19318358.203    19318357.919
        40.800
 126754901.791 6  98770039.44343  24120654.372    24120654.1494   24120660.8864
        36.200          23.5004
 134008461.735 5                  25500945.169
        35.800
 118850242.116 7  92439068.882 7  22202215.257    22202212.814    22202221.296
        43.400          44.900
 125167038.909 7                  23818491.975
        46.200


 113530527.463 6  88301581.514 7  21238239.279    21238240.350    21238246.836
        40.300          44.300
 198905498.074 6                  37850468.875
        41.400
 110138338.086 6  85822088.74545  20958627.620    20958627.3754   20958627.7484
        40.400          33.6004


 202031442.686 7                  38445320.337
        47.000
 120860572.309 7                  22999006.212
        43.300


 102452144.010 8  79685125.628 7  19179261.704    19179262.045    19179266.011
        51.000          46.300
 118530512.491 7  92190411.625 6  22181373.934    22181373.383    22181381.643
        42.200          37.200
 25  1  1 15 23 15.0000000  0 24E27E10E29G32G16G04G28G03G26R06G09E04
                                R07E21S35R05S31G31E06S33E19E11R16R15
 139722588.828 4                  26588324.099
        29.800
 147596605.064 6                  28086700.281
        36.000
 134467463.718 6                  25588308.988
        37.400


 108742003.687 8  84733844.20846  20692864.191    20692863.3064   20692865.2784
        48.700          38.1004
 114571884.639 7  89276796.50045  21802292.121    21802291.8264   21802292.6314
        45.300          31.2004
 120680489.650 5                  22964732.771
        33.500
 109122704.772 7  85030981.27547  20765355.697    20765355.5724   20765357.9874
        47.700          42.8004
 106188914.766 8  82744623.93648  20207061.031    20207060.4594   20207065.2394
        50.600          48.9004
 103068088.045 6                  19314914.465    19314914.649
        40.100
 126705826.374 5  98731798.77943  24111315.345    24111315.1314   24111324.0354
        35.800          22.0004
 133977349.152 5                  25495023.671
        35.200
 118793358.885 7  92394826.312 7  22191588.130    22191588.087    22191595.486
        42.900          45.200
 125164597.363 7                  23818027.366
        47.000


 113577665.542 6  88338244.351 7  21247055.707    21247053.439    21247064.607
        38.500          45.400
 198905498.516 7                  37850466.263
        42.600
 110166925.778 6  85844364.87345  20964067.265    20964067.0604   20964068.3094
        41.200          35.4004


 202031467.617 7                  38445323.503
        45.300
 120862064.680 7                  22999289.958
        44.300


 102464825.234 8  79694988.830 7  19181635.555    19181635.412    19181641.059
        49.700          46.800
 118587232.795 7  92234527.432 5  22191989.946    22191990.245    22191994.279
        43.500          33.800
 25  1  1 15 23 30.0000000  0 23E27E10E29G16G04G28G03G26R06G09E04R07
                                E21S35R05S31G31E06S33E19E11R16R15


 147630472.663 5                  28093145.715
        34.700
 134495456.906 6                  25593637.589
        37.900
 108706651.645 8  84706297.19846  20686137.137    20686136.2704   20686137.4274
        48.100          36.6004
 114533495.920 7  89246883.23345  21794986.547    21794986.2664   21794987.9674
        45.600          32.3004
 120719207.981 5                  22972098.896
        33.200
 109134785.982 7  85040395.16647  20767653.798    20767653.6694   20767657.7154
        46.900          42.9004
 106194968.666 8  82749341.26248  20208213.111    20208212.5354   20208217.2054
        51.100          48.6004
 103049868.801 6                  19311500.775    19311500.109
        40.100
 126656750.095 5  98693557.35342  24101975.325    24101975.1784   24101985.5254
        34.900          16.9004
 133946247.231 6                  25489104.940
        37.600
 118736506.501 7  92350607.739 7  22180968.119    22180967.312    22180974.422
        44.100          44.600
 125162258.610 7                  23817582.204
        47.100


 113624911.034 6  88374990.721 7  21255893.130    21255892.384    21255902.250
        38.200          45.700
 198905497.576 6                  37850469.930
        40.800
 110195568.385 6  85866683.78045  20969517.065    20969516.8874   20969519.1814
        41.000          35.9004
 145592702.883 5                  27705370.634
        34.900
 202031490.785 7                  38445328.247
        44.400
 120863609.009 7                  22999583.740
        45.500


 102477660.884 8  79704972.146 7  19184038.947    19184038.542    19184043.671
        50.300          46.700
 118643987.857 7  92278670.188 5  22202609.364    22202610.907    22202618.510
        42.700          35.400
 25  1  1 15 23 45.0000000  0 23E27E10E29G16G04G28G03G26R06G09E04R07
                                E21S35R05S31G31E06S33E19E11R16R15


 147664377.396 6                  28099597.921
        37.000
 134523491.501 6                  25598972.729
        38.300
 108671433.074 8  84678854.19545  20679434.258    20679433.3694   20679434.3704
        49.700          35.6004
 114495145.614 7  89216999.97545  21787688.176    21787687.9134   21787690.1684
        43.800          30.5004


 109147020.680 7  85049928.68546  20769981.217    20769981.0744   20769985.7854
        47.000          40.6004
 106201172.798 8  82754175.66048  20209393.806    20209393.2394   20209397.9144
        53.200          48.8004
 103031802.209 6                  19308115.558    19308115.560
        41.400
 126607674.460 5  98655316.53943  24092638.463    24092638.3614   24092648.3574
        35.000          18.4004
 133915157.231 6                  25483188.259
        37.000
 118679686.947 7  92306414.702 7  22170352.336    22170351.242    22170360.748
        43.400          44.300
 125160023.627 7                  23817156.660
        47.300


 113672238.720 6  88411821.213 7  21264747.670    21264748.195    21264761.974
        39.400          46.700
 198905495.767 6                  37850479.124
        41.800
 110224266.886 6  85889046.28045  20974980.428    20974980.2184   20974980.8844
        38.200          33.3004


 202031513.659 7                  38445335.469
        44.800
 120865206.231 7                  22999887.975
        45.400


 102490652.020 8  79715076.385 7  19186470.037    19186470.072    19186475.018
        50.600          46.800
 118700778.437 7                  22213240.195    22213240.817
        46.800
 25  1  1 15 24  0.0000000  0 23E27E10E29G16G04G28G03G26R06G09E04R07
                                E21S35R05S31G31E06S33E19E11R16R15


 147698323.329 6                  28106055.748
        36.200
 134551571.803 6                  25604314.869
        38.200
 108636352.230 8  84651518.49846  20672758.836    20672757.9334   20672758.0504
        48.200          36.3004
 114456838.160 7  89187150.02845  21780398.718    21780398.4774   21780401.0564
        43.400          30.7004


 109159412.895 7  85059584.95046  20772341.119    20772340.9634   20772343.4394
        45.500          40.4004
 106207531.234 8  82759130.28748  20210603.719    20210603.1564   20210607.5874
        52.400          48.9004
 103013892.870 6                  19304757.750    19304757.076
        38.200
 126558603.713 5  98617079.52442  24083300.016    24083299.9404   24083310.6394
        32.200          15.2004
 133884083.449 6                  25477277.332
        39.700
 118622904.270 7  92262250.314 7  22159747.714    22159746.812    22159753.572
        43.600          43.200
 125157896.547 8                  23816752.316
        48.300


 113719704.578 7  88448738.930 7  21273632.482    21273630.635    21273642.282
        44.700          47.900
 198905498.106 6                  37850468.870
        41.000
 110253025.294 6  85911455.45545  20980452.141    20980451.9054   20980453.9574
        36.000          34.1004
 145520054.958 4                  27691542.982
        28.400
 202031540.468 7                  38445342.386
        46.600
 120866860.855 7                  23000203.168
        45.500


 102503802.684 8  79725304.659 7  19188931.779    19188933.073    19188936.655
        51.600          47.100
 118757608.287 7  92367041.438 5  22223874.084    22223874.000    22223878.880
        46.600          34.300
 25  1  1 15 24 15.0000000  0 23E27E10E29G16G04G28G03G26R06G09E04R07
                                E21S35R05S31G31E06S33E19E11R16R15


 147732303.488 5                  28112523.089
        35.100
 134579691.196 5                  25609664.998
        33.700
 108601402.977 8  84624285.33346  20666108.297    20666107.4124   20666107.9164
        50.000          37.9004
 114418567.275 6  89157328.59345  21773116.375    21773116.1344   21773119.2784
        40.500          30.2004
 120835511.228 5                  22994228.463
        32.700
 109171955.959 7  85069358.75846  20774727.149    20774726.9574   20774729.9224
        46.800          41.4004
 106214037.267 8  82764199.92748  20211841.860    20211841.3104   20211845.1174
        51.600          48.8004
 102996134.330 6                  19301429.688    19301430.435
        37.200
 126509531.566 5  98578841.40942  24073964.098    24073964.0404   24073972.6124
        31.500          12.5004
 133853019.357 6                  25471366.077
        38.400
 118566152.455 7  92218109.979 6  22149142.710    22149144.062    22149149.204
        42.800          41.100
 125155870.846 7                  23816366.744
        46.900


 113767275.635 7  88485738.556 8  21282531.962    21282531.637    21282541.571
        46.700          48.700
 198905498.014 7                  37850475.971
        42.800
 110281836.852 6  85933906.02745  20985935.522    20985935.2454   20985937.1374
        40.900          33.9004
 145483645.293 5                  27684587.462
        35.300
 202031564.065 7                  38445349.268
        43.100
 120868566.193 7                  23000527.191
        43.600


 102517105.643 8  79735651.400 7  19191421.624    19191423.056    19191428.145
        51.000          47.800
 118814470.594 7  92411267.592 6  22234515.300    22234515.371    22234520.403
        46.900          36.100
 25  1  1 15 24 30.0000000  0 24E27E10E29G32G16G04G28G03G26R06G09E04
                                R07E21S35R05S31G31E06S33E19E11R16R15


 147766322.282 5                  28118995.469
        32.900
 134607854.332 5                  25615024.484
        31.500


 108566590.165 8  84597158.49646  20659483.328    20659482.4254   20659484.3254
        49.500          38.3004
 114380337.574 6  89127539.21744  21765841.833    21765841.5654   21765844.5974
        37.700          28.6004
 120874256.175 5  94187776.55941  23001608.327    23001608.3624   23001616.7424
        35.500           9.1004
 109184654.272 7  85079253.57847  20777144.581    20777144.3894   20777146.7584
        47.500          43.6004
 106220695.367 8  82769388.08048  20213109.180    20213108.6354   20213112.1434
        50.600          49.1004
 102978531.747 5                  19298128.422    19298129.622
        35.600
 126460462.508 5  98540605.35741  24064625.313    24064625.0144   24064636.8084
        33.500           8.0004
 133821969.696 6                  25465456.712
        40.300
 118509436.647 7  92173997.717 6  22138547.618    22138548.146    22138554.236
        42.100          39.500
 125153951.048 7                  23816001.589
        47.200


 113814956.522 8  88522823.543 8  21291451.760    21291451.724    21291461.004
        48.000          48.500
 198905498.415 6                  37850459.618
        39.400
 110310706.038 7  85956401.50746  20991429.465    20991429.1444   20991431.4244
        43.300          36.5004
 145447228.725 5                  27677658.593
        34.200
 202031589.519 7                  38445349.371
        47.000
 120870327.113 6                  23000862.343
        41.700
 146627450.210 5                  27902275.419
        32.300
 102530565.508 8  79746120.176 8  19193941.713    19193942.610    19193948.329
        50.600          48.100
 118871369.357 7  92455522.085 6  22245163.022    22245163.149    22245169.084
        45.500          38.000
 25  1  1 15 24 45.0000000  0 25E27E10E29G32G16G04G28G03G26R06G09E04
                                R07E21S35R05S31G31E06S33E19E11R16E12
                                R15
 139932680.147 5                  26628303.582
        32.700
 147800377.413 5                  28125475.731
        32.000
 134636059.140 4                  25620393.314
        29.900


 108531912.024 8  84570136.58646  20652883.997    20652883.0904   20652885.9324
        49.400          37.5004
 114342147.339 7  89097780.60345  21758574.867    21758574.6174   21758577.3204
        44.600          30.9004
 120913066.751 6  94218018.44441  23008992.760    23008992.8714   23008999.6684
        37.300          11.6004
 109197505.743 7  85089267.70547  20779589.981    20779589.7984   20779593.4114
        45.400          44.5004
 106227503.356 8  82774693.02248  20214404.549    20214403.9994   20214408.1804
        50.500          49.8004
 102961083.052 6                  19294862.390    19294861.470
        37.700


 133790932.464 6                  25459550.000
        40.100
 118452755.132 7  92129912.116 6  22127960.826    22127960.135    22127967.607
        44.000          41.700
 125152135.060 7                  23815655.846
        47.100


 113862744.670 8  88559992.021 7  21300392.050    21300391.758    21300400.507
        48.400          47.700
 198905498.960 6                  37850467.269
        40.100
 110339630.540 6  85978940.08146  20996932.950    20996932.6334   20996936.5154
        41.800          36.2004
 145410803.292 5                  27670734.957
        33.100
 202031614.902 7                  38445351.365
        44.700
 120872141.575 6                  23001207.361
        39.400
 146649957.622 5                  27906557.669
        32.100
 102544179.696 8  79756709.001 8  19196490.313    19196491.386    19196496.944
        51.300          48.000


 118928302.385 7  92499803.317 6  22255818.106    22255816.795    22255824.344
        43.600          40.700
 25  1  1 15 25  0.0000000  0 25E27E10E29G32G16G04G28G03G26R06G09E04
                                R07E21S35R05S31G31E06S33E19E11R16E12
                                R15
 139967910.381 5                  26635019.259
        30.400


 134664307.489 5                  25625764.710
        31.000


 108497370.736 8  84543221.33146  20646311.600    20646310.6974   20646313.2994
        48.900          37.2004
 114303998.665 7  89068054.38745  21751314.210    21751313.9744   21751317.2524
        46.000          31.2004
 120951896.725 6  94248275.54142  23016381.557    23016381.8074   23016388.5154
        38.600          16.4004
 109210512.104 7  85099402.48647  20782065.216    20782065.0334   20782068.7454
        47.400          44.5004
 106234462.970 8  82780116.11648  20215728.772    20215728.2094   20215732.9034
        50.400          50.2004
 102943790.824 6                  19291621.829    19291622.826
        40.600
 126362320.807 5  98464202.82142  24045952.768    24045952.8444   24045960.9644
        32.300          14.1004
 133759909.799 6                  25453646.283
        41.000
 118396110.046 7  92085854.697 6  22117380.413    22117381.403    22117385.337
        46.000          40.800
 125150424.780 7                  23815330.519
        47.400


 113910641.994 8  88597245.407 7  21309352.147    21309351.759    21309359.801
        48.400          46.100
 198905501.784 6                  37850472.805
        40.800
 110368612.133 7  86001523.12645  21002448.200    21002447.8744   21002451.1574
        44.100          35.9004
 145374370.792 4                  27663803.388
        29.700
 202031641.397 7                  38445364.078
        45.000
 120874011.435 6                  23001562.939
        37.900
 146672543.509 4                  27910854.431
        27.600
 102557949.922 8  79767419.162 7  19199068.143    19199068.569    19199073.729
        51.000          46.900


 118985271.064 7  92544112.232 6  22266477.194    22266477.594    22266486.203
        42.400          41.600
 25  1  1 15 25 15.0000000  0 25E27E10E29G32G16G04G28G03G26R06G09E04
                                R07E21S35R05S31G31E06S33E19E11R16E12
                                R15






 129689719.155 5                  24679133.835
        34.100
 108462963.443 8  84516410.48346  20639764.580    20639763.6734   20639765.2214
        49.700          36.8004
 114265888.558 7  89038358.18745  21744062.843    21744062.6334   21744064.1824
        47.400          30.2004
 120990742.785 5  94278545.15942  23023775.372    23023775.4484   23023779.9064
        34.000          14.6004
 109223670.094 7  85109655.44647  20784569.329    20784569.1424   20784572.8624
        45.600          44.6004
 106241570.976 8  82785654.83248  20217080.978    20217080.4204   20217085.6224
        48.800          50.4004
 102926651.911 6                  19288409.830    19288411.096
        41.600
 126313256.996 5  98425971.20543  24036616.864    24036617.3294   24036618.2694
        31.400          19.0004
 133728898.489 7                  25447745.084
        42.200
 118339498.598 7  92041823.499 6  22106804.334    22106803.100    22106809.932
        44.500          41.200
 125148816.936 7                  23815024.011
        46.700


 113958645.049 7  88634581.037 7  21318329.752    21318329.149    21318339.284
        44.000          44.300
 198905501.933 7                  37850477.263
        43.900
 110397647.374 7  86024147.97245  21007972.955    21007972.6564   21007975.4754
        44.600          35.4004
 145337928.483 5                  27656860.838
        30.500
 202031666.450 7                  38445362.075
        44.600
 120875933.892 5                  23001929.352
        34.300


 102571872.618 8  79778247.927 7  19201674.497    19201674.595    19201679.916
        50.600          46.700


 119042271.853 7  92588446.029 7  22277147.318    22277149.359    22277154.216
        45.200          42.900
 25  1  1 15 25 30.0000000  0 26E27E10G29E29G32G16G04G28G03G26R06G09
                                E04R07E21S35R05S31G31E06S33E19E11R16
                                E12R15




 131551485.852 5                  25033416.747
        32.600
 134720933.200 6                  25636543.499
        36.900
 129735128.945 5 101092375.83242  24687771.327    24687770.9434   24687792.8274
        34.000          15.7004
 108428690.460 8  84489704.29946  20633241.947    20633241.0624   20633241.3254
        51.800          36.2004
 114227817.510 8  89008692.55244  21736818.956    21736818.7464   21736816.6474
        48.000          28.2004
 121029604.821 5  94308827.24442  23031172.728    23031172.7684   23031175.0134
        35.500          12.8004
 109236979.619 6  85120026.48946  20787101.390    20787101.1984   20787104.8024
        41.600          41.6004
 106248827.321 7  82791309.13148  20218461.528    20218460.9704   20218466.5404
        47.300          49.9004
 102909666.945 6                  19285226.454    19285226.290
        40.600
 126264194.103 5  98387740.40243  24027282.370    24027283.3854   24027279.0844
        34.700          20.2004
 133697898.953 7                  25441846.792
        44.000
 118282921.717 7  91997819.276 6  22096236.354    22096234.993    22096239.772
        43.900          38.100
 125147311.652 7                  23814737.686
        46.200


 114006753.700 7  88671998.802 7  21327332.555    21327331.200    21327340.436
        46.600          44.100
 198905500.986 7                  37850467.377
        42.300
 110426736.154 7  86046814.52245  21013509.324    21013509.0164   21013508.6884
        45.100          34.3004


 202031690.480 7                  38445370.397
        44.000
 120877908.895 5                  23002303.587
        32.700


 102585947.793 8  79789195.293 7  19204310.595    19204310.519    19204315.638
        51.700          47.300


 119099303.985 7  92632804.399 7  22287821.148    22287825.027    22287827.080
        43.100          42.200
 25  1  1 15 25 45.0000000  0 25E27E10E29G32G16G04G28G03G26R06G09E04
                                R07E21S35R05S31G31E06S33E19E11R16E12
                                R15




 134749303.935 6                  25641942.102
        39.700
 129780579.100 6 101127791.06742  24696422.476    24696422.1054   24696441.6124
        37.100          16.9004
 108394553.000 8  84463103.75946  20626745.333    20626744.4484   20626744.0084
        50.700          36.2004
 114189786.622 8  88979058.15444  21729582.263    21729582.0274   21729577.9404
        48.500          26.4004
 121068483.998 5  94339122.66442  23038568.148    23038568.0724   23038573.1914
        31.000          13.8004
 109250441.683 7  85130516.39146  20789663.501    20789663.3454   20789666.3454
        42.200          41.1004
 106256232.956 7  82797079.76148  20219870.515    20219869.9524   20219875.7184
        44.700          48.8004
 102892837.247 6                  19282072.821    19282072.611
        40.600
 126215133.056 5  98349511.01643  24017948.348    24017949.1614   24017942.8954
        33.400          21.2004
 133666912.111 6                  25435948.803
        41.600
 118226380.364 7  91953842.731 6  22085672.543    22085672.975    22085679.074
        46.500          36.500
 125145909.955 7                  23814471.411
        46.000


 114054968.653 7  88709499.184 6  21336351.585    21336350.562    21336358.738
        43.900          41.300
 198905499.834 7                  37850474.549
        42.100
 110455879.519 7  86069523.58045  21019054.349    21019054.0234   21019052.7404
        43.600          33.0004


 202031713.725 7                  38445376.585
        45.200
 120879937.762 5                  23002690.151
        33.600


 102600175.961 8  79800261.628 7  19206973.536    19206973.347    19206978.279
        50.800          46.000


 119156368.798 7  92677188.206 6  22298498.536    22298501.593    22298505.476
        44.200          39.500
 25  1  1 15 26  0.0000000  0 25E27E10E29G32G16G04G28G03G26R06G09E04
                                R07E21S35R05S31G31E06S33E19E11R16E12
                                R15




 134777718.234 6                  25647349.176
        39.500
 129826071.529 6 101163239.24742  24705082.352    24705081.6154   24705098.4674
        36.400          17.3004
 108360553.575 8  84436610.73946  20620276.167    20620275.2914   20620274.3304
        49.900          36.8004
 114151798.276 7  88949456.87944  21722352.585    21722352.3314   21722349.9744
        45.700          27.6004
 121107382.107 5  94369432.82242  23045972.524    23045972.4404   23045975.2694
        35.700          14.0004
 109264058.044 6  85141126.52646  20792252.269    20792252.1224   20792257.4934
        41.500          40.3004
 106263789.762 7  82802968.21448  20221309.720    20221309.1484   20221313.3364
        46.000          48.8004
 102876165.265 6                  19278948.630    19278948.499
        41.000
 126166076.132 6  98311284.96143  24008615.918    24008616.5934   24008607.9494
        39.200          23.4004
 133635940.181 7                  25430056.811
        44.700
 118169877.281 7                  22075115.395    22075115.618
        44.000
 125144613.742 7                  23814224.606
        45.100


 114103291.811 7  88747083.795 6  21345390.840    21345389.777    21345398.288
        43.400          39.600
 198905500.292 7                  37850463.634
        42.100
 110485079.271 7  86092276.61845  21024612.727    21024612.4194   21024609.4954
        43.400          32.9004


 202031738.162 7                  38445380.019
        44.600
 120882022.569 6                  23003087.500
        36.200


 102614558.936 8  79811448.368 7  19209665.604    19209666.042    19209670.621
        50.400          46.300


 119213467.676 6  92721598.466 6  22309185.276    22309183.455    22309191.527
        38.500          39.700
 25  1  1 15 26 15.0000000  0 24E27E10E29G32G16G04G28G03G26R06G09E04
                                E21S35R05S31G31E06S33E19E11R16E12R15
 140144887.209 5                  26668686.931
        34.400


 134806175.304 6                  25652765.366
        41.800
 129871605.352 5 101198719.70242  24713751.848    24713750.7934   24713763.0954
        30.200          13.6004
 108326691.758 8  84410224.94346  20613832.692    20613831.8124   20613831.5814
        49.700          38.1004
 114113851.781 7  88919888.20744  21715131.128    21715130.8744   21715131.5944
        46.700          28.9004
 121146298.293 6  94399757.08342  23053379.249    23053379.1824   23053380.0934
        39.100          13.1004
 109277827.838 5  85151856.23846  20794873.507    20794873.3334   20794878.1684
        35.900          37.4004
 106271496.776 7  82808973.69748  20222776.286    20222775.6924   20222779.4784
        47.600          49.6004
 102859650.483 6                  19275853.097    19275853.492
        41.600
 126117022.793 6  98273061.68543  23999279.498    23999280.0164   23999272.5524
        36.200          22.3004
 133604982.446 7                  25424166.221
        44.300
 125143422.211 7                  23813998.472
        44.700


 114151721.900 7  88784751.593 6  21354447.731    21354450.228    21354458.578
        43.700          38.900
 198905501.686 7                  37850471.768
        43.000
 110514334.435 7  86115072.87945  21030178.674    21030178.3884   21030175.9014
        42.500          31.3004


 202031763.619 7                  38445380.279
        46.000
 120884162.574 6                  23003494.925
        38.900


 102629095.696 8  79822754.754 7  19212385.804    19212385.741    19212391.724
        48.300          46.200


 119270599.356 6  92766034.254 6  22319876.771    22319873.351    22319880.427
        37.600          36.100
 25  1  1 15 26 30.0000000  0 25E27E10E29G32G16G04G28G03G26R06G09E04
                                R07E21S35R05S31G31E06S33E19E11R16E12
                                R15
 140180442.790 6                  26675456.551
        37.300


 134834669.593 6                  25658186.234
        40.100


 108292961.994 8  84383942.04146  20607413.526    20607412.6234   20607414.2704
        49.200          38.8004
 114075941.847 7  88890348.01844  21707917.158    21707916.8954   21707919.3594
        45.600          29.5004
 121185226.895 6  94430090.98742  23060785.655    23060785.6634   23060787.1034
        39.200          12.8004
 109291745.452 6  85162366.09745  20797525.897    20797525.6024   20797522.8964
        37.100          33.9004
 106279348.392 8  82815091.87348  20224269.864    20224269.2744   20224273.5014
        48.400          50.8004
 102843287.506 7                  19272787.099    19272787.193
        42.400
 126067967.702 6  98234836.96744  23989941.745    23989942.2544   23989937.6954
        36.200          24.0004
 133574033.553 7                  25418276.798
        44.900
 118056979.227 7                  22054027.981    22054025.791
        42.900
 125142329.830 7                  23813790.376
        45.500


 114200253.490 8  88822498.291 6  21363533.853    21363534.137    21363540.242
        48.100          41.200
 198905497.632 7                  37850480.854
        42.500
 110543639.169 7  86137907.75445  21035755.412    21035755.1174   21035752.7214
        44.800          31.5004


 202031785.083 7                  38445380.614
        44.400
 120886352.233 6                  23003911.991
        41.500


 102643780.113 8  79834175.935 7  19215134.730    19215134.309    19215141.236
        48.100          46.800


 119327757.900 5  92810490.810 5  22330570.322    22330565.806    22330575.716
        31.500          35.500
 25  1  1 15 26 45.0000000  0 25E27E10E29G32G16G04G28G03G26R06G09E04
                                R07E21S35R05S31G31E06S33E19E11R16E12
                                R15


 148074101.013 6                  28177565.696
        36.700
 134863209.798 6                  25663615.974
        36.100


 108259373.396 8  84357769.15346  20601021.649    20601020.7244   20601023.3294
        48.900          39.2004
 114038077.262 7  88860843.17644  21700712.444    21700712.1904   21700714.4804
        45.100          29.9004
 121224176.587 6  94460441.38041  23068197.942    23068197.9074   23068198.2864
        40.100          11.9004
 109305819.201 7  85173332.66746  20800200.794    20800200.5894   20800203.3614
        46.400          40.5004
 106287353.125 8  82821329.34748  20225793.875    20225793.3084   20225796.8574
        49.800          51.6004
 102827085.697 6                  19269750.840    19269750.506
        41.800
 126018919.581 5  98196617.68044  23980607.490    23980607.9954   23980605.2134
        30.500          25.6004
 133543102.148 7                  25412390.598
        45.900
 118000588.390 6                  22043492.691    22043490.067
        40.300
 125141345.176 7                  23813602.420
        47.300


 114248894.903 8  88860330.344 6  21372628.030    21372630.499    21372641.466
        49.500          36.300
 198905498.038 7                  37850473.302
        43.700
 110573001.856 7  86160787.77145  21041341.838    21041341.5574   21041341.2614
        43.300          30.8004
 145118932.081 5                  27615217.542
        34.100
 202031809.412 6                  38445393.220
        41.200
 120888600.382 6                  23004338.928
        40.900


 102658620.944 8  79845718.795 7  19217914.355    19217913.865    19217918.972
        49.700          45.800


 119384951.546 6  92854974.674 5  22341277.957    22341276.160    22341279.600
        40.500          35.600
 25  1  1 15 27  0.0000000  0 23E27E10E29G16G04G28G03G26R06G09E04R07
                                E21S35R05S31G31E06S33E19R16E12R15
 140251776.300 5                  26689025.489
        31.400
 148108472.785 4                  28184104.827
        28.200
 134891794.177 5                  25669055.074
        35.200
 108225924.271 8  84331704.94346  20594656.486    20594655.5564   20594657.8944
        49.200          39.6004
 114000256.554 7  88831372.46345  21693515.272    21693515.0094   21693518.0204
        45.300          30.0004
 121263145.291 6  94490806.59742  23075614.703    23075614.6234   23075613.1664
        38.800          16.2004
 109320047.377 7  85184419.54747  20802908.721    20802908.8144   20802912.1144
        47.000          42.8004
 106295508.820 8  82827684.44748  20227345.324    20227344.7704   20227348.7164
        50.300          51.1004
 102811043.259 7                  19266745.243    19266744.686
        42.800
 125969876.770 6  98158402.57444  23971275.613    23971276.1044   23971272.1684
        38.400          26.3004
 133512186.655 7                  25406507.235
        44.200
 117944238.139 6  91734399.316 5  22032966.214    22032964.592    22032970.351
        39.200          32.300
 125140466.412 7                  23813435.254
        46.700




 198905500.817 7                  37850472.447
        43.000
 110602420.876 7  86183711.64745  21046940.351    21046940.1104   21046940.3454
        44.700          32.9004


 202031836.681 6                  38445384.630
        40.600
 120890905.341 7                  23004778.239
        42.600
 102673615.755 8  79857381.368 7  19220721.246    19220721.110    19220726.256
        50.000          45.800


 119442178.256 6  92899484.214 5  22351982.628    22351980.196    22351989.333
        40.200          35.800
 25  1  1 15 27 15.0000000  0 23E27E10E29G16G04G28G03G26R06G09E04R07
                                E21S35R05S31G31E06S33E19R16E12R15




 134920422.642 5                  25674503.487
        31.300
 108192615.196 8  84305749.85946  20588317.722    20588316.8014   20588319.1904
        50.100          40.3004
 113962480.092 7  88801936.16144  21686326.241    21686325.9784   21686328.9034
        45.300          27.0004
 121302133.226 7  94521186.77143  23083033.034    23083032.9584   23083032.5004
        42.400          20.2004
 109334429.884 7  85195626.68047  20805645.313    20805645.4824   20805649.4404
        47.500          43.4004
 106303815.757 8  82834157.37548  20228925.676    20228925.1354   20228929.4484
        48.700          50.2004
 102795160.789 7                  19263768.593    19263769.044
        43.300
 125920839.916 6  98120192.00944  23961944.127    23961944.5744   23961939.4184
        38.100          29.8004
 133481287.274 7                  25400629.397
        42.000
 117887928.712 6  91690603.055 5  22022447.916    22022446.357    22022451.391
        40.500          35.200
 125139693.714 7                  23813288.468
        46.700


 114346500.994 7                  21390887.342    21390887.186
        46.600
 198905504.800 7                  37850460.580
        42.200
 110631896.196 7  86206679.42745  21052548.370    21052548.1114   21052549.9594
        44.600          32.6004


 202031865.961 7                  38445403.719
        45.700
 120893267.466 7                  23005227.537
        43.200
 102688764.575 8  79869163.814 7  19223556.595    19223557.165    19223561.954
        50.600          47.000


 119499437.923 6  92944019.531 6  22362700.696    22362700.120    22362705.947
        40.300          37.800
 25  1  1 15 27 30.0000000  0 22E27E10E29G16G04G28G03G26R06G09E04R07
                                E21S35R05S31G31E06S33E19R16R15




 134949087.055 6                  25679960.006
        39.900
 108159437.916 8  84279897.49546  20582004.524    20582003.6084   20582005.4564
        49.900          41.0004
 113924739.667 7  88772527.97943  21679144.944    21679144.6364   21679142.6084
        43.400          21.9004
 121341131.826 7  94551575.29243  23090452.692    23090452.6124   23090454.5754
        43.200          20.3004
 109348958.135 7  85206947.38247  20808410.450    20808410.5844   20808414.7674
        46.300          45.6004
 106312265.307 8  82840741.47548  20230533.955    20230533.4234   20230537.4134
        49.500          49.6004
 102779429.951 6                  19260820.362    19260820.058
        41.500
 125871800.295 6  98081979.32345  23952611.268    23952611.6164   23952608.4874
        37.500          31.5004
 133450395.792 6                  25394749.338
        36.500
 117831652.024 7  91646832.424 6  22011933.493    22011933.836    22011938.879
        42.900          40.200
 125139018.522 7                  23813159.774
        46.000
 200856296.939 6                  38221686.873
        38.800
 114395456.624 7                  21400046.296    21400046.241
        47.400
 198905503.029 7                  37850474.178
        43.200
 110661418.977 6  86229684.10045  21058168.199    21058167.9454   21058168.3254
        37.900          30.9004


 202031888.300 7                  38445406.111
        44.300
 120895678.223 7                  23005686.270
        42.500
 102704058.459 8  79881059.055 7  19226421.197    19226421.664    19226427.267
        52.200          47.600
 119556721.261 6  92988573.249 6  22373419.579    22373418.822    22373427.914
        39.000          36.600
 25  1  1 15 27 45.0000000  0 23E27E10E29G32G16G04G28G03G26R06G09E04
                                R07E21S35R05S31G31E06S33E19R16R15


 148211842.434 5                  28203768.525
        34.500
 134977794.555 6                  25685421.636
        36.500
 130145667.105 3 101412262.14141  24765899.048    24765899.2224   24765911.9174
        23.700          10.4004
 108126400.029 8  84254153.70146  20575717.855    20575716.9434   20575718.2564
        51.400          41.7004
 113887042.878 6  88743153.90843  21671970.804    21671970.5144   21671965.7304
        41.600          21.2004
 121380148.292 7  94581977.71643  23097877.415    23097877.3224   23097878.3994
        42.200          21.0004
 109363639.391 7  85218387.29347  20811204.499    20811204.6104   20811208.7444
        47.900          46.9004
 106320864.712 8  82847442.36748  20232170.129    20232169.6064   20232173.9954
        49.100          49.0004
 102763858.667 6                  19257902.202    19257902.137
        39.100
 125822765.643 5  98043770.49844  23943278.007    23943278.2434   23943279.7174
        32.200          29.8004
 133419519.436 6                  25388873.397
        37.700
 117775415.981 7  91603093.229 6  22001427.850    22001429.878    22001435.078
        42.600          41.900
 125138448.201 7                  23813051.686
        47.000


 114444518.544 8                  21409224.849    21409226.205
        48.800
 198905503.569 7                  37850476.114
        42.900
 110690996.517 7  86252731.51845  21063796.481    21063796.2224   21063795.9474
        44.000          31.6004
 144972920.188 5                  27587427.582
        32.000
 202031913.467 7                  38445408.933
        45.300
 120898145.133 6                  23006154.835
        41.400
 102719504.541 8  79893072.679 7  19229312.028    19229312.894    19229318.278
        51.700          47.900
 119614035.583 6  93033150.829 5  22384151.210    22384151.978    22384152.864
        40.700          35.000
 25  1  1 15 28  0.0000000  0 23E27E10E29G32G16G04G28G03G26R06G09E04
                                R07E21S35R05S31G31E06S33E19R16R15


 148246349.246 5                  28210335.317
        34.100
 135006545.956 6                  25690891.378
        40.900


 108093502.615 8  84228519.40546  20569457.643    20569456.7364   20569457.6234
        50.000          41.5004
 113849390.547 7  88713814.45243  21664804.799    21664804.5314   21664801.2384
        43.400          21.6004
 121419183.164 7  94612394.46243  23105305.209    23105305.0934   23105306.7074
        42.300          20.5004
 109378474.158 7  85229946.85747  20814026.579    20814026.6684   20814031.8144
        47.500          46.2004
 106329614.346 7  82854260.26247  20233834.669    20233834.1244   20233838.9194
        47.700          47.7004
 102748447.922 6                  19255014.357    19255013.974
        38.600
 125773736.937 5  98005566.31544  23933949.996    23933950.1974   23933950.9334
        34.100          29.3004
 133388659.091 6                  25383000.028
        39.800
 117719221.598 7  91559386.504 6  21990925.346    21990930.642    21990935.543
        42.800          39.000
 125137983.392 7                  23812962.540
        47.000


 114493686.982 7                  21418424.117    21418424.104
        47.100
 198905504.151 7                  37850478.337
        43.400
 110720629.281 7  86275821.94745  21069434.723    21069434.4284   21069435.7104
        44.800          31.1004


 202031939.576 6                  38445410.364
        41.200
 120900668.851 6                  23006635.089
        40.600
 102735103.283 8  79905204.991 7  19232231.625    19232232.117    19232237.331
        51.900          45.200
 119671381.086 6  93077752.960 5  22394875.898    22394877.303    22394882.603
        40.700          34.000
 25  1  1 15 28 15.0000000  0 23E27E10E29G32G16G04G28G03G26R06G09E04
                                R07E21S35R05S31G31E06S33E19R16R15


 148280884.729 4                  28216903.961
        26.600
 135035335.190 6                  25696370.242
        39.600


 108060739.992 8  84202990.12747  20563223.197    20563222.2904   20563223.0364
        51.600          42.0004
 113811776.998 6  88684505.12743  21657647.342    21657647.0384   21657646.1324
        40.300          23.7004
 121458230.454 7  94642820.92343  23112737.149    23112736.9894   23112736.2504
        42.200          22.7004
 109393456.234 8  85241621.16647  20816878.409    20816878.4804   20816881.8794
        49.900          45.1004
 106338508.201 8  82861190.52247  20235527.756    20235527.2334   20235531.3124
        48.700          47.8004
 102733191.798 6                  19252154.665    19252154.470
        39.100
 125724708.383 5  97967362.25945  23924619.662    23924619.8144   23924620.0654
        35.100          31.2004
 133357809.101 6                  25377129.727
        38.800
 117663063.589 7  91515708.045 7  21980437.230    21980436.773    21980444.987
        42.000          42.300
 125137617.947 7                  23812892.312
        45.600


 114542955.657 8  89089042.489 5  21427640.290    21427640.668    21427649.551
        49.800          33.300
 198905501.593 7                  37850463.849
        42.100
 110750311.062 7  86298950.74345  21075082.912    21075082.6224   21075084.4114
        42.600          31.8004
 144899837.639 5                  27573518.643
        32.400
 202031960.950 6                  38445414.048
        41.100
 120903243.579 6                  23007125.580
        40.000
 102750848.204 8  79917451.029 7  19235179.519    19235179.815    19235184.515
        52.700          45.700
 119728751.415 5                  22405613.276    22405610.252
        33.100
 25  1  1 15 28 30.0000000  0 23E27E10E29G32G16G04G28G03G26R06G09E04
                                R07E21S35R05S31G31E06S33E19R16R15


 148315457.920 4                  28223483.234
        25.300
 135064171.443 6                  25701859.461
        38.000


 108028121.473 8  84177573.13447  20557015.613    20557014.7104   20557016.3354
        51.500          42.3004
 113774211.569 7  88655233.45344  21650499.750    21650499.4334   21650500.1624
        45.600          29.0004
 121497299.171 6  94673264.06543  23120171.005    23120170.8274   23120170.7474
        37.700          19.4004
 109408594.708 8  85253417.34048  20819758.924    20819758.9824   20819762.7394
        50.500          48.6004
 106347555.324 7  82868240.26447  20237249.208    20237248.6674   20237253.2804
        47.300          45.6004
 102718100.143 6                  19249326.320    19249326.594
        36.800


 133326978.355 7                  25371263.243
        44.100
 117606951.202 7  91472065.253 6  21969957.715    21969956.846    21969959.913
        42.500          37.100
 125137361.107 7                  23812843.940
        46.000


 114592333.613 7  89127447.250 6  21436877.730    21436877.856    21436885.106
        43.100          36.200
 198905504.200 6                  37850472.175
        39.800
 110780050.849 7  86322124.44345  21080742.831    21080742.5544   21080744.0994
        42.700          34.5004
 144863292.908 4                  27566563.914
        29.500
 202031988.459 7                  38445422.106
        44.900
 120905878.632 6                  23007627.141
        41.700
 102766748.555 8  79929818.008 7  19238154.767    19238155.363    19238161.659
        51.700          46.000
 119786196.212 5  93167096.870 5  22416351.733    22416353.326    22416366.880
        31.800          31.500
 25  1  1 15 28 45.0000000  0 23E27E10E29G32G16G04G28G03G26R06G09E04
                                R07E21S35R05S31G31E06S33E19R16R15
 140502894.415 5                  26736811.943
        31.500


 135093047.501 6                  25707354.873
        37.600


 107995640.006 8  84152262.95546  20550834.910    20550834.0164   20550835.7164
        49.700          41.6004
 113736687.301 7  88625993.74444  21643358.785    21643358.4684   21643361.2564
        45.100          28.7004
 121536382.035 6  94703718.21043  23127608.565    23127608.4584   23127608.7104
        41.600          21.1004
 109423882.205 8  85265329.62948  20822667.884    20822667.9464   20822670.9534
        49.800          48.0004
 106356748.208 8  82875403.54247  20238998.372    20238997.8364   20239002.6284
        48.700          45.6004
 102703165.874 5                  19246527.685    19246527.751
        35.900


 133296159.988 6                  25365398.562
        41.800
 117550877.953 7  91428452.811 5  21959482.509    21959484.006    21959485.731
        44.600          35.300
 125137205.602 7                  23812814.376
        46.700


 114641813.109 6  89165931.285 6  21446134.339    21446131.235    21446142.675
        40.000          39.900
 198905503.152 7                  37850477.639
        43.700
 110809841.335 7  86345337.80645  21086411.172    21086410.9094   21086414.0274
        45.500          34.5004
 144826738.571 5                  27559606.252
        32.100
 202032013.401 7                  38445433.697
        46.400
 120908566.783 6                  23008138.559
        41.800
 102782796.327 8  79942299.638 7  19241160.635    19241161.281    19241165.172
        52.800          44.600


 25  1  1 15 29  0.0000000  0 24E27E10E29G32G16G04G28G03G26R06G09E04
                                R07E21S35R05S31G31E06S33E19E11R16R15
 140538989.867 5                  26743679.015
        30.600


 135121965.987 6                  25712858.216
        38.200


 107963298.463 8  84127061.76246  20544680.273    20544679.3794   20544681.7844
        49.300          40.8004
 113699206.910 6  88596788.26544  21636227.289    21636226.9854   21636229.1574
        40.300          27.3004
 121575481.578 6  94734185.40943  23135048.168    23135048.0974   23135048.2384
        41.000          20.6004
 109439321.143 8  85277359.93747  20825606.129    20825606.1964   20825608.2644
        48.700          47.9004
 106366089.463 8  82882682.48647  20240775.717    20240775.1764   20240778.8554
        50.600          44.5004
 102688391.899 6                  19243759.284    19243759.348
        36.000


 133265356.661 6                  25359535.886
        41.500
 117494846.415 7  91384872.778 6  21949015.092    21949015.008    21949019.206
        44.700          37.400
 125137153.961 7                  23812804.776
        47.200


 114691396.970 5  89204496.467 6  21455402.900    21455404.454    21455418.448
        31.500          39.900
 198905504.459 7                  37850472.090
        42.700
 110839685.053 7  86368592.64746  21092090.379    21092090.1294   21092093.4124
        46.800          37.7004
 144790177.133 5                  27552648.503
        31.400
 202032038.267 7                  38445436.782
        46.600
 120911310.734 7                  23008661.252
        42.500


 102798994.187 8  79954897.969 7  19244191.910    19244192.416    19244196.082
        52.500          42.000
 119901083.784 6  93256475.191 6  22437858.352    22437862.590    22437868.865
        39.000          37.200
 25  1  1 15 29 15.0000000  0 23E27E10E29G32G16G04G28G03G26R06G09E04
                                R07E21S35R05S31G31E06S33E19R16R15
 140575136.270 5                  26750557.682
        30.200
 148419328.025 5                  28243259.546
        33.300
 135150925.265 6                  25718369.115
        37.800


 107931095.648 8  84101968.69446  20538552.199    20538551.3104   20538553.2064
        48.800          39.6004
 113661769.164 7  88567616.00544  21629103.949    21629103.6364   21629104.3644
        42.000          27.3004
 121614596.090 6  94764664.21643  23142491.650    23142491.6104   23142490.1234
        39.000          20.8004
 109454909.800 8  85289506.92747  20828572.251    20828572.3184   20828574.9304
        48.300          47.4004
 106375577.262 8  82890075.62847  20242581.639    20242581.1034   20242582.8014
        50.300          44.2004
 102673776.721 6                  19241020.137    19241019.821
        36.000
 125528673.096 5                  23887310.850
        30.200
 133234566.988 6                  25353677.321
        39.800
 117438855.581 7  91341324.393 6  21938554.920    21938554.836    21938560.134
        42.100          39.500
 125137204.499 8                  23812814.975
        48.000


 114741082.947 6  89243141.126 7  21464718.168    21464717.042    21464714.428
        40.900          42.500
 198905503.665 7                  37850472.613
        42.800
 110869580.045 7  86391887.44446  21097779.081    21097778.8314   21097782.2954
        47.600          38.9004
 144753607.035 6                  27545691.058
        37.500
 202032062.782 7                  38445440.069
        46.500
 120914108.947 7                  23009193.503
        42.400
 102815339.824 8  79967611.235 6  19247251.820    19247251.904    19247255.191
        51.500          38.900
 119958568.487 6  93301185.673 5  22448614.045    22448614.079    22448622.693
        39.300          35.100
 25  1  1 15 29 30.0000000  0 22E27E10E29G16G04G28G03G26R06G09E04R07
                                E21S35R05S31G31E06S33E19R16R15
 140611329.224 5                  26757447.923
        32.500
 148454025.991 5                  28249860.536
        33.300
 135179926.826 6                  25723887.150
        36.800
 107899033.235 7  84076985.04446  20532450.882    20532450.0194   20532450.6714
        47.100          38.0004
 113624375.598 7  88538478.18744  21621987.383    21621987.0264   21621988.2824
        43.800          28.7004
 121653726.866 6  94795155.72243  23149938.025    23149938.0294   23149937.4404
        40.200          20.3004
 109470649.430 8  85301771.57048  20831567.406    20831567.4644   20831570.4934
        49.600          49.0004
 106385212.952 8  82897584.01447  20244415.537    20244415.0144   20244415.6974
        51.500          44.6004
 102659322.263 5                  19238311.652    19238311.024
        32.700
 125479670.476 5  97776374.00543  23877982.701    23877982.4604   23877987.8484
        32.200          23.4004
 133203792.449 6                  25347821.530
        40.800
 117382907.263 7  91297809.042 6  21928104.960    21928104.829    21928108.705
        42.900          41.300
 125137358.588 7                  23812843.929
        47.200


 114790872.380 7  89281866.168 7  21474023.979    21474025.243    21474028.907
        43.200          44.000
 198905502.515 7                  37850475.189
        43.200
 110899527.631 8  86415223.22546  21103477.991    21103477.7374   21103480.0594
        48.000          39.0004
 144717029.856 5                  27538728.586
        34.600
 202032086.481 7                  38445442.358
        46.300
 120916963.062 7                  23009736.568
        42.200
 102831834.642 8  79980440.518 6  19250340.570    19250340.409    19250343.338
        51.600          40.200
 120016080.010 6  93345916.794 5  22459375.407    22459375.352    22459387.391
        37.900          33.600
 25  1  1 15 29 45.0000000  0 22E27E10E29G16G04G28G03G26R06G09E04R07
                                E21S35R05S31G31E06S33E19R16R15
 140647580.290 5                  26764346.165
        34.100
 148488754.892 4                  28256477.657
        29.000
 135208970.244 5                  25729419.911
        32.200
 107867111.098 7  84052110.70846  20526376.039    20526375.1634   20526375.3154
        46.900          37.2004
 113587026.236 7  88509374.77644  21614880.341    21614879.9884   21614880.1064
        45.300          29.4004
 121692873.530 6  94825659.59043  23157387.436    23157387.3654   23157387.6734
        38.400          20.1004
 109486539.556 8  85314153.47248  20834591.287    20834591.3364   20834594.2404
        48.600          48.5004
 106394995.950 8  82905207.17647  20246277.003    20246276.4804   20246277.7354
        51.800          46.0004
 102645028.665 6                  19235634.521    19235633.734
        36.000
 125430673.140 6  97738194.31845  23868662.842    23868662.0514   23868665.2534
        40.100          32.5004
 133173032.777 6                  25341967.556
        39.600
 117327001.876 6  91254327.087 7  21917660.061    21917661.734    21917666.205
        40.900          43.700
 125137615.871 7                  23812892.713
        46.800


 114840764.839 7  89320671.335 7  21483354.374    21483355.400    21483363.017
        42.200          45.200
 198905502.809 6                  37850463.933
        39.800
 110929527.256 7  86438599.57746  21109186.008    21109185.7584   21109188.5954
        47.600          39.1004
 144680445.300 6                  27531768.056
        36.000
 202032110.945 7                  38445450.989
        45.600
 120919872.801 7                  23010289.995
        42.300
 102848477.756 8  79993385.252 6  19253455.498    19253455.892    19253458.024
        51.100          38.100
 120073617.796 7  93390668.262 5  22470141.187    22470141.512    22470158.081
        42.300          30.700
 25  1  1 15 30  0.0000000  0 22E27E10E29G16G04G28G03G26R06G09E04R07
                                E21S35R05S31G31E06S33E19R16R15
 140683885.538 5                  26771253.690
        34.900


 135238058.144 5                  25734951.365
        34.700
 107835332.034 7  84027347.85746  20520328.558    20520327.6914   20520328.3404
        47.400          38.0004
 113549723.804 7  88480307.95445  21607781.630    21607781.3004   21607781.4374
        46.900          31.5004
 121732038.541 5  94856177.77443  23164839.181    23164838.9854   23164841.1974
        34.800          19.6004
 109502582.569 8  85326654.53448  20837643.902    20837643.9194   20837647.4324
        48.800          49.1004
 106404928.814 8  82912947.11147  20248167.234    20248166.7024   20248169.2044
        51.200          47.6004
 102630898.541 5                  19232985.628    19232983.958
        35.900
 125381683.731 6  97700020.77445  23859338.826    23859337.9234   23859344.0794
        38.700          34.1004
 133142290.770 6                  25336117.699
        38.900
 117271142.298 7  91210880.754 7  21907234.878    21907236.540    21907232.206
        44.100          45.300
 125137978.962 7                  23812961.775
        46.900


 114890762.469 6  89359558.249 7  21492705.757    21492704.731    21492714.875
        38.500          44.000
 198905504.949 7                  37850464.649
        42.000
 110959581.460 7  86462018.44946  21114906.136    21114905.8774   21114906.8664
        46.000          37.8004
 144643856.200 6                  27524805.264
        36.300
 202032137.862 7                  38445450.188
        45.000
 120922840.875 6                  23010854.403
        41.100
 102865271.845 8  80006447.307 6  19256599.482    19256600.314    19256603.471
        51.900          40.200
 120131184.161 6  93435441.764 4  22480911.544    22480913.159    22480938.622
        40.100          29.800
 25  1  1 15 30 15.0000000  0 24E27E10E29G32G16G04G28G03G26R06G09E04
                                R07E21S35R05S31G31E06S33E19E11R16R15
 140720237.559 5                  26778170.165
        30.300


 135267183.266 4                  25740490.287
        27.200


 107803689.013 7  84002690.99546  20514306.336    20514305.4694   20514307.7254
        46.300          37.9004
 113512461.184 8  88451272.17345  21600690.629    21600690.3084   21600690.6244
        48.300          31.7004
 121771214.464 5  94886704.45743  23172294.028    23172293.7604   23172296.9524
        34.900          20.7004
 109518770.954 8  85339268.84648  20840724.501    20840724.4934   20840728.6894
        49.600          49.4004
 106415003.891 8  82920797.83748  20250084.699    20250084.1674   20250088.3574
        51.000          49.0004
 102616924.904 5                  19230364.476    19230363.950
        35.300
 125332695.107 6  97661847.82645  23850017.309    23850016.4384   23850021.8424
        36.600          33.1004
 133111558.978 6                  25330269.954
        40.300
 117215321.225 6  91167464.406 7  21896805.643    21896808.291    21896804.311
        40.400          45.000
 125138440.393 7                  23813049.454
        44.200


 114940857.519 6  89398520.960 7  21502082.109    21502078.195    21502086.139
        36.600          42.800
 198905501.328 6                  37850463.799
        41.900
 110989682.869 7  86485474.10446  21120634.218    21120633.9594   21120634.0044
        44.500          36.7004
 144607255.063 6                  27517839.182
        36.500
 202032159.156 7                  38445455.563
        45.800
 120925859.975 6                  23011429.319
        40.300


 102882208.699 8  80019620.411 7  19259769.606    19259771.415    19259776.709
        51.200          43.000
 120188771.783 6                  22491690.433    22491690.945
        39.700
 25  1  1 15 30 30.0000000  0 24E27E10E29G32G16G04G28G03G26R06G09E04
                                R07E21S35R05S31G31E06S33E19E11R16R15
 140756647.059 5                  26785098.496
        30.800


 135296356.512 4                  25746043.291
        28.500


 107772193.425 7  83978149.01746  20508313.193    20508312.3264   20508314.5484
        44.100          36.4004
 113475249.757 8  88422276.26745  21593609.546    21593609.2334   21593610.6684
        48.000          33.4004
 121810412.354 6  94917248.25343  23179755.560    23179755.2614   23179756.2674
        40.400          23.0004
 109535115.732 8  85352005.03048  20843835.368    20843835.3554   20843839.5124
        50.700          49.6004
 106425232.266 8  82928768.01148  20252030.923    20252030.3964   20252035.4634
        50.800          48.5004
 102603119.357 6                  19227778.854    19227778.153
        36.900
 125283718.585 6  97623684.30345  23840696.950    23840696.0704   23840700.6374
        39.500          33.1004
 133080848.840 6                  25324425.645
        41.400
 117159550.602 5  91124087.176 7  21886389.031    21886387.273    21886384.236
        30.600          45.200
 125139011.262 7                  23813158.220
        44.200


                  89437568.236 7                  21511465.397    21511477.852
                        42.700
 198905504.789 7                  37850471.182
        42.000
 111019842.060 7  86508974.78445  21126373.602    21126373.2984   21126372.6614
        42.300          34.9004
 144570653.175 6                  27510875.061
        36.600
 202032187.813 7                  38445463.625
        45.800
 120928941.257 6                  23012015.354
        40.900


 102899299.669 8  80032913.388 7  19262969.073    19262969.161    19262976.486
        48.600          43.700
 120246391.464 6                  22502472.861    22502473.597
        37.500
 25  1  1 15 30 45.0000000  0 23E27E10E29G32G16G04G28G03G26R06G09E04
                                R07E21S35R05S31G31E06S33E19E11R16
 140793105.287 4                  26792036.306
        27.200


 135325569.621 5                  25751602.466
        30.000


 107740836.890 7  83953715.37846  20502346.994    20502346.0824   20502347.2434
        45.300          36.2004
 113438081.240 7  88393313.78845  21586536.571    21586536.2944   21586538.3414
        47.600          32.5004
 121849623.628 7  94947802.47844  23187214.884    23187214.5764   23187217.5054
        43.200          24.2004
 109551608.176 8  85364856.26248  20846972.695    20846972.6604   20846977.2274
        50.200          48.2004
 106435605.250 8  82936850.87948  20254004.773    20254004.2414   20254009.2464
        49.800          48.2004
 102589473.443 6                  19225223.379    19225223.502
        39.700
 125234745.881 6  97585523.73145  23831376.759    23831375.8434   23831380.0454
        40.500          30.5004
 133050151.921 6                  25318583.923
        41.100
 117103864.474 5  91080742.911 7  21875985.908                    21875973.798
        34.500          44.000
 125139683.005 7                  23813285.621
        43.000


                  89476692.971 6                  21520876.092    21520889.303
                        41.300
 198905506.549 6                  37850464.935
        38.900
 111050050.576 6  86532513.90945  21132122.265    21132121.9304   21132121.2894
        41.100          33.7004


 202032214.147 7                  38445471.800
        44.300
 120932076.443 6                  23012611.875
        41.500


 102916535.432 7  80046318.989 7  19266195.445    19266195.218    19266202.319
        46.300          42.400
 25  1  1 15 31  0.0000000  0 24E27E10E29G32G16G04G28G03G26R06G09E04
                                R07E21S35R05S31G31E06S33E19E11R16R15




 135354821.301 6                  25757169.861
        37.000


 107709618.623 7  83929389.49546  20496406.596    20496405.6714   20496406.2504
        45.400          37.7004
 113400954.674 7  88364383.98145  21579471.230    21579470.9584   21579474.8504
        44.300          30.7004
 121888846.950 6  94978366.08543  23194678.636    23194678.3374   23194680.7644
        38.100          22.4004
 109568246.919 8  85377821.49447  20850138.785    20850138.7454   20850142.7834
        49.000          47.1004
 106446121.486 8  82945045.37447  20256005.886    20256005.3634   20256009.8104
        49.700          46.5004
 102575986.460 6                  19222695.827    19222695.104
        40.100
 125185776.044 6  97547365.41044  23822056.062    23822054.9944   23822060.1114
        37.000          25.5004
 133019467.090 7                  25312745.138
        44.900
 117048177.661 7  91037431.054 7  21865568.801    21865568.521    21865572.075
        42.100          43.300
 125140454.353 7                  23813431.323
        42.500


 115092154.416 7  89515894.129 5  21530299.978    21530312.798    21530315.018
        43.900          35.400
 198905503.766 7                  37850461.693
        42.500
 111080306.945 7  86556090.34845  21137878.648    21137878.3224   21137879.0584
        42.300          33.0004
 144497420.754 5                  27496939.225
        31.400
 202032236.683 7                  38445471.920
        44.800
 120935264.292 6                  23013218.925
        40.500


 102933914.598 8  80059836.198 6  19269448.900    19269448.923    19269454.414
        48.100          40.600
 120361697.994 5                  22524052.539    22524050.584
        35.600
 25  1  1 15 31 15.0000000  0 24E27E10E29G32G16G04G28G03G26R06G09E04
                                R07E21S35R05S31G31E06S33E19E11R16R15




 135384118.795 6                  25762743.589
        37.700
 130790694.800 5 101914864.72442  24888638.484    24888638.4134   24888651.0174
        33.900          12.8004
 107678546.162 7  83905177.21146  20490493.266    20490492.3454   20490493.8624
        47.500          39.9004
 113363877.611 7  88335492.76344  21572415.338    21572415.1104   21572419.9134
        44.300          28.1004
 121928089.603 6  95008944.75643  23202145.951    23202145.6794   23202147.9044
        41.100          23.5004
 109585039.181 7  85390906.37047  20853334.396    20853334.3654   20853337.7934
        47.900          46.3004
 106456788.124 8  82953357.07347  20258035.274    20258034.7334   20258038.9964
        48.600          45.7004
 102562665.924 6                  19220196.855    19220197.296
        38.900
 125136816.587 6  97509215.18944  23812740.978    23812739.9634   23812741.7994
        36.500          27.2004
 132988801.809 7                  25306909.918
        46.000
 116992540.117 7  90994157.422 7  21855173.993    21855176.483    21855178.616
        45.700          43.200
 125141332.593 7                  23813598.760
        42.000


 115142661.540 7                  21539762.199    21539760.773
        46.100
 198905505.323 7                  37850470.560
        43.400
 111110618.372 6  86579709.64445  21143646.757    21143646.4764   21143647.9614
        40.500          32.2004
 144460796.467 5                  27489969.732
        34.800
 202032262.933 7                  38445474.997
        45.600
 120938512.276 6                  23013837.359
        39.800


 102951444.403 8  80073470.483 6  19272729.819    19272730.732    19272735.149
        48.600          38.600
 120419390.195 5                  22534847.773    22534844.495
        31.300
 25  1  1 15 31 30.0000000  0 24E27E10E29G32G16G04G28G03G26R06G09E04
                                R07E21S35R05S31G31E06S33E19E11R16R15
 140902804.403 5                  26812918.053
        32.100


 135413458.676 6                  25768326.817
        38.400
 130837056.960 6 101950990.73142  24897461.788    24897461.9174   24897477.9374
        37.200          16.9004
 107647616.321 8  83881076.06946  20484607.712    20484606.8004   20484608.8494
        48.300          41.5004
 113326846.751 6  88306637.51344  21565368.172    21565367.9494   21565372.2244
        41.800          24.3004
 121967347.953 7  95039535.66544  23209616.488    23209616.2874   23209618.5544
        43.200          26.2004
 109601981.215 7  85404107.98647  20856558.969    20856558.9294   20856561.5734
        47.800          46.6004
 106467601.490 8  82961783.09947  20260093.649    20260093.1084   20260096.6404
        48.700          45.6004
 102549508.641 6                  19217732.076    19217731.343
        37.300
 125087864.114 5  97471070.39544  23803425.823    23803424.9604   23803426.3234
        34.200          26.3004
 132958152.690 7                  25301077.463
        46.300
 116936948.455 7  90950919.478 7  21844788.965    21844790.434    21844794.287
        45.900          42.900
 125142314.195 6                  23813785.739
        40.000


 115193270.287 7                  21549223.217    21549226.000
        45.500
 198905507.920 7                  37850465.168
        43.000
 111140981.103 7  86603368.90845  21149423.549    21149423.3134   21149426.6564
        44.400          34.3004
 144424165.814 6                  27482998.746
        36.100
 202032290.377 7                  38445480.644
        45.600
 120941816.960 6                  23014465.392
        38.900


 102969120.818 8  80087218.782 6  19276040.620    19276041.485    19276042.826
        48.600          38.500
 120477106.859 5                  22545648.223    22545646.840
        33.300
 25  1  1 15 31 45.0000000  0 23E27E10E29G32G16G04G28G03G26R06G09E04
                                R07E21S35R05S31G31E06S33E19E11R16
 140939463.971 5                  26819887.265
        32.900


 135442838.350 6                  25773918.203
        38.300
 130883455.174 5 101987144.81042  24906286.145    24906286.1584   24906308.5464
        33.000          14.3004
 107616826.607 8  83857084.10146  20478748.714    20478747.8074   20478750.1254
        49.400          41.7004
 113289859.799 6  88277816.54143  21558331.289    21558330.9414   21558332.3124
        40.800          21.7004
 122006619.390 7  95070136.76844  23217089.641    23217089.4674   23217092.1564
        42.600          27.1004
 109619070.303 8  85417424.18447  20859811.731    20859811.6644   20859813.8654
        48.800          47.9004
 106478558.876 8  82970321.32347  20262178.002    20262177.4664   20262182.0354
        48.200          45.4004
 102536512.355 6                  19215297.402    19215296.420
        38.300
 125038916.103 6  97432929.09444  23794112.620    23794111.8654   23794112.6494
        36.100          25.7004
 132927517.278 7                  25295248.609
        45.600
 116881401.031 7  90907715.948 7  21834411.835    21834414.843    21834416.921
        44.700          42.600
 125143396.424 6                  23813992.055
        41.100




 198905507.661 7                  37850475.537
        43.100
 111171392.420 7  86627066.01045  21155210.182    21155209.9374   21155213.7364
        42.700          32.9004
 144387526.356 6                  27476026.214
        38.500
 202032314.548 7                  38445486.453
        47.000
 120945175.804 5                  23015104.258
        34.200


 102986940.800 8  80101078.716 6  19279376.606    19279378.241    19279379.717
        48.700          38.700
 25  1  1 15 32  0.0000000  0 24E27E10E29G32G16G04G28G03G26R06G09E04
                                R07E21S35R05S31G31E06S33E19E11R16R15
 140976174.137 4                  26826867.332
        28.600


 135472260.510 6                  25779517.678
        36.200
 130929891.845 5 102023328.90142  24915124.307    24915123.8164   24915143.9274
        35.100          14.3004
 107586179.998 8  83833203.64546  20472916.462    20472915.5374   20472918.0514
        49.200          41.0004
 113252919.655 6  88249032.09643  21551302.054    21551301.6434   21551300.6674
        40.400          22.0004
 122045906.471 7  95100750.05144  23224566.451    23224566.2594   23224568.7764
        42.200          26.8004
 109636308.978 8  85430856.94248  20863091.600    20863091.4984   20863094.5254
        49.600          49.2004
 106489662.791 7  82978973.73647  20264291.199    20264290.6764   20264295.4814
        47.300          45.3004
 102523680.095 6                  19212892.978    19212892.829
        39.100
 124989975.646 6  97394793.65144  23784800.232    23784799.5224   23784800.5134
        38.000          24.0004
 132896898.348 7                  25289421.979
        45.700
 116825900.662 6  90864549.006 6  21824038.179    21824039.225    21824048.382
        41.400          41.800
 125144582.027 6                  23814216.983
        40.000


 115294786.145 7  89673518.900 5  21568210.321    21568211.512    21568223.583
        42.800          34.800
 198905507.727 7                  37850465.999
        42.100
 111201854.877 6  86650802.92944  21161008.103    21161007.7824   21161009.6304
        36.600          29.6004
 144350880.898 6                  27469052.677
        38.000
 202032339.590 7                  38445492.928
        45.600
 120948591.791 5                  23015755.096
        35.700


 103004907.078 7  80115052.502 6  19282738.345    19282739.551    19282742.216
        47.700          38.400
 120592605.121 6  93794353.129 5  22567271.593                    22567286.042
        41.000          30.700
 25  1  1 15 32 15.0000000  0 24E27E10E29G32G16G04G28G03G26R06G09E04
                                R07E21S35R05S31G31E06S33E19E11R16R15




 135501724.153 5                  25785125.224
        31.900
 130976365.953 5 102059542.20142  24923966.347    24923965.7534   24923987.4774
        30.700          12.1004
 107555675.909 8  83809434.27146  20467111.904    20467110.9744   20467112.7404
        48.800          40.2004
 113216025.529 7  88220283.49443  21544280.904    21544280.4664   21544279.1834
        43.500          22.8004
 122085208.143 7  95131374.70444  23232045.424    23232045.2464   23232047.5914
        43.800          27.2004
 109653696.096 8  85444405.32248  20866400.292    20866400.2034   20866403.5034
        49.200          50.1004
 106500912.062 8  82987739.39147  20266432.086    20266431.5544   20266436.6194
        48.600          46.4004
 102511011.104 6                  19210518.348    19210518.505
        39.300
 124941041.957 6  97356663.53043  23775489.927    23775489.2084   23775490.8274
        39.000          23.6004
 132866295.091 7                  25283598.274
        44.800
 116770446.956 7  90821418.357 6  21813682.436    21813680.613    21813689.833
        42.300          41.900
 125145869.903 6                  23814462.877
        41.200


 115345694.838 7  89713114.517 5  21577738.009    21577738.304    21577747.227
        43.400          32.900
 198905507.778 7                  37850472.913
        44.200
 111232367.383 7  86674578.87545  21166814.454    21166814.0974   21166816.4574
        42.100          31.8004
 144314228.365 6                  27462078.416
        38.400
 202032365.126 7                  38445494.940
        44.600
 120952063.978 6                  23016415.528
        36.200


 103023017.960 7  80129138.769 6  19286131.007    19286131.174    19286133.508
        46.700          39.600
 120650389.401 6  93839296.639 5  22578088.639    22578087.236    22578094.804
        39.100          33.900
 25  1  1 15 32 30.0000000  0 23E27E10E29G32G16G04G28G03G26R06G09E04
                                R07E21S35R05S31G31E06S33E19R16R15




 135531230.089 5                  25790741.092
        34.900
 131022878.247 4 102095785.35341  24932819.059    24932818.3804   24932838.1204
        28.500           6.9004
 107525315.376 8  83785776.79946  20461334.894    20461333.9644   20461334.3314
        49.500          39.0004
 113179178.476 7  88191571.55044  21537268.542    21537268.0864   21537267.6964
        45.800          26.2004
 122124525.192 6  95162011.35444  23239526.913    23239526.7354   23239529.0854
        41.100          25.8004
 109671232.244 8  85458069.84948  20869737.024    20869736.9314   20869740.4874
        49.900          50.0004
 106512307.415 7  82996618.90447  20268600.185    20268599.6314   20268605.5884
        47.100          47.0004
 102498506.488 6                  19208176.391    19208176.224
        41.300
 124892116.038 5  97318539.47342  23766178.872    23766178.1484   23766182.2194
        35.800          17.1004
 132835708.456 7                  25277776.775
        44.400
 116715041.169 6  90778324.980 6  21803331.685    21803330.864    21803338.313
        40.300          41.300
 125147260.798 7                  23814727.438
        42.400


 115396703.852 7  89752788.013 6  21587281.449    21587280.040    21587287.322
        43.300          36.000
 198905508.141 7                  37850460.468
        42.100
 111262930.701 6  86698394.40845  21172630.362    21172630.0184   21172634.0474
        38.400          32.2004
 144277569.835 6                  27455103.335
        39.000
 202032389.332 7                  38445501.974
        45.300
 120955593.073 6                  23017087.141
        38.400
 103041274.228 7  80143338.071 6  19289548.806    19289548.352    19289551.817
        46.700          40.800
 120708196.405 6  93884257.732 5  22588900.852    22588906.229    22588908.810
        37.400          32.100
 25  1  1 15 32 45.0000000  0 23E27E10E29G32G16G04G28G03G26R06G09E04
                                R07E21S35R05S31G31E06S33E19R16R15




 135560779.648 5                  25796363.985
        34.500


 107495099.876 8  83762232.32846  20455584.779    20455583.8454   20455583.8294
        50.100          39.3004
 113142380.048 7  88162897.47544  21530265.424    21530264.9914   21530266.0834
        46.200          28.9004
 122163858.704 6  95192660.82343  23247011.094    23247010.9204   23247013.9564
        40.800          23.7004
 109688918.577 8  85471851.40548  20873102.934    20873102.8454   20873106.2644
        50.100          50.0004
 106523849.922 8  83005613.07547  20270797.322    20270796.7864   20270801.9654
        48.300          47.2004
 102486167.874 6                  19205861.978    19205862.714
        40.400
 124843199.355 4  97280422.46841  23756871.625    23756870.8704   23756875.0334
        28.500           8.4004
 132805139.757 7                  25271959.682
        43.900
 116659684.978 7  90735270.161 6  21792995.354    21792992.669    21792997.619
        42.800          41.800
 125148756.009 7                  23815011.806
        45.300


 115447814.244 6  89792540.434 6  21596840.244    21596841.402    21596850.969
        39.500          39.100
 198905509.701 7                  37850471.799
        43.500
 111293545.844 6  86722250.34845  21178458.080    21178457.7814   21178459.7174
        40.300          32.3004
 144240906.582 6                  27448126.668
        38.900
 202032416.697 7                  38445505.077
        45.100
 120959180.633 6                  23017769.646
        39.900
 103059676.530 8  80157650.974 6  19292993.973    19292995.057    19292996.036
        48.500          40.500
 120766027.194 6  93929237.362 5  22599719.982    22599718.205    22599727.288
        36.500          32.900
 25  1  1 15 33  0.0000000  0 23E27E10E29G32G16G04G28G03G26R06G09E04
                                R07E21S35R05S31G31E06S33E19R16R15




 135590367.657 6                  25801994.108
        36.300


 107465024.401 8  83738796.95646  20449861.122    20449860.1794   20449860.3314
        50.700          39.1004
 113105625.329 7  88134257.43944  21523270.246    21523269.8314   21523272.3454
        44.900          29.4004
 122203203.515 6  95223319.07543  23254498.427    23254498.1994   23254500.0384
        39.900          21.5004
 109706749.746 8  85485745.81448  20876496.047    20876495.9544   20876499.6624
        50.600          50.1004
 106535534.317 7  83014717.81947  20273020.595    20273020.0284   20273024.9424
        47.600          46.9004
 102473990.281 6                  19203580.733    19203581.270
        40.700


 132774583.992 7                  25266145.076
        43.800
 116604373.511 7  90692250.130 6  21782661.583    21782660.650    21782662.559
        45.200          39.400
 125150350.333 7                  23815315.425
        45.500


 115499021.177 6  89832367.862 6  21606423.027    21606422.350    21606429.712
        41.000          41.600
 198905508.091 7                  37850470.198
        43.000
 111324207.590 6  86746142.59945  21184292.194    21184291.9224   21184292.6714
        41.400          31.1004
 144204233.494 6                  27441148.130
        39.500
 202032440.190 7                  38445514.378
        45.600
 120962821.631 6                  23018462.681
        40.900
 103078219.608 7  80172073.400 7  19296461.807    19296462.639    19296468.935
        46.200          43.000
                  93974231.105 5                                  22610554.043
                        34.000
 25  1  1 15 33 15.0000000  0 23E27E10E29G32G16G04G28G03G26R06G09E04
                                R07E21S35R05S31G31E06S33E19E11R16




 135619999.266 5                  25807632.452
        35.100


 107435094.536 8  83715475.05246  20444165.248    20444164.2964   20444165.3804
        50.800          40.2004
 113068919.740 7  88105655.68045  21516285.899    21516285.4974   21516288.3374
        44.600          31.0004
 122242564.747 5  95253990.10143  23261989.411    23261989.1484   23261988.7984
        35.200          18.7004
 109724730.783 8  85499757.00248  20879917.501    20879917.3994   20879921.3434
        50.200          50.4004
 106547365.576 7  83023936.99347  20275272.295    20275271.7504   20275275.4124
        47.800          46.9004
 102461979.480 6                  19201329.425    19201329.074
        39.500


 132744046.513 7                  25260334.660
        44.700
 116549112.444 6  90649269.364 6  21772335.522    21772334.158    21772339.304
        41.300          38.200
 125152048.896 7                  23815639.482
        47.200


 115550329.071 5  89872274.005 7  21616015.702    21616012.281    21616030.402
        33.900          44.000
 198905508.465 7                  37850474.214
        43.300
 111354920.919 6  86770075.07844  21190135.554    21190135.2014   21190136.3534
        40.100          29.4004
 144167555.917 6                  27434168.422
        39.900
 202032464.796 7                  38445514.767
        46.500
 120966521.286 6                  23019166.648
        39.800


 103096908.173 7  80186608.972 7  19299961.186    19299961.357    19299968.395
        44.400          43.900
 25  1  1 15 33 30.0000000  0 24E27E10E29G32G16G04G28G03G26R06G09E04
                                R07E21S35R05S31G31E06S33E19E11R16R15
 141197458.262 5                  26868983.703
        34.200


 135649674.504 5                  25813278.371
        31.900


 107405310.387 8  83692266.69746  20438498.069    20438497.1394   20438498.2204
        51.200          41.0004
 113032263.482 7  88077092.35745  21509311.425    21509311.0364   21509313.3434
        44.300          30.4004
 122281942.243 5  95284673.82443  23269485.306    23269485.0074   23269481.8834
        34.600          18.7004
 109742861.444 8  85513884.79048  20883368.106    20883368.0174   20883371.3754
        50.000          50.6004
 106559343.522 8  83033270.48247  20277550.988    20277550.4214   20277554.2224
        49.100          47.5004
 102450135.490 6                  19199110.347    19199109.638
        37.900


 132713527.320 7                  25254527.229
        44.800
 116493902.282 6  90606328.149 6  21762021.267    21762021.040    21762027.250
        41.300          40.500
 125153851.534 8                  23815982.553
        48.100


 115601737.795 6  89912258.430 7  21625631.647    21625631.533    21625647.212
        40.500          44.500
 198905510.317 7                  37850478.198
        42.700
 111385685.477 7  86794047.42744  21195990.940    21195990.5474   21195989.9624
        43.500          29.6004
 144130873.734 6                  27427187.628
        36.500
 202032491.625 7                  38445522.678
        46.000
 120970279.579 6                  23019882.003
        40.400


 103115742.192 7  80201257.737 7  19303486.819    19303487.826    19303493.916
        47.600          46.000
 120939639.143 5  94064272.338 5  22632220.447    22632225.944    22632210.863
        31.900          33.200
 25  1  1 15 33 45.0000000  0 24E27E10E29G32G16G04G28G03G26R06G09E04
                                R07E21S35R05S31G31E06S33E19E11R16R15
 141234510.720 5                  26876034.929
        34.600


 135679388.689 4                  25818939.444
        29.100
 131255977.552 5 102277464.44942  24977180.536    24977180.2104   24977202.0134
        35.700          14.5004
 107375667.565 8  83669168.44446  20432856.963    20432856.0294   20432857.4294
        50.300          40.7004
 112995652.155 7  88048564.02445  21502344.390    21502343.9884   21502345.8984
        44.500          30.8004
 122321331.419 6  95315366.65843  23276980.840    23276980.5364   23276978.4644
        37.200          19.5004
 109761136.991 8  85528125.44348  20886845.723    20886845.6254   20886849.1344
        49.600          50.3004
 106571463.323 8  83042714.49147  20279857.493    20279856.9484   20279859.5404
        48.200          46.3004
 102438454.121 6                  19196922.178    19196922.572
        40.400
 124647534.530 5  97128019.33042  23719644.926    23719645.6014   23719654.5524
        32.200          12.1004
 132683022.087 7                  25248722.881
        45.200
 116438738.364 4  90563423.210 5  21751716.123    21751710.180    21751718.238
        29.100          34.900
 125155753.663 8                  23816344.165
        48.100


 115653242.537 6  89952317.491 7  21635269.149    21635268.993    21635282.463
        41.100          44.800
 198905508.814 7                  37850474.540
        43.000
 111416496.655 7  86818056.12644  21201853.605    21201853.2524   21201851.6424
        42.900          27.5004
 144094182.647 6                  27420206.209
        40.300
 202032515.248 7                  38445521.077
        44.800
 120974091.965 7                  23020607.743
        43.400


 103134716.384 8  80216015.405 7  19307040.376    19307041.085    19307045.852
        48.700          45.800
 120997551.163 4  94109315.328 6  22643058.539    22643056.152    22643052.204
        29.500          36.700
 25  1  1 15 34  0.0000000  0 24E27E10E29G32G16G04G28G03G26R06G09E04
                                R07E21S35R05S31G31E06S33E19E11R16R15
 141271610.783 4                  26883090.404
        28.700
 149083681.184 5                  28369678.252
        32.100


 131302712.078 5 102313880.74142  24986074.229    24986073.9344   24986098.5434
        35.000          12.0004
 107346168.388 8  83646182.09946  20427243.875    20427242.9324   20427243.9964
        49.700          40.3004
 112959088.140 7  88020072.57945  21495386.174    21495385.7854   21495388.0624
        43.900          31.3004
 122360734.214 6  95346070.11643  23284475.564    23284475.2514   23284477.1334
        39.100          18.2004
 109779559.326 8  85542480.48348  20890350.949    20890350.8654   20890354.6904
        49.100          49.6004
 106583726.998 8  83052270.62947  20282191.147    20282190.5844   20282192.8464
        49.100          46.9004
 102426937.561 6                  19194762.550    19194762.452
        39.200
 124598654.662 6  97089931.31944  23710348.509    23710349.2024   23710346.5034
        40.200          25.7004
 132652532.907 7                  25242920.984
        45.200
 116383624.171 5  90520556.514 5  21741421.205    21741414.198    21741422.492
        32.900          34.100
 125157757.285 8                  23816724.997
        48.200


 115704844.935 6  89992452.489 7  21644934.482    21644934.749    21644935.561
        37.100          43.000
 198905506.852 7                  37850471.629
        42.600
 111447356.205 7  86842102.54544  21207725.306    21207724.9494   21207721.4744
        42.100          26.4004
 144057484.788 7                  27413222.601
        42.100
 202032538.620 7                  38445528.361
        46.700
 120977960.825 7                  23021344.381
        44.700


 103153832.553 7  80230883.567 7  19310616.100    19310617.198    19310624.531
        46.800          46.700
 121055482.708 5  94154372.828 6  22653901.126    22653899.313    22653894.972
        34.900          37.200
 25  1  1 15 34 15.0000000  0 24E27E10E29G32G16G04G28G03G26R06G09E04
                                R07E21S35R05S31G31E06S33E19E11R16R15
 141308764.544 4                  26890162.420
        29.400
 149118928.842 5                  28376385.260
        30.500


 131349488.958 5 102350329.9494   24994974.541    24994973.9744   24994999.8044
        33.800           5.3004
 107316819.294 8  83623312.68946  20421658.917    20421657.9614   20421659.3504
        50.100          40.7004
 112922577.824 7  87991622.98145  21488438.419    21488438.0484   21488440.4044
        45.900          31.9004
 122400156.706 6  95376788.89642  23291973.907    23291973.5054   23291980.0064
        36.600          13.8004
 109798134.403 8  85556954.55548  20893886.304    20893886.2334   20893889.1864
        48.700          49.1004
 106596140.461 8  83061943.47247  20284553.350    20284552.7744   20284555.4154
        49.600          47.9004
 102415592.526 6                  19192636.375    19192636.187
        38.100
 124549788.790 7  97051854.03344  23701047.889    23701047.9824   23701046.3244
        42.300          29.8004
 132622066.080 7                  25237123.434
        46.800
 116328565.916 7  90477733.375 6  21731137.850    21731134.711    21731137.648
        44.400          37.700
 125159868.491 7                  23817126.794
        46.900


 115756551.188 6  90032668.142 6  21654611.863    21654608.604    21654606.527
        36.200          40.400
 198905510.482 6                  37850461.617
        38.200
 111478270.196 6  86866191.40444  21213608.924    21213608.6074   21213605.0564
        37.300          27.3004
 144020786.337 6                  27406238.830
        41.700
 202032566.537 7                  38445535.502
        45.600
 120981892.281 7                  23022091.766
        44.100


 103173096.742 7  80245866.790 7  19314225.534    19314223.987    19314230.846
        46.300          47.300
 121113440.134 5  94199450.801 6  22664750.004    22664747.841    22664739.122
        35.100          37.700
 25  1  1 15 34 30.0000000  0 24E27E10E29G32G16G04G28G03G26R06G09E04
                                R07E21S35R05S31G31E06S33E19E11R16R15


 149154196.802 5                  28383097.789
        32.000
 135768859.821 5                  25835951.326
        30.600
 131396296.929 4 102386803.37741  25003881.439    25003880.9394   25003905.4034
        27.700           6.6004
 107287609.658 8  83600551.96446  20416100.412    20416099.4604   20416101.6024
        49.100          39.5004
 112886110.403 7  87963206.81544  21481498.771    21481498.4234   21481500.2364
        43.300          29.9004
 122439587.797 5  95407514.34742  23299490.638    23299490.3214   23299484.1494
        35.600          14.7004
 109816850.999 8  85571538.92348  20897448.269    20897448.2074   20897450.7884
        50.800          50.1004
 106608692.519 8  83071724.29848  20286941.886    20286941.3014   20286945.1574
        50.600          49.8004
 102404407.872 6                  19190540.962    19190540.588
        39.100
 124500926.090 6  97013779.21244  23691749.250    23691749.1574   23691746.0834
        41.000          29.0004
 132591610.733 7                  25231327.509
        46.500
 116273552.692 7  90434945.357 6  21720860.370    21720860.930    21720863.224
        45.700          38.300
 125162076.192 7                  23817546.187
        45.500


 115808349.484 6  90072955.327 6  21664298.411    21664298.212    21664298.903
        40.700          40.400
 198905507.442 6                  37850460.933
        37.200
 111509227.554 6  86890314.03244  21219501.409    21219501.1234   21219498.6284
        37.300          27.2004
 143984076.344 6                  27399252.470
        39.600
 202032589.192 7                  38445537.032
        42.200
 120985875.347 7                  23022849.976
        44.800


 103192497.225 7  80260956.093 7  19317857.149    19317855.011    19317861.853
        43.900          45.500
 121171468.255 5  94244539.470 6  22675588.858    22675585.699    22675586.957
        34.600          36.500
 25  1  1 15 34 45.0000000  0 22E27E10E29G16G04G28G03G26R06G09E04R07
                                E21S35R05S31G31E06S33E19E11R16


 149189492.483 6                  28389814.646
        37.300


 107258547.232 8  83577905.93446  20410570.185    20410569.2244   20410571.7034
        48.300          38.8004
 112849693.810 7  87934830.24644  21474568.720    21474568.3944   21474569.7134
        43.500          28.5004
 122479035.188 4  95438252.39841  23307007.235    23307006.7084   23306991.0644
        28.300           9.8004
 109835716.678 7  85586239.43347  20901038.330    20901038.2544   20901040.7504
        45.800          47.4004
 106621390.707 8  83081618.97548  20289357.523    20289356.9294   20289362.0924
        49.400          49.5004
 102393391.956 6                  19188476.900    19188476.938
        39.900
 124452074.476 6  96975713.06044  23682452.727    23682452.5404   23682449.7944
        37.900          26.3004
 132561174.663 7                  25225535.812
        45.600
 116218592.840 6  90392198.880 6  21710591.894    21710587.163    21710596.615
        39.400          40.700
 125164388.118 7                  23817986.328
        44.800


 115860247.590 7  90113320.295 6  21673998.362    21674000.381    21674006.567
        44.900          37.800
 198905507.366 7                  37850468.360
        42.200
 111540235.776 6  86914476.30844  21225402.145    21225401.8914   21225399.1714
        39.600          26.3004
 143947362.610 6                  27392265.526
        38.800
 202032613.763 7                  38445547.450
        45.200
 120989918.035 7                  23023619.269
        44.800


 103212041.711 7  80276157.300 7  19321517.432    19321516.532    19321521.044
        47.000          47.000
 25  1  1 15 35  0.0000000  0 23E27E10E29G16G04G28G03G26R06G09E04R07
                                E21S35R05S31G31E06S33E19E11R16R15


 149224817.000 6                  28396537.096
        36.700


 107229633.650 7  83555375.89546  20405068.283    20405067.3404   20405069.2114
        47.900          37.1004
 112813329.628 7  87906494.54744  21467649.539    21467649.1914   21467649.5064
        44.200          27.6004


 109854732.505 7  85601056.92847  20904656.101    20904656.0084   20904659.1514
        46.300          45.3004
 106634236.140 7  83091628.40548  20291802.145    20291801.5424   20291806.4774
        47.000          48.0004
 102382546.147 7                  19186445.395    19186445.624
        42.300
 124403235.567 6  96937656.81144  23673160.719    23673160.4914   23673155.9524
        40.200          25.6004
 132530759.263 7                  25219747.760
        45.900
 116163688.021 7  90349495.026 6  21700337.099    21700334.859    21700340.851
        43.200          41.200
 125166805.417 7                  23818446.475
        45.300


 115912246.516 7  90153763.800 5  21683724.019    21683723.598    21683734.399
        42.900          35.900
 198905510.547 7                  37850479.401
        42.900
 111571295.829 7  86938678.88144  21231312.213    21231311.9814   21231306.0284
        44.500          27.8004
 143910646.510 6                  27385279.389
        38.600
 202032641.346 7                  38445548.063
        45.500
 120994021.586 7                  23024399.827
        45.800


 103231731.068 8  80291471.242 7  19325201.401    19325201.190    19325206.394
        48.500          46.600
 121287437.581 5  94334766.406 5  22697286.911    22697291.912    22697294.023
        32.900          32.900
 25  1  1 15 35 15.0000000  0 23E27E10E29G16G04G28G03G26R06G09E04R07
                                E21S35R05S31G31E06S33E19E11R16R15


 149260164.285 6                  28403262.814
        36.900


 107200863.354 8  83532957.48846  20399592.710    20399591.7714   20399593.5614
        48.200          36.4004
 112777012.248 7  87878195.32544  21460737.150    21460736.8114   21460736.9414
        42.500          24.9004


 109873892.452 7  85615986.79447  20908303.588    20908303.4724   20908305.9164
        46.000          46.0004
 106647222.921 8  83101748.00148  20294274.056    20294273.4394   20294277.9484
        49.200          49.5004
 102371865.101 7                  19184443.648    19184443.472
        42.200
 124354403.789 6  96899606.17043  23663866.791    23663866.5194   23663863.3394
        36.800          23.1004
 132500358.943 7                  25213962.648
        45.600
 116108832.826 7  90306830.005 6  21690086.640    21690085.109    21690092.397
        42.700          40.500
 125169322.307 7                  23818925.758
        45.500


 115964340.165 7  90194280.824 5  21693469.566    21693469.450    21693474.966
        43.000          33.000
 198905510.816 6                  37850476.740
        41.100
 111602402.074 7  86962917.48945  21237230.071    21237229.8124   21237226.3844
        46.100          30.2004
 143873922.343 6                  27378291.303
        37.800
 202032666.780 7                  38445555.593
        44.800
 120998180.386 7                  23025191.551
        45.800


 103251558.849 8  80306892.829 7  19328912.891    19328913.607    19328918.785
        50.300          47.800
                  94379901.160 5                                  22708154.906
                        32.700
 25  1  1 15 35 30.0000000  0 23E27E10E29G16G04G28G03G26R06G09E04R07
                                E21S35R05S31G31E06S33E19E11R16R15


 149295534.106 6                  28409993.333
        36.300


 107172236.673 8  83510651.03646  20394145.437    20394144.4984   20394145.5824
        48.100          36.0004
 112740742.062 7  87849932.79744  21453836.050    21453835.7554   21453835.2514
        44.100          26.1004
 122597537.802 5                  23329525.753
        30.700
 109893196.595 7  85631028.99347  20911975.383    20911975.2234   20911980.1014
        42.200          44.4004
 106660350.893 8  83111977.57748  20296771.533    20296770.9034   20296776.1494
        48.000          48.4004
 102361349.003 7                  19182472.587    19182472.484
        42.800
 124305579.403 4  96861561.21442  23654572.483    23654572.1304   23654572.4164
        28.200          17.7004
 132469973.936 7                  25208180.040
        44.200
 116054027.958 7  90264203.899 6  21679850.264    21679848.738    21679854.121
        43.800          41.000
 125171938.743 8                  23819424.291
        48.600


 116016528.552 7  90234871.653 6  21703232.040    21703233.949    21703242.224
        43.700          36.700
 198905508.825 7                  37850469.411
        42.600
 111633554.432 7  86987191.95245  21243158.125    21243157.8354   21243156.4764
        46.300          33.5004
 143837190.360 6                  27371301.125
        36.000
 202032689.169 7                  38445560.391
        46.300
 121002394.496 7                  23025993.519
        47.000


 103271525.435 8  80322422.358 7  19332650.667    19332651.919    19332656.730
        48.900          47.200
 121403597.874 5  94425048.130 5  22719019.821                    22719029.208
        31.500          34.400
 25  1  1 15 35 45.0000000  0 23E27E10E29G32G16G04G28G03G26R06G09E04
                                R07E21S35R05S31G31E06S33E19E11R16


 149330932.612 5                  28416728.577
        34.500
 135918675.649 5                  25864465.022
        35.500
 131630893.185 5                  25048525.645
        31.500
 107143760.066 8  83488461.54646  20388726.245    20388725.3154   20388726.2934
        49.900          36.6004
 112704525.549 7  87821712.11944  21446943.692    21446943.3934   21446944.0154
        42.100          25.2004
 122637043.534 6                  23337041.973
        36.600
 109912650.853 7  85646188.17447  20915679.840    20915679.6714   20915682.1844
        46.800          44.1004
 106673626.232 8  83122321.99747  20299297.978    20299297.3524   20299302.1604
        48.600          47.9004
 102351004.512 7                  19180533.990    19180533.835
        42.300
 124256768.709 4  96823526.95542  23645286.654    23645286.0874   23645282.6654
        29.300          16.0004
 132439610.605 7                  25202401.817
        45.700
 115999280.362 7  90221622.371 7  21669618.814    21669621.399    21669629.331
        44.000          43.400
 125174661.003 7                  23819941.454
        47.700


 116068817.424 6  90275540.739 7  21713013.515    21713013.155    21713028.083
        40.800          43.300
 198905510.840 6                  37850471.491
        40.400
 111664758.970 7  87011507.20945  21249096.397    21249096.1024   21249095.9404
        44.000          32.6004
 143800456.819 5                  27364311.541
        35.400
 202032716.195 7                  38445565.171
        43.800
 121006670.379 7                  23026807.334
        46.100


 103291636.300 8  80338064.136 7  19336415.783    19336416.694    19336421.443
        50.600          47.300
 25  1  1 15 36  0.0000000  0 24E27E10G27E29G32G16G04G28G03G26R06G09
                                E04R07E21S35R05S31G31E06S33E19E11R16
 141570230.760 4                  26939913.167
        28.200
 149366352.528 5                  28423468.450
        35.100


 135948767.281 5                  25870191.112
        31.800
 131677921.449 5 102606251.09041  25057478.017    25057477.4994   25057497.8624
        33.500          11.1004
 107115426.629 8  83466383.58146  20383334.666    20383333.7414   20383334.5814
        49.700          37.5004
 112668356.089 7  87793528.11744  21440061.944    21440061.6314   21440061.6514
        43.100          25.4004
 122676559.940 5                  23344560.221
        33.000
 109932248.274 7  85661458.89147  20919406.705    20919406.5314   20919411.8394
        47.000          46.0004
 106687041.801 8  83132775.68247  20301851.278    20301850.6524   20301854.4414
        48.000          47.8004
 102340825.096 6                  19178626.199    19178625.699
        41.800
 124207994.240 6  96785448.25642  23635996.386    23635995.5374   23635995.3424
        36.400          16.1004
 132409262.147 7                  25196626.553
        45.500
 115944583.381 7  90179080.254 6  21659403.399    21659405.897    21659409.777
        42.900          41.900
 125177482.139 7                  23820478.147
        47.300


 116121199.841 6  90316282.495 7  21722814.287    21722813.364    21722824.952
        41.100          42.300
 198905509.716 7                  37850475.278
        42.000
 111696008.521 7  87035857.45345  21255043.048    21255042.7764   21255042.0314
        45.500          31.0004
 143763714.883 5                  27357319.034
        30.200
 202032740.374 7                  38445565.748
        47.100
 121011001.233 7                  23027631.434
        46.700


 103311884.203 8  80353812.482 7  19340205.846    19340207.168    19340211.854
        49.000          47.500
 25  1  1 15 36 15.0000000  0 25E27E10G27E29G32G16G04G28G03G26R06G09
                                E04R07E21S35R05S31G31E06S33E19E11R16
                                R15


 149401801.441 4                  28430214.387
        29.400


 135978877.625 5                  25875918.732
        34.800
 131724990.714 5 102642928.35842  25066432.775    25066432.4804   25066456.5884
        31.600          13.2004
 107087244.682 8  83444423.63046  20377972.187    20377971.2664   20377972.6674
        49.700          38.5004
 112632241.854 7  87765387.15943  21433190.563    21433190.2504   21433189.8634
        42.200          23.5004
 122716095.159 6  95622838.69841  23352082.065    23352081.8514   23352077.3704
        38.100          11.3004
 109951996.418 8  85676847.03348  20923165.070    20923164.9274   20923169.9164
        48.600          48.1004
 106700605.330 7  83143344.67847  20304432.236    20304431.6024   20304435.0284
        47.300          47.2004
 102330818.665 7                  19176751.060    19176750.976
        42.300
 124159205.969 6  96747431.45543  23626715.227    23626714.5974   23626714.1004
        38.300          22.7004
 132378936.626 7                  25190856.311
        46.900
 115889945.315 6  90136584.119 7  21649198.748    21649196.105    21649203.527
        41.000          43.400
 125180409.883 7                  23821035.293
        46.700


 116173683.509 7  90357102.942 6  21732628.943    21732631.348    21732642.033
        42.600          40.000
 198905513.692 7                  37850478.337
        45.300
 111727310.714 7  87060248.84545  21260999.895    21260999.6144   21260999.7574
        45.900          32.1004
 143726972.705 4                  27350326.003
        27.900
 202032768.796 7                  38445577.477
        45.800
 121015394.945 7                  23028467.412
        43.700


 103332276.902 7  80369673.444 7  19344023.260    19344023.456    19344029.041
        47.800          46.300
 121577941.300 5                  22751654.348
        35.100
 25  1  1 15 36 30.0000000  0 25E27E10G27E29G32G16G04G28G03G26R06G09
                                E04R07E21S35R05S31G31E06S33E19E11R16
                                R15






 136009051.303 5                  25881662.151
        33.400


 107059203.207 8  83422573.16046  20372635.487    20372634.5664   20372636.7524
        49.300          37.4004
 112596171.815 7  87737280.65644  21426325.734    21426325.4174   21426325.6504
        42.100          26.8004
 122755637.571 5  95653650.83942  23359609.750    23359609.7904   23359606.7064
        33.800          13.2004
 109971883.834 8  85692343.73247  20926949.115    20926948.9724   20926954.5014
        48.300          47.3004
 106714305.305 8  83154019.99648  20307039.200    20307038.5704   20307042.2794
        49.400          50.0004
 102320974.258 7                  19174905.656    19174905.582
        42.200
 124110421.895 6  96709417.91743  23617430.518    23617430.0854   23617432.8764
        36.400          23.3004
 132348622.800 7                  25185087.663
        46.300
 115835355.051 7  90094125.055 6  21639000.543    21638999.375    21639006.206
        43.900          40.700
 125183432.884 7                  23821610.662
        47.100


 116226256.265 6  90397992.962 6  21742465.176    21742465.904    21742476.307
        37.400          40.400
 198905510.848 7                  37850479.539
        44.400
 111758654.298 7  87084672.38345  21266963.338    21266963.0394   21266963.6314
        44.700          31.0004
 143690218.954 5                  27343331.617
        32.300
 202032791.682 6                  38445573.399
        37.400
 121019840.347 7                  23029313.550
        42.000


 103352802.777 7  80385638.035 8  19347866.426    19347866.007    19347872.168
        47.000          48.200
 121635955.846 6                  22762510.096
        36.700
 25  1  1 15 36 45.0000000  0 24E27E10G27E29G32G16G04G28G03G26R06G09
                                E04R07E21S35R05S31G31E06S33E19E11R16






 136039269.964 6                  25887412.002
        36.900
 131819245.104 5 102716387.16842  25084365.928    25084365.6334   25084391.4564
        30.400          14.7004
 107031311.900 8  83400839.66846  20367328.032    20367327.1074   20367329.6784
        49.600          38.1004
 112560155.566 6  87709216.06743  21419471.613    21419471.2834   21419471.6764
        41.100          23.9004
 122795196.562 5  95684475.96041  23367137.151    23367137.2584   23367135.3584
        32.000           9.0004
 109991919.853 7  85707956.18047  20930761.128    20930760.9854   20930766.0454
        44.800          43.4004
 106728151.049 8  83164808.89248  20309673.620    20309672.9944   20309677.9974
        50.100          49.8004
 102311301.813 6                  19173094.619    19173093.949
        41.200
 124061651.563 6  96671415.10744  23608150.562    23608150.4424   23608152.9584
        40.600          25.2004
 132318330.358 8                  25179323.268
        48.500
 115780822.914 7  90051711.169 7  21628812.949    21628811.279    21628819.980
        44.100          44.600
 125186560.719 7                  23822205.502
        47.300


 116278928.351 6  90438959.949 5  21752317.196    21752316.920    21752325.642
        40.200          30.800
 198905511.265 7                  37850481.503
        44.200
 111790048.598 7  87109135.48444  21272939.106    21272938.8024   21272938.1664
        43.300          29.4004
 143653463.240 5                  27336339.415
        35.800
 202032817.236 7                  38445575.040
        44.300
 121024347.079 7                  23030171.099
        42.400


 103373470.699 8  80401713.037 7  19351735.448    19351735.767    19351741.450
        48.600          47.600
 25  1  1 15 37  0.0000000  0 25E27E10G27E29G32G16G04G28G03G26R06G09
                                E04R07E21S35R05S31G31E06S33E19E11R16
                                R15


 149508258.399 4                  28450477.167
        26.800


 136069526.800 5                  25893169.158
        33.600


 107003564.422 7  83379218.29246  20362047.718    20362046.7974   20362049.5904
        47.900          39.0004
 112524186.460 6  87681188.29643  21412626.222    21412625.9234   21412626.0784
        40.900          20.4004
 122834765.320 5  95715349.67642  23374668.037    23374668.1844   23374667.6864
        34.400          12.0004
 110012097.415 8  85723678.95647  20934601.444    20934601.3244   20934605.3134
        48.300          46.1004
 106742135.590 8  83175705.94348  20312334.486    20312333.8654   20312339.2794
        51.700          50.5004
 102301794.568 6                  19171310.308    19171309.508
        38.700
 124012888.376 6  96633417.93344  23598872.489    23598872.3604   23598877.7314
        38.300          24.0004
 132288052.646 8                  25173561.888
        48.600
 115726342.272 8  90009337.133 7  21618636.506    21618637.023    21618644.874
        48.900          44.900
 125189786.391 7                  23822818.855
        47.900
 200854968.853 5                  38221409.046
        33.100
 116331691.680 7  90479998.010 6  21762190.929    21762191.792    21762200.250
        46.700          37.600
 198905508.754 7                  37850478.797
        43.300
 111821486.626 7  87133632.71745  21278921.714    21278921.4154   21278921.0854
        45.700          34.1004
 143616698.705 6                  27329342.384
        36.500
 202032839.169 7                  38445585.128
        43.900
 121028908.448 7                  23031038.509
        44.200


 103394273.734 8  80417893.114 7  19355630.330    19355630.716    19355635.737
        49.800          47.300
 121752316.670 6                  22784266.272    22784265.740
        36.800
 25  1  1 15 37 15.0000000  0 25E27E10G27E29G32G16G04G28G03G26R06G09
                                E04R07E21S35R05S31G31E06S33E19E11R16
                                R15


 149543800.313 4                  28457240.503
        27.300


 136099831.353 5                  25898934.503
        34.700


 106975970.135 8  83357716.25546  20356796.890    20356795.9834   20356798.7034
        50.200          38.9004
 112488274.627 6  87653205.05343  21405792.753    21405792.4234   21405792.0844
        41.000          20.7004
 122874353.544 4  95746197.60241  23382201.403    23382201.4204   23382203.1304
        28.600           8.5004
 110032426.052 7  85739519.43147  20938468.552    20938468.4144   20938472.7484
        46.100          44.5004
 106756268.383 8  83186718.51248  20315024.031    20315023.4054   20315028.2264
        50.100          49.6004
 102292462.769 6                  19169562.688    19169561.698
        40.300
 123964142.407 6  96595433.96843  23589595.387    23589595.2714   23589598.6534
        40.600          19.5004
 132257799.353 8                  25167804.990
        48.400
 115671923.540 7  89967011.494 7  21608470.688    21608468.160    21608477.558
        43.700          45.300
 125193119.483 7                  23823453.697
        47.200


 116384556.150 7  90521114.629 5  21772081.327    21772080.986    21772093.035
        45.500          33.300
 198905511.313 7                  37850478.028
        43.700
 111852977.854 7  87158171.31445  21284913.612    21284913.3084   21284914.3394
        43.200          33.7004
 143579935.159 4                  27322344.124
        28.700
 202032867.262 7                  38445592.632
        44.300
 121033534.121 7                  23031918.958
        44.200


 103415221.240 7  80434185.630 8  19359549.040    19359549.082    19359557.627
        45.800          48.100
 121810484.314 5  94741470.241 5  22795163.358    22795164.287    22795149.357
        33.200          32.900
 25  1  1 15 37 30.0000000  0 25E27E10G27E29G32G16G04G28G03G26R06G09
                                E04R07E21S35R05S31G31E06S33E19E11R16
                                R15
 141796006.199 4                  26982881.963
        28.700




 136130175.465 5                  25904710.988
        30.000


 106948521.248 8  83336327.49546  20351573.408    20351572.5054   20351574.5964
        49.900          36.6004
 112452412.031 6  87625260.15443  21398967.595    21398967.2204   21398968.8894
        40.600          23.1004
 122913952.816 5  95777054.21041  23389738.280    23389738.1424   23389740.9224
        33.800          10.6004
 110052897.299 7  85755471.04147  20942365.128    20942365.0084   20942369.1764
        47.400          46.4004
 106770541.028 8  83197840.04948  20317740.591    20317739.9834   20317743.6594
        51.000          49.3004
 102283298.194 6                  19167845.810    19167846.219
        41.700
 123915405.497 6  96557457.16943  23580322.823    23580322.7124   23580323.2474
        38.900          21.7004
 132227562.377 7                  25162051.551
        47.000
 115617558.680 7  89924727.638 7  21598313.548    21598314.411    21598320.174
        44.600          42.300
 125196551.687 7                  23824106.855
        47.400


 116437513.261 8  90562303.386 5  21781986.658    21781988.067    21781996.856
        48.800          33.600
 198905511.524 7                  37850474.093
        43.300
 111884513.994 6  87182744.96144  21290914.798    21290914.5034   21290916.6744
        39.500          28.7004


 202032892.717 7                  38445597.045
        46.200
 121038216.016 7                  23032810.151
        43.800


 103436304.506 8  80450583.655 8  19363497.964    19363497.775    19363504.814
        48.900          48.600
 121868664.969 6  94786721.611 5  22806031.831    22806037.976    22806035.415
        36.900          35.300
